~VERSION INFORMATION
 VERS.                2.0:   CWLS LOG ASCII STANDARD - VERSION 2.0
 WRAP.                 NO:   ONE LINE PER DEPTH STEP
~WELL INFORMATION
#MNEM.UNIT      DATA TYPE    INFORMATION
#----------   ------------   ------------------------------
 STRT.F           25.0000:   START DEPTH
 STOP.F          832.0000:   STOP DEPTH
 STEP.F            0.5000:   STEP LENGTH
 NULL.          -999.2500:   NO VALUE
 COMP.          U.S. NAVY:   COMPANY
 WELL. RES 3 TEAPOT DOM #32-S-2:   WELL
 FLD .        TEAPOT DOME:   FIELD
 LOC .       S2 T38N R78W:   LOCATION
 CNTY.            NATRONA:   COUNTY
 STAT.            WYOMING:   STATE
 CTRY. UNITED STATES OF AMERICA:   COUNTRY
 SRVC. Schlumberger Well Surveying Corp:   SERVICE COMPANY
 DATE.        03-AUG-1959:   LOGDATE
 API .       490250646800:   API NUMBER
~CURVE INFORMATION
#MNEM.UNIT       API CODE    CURVE DESCRIPTION
#----------   ------------   ------------------------------
 DEPT.F                  :   
 SPR .MV     05 010 01 00:   SPONTANEOUS POTENTIAL FROM RES.
 ILD .OHMM   05 120 46 00:   INDUCTION LOG DEEP
 CILD.MMHO   05 110 46 00:   CONDUCTIVITY INDUCTION LOG DEEP
 ASN .OHMM   05 041 16 00:   AMPLIFIED SHORT NORMAL 16"
~PARAMETER INFORMATION
#MNEM.UNIT          VALUE    DESCRIPTION
#----------   ------------   ------------------------------
 LMF .                 KB:   LOG MEASURED FROM
 DMF .                 KB:   DRILLING MEASURED FROM
 EKB .F              5126:   KELLING BUSHING
 EGL .F              5122:   GROUND LEVEL
 DATE.           8-3-1959:   RUN DATE
 RUN .                  1:   RUN NUMBER
 DD  .F               840:   DEPTH DRILLER
 DL  .F               841:   DEPTH LOGGER
 BLI .F               835:   BOTTOM LOG INTERVAL
 TLI .F                17:   TOP LOG INTERVAL
 CBD .F                17:   CASING BOTTOM DRILLER
 CBL .F                17:   CASING BOTTOM LOGGER
 BS  .IN             6.75:   BIT SIZE
 BSD .F               840:   BIT SIZE AT DEPTH
 DFT .                GEL:   DRILLING FLUID TYPE
 DFD .                9.5:   DRILLING FLUID DENSITY
 DFV .                100:   DRILLING FLUID VISCOSITY
 DFPH.                9.5:   DRILLING FLUID PH
 DFL .                  4:   DRILLING FLUID LOSS
 RMS .OHMM              4:   RESISTIVITY MUD SAMPLE
 MST .F                73:   MUD SAMPLE TEMPERATURE
 RMF .OHMM            3.9:   RESISTIVITY MUD FILTRATE SAMPLE
 MFST.F                73:   MUD FILTRATE SAMPLE TEMPERATURE
 RMC .OHMM            4.1:   RESISTIVITY MUD CAKE
 MCST.F                73:   MUD CAKE SAMPLE TEMPERATURE
 RMB .OHMM              4:   RESISTIVITY MUD AT BHT
 BHT .F                73:   BOTTOM HOLE TEMPERATURE
 TCS .HRS               1:   TIME CURCULATED STOPPED
 LUN .               2523:   LOGGING UNIT NUMBER
 LUL .              CSPR.:   LOGGING UNIT LOCATION
 ENGI.             ATWOOD:   RECORDING ENGINEER
 WITN.             MARTIN:   WITNESSED BY
 CLNT.            A2DTECH:   CLIENT CODE
 ORIG.           5" PRINT:   ORIGIN OF DATA
 UWI .       490250646800:   UNIQUE WELL ID
 DICO. A2D Technologies, Inc.:   DIGITIZING COMPANY
~OTHER INFORMATION
~A   DEPT      SPR        ILD       CILD        ASN   
# ...
  536.0000   -84.7626     6.2200   158.3597     6.7192
  536.5000   -84.7991     6.3672   164.3435     6.8193
  537.0000   -84.8374     6.5890   162.2585     7.0474
  537.5000   -84.8742     6.8580   158.9201     7.3698
  538.0000   -84.9128     7.1245   151.8851     7.5098
  538.5000   -84.9484     7.3886   144.1180     7.6420
  539.0000   -84.9894     7.6544   137.2556     7.7554
  539.5000   -85.0206     7.7264   133.6366     7.8662
  540.0000   -85.0711     7.6923   132.3584     7.9149
  540.5000   -85.0132     7.6818   130.9116     7.8840
  541.0000   -84.8358     7.6555   130.9085     7.8620
  541.5000   -84.6755     7.6465   130.9034     7.8396
  542.0000   -84.5062     7.5910   130.9039     7.7964
  542.5000   -84.3418     7.4539   130.8991     7.7363
  543.0000   -84.1748     7.3228   132.7577     7.6428
  543.5000   -84.0091     7.1854   134.3347     7.4913
  544.0000   -83.8428     7.0556   135.9116     7.3429
  544.5000   -83.6767     6.9153   137.4886     7.1949
  545.0000   -83.5107     6.7954   139.0343     7.0954
  545.5000   -83.3444     6.6048   144.6095     6.9777
  546.0000   -83.1788     6.3601   150.2176     6.7623
  546.5000   -83.0118     6.1386   155.5101     6.5155
  547.0000   -82.8474     5.9068   166.1151     6.2444
  547.5000   -82.6776     5.6802   176.2616     5.9837
  548.0000   -82.5370     5.4503   185.1270     5.7347
  548.5000   -82.5073     5.2166   190.5341     5.4622
  549.0000   -82.4889     5.1388   195.8724     5.4709
  549.5000   -82.4691     5.0792   201.1725     5.4925
  550.0000   -82.4498     5.0339   206.2137     5.5998
  550.5000   -82.4302     5.2135   211.1270     6.0131
  551.0000   -82.4108     5.5556   199.3794     6.4611
  551.5000   -82.3913     6.0245   178.1323     6.7603
  552.0000   -82.3718     6.6019   163.3124     6.9968
  552.5000   -82.3522     6.9876   151.6629     7.1762
  553.0000   -82.3326     7.0895   144.1935     7.3168
  553.5000   -82.3130     7.2498   138.9503     7.4561
  554.0000   -82.2934     7.3855   136.3558     7.6090
  554.5000   -82.2738     7.5106   134.8015     7.7363
  555.0000   -82.2542     7.6010   133.1726     7.8217
  555.5000   -82.2346     7.6998   131.5482     7.9195
  556.0000   -82.2150     7.7945   129.9098     8.0153
  556.5000   -82.1954     7.8913   128.2559     8.1106
  557.0000   -82.1757     7.9875   126.5976     8.2057
  557.5000   -82.1568     8.0840   125.1201     8.3049
  558.0000   -82.1387     8.1803   124.0933     8.4343
  558.5000   -82.1204     8.2771   123.0299     8.5599
  559.0000   -82.1022     8.3732   121.9665     8.6076
  559.5000   -82.0840     8.4708   120.9031     8.6415
  560.0000   -82.0658     8.5654   119.8397     8.6737
  560.5000   -82.0476     8.6656   118.7762     8.7147
  561.0000   -82.0294     8.7556   117.7926     8.7644
  561.5000   -82.0111     8.8656   116.8887     8.8249
  562.0000   -81.9929     8.8593   115.9848     8.8639
  562.5000   -81.9747     8.7366   115.9316     8.8290
  563.0000   -81.9565     8.6339   116.7292     8.7569
  563.5000   -81.9383     8.5211   117.5267     8.6191
  564.0000   -81.9203     8.4139   118.3243     8.4831
  564.5000   -81.9019     8.3038   119.1218     8.3414
  565.0000   -81.8845     8.1954   119.9194     8.2471
  565.5000   -81.8650     8.0859   120.7170     8.1436
  566.0000   -81.8496     7.9774   122.6510     8.0637
  566.5000   -81.8266     7.8679   125.0722     7.9223
  567.0000   -81.8186     7.7608   127.4934     7.7403
  567.5000   -81.7217     7.6307   129.9145     7.5729
  568.0000   -81.5341     7.3133   132.3357     7.2447
  568.5000   -81.3643     6.9379   134.5148     6.9416
  569.0000   -81.1821     6.5737   142.6499     6.5560
  569.5000   -81.0128     6.2022   150.3832     6.0950
  570.0000   -80.8198     5.8384   161.1798     5.6363
  570.5000   -80.6530     5.4635   180.7643     5.1828
  571.0000   -80.5186     5.1075   202.3073     4.7337
  571.5000   -80.3644     4.7053   230.7802     4.2384
  572.0000   -80.2183     4.3584   262.4167     3.9785
  572.5000   -80.0683     4.0797   297.2169     3.6553
  573.0000   -79.9192     3.7653   319.2979     3.5397
  573.5000   -79.7719     3.4564   343.8324     3.4105
  574.0000   -79.6196     3.1594   368.3669     3.2986
  574.5000   -79.4773     2.8333   392.9013     3.1591
  575.0000   -79.3144     2.8870   408.3968     3.1991
  575.5000   -79.2713     3.2475   395.7422     3.4639
  576.0000   -79.3442     3.5427   365.5847     3.8458
  576.5000   -79.4025     3.8888   330.2504     4.2146
  577.0000   -79.4596     4.1648   297.7165     4.6094
  577.5000   -79.5325     4.5914   267.9829     5.0800
  578.0000   -79.5676     5.1110   238.2493     5.6196
  578.5000   -79.8621     5.5724   208.5157     6.0204
  579.0000   -79.8746     6.0401   183.1446     6.1584
  579.5000   -79.7439     6.3088   163.4396     6.2671
  580.0000   -79.6613     6.6127   157.5642     6.3208
  580.5000   -79.5539     6.6539   151.6889     6.3437
  581.0000   -79.4600     6.6418   151.6889     6.3909
  581.5000   -79.3591     6.6509   152.4189     6.4809
  582.0000   -79.2615     6.6395   154.8525     6.5565
  582.5000   -79.1619     6.6583   157.2861     6.6046
  583.0000   -79.0638     6.5187   161.5925     6.5434
  583.5000   -78.9637     6.2831   166.7015     6.2770
  584.0000   -78.8677     6.0843   171.8105     5.9402
  584.5000   -78.7639     5.8699   176.9195     5.6725
  585.0000   -78.6747     5.6634   181.5176     5.4884
  585.5000   -78.5570     5.4535   189.6527     5.4121
  586.0000   -78.6057     5.2425   202.0813     5.2898
  586.5000   -78.8203     5.0397   213.3801     5.0644
  587.0000   -79.0070     5.0529   221.2892     5.1075
  587.5000   -79.2071     5.1143   221.2892     5.3126
  588.0000   -79.4020     5.1533   217.6736     5.4597
  588.5000   -79.5919     5.2957   209.0600     5.5572
  589.0000   -79.5493     5.6100   199.4893     5.8615
  589.5000   -79.4620     5.9281   189.9186     6.1119
  590.0000   -79.3848     6.2476   180.3479     6.2581
  590.5000   -79.3024     6.5679   170.7771     6.6464
  591.0000   -79.2230     6.8838   161.2064     7.0230
  591.5000   -79.1419     7.2092   152.5928     7.3521
  592.0000   -79.0616     7.5163   145.1356     7.5192
  592.5000   -78.9810     7.8594   139.0343     7.6429
  593.0000   -78.9007     8.0126   135.7200     7.7066
  593.5000   -78.8204     8.0044   132.7070     7.7416
  594.0000   -78.7401     7.8768   131.5154     7.6918
  594.5000   -78.6599     7.7292   131.1046     7.6348
  595.0000   -78.5796     7.5679   132.0290     7.5193
  595.5000   -78.4993     7.3766   134.5793     7.3653
  596.0000   -78.4190     7.1937   137.8075     7.2268
  596.5000   -78.3387     7.0085   141.0358     7.0847
  597.0000   -78.2584     6.8106   144.2640     6.9495
  597.5000   -78.1781     6.5963   147.1694     6.7511
  598.0000   -78.0978     6.3856   156.0075     6.5325
  598.5000   -78.0175     6.1722   164.5521     6.2603
  599.0000   -77.9372     5.9616   174.2864     5.9628
  599.5000   -77.8569     5.7458   184.0207     5.7035
  600.0000   -77.7766     5.5567   190.7499     5.4593
  600.5000   -77.6963     5.4147   196.1912     5.3347
  601.0000   -77.6160     5.2964   201.6325     5.4154
  601.5000   -77.5357     5.1553   207.0738     5.5536
  602.0000   -77.4554     5.1178   210.4838     5.6823
  602.5000   -77.3751     5.2336   211.1656     5.9509
  603.0000   -77.2947     5.6397   203.3812     6.4752
  603.5000   -77.2145     6.1580   187.6461     6.9122
  604.0000   -77.1340     6.6446   168.3613     7.0905
  604.5000   -77.0602     7.1382   151.6889     7.2357
  605.0000   -76.9829     7.3227   143.6743     7.3874
  605.5000   -76.9110     7.3596   138.6356     7.4966
  606.0000   -76.8390     7.4159   137.4721     7.6161
  606.5000   -76.7669     7.4615   136.3086     7.7195
  607.0000   -76.6949     7.5129   135.1452     7.8038
  607.5000   -76.6229     7.5609   133.9817     7.8948
  608.0000   -76.5509     7.6107   132.8182     7.9654
  608.5000   -76.4789     7.6596   131.6547     8.0137
