~VERSION INFORMATION
 VERS.                2.0:   CWLS LOG ASCII STANDARD - VERSION 2.0
 WRAP.                 NO:   ONE LINE PER DEPTH STEP
~WELL INFORMATION
#MNEM.UNIT      DATA TYPE    INFORMATION
#----------   ------------   ------------------------------
 STRT.F           30.0000:   START DEPTH
 STOP.F          482.0000:   STOP DEPTH
 STEP.F            0.5000:   STEP LENGTH
 NULL.          -999.2500:   NO VALUE
 COMP. FENIX & SCISSON INC:   COMPANY
 WELL.        S 10 #72-10:   WELL
 FLD .             TEAPOT:   FIELD
 LOC .      S10 T38N R78W:   LOCATION
 CNTY.            NATRONA:   COUNTY
 STAT.            WYOMING:   STATE
 CTRY. UNITED STATES OF AMERICA:   COUNTRY
 SRVC.            Unknown:   SERVICE COMPANY
 DATE.        07-FEB-1978:   LOGDATE
 API .       490251056900:   API NUMBER
~CURVE INFORMATION
#MNEM.UNIT       API CODE    CURVE DESCRIPTION
#----------   ------------   ------------------------------
 DEPT.F                  :   
 CALD.IN     45 280 60 00:   CALIPER FROM DENSITY LOG
 CORR.G/C3   45 356 01 00:   DENSITY CORRECTION
 DPHI.DEC    45 890 12 00:   DENSITY POROSITY SANDSTONE
 GRD .GAPI   45 310 01 00:   GAMMA RAY FROM DENSITY LOG
 RHOB.G/C3   45 350 01 00:   BULK DENSITY
 SN  .OHMM   05 040 16 00:   SHORT NORMAL 16"
 SPR .MV     05 010 01 00:   SPONTANEOUS POTENTIAL FROM RES.
 ILD .OHMM   05 120 46 00:   INDUCTION LOG DEEP
~PARAMETER INFORMATION
#MNEM.UNIT          VALUE    DESCRIPTION
#----------   ------------   ------------------------------
 PD  .                 GL:   PERMANENT DATUM
 EPD .F              5174:   ELEVATION PERMANENT DATUM
 LMF .                 KB:   LOG MEASURED FROM
 DMF .                 KB:   DRILLING MEASURED FROM
 EKB .F              5177:   KELLING BUSHING
 EGL .F              5174:   GROUND LEVEL
 DATE.        07-FEB-1978:   RUN DATE
 RUN .                  1:   RUN NUMBER
 DD  .F               469:   DEPTH DRILLER
 DL  .F               482:   DEPTH LOGGER
 BLI .F               474:   BOTTOM LOG INTERVAL
 TLI .F                44:   TOP LOG INTERVAL
 CS  .IN            8.625:   CASING SIZE
 CBD .F                39:   CASING BOTTOM DRILLER
 CBL .F                42:   CASING BOTTOM LOGGER
 BS  .IN            7.875:   BIT SIZE
 BSD .F               469:   BIT SIZE AT DEPTH
 DFT .    LIGNO/SULF FULL:   DRILLING FLUID TYPE
 DFD .                8.7:   DRILLING FLUID DENSITY
 DFV .                 31:   DRILLING FLUID VISCOSITY
 DFPH.                  9:   DRILLING FLUID PH
 DFL .                4.8:   DRILLING FLUID LOSS
 MSS .           FLOWLINE:   MUD SAMPLE SOURCE
 RMS .OHMM             .9:   RESISTIVITY MUD SAMPLE
 MST .F                50:   MUD SAMPLE TEMPERATURE
 RMF .OHMM            .65:   RESISTIVITY MUD FILTRATE SAMPLE
 MFST.F                58:   MUD FILTRATE SAMPLE TEMPERATURE
 RMC .OHMM            1.2:   RESISTIVITY MUD CAKE
 MCST.F                58:   MUD CAKE SAMPLE TEMPERATURE
 MFSS.               MEAS:   MUD FILTRATE SAMPLE SOURCE
 RMB .OHMM            .55:   RESISTIVITY MUD AT BHT
 BHT .F                82:   BOTTOM HOLE TEMPERATURE
 TCS .HRS               3:   TIME CURCULATED STOPPED
 MRT .F                82:   MAXIMUM RECORDED TEMPERATURE
 LUN .               2958:   LOGGING UNIT NUMBER
 LUL .               CASP:   LOGGING UNIT LOCATION
 ENGI.            POINTER:   RECORDING ENGINEER
 WITN.         HARRINGTON:   WITNESSED BY
 CLNT.            A2DTECH:   CLIENT CODE
 ORIG.           5" PRINT:   ORIGIN OF DATA
 UWI .       490251056900:   UNIQUE WELL ID
 DICO. A2D Technologies, Inc.:   DIGITIZING COMPANY
~OTHER INFORMATION
~A   DEPT     CALD       CORR       DPHI         GRD      RHOB         SN        SPR        ILD   
# ...
  273.0000     8.0471    -0.0187     0.2102    92.3077     2.3505     8.4494   -33.9157     6.9103
  273.5000     8.0778    -0.0471     0.2430    94.3985     2.2904     7.7241   -34.2054     6.4948
  274.0000     8.0787    -0.0410     0.2493    96.0427     2.2121     6.9157   -34.1965     6.6341
  274.5000     8.1391     0.1881     0.2444    95.1572     2.2295     6.8700   -33.5906     6.7295
  275.0000     8.1995     0.5000     0.0952    92.4860     2.4041     6.9214   -32.9602     6.7791
  275.5000     8.4087     0.4956     0.0396    89.0708     2.6306     7.0698   -33.2746     6.7343
  276.0000     8.3203     0.2051     0.0724    85.0603     2.5253     8.1817   -33.5642     6.6450
  276.5000     8.2021     0.2218     0.0983    82.6867     2.5035     9.5342   -33.5551     7.1251
  277.0000     8.1583     0.2611     0.0934    80.9084     2.5253    10.3660   -32.9492     8.1886
  277.5000     8.2039     0.2916     0.0660    81.6598     2.5374    10.8134   -32.3408     9.2813
  278.0000     8.2345     0.3066     0.0684    84.9410     2.5382    11.1196   -31.8866    10.5929
  278.5000     8.2503     0.3068     0.0693    89.7103     2.5359    11.2796   -32.0403    11.2798
  279.0000     8.2661     0.3039     0.0653    87.9319     2.5375    11.3629   -32.6527    11.2065
  279.5000     8.2670     0.3091     0.0629    88.6833     2.5435    11.4467   -33.0541    10.8290
  280.0000     8.2222     0.3193     0.0620    88.5419     2.5526    11.6124   -32.2967    10.6842
  280.5000     8.1481     0.3119     0.0764    86.0195     2.5413    11.8614   -32.8849    10.6961
  281.0000     8.0889     0.2669     0.0882    80.3721     2.5256    12.1158   -33.1767    11.1552
  281.5000     8.0594     0.2429     0.1008    77.8497     2.4895    12.7237   -33.0164    11.7438
  282.0000     8.0633     0.2326     0.1270    71.8652     2.4601    13.5489   -32.5597    12.8178
  282.5000     8.1088     0.1966     0.1598    60.5283     2.4180    14.9366   -32.5509    13.9359
  283.0000     8.1543     0.1876     0.2007    48.7058     2.3411    16.5810   -32.8427    15.1516
  283.5000     8.1850     0.1999     0.2257    46.1834     2.3093    17.6562   -32.8316    16.7034
  284.0000     8.2751     0.2196     0.2353    42.7682     2.2792    18.9320   -32.8228    18.5424
  284.5000     8.3504     0.3372     0.1696    45.0077     2.3460    19.4726   -32.8139    20.8713
  285.0000     8.3660     0.4292     0.1573    50.5216     2.4175    19.8902   -32.8050    23.6562
  285.5000     8.2034     0.3390     0.1593    52.1659     2.3754    20.1764   -32.7961    24.3316
  286.0000     8.0999     0.2307     0.1816    56.4888     2.3423    20.0431   -31.8917    23.6732
  286.5000     8.1159     0.2565     0.1855    54.1152     2.3438    20.4751   -31.1366    24.0162
  287.0000     8.0721     0.2792     0.1722    54.8666     2.3694    21.8028   -30.8292    24.5312
  287.5000     7.9539     0.2854     0.1602    53.9811     2.3785    22.7386   -30.9718    25.5840
  288.0000     7.8655     0.1801     0.1791    52.0540     2.3371    23.7146   -31.2614    26.6821
  288.5000     7.9259     0.1712     0.1911    48.7881     2.3221    24.0557   -30.6533    27.0659
  289.0000     7.9864     0.1608     0.1857    47.9027     2.3364    24.4018   -30.1967    27.0770
  289.5000     8.0021     0.1384     0.1893    47.4618     2.3304    24.4119   -29.7401    27.2767
  290.0000     8.0030     0.1611     0.1872    51.7864     2.3433    24.2531   -29.7312    27.2879
  290.5000     8.0188     0.1869     0.1606    53.8772     2.3787    24.4320   -30.4686    27.2992
  291.0000     8.0197     0.0996     0.1700    53.2893     2.3486    25.1297   -30.9075    27.3296
  291.5000     8.0205     0.0666     0.1847    51.9574     2.3298    25.6764   -30.6000    27.3215
  292.0000     7.9917     0.0639     0.1883    50.9231     2.3329    26.2338   -30.1313    26.9563
  292.5000     8.0541     0.0929     0.1819    50.6310     2.3464    26.6181   -29.8358    26.9701
  293.0000     8.1454     0.1557     0.1616    51.6819     2.3841    26.9793   -29.6776    27.3581
  293.5000     8.1388     0.1667     0.1611    53.9214     2.3850    26.9905   -29.6687    27.7516
  294.0000     7.9599     0.1428     0.1725    54.9704     2.3759    27.1918   -29.6580    29.1441
  294.5000     7.9068     0.0887     0.1918    54.8290     2.3420    27.3924   -29.6491    29.9763
  295.0000     7.9079     0.0557     0.2107    54.2411     2.3217    27.5944   -29.9387    30.1973
  295.5000     7.9088     0.0318     0.2267    55.1419     2.2744    27.7979   -30.3776    29.7936
  296.0000     7.9394     0.0500     0.2252    55.6012     2.2639    27.8093   -30.5202    29.1921
  296.5000     7.9403     0.1451     0.2110    56.0605     2.3206    27.8208   -30.8099    28.9993
  297.0000     7.9412     0.1527     0.2013    56.5198     2.3625    27.8323   -30.5003    29.4194
  297.5000     7.8379     0.0655     0.1977    57.2991     2.3286    27.8438   -30.1929    30.2594
  298.0000     7.9578     0.0446     0.2073    57.8849     2.2978    27.8552   -29.7362    31.1234
  298.5000     8.0034     0.0658     0.2001    55.9315     2.3107    27.8667   -29.5781    31.5711
  299.0000     7.9447     0.0841     0.1964    54.3020     2.3175    27.8782   -29.5692    32.0252
  299.5000     7.9010     0.0932     0.1952    53.2677     2.3190    27.8897   -29.5604    32.7120
  300.0000     7.9167     0.0964     0.1948    54.1450     2.3266    27.9012   -29.2535    33.1825
  300.5000     7.8594     0.1013     0.1928    57.9058     2.3244    27.3080   -28.3486    33.4383
  301.0000     7.8289     0.1108     0.1867    58.6488     2.3345    26.7804   -28.3397    34.3928
  301.5000     7.8609     0.1472     0.1777    57.3183     2.3751    26.6220   -28.3309    34.8923
  302.0000     8.0605     0.1281     0.1674    57.5060     2.3641    26.4526   -28.4716    34.9115
  302.5000     8.0692     0.0667     0.1689    58.5266     2.3335    26.4677   -28.6119    33.7402
  303.0000     7.8914     0.0657     0.1884    56.1545     2.3288    26.2987   -29.6476    32.8351
  303.5000     8.1213     0.0710     0.1981    56.6448     2.3168    26.3168   -30.3851    32.1763
  304.0000     7.9276     0.0857     0.2014    58.1468     2.3172    25.7890   -30.6746    31.3135
  304.5000     8.1451     0.0828     0.2080    59.1800     2.2977    25.2719   -30.6657    30.6856
  305.0000     8.1151     0.1177     0.2052    59.9355     2.3000    24.7652   -30.6567    29.8557
  305.5000     8.0412     0.1766     0.1739    60.3934     2.3595    23.9342   -30.4985    29.2356
  306.0000     8.0746     0.1827     0.1654    60.9720     2.3693    23.2922   -30.4896    28.4785
  306.5000     8.1943     0.1829     0.1609    63.5107     2.3822    22.5107   -30.6303    27.8804
  307.0000     8.0165     0.1454     0.1636    64.5590     2.3770    22.0593   -30.9177    27.1257
  307.5000     8.0470     0.1425     0.1654    63.9727     2.3755    21.7644   -31.2095    26.2512
  308.0000     8.0773     0.1473     0.1666    66.3647     2.3695    21.1835   -31.1985    25.5470
  308.5000     7.9888     0.1534     0.1648    67.5619     2.3719    21.0487   -31.0403    24.8617
  309.0000     7.9897     0.1973     0.1551    66.3803     2.3900    20.9118   -30.7330    24.3631
  309.5000     7.9905     0.2185     0.1542    66.3914     2.3938    20.6351   -30.2763    23.8713
  310.0000     7.9912     0.2217     0.1557    67.5908     2.3946    20.3620   -30.2675    23.3958
  310.5000     7.9919     0.2143     0.1572    66.5558     2.3871    20.0954   -30.5593    23.0830
  311.0000     8.0076     0.1994     0.1644    68.5014     2.3766    20.1064   -31.1453    22.9361
  311.5000     8.0232     0.1981     0.1637    71.3377     2.3707    19.8377   -31.4371    22.9519
  312.0000     8.0388     0.2088     0.1613    71.7930     2.3812    19.7114   -31.4260    23.1243
  312.5000     8.0544     0.2270     0.1625    71.0578     2.3760    19.5882   -31.2679    23.2981
  313.0000     8.0700     0.2302     0.1619    69.1322     2.3791    19.5994   -31.2591    23.6365
