~VERSION INFORMATION
 VERS.                2.0:   CWLS LOG ASCII STANDARD - VERSION 2.0
 WRAP.                 NO:   ONE LINE PER DEPTH STEP
~WELL INFORMATION
#MNEM.UNIT      DATA TYPE    INFORMATION
#----------   ------------   ------------------------------
 STRT.F           42.0000:   START DEPTH
 STOP.F          866.0000:   STOP DEPTH
 STEP.F            0.5000:   STEP LENGTH
 NULL.          -999.2500:   NO VALUE
 COMP. FENIX & SCISSON INC:   COMPANY
 WELL.      NPR-SX #47-11:   WELL
 FLD .             TEAPOT:   FIELD
 LOC .      S11 T38N R78W:   LOCATION
 CNTY.            NATRONA:   COUNTY
 STAT.            WYOMING:   STATE
 CTRY. UNITED STATES OF AMERICA:   COUNTRY
 SRVC.            Unknown:   SERVICE COMPANY
 DATE.        25-FEB-1978:   LOGDATE
 API .       490251058700:   API NUMBER
~CURVE INFORMATION
#MNEM.UNIT       API CODE    CURVE DESCRIPTION
#----------   ------------   ------------------------------
 DEPT.F                  :   
 SPR .MV     07 010 01 00:   SPONTANEOUS POTENTIAL
 SN  .OHMM   07 040 16 00:   SHORT NORMAL 16'
 ILD .OHMM   07 120 46 00:   INDUCTION LOG DEEP
 CORR.G/C3   45 356 01 00:   DENSITY CORRECTION
 RHOB.G/C3   45 350 01 00:   BULK DENSITY
 DPHI.DEC    45 890 12 00:   DENSITY POROSITY SANDSTONE
 CALD.IN     45 280 60 00:   CALIPER FROM DENSITY LOG
 GRD .GAPI   45 310 01 00:   GAMMA RAY FROM DENSITY LOG
~PARAMETER INFORMATION
#MNEM.UNIT          VALUE    DESCRIPTION
#----------   ------------   ------------------------------
 PD  .                 GL:   PERMANENT DATUM
 EPD .F              5202:   ELEVATION PERMANENT DATUM
 LMF .                 KB:   LOG MEASURED FROM
 DAPD.F                 4:   FEET ABOVE PERMANENT DATUM
 DMF .                 KB:   DRILLING MEASURED FROM
 EKB .F              5206:   KELLING BUSHING
 EGL .F              5202:   GROUND LEVEL
 DATE.            2-25-78:   RUN DATE
 RUN .                  1:   RUN NUMBER
 DD  .F               870:   DEPTH DRILLER
 DL  .F               870:   DEPTH LOGGER
 BLI .F               865:   BOTTOM LOG INTERVAL
 TLI .F                47:   TOP LOG INTERVAL
 CS  .IN            8.625:   CASING SIZE
 CBD .F                40:   CASING BOTTOM DRILLER
 CBL .F                47:   CASING BOTTOM LOGGER
 BS  .IN            7.875:   BIT SIZE
 BSD .F               870:   BIT SIZE AT DEPTH
 DFT .                KCL:   DRILLING FLUID TYPE
 DFD .                8.7:   DRILLING FLUID DENSITY
 DFV .                 35:   DRILLING FLUID VISCOSITY
 DFL .                4.8:   DRILLING FLUID LOSS
 MSS .         CIRCULATED:   MUD SAMPLE SOURCE
 RMS .OHMM            1.5:   RESISTIVITY MUD SAMPLE
 MST .F                70:   MUD SAMPLE TEMPERATURE
 RMF .OHMM            .75:   RESISTIVITY MUD FILTRATE SAMPLE
 MFST.F                74:   MUD FILTRATE SAMPLE TEMPERATURE
 RMC .OHMM            1.8:   RESISTIVITY MUD CAKE
 MCST.F                68:   MUD CAKE SAMPLE TEMPERATURE
 MFSS.              PRESS:   MUD FILTRATE SAMPLE SOURCE
 RMB .OHMM            1.5:   RESISTIVITY MUD AT BHT
 BHT .F                70:   BOTTOM HOLE TEMPERATURE
 TCS .HRS               2:   TIME CURCULATED STOPPED
 MRT .F                70:   MAXIMUM RECORDED TEMPERATURE
 LUN .               2958:   LOGGING UNIT NUMBER
 LUL .               CASP:   LOGGING UNIT LOCATION
 CLNT.            A2DTECH:   CLIENT CODE
 ORIG.        2" 5" PRINT:   ORIGIN OF DATA
 UWI .       490251058700:   UNIQUE WELL ID
 DICO. A2D Technologies, Inc.:   DIGITIZING COMPANY
~OTHER INFORMATION
~A   DEPT      SPR         SN        ILD       CORR       RHOB       DPHI         CALD      GRD   
# ...
  447.0000   -21.9635     7.7948     7.1331     0.0139     2.4685     0.1251     8.6235   108.1164
  447.5000   -22.2523     7.6192     7.0407     0.0126     2.4520     0.1213     8.6229   106.5730
  448.0000   -22.5454     7.4482     6.8853     0.0152     2.4583     0.1174     8.6223   107.9359
  448.5000   -22.5389     7.2808     6.7923     0.0160     2.4600     0.1206     8.6218   109.0231
  449.0000   -22.4190     7.2301     6.8784     0.0152     2.4666     0.1264     8.6212   106.6103
  449.5000   -22.2972     7.2144     6.9487     0.0143     2.4618     0.1280     8.6207   104.6044
  450.0000   -22.2093     7.1988     7.0191     0.0134     2.4534     0.1150     8.6201   103.7467
  450.5000   -22.2112     7.1832     7.0616     0.0142     2.4531     0.1019     8.6195   105.1393
  451.0000   -22.2112     7.1720     7.0916     0.0343     2.4591     0.1054     8.6190   103.9869
  451.5000   -22.2111     7.3341     7.1218     0.0461     2.4800     0.1102     8.6184   102.2384
  452.0000   -22.2112     7.4239     7.1521     0.0393     2.4907     0.1149     8.6178    98.9149
  452.5000   -22.2112     7.5147     7.1825     0.0327     2.4816     0.1189     8.6173    97.4182
  453.0000   -22.2112     7.6068     7.2130     0.0306     2.4805     0.1189     8.6167    98.4926
  453.5000   -22.2113     7.6999     7.2437     0.0296     2.4804     0.1189     8.6161    99.8908
  454.0000   -22.2105     7.7944     7.2745     0.0325     2.4780     0.1193     8.6156   101.0355
  454.5000   -22.1860     7.7934     7.3057     0.0345     2.4759     0.1211     8.6150   100.1991
  455.0000   -22.1606     7.8011     7.2985     0.0350     2.4728     0.1231     8.6144    98.9254
  455.5000   -22.1354     7.8105     7.2862     0.0383     2.4650     0.1220     8.6139   101.9312
  456.0000   -22.1101     7.8199     7.2738     0.0417     2.4552     0.1235     8.6133    99.1798
  456.5000   -22.0848     7.8293     7.2616     0.0416     2.4459     0.1255     8.6128    97.7972
  457.0000   -22.0591     7.8387     7.2493     0.0405     2.4368     0.1301     8.6122    97.8972
  457.5000   -22.0338     7.8480     7.2371     0.0415     2.4347     0.1193     8.6116    96.2042
  458.0000   -22.0459     7.8574     7.2249     0.0684     2.4420     0.1223     8.6111    94.3539
  458.5000   -22.3382     7.8658     7.2127     0.0592     2.4709     0.1257     8.6105    92.7310
  459.0000   -22.6355     7.8210     7.2005     0.0377     2.4625     0.1311     8.6099    95.0344
  459.5000   -22.9332     7.7805     7.1883     0.0208     2.4488     0.1309     8.6094    94.1216
  460.0000   -23.1929     7.7401     7.1762     0.0196     2.4496     0.1307     8.6088    93.9239
  460.5000   -22.9016     7.6998     7.1641     0.0211     2.4506     0.1326     8.6082    95.2932
  461.0000   -22.5778     7.6597     7.1520     0.0229     2.4465     0.1329     8.6077    97.0207
  461.5000   -22.4172     7.6199     7.1398     0.0265     2.4411     0.1348     8.6071    96.3830
  462.0000   -22.4091     7.5807     7.1275     0.0380     2.4348     0.1372     8.6065    96.3409
  462.5000   -22.4097     7.5807     7.1152     0.0417     2.4334     0.1347     8.6060    96.7639
  463.0000   -22.4104     7.6612     7.1063     0.0435     2.4337     0.1249     8.6054    96.5991
  463.5000   -22.4104     7.7287     7.2668     0.0475     2.4397     0.1228     8.6048    95.4844
  464.0000   -22.4104     7.7968     7.4046     0.0472     2.4617     0.1265     8.6043    95.4034
  464.5000   -22.4104     7.8655     7.5451     0.0392     2.4629     0.1297     8.6037    92.7328
  465.0000   -22.4104     7.9391     7.6511     0.0285     2.4595     0.1292     8.6032    92.4461
  465.5000   -22.4104     8.0980     7.6929     0.0246     2.4350     0.1311     8.6026    93.1785
  466.0000   -22.4104     8.2652     7.8204     0.0227     2.4339     0.1284     8.6020    93.8620
  466.5000   -22.4104     8.4353     7.9499     0.0246     2.4318     0.1379     8.6015    96.2342
  467.0000   -22.4104     8.6083     8.0816     0.0324     2.4315     0.1231     8.6009    95.4825
  467.5000   -22.4104     8.7846     8.2141     0.0415     2.4567     0.1246     8.6003    99.8754
  468.0000   -22.4103     8.9646     8.3170     0.0383     2.4538     0.1250     8.5998    98.6516
  468.5000   -22.4104     9.1483     8.4258     0.0272     2.4491     0.1243     8.5992    96.5546
  469.0000   -22.4105     9.2891     8.5727     0.0160     2.4482     0.1289     8.5986    98.4997
  469.5000   -22.4088     9.3753     8.7218     0.0109     2.4475     0.1298     8.5981    99.3853
  470.0000   -22.5234     9.5612     8.8710     0.0049     2.4468     0.1284     8.5975    96.4046
  470.5000   -22.7017     9.7447     9.0207     0.0047     2.4474     0.1243     8.5969    94.2389
  471.0000   -22.8810     9.9136     9.1962     0.0091     2.4538     0.1208     8.5964    94.8483
  471.5000   -23.0586    10.0732     9.3249     0.0135     2.4607     0.1222     8.5958    95.0738
  472.0000   -23.2124    10.2353     9.4359     0.0072     2.4656     0.1256     8.5953    92.3522
  472.5000   -23.2074    10.4001     9.5465     0.0046     2.4564     0.1302     8.5947    93.7740
  473.0000   -23.2070    10.4744     9.6398     0.0032     2.4518     0.1349     8.5941    94.7299
  473.5000   -23.2072    10.4744     9.6388     0.0005     2.4446     0.1394     8.5935    96.7893
  474.0000   -23.2072    10.4744     9.6047    -0.0002     2.4335     0.1384     8.5930    99.2811
  474.5000   -23.2072    10.4377     9.5407     0.0003     2.4306     0.1361     8.5924    98.1778
  475.0000   -23.2072    10.3981     9.4773     0.0021     2.4330     0.1352     8.5919    92.4741
  475.5000   -23.2072    10.3209     9.4142     0.0035     2.4353     0.1361     8.5913    94.1015
  476.0000   -23.2072    10.2062     9.3515     0.0025     2.4331     0.1387     8.5907    92.1159
  476.5000   -23.2072    10.0928     9.2893     0.0015     2.4306     0.1413     8.5902    88.1012
  477.0000   -23.2072     9.9806     9.2274     0.0020     2.4318     0.1380     8.5896    89.8865
  477.5000   -23.2072     9.8697     9.1660     0.0030     2.4355     0.1387     8.5924    91.7872
  478.0000   -23.2072     9.7600     9.1191     0.0019     2.4337     0.1367     8.5994    91.9903
  478.5000   -23.2072     9.6516     9.0303    -0.0010     2.4316     0.1390     8.6064    91.9913
  479.0000   -23.2072     9.5443     8.9447    -0.0025     2.4398     0.1356     8.6134    90.9100
  479.5000   -23.2072     9.4382     8.8600     0.0007     2.4466     0.1387     8.6204    90.2646
  480.0000   -23.2072     9.3333     8.7758     0.0044     2.4448     0.1343     8.6275    91.6255
  480.5000   -23.2067     9.2037     8.7022     0.0046     2.4453     0.1362     8.6286    93.2535
  481.0000   -23.2060     9.2063     8.6765     0.0033     2.4407     0.1397     8.6280    94.3944
  481.5000   -23.2104     9.1542     8.6501     0.0020     2.4324     0.1432     8.6274    91.7048
  482.0000   -23.3281     9.1134     8.6239     0.0033     2.4241     0.1379     8.6267    92.5406
  482.5000   -23.7494     9.0720     8.5977     0.0070     2.4238     0.1429     8.6261    93.0247
  483.0000   -24.1568     9.0306     8.5716     0.0067     2.4302     0.1472     8.6255    94.3377
  483.5000   -24.5553     8.9891     8.5480     0.0037     2.4188     0.1478     8.6249    91.6783
  484.0000   -24.3533     8.9514     8.4555     0.0037     2.4096     0.1462     8.6242    91.2429
  484.5000   -24.2058     8.8315     8.3720     0.0168     2.4038     0.1431     8.6236    88.7823
  485.0000   -24.2039     8.7228     8.2894     0.0259     2.4149     0.1409     8.6230    86.7332
  485.5000   -24.2020     8.6149     8.2076     0.0357     2.4158     0.1492     8.6224    90.6039
  486.0000   -24.1069     8.5084     8.1265     0.0415     2.4227     0.1534     8.6217    89.9994
  486.5000   -23.8877     8.4031     8.0463     0.0442     2.4127     0.1468     8.6211    93.5997
  487.0000   -23.6691     8.2992     7.9668     0.0499     2.4071     0.1408     8.6205    91.5416
