~VERSION INFORMATION
 VERS.                2.0:   CWLS LOG ASCII STANDARD - VERSION 2.0
 WRAP.                 NO:   ONE LINE PER DEPTH STEP
~WELL INFORMATION
#MNEM.UNIT      DATA TYPE    INFORMATION
#----------   ------------   ------------------------------
 STRT.F          217.0000:   START DEPTH
 STOP.F         3170.0000:   STOP DEPTH
 STEP.F            0.5000:   STEP LENGTH
 NULL.          -999.2500:   NO VALUE
 COMP. FENIX & SCISSON INC:   COMPANY
 WELL.    51 TX 33 #51-33:   WELL
 FLD .             TEAPOT:   FIELD
 LOC .      S33 T39N R78W:   LOCATION
 CNTY.            NATRONA:   COUNTY
 STAT.            WYOMING:   STATE
 CTRY. UNITED STATES OF AMERICA:   COUNTRY
 SRVC.            Unknown:   SERVICE COMPANY
 DATE.        02-APR-1978:   LOGDATE
 API .       490251068600:   API NUMBER
~CURVE INFORMATION
#MNEM.UNIT       API CODE    CURVE DESCRIPTION
#----------   ------------   ------------------------------
 DEPT.F                  :   
 TGAS.UNITS  91 830 01 00:   TOTAL GAS FROM HOTWIRE
 ROP .MIN/FT 91 810 01 00:   RATE OF DRILLING PENETRATION
~PARAMETER INFORMATION
#MNEM.UNIT          VALUE    DESCRIPTION
#----------   ------------   ------------------------------
 DATE.         2-APR-1978:   RUN DATE
 RUN .                  1:   RUN NUMBER
 BLI .F              3150:   BOTTOM LOG INTERVAL
 TLI .F               250:   TOP LOG INTERVAL
 DFT .       CHEMICAL GEL:   DRILLING FLUID TYPE
 ENGI.            R. CABS:   RECORDING ENGINEER
 CLNT.            A2DTECH:   CLIENT CODE
 ORIG.           5" PRINT:   ORIGIN OF DATA
 UWI .       490251068600:   UNIQUE WELL ID
 DICO. A2D Technologies, Inc.:   DIGITIZING COMPANY
~OTHER INFORMATION
~A   DEPT       TGAS      ROP   
# ...
 1189.0000     2.3288     1.9948
 1189.5000     2.5036     1.9974
 1190.0000     2.5044     2.4727
 1190.5000     2.4794     2.4618
 1191.0000     2.4526     2.4545
 1191.5000     2.4259     2.4545
 1192.0000     2.4208     3.5636
 1192.5000     2.4219     3.5273
 1193.0000     2.4227     3.5273
 1193.5000     2.4235     3.5309
 1194.0000     2.4243     3.5455
 1194.5000     2.4252     1.9757
 1195.0000     2.4261     2.0000
 1195.5000     2.4270     2.0000
 1196.0000     2.4280     2.0035
 1196.5000     2.5158     2.0078
 1197.0000     2.5070     2.0121
 1197.5000     2.4925     2.0165
 1198.0000     2.4780     2.0208
 1198.5000     2.4634     2.0251
 1199.0000     2.4489     2.0295
 1199.5000     2.4339     2.0338
 1200.0000     2.4907     4.0235
 1200.5000     2.5493     4.0186
 1201.0000     2.6079     4.0137
 1201.5000     2.6664     4.0088
 1202.0000     2.6992     4.0040
 1202.5000     2.7000     2.2600
 1203.0000     2.7878     2.2495
 1203.5000     2.8068     2.2462
 1204.0000     3.0932     1.9848
 1204.5000     3.0991     1.9852
 1205.0000     3.1050     1.9855
 1205.5000     3.1109     1.9888
 1206.0000     3.0621     1.9928
 1206.5000     2.9417     1.9969
 1207.0000     2.8214     2.0010
 1207.5000     2.7858     2.0051
 1208.0000     2.9181     2.0092
 1208.5000     2.9740     2.0133
 1209.0000     2.9799     2.0173
 1209.5000     2.8988     2.0214
 1210.0000     2.8415     2.0255
 1210.5000     2.7783     3.1095
 1211.0000     2.6547     3.1171
 1211.5000     2.6621     3.1174
 1212.0000     2.6678     3.9361
 1212.5000     2.6739     3.9546
 1213.0000     2.6800     3.9731
 1213.5000     2.6861     3.9553
 1214.0000     2.6922     3.9738
 1214.5000     2.6990     1.9669
 1215.0000     2.6165     1.9564
 1215.5000     2.5355     1.9584
 1216.0000     2.5540     1.9630
 1216.5000     2.5857     1.9675
 1217.0000     2.6174     1.9721
 1217.5000     2.6490     1.9766
 1218.0000     2.7419     1.9812
 1218.5000     2.7470     1.9857
 1219.0000     2.7537     1.9903
 1219.5000     2.7009     1.9949
 1220.0000     2.6174     1.9994
 1220.5000     2.5974     2.0040
 1221.0000     2.6035     2.0085
 1221.5000     2.6096     2.0131
 1222.0000     2.6167     2.0087
 1222.5000     2.6226     1.9975
 1223.0000     2.5401     1.9962
 1223.5000     2.4591     1.9948
 1224.0000     2.4661     1.9935
 1224.5000     2.4722     1.9922
 1225.0000     2.3913     1.9909
 1225.5000     2.3103     1.9896
 1226.0000     2.3165     1.9883
 1226.5000     2.3226     1.9870
 1227.0000     2.3287     1.9856
 1227.5000     2.3359     1.9843
 1228.0000     2.3418     2.4713
 1228.5000     2.3477     2.4935
 1229.0000     2.3530     2.4938
 1229.5000     2.3591     3.0579
 1230.0000     2.3652     3.0583
 1230.5000     2.3713     3.0586
 1231.0000     2.3774     3.0590
 1231.5000     2.3551     3.0775
 1232.0000     2.3154     3.5688
 1232.5000     2.2758     3.5873
 1233.0000     2.2289     3.5877
 1233.5000     2.2348     3.5880
 1234.0000     2.1523     2.2612
 1234.5000     2.1314     2.2706
 1235.0000     2.1059     2.2837
 1235.5000     2.0836     2.2985
 1236.0000     2.0025     2.2153
 1236.5000     1.9215     1.9537
 1237.0000     1.8323     1.9542
 1237.5000     1.7609     1.9566
 1238.0000     1.7670     1.9620
 1238.5000     1.7742     1.9674
 1239.0000     1.8416     1.9728
 1239.5000     1.7736     1.9782
 1240.0000     1.7044     1.9836
 1240.5000     1.6234     1.9891
 1241.0000     1.5387     1.9935
 1241.5000     1.4513     1.9939
 1242.0000     1.2943     1.9941
 1242.5000     1.3002     1.9918
 1243.0000     1.3061     1.9899
 1243.5000     1.3122     1.9880
 1244.0000     1.3183     1.9861
 1244.5000     1.3243     1.9842
 1245.0000     1.3304     1.9822
 1245.5000     1.3376     1.9803
 1246.0000     1.3426     2.5608
 1246.5000     1.3487     2.5794
 1247.0000     1.3554     2.5615
 1247.5000     1.3613     2.5619
 1248.0000     1.3805     2.5622
 1248.5000     1.4061     2.5626
 1249.0000     1.4317     2.5685
 1249.5000     1.4574     2.5758
 1250.0000     1.4783     2.0000
 1250.5000     1.4851     1.9994
 1251.0000     1.5181     1.9989
 1251.5000     1.5510     1.9984
 1252.0000     1.5840     1.9978
 1252.5000     1.6243     1.9973
 1253.0000     1.6666     1.9967
 1253.5000     1.7089     1.9962
 1254.0000     1.7511     1.9956
 1254.5000     1.7934     1.9950
 1255.0000     1.8357     1.9945
 1255.5000     1.8779     1.9939
 1256.0000     1.9202     2.3026
 1256.5000     1.9625     2.2657
 1257.0000     1.9759     2.2469
 1257.5000     1.9738     2.2463
 1258.0000     1.9720     2.2458
 1258.5000     1.9703     2.2453
 1259.0000     1.9686     2.2374
 1259.5000     1.9670     2.2079
 1260.0000     1.9652     2.5346
 1260.5000     1.9635     2.5340
 1261.0000     1.9617     2.5335
 1261.5000     1.9600     2.5329
 1262.0000     1.9583     2.5686
 1262.5000     1.9565     2.0263
 1263.0000     1.9548     2.0040
 1263.5000     1.9530     1.9926
 1264.0000     1.9513     1.9847
 1264.5000     1.9496     1.9951
 1265.0000     1.9478     2.0097
 1265.5000     1.9461     2.0196
 1266.0000     1.9573     2.4917
 1266.5000     1.9684     2.5273
 1267.0000     1.9794     2.5268
 1267.5000     1.9905     2.5080
 1268.0000     2.0016     2.3439
 1268.5000     2.0126     2.1876
 1269.0000     2.0209     2.2048
 1269.5000     2.0191     2.2334
 1270.0000     2.0174     1.9781
 1270.5000     2.0156     1.9777
 1271.0000     2.0139     1.9771
 1271.5000     1.9252     1.9759
 1272.0000     1.8397     1.9743
 1272.5000     1.8443     1.9727
 1273.0000     1.8489     1.9711
 1273.5000     1.8535     1.9695
 1274.0000     1.8580     1.9679
 1274.5000     1.8626     1.9663
 1275.0000     1.8672     1.9647
 1275.5000     1.8718     1.9631
 1276.0000     1.8764     1.9615
 1276.5000     1.8810     1.9599
 1277.0000     1.8855     1.9583
 1277.5000     1.8901     1.9567
 1278.0000     1.8947     1.9551
 1278.5000     1.8993     1.9535
 1279.0000     1.9020     1.9519
 1279.5000     1.9115     1.9503
 1280.0000     1.9211     1.9497
 1280.5000     1.9306     1.9507
 1281.0000     1.9402     1.9517
 1281.5000     1.9497     1.9528
 1282.0000     1.9593     1.9538
 1282.5000     1.9688     1.9548
 1283.0000     1.9723     1.9558
 1283.5000     1.9701     1.9568
 1284.0000     1.9684     1.9578
 1284.5000     1.9761     1.9589
 1285.0000     1.9856     1.9599
 1285.5000     1.9951     1.9611
 1286.0000     2.0046     2.1609
 1286.5000     2.0140     2.1566
 1287.0000     2.0235     2.1415
 1287.5000     2.0330     2.1336
 1288.0000     2.0425     2.1222
 1288.5000     2.0520     2.1216
 1289.0000     2.0615     2.1211
 1289.5000     2.0710     2.1278
 1290.0000     2.0804     2.1382
 1290.5000     2.0899     2.1377
 1291.0000     2.0994     2.1371
 1291.5000     2.1089     2.1438
 1292.0000     2.1149     2.1542
 1292.5000     2.0258     2.0021
 1293.0000     1.9395     1.9894
 1293.5000     1.9440     1.9889
 1294.0000     1.9485     1.9883
 1294.5000     1.9530     1.9878
 1295.0000     1.9575     1.9891
 1295.5000     1.9620     1.9904
 1296.0000     1.9665     1.9916
 1296.5000     1.9710     1.9929
 1297.0000     1.9755     1.9942
 1297.5000     1.9800     1.9955
 1298.0000     1.9846     1.9968
 1298.5000     1.9891     1.9980
 1299.0000     1.9936     1.9993
 1299.5000     1.9981     2.1459
 1300.0000     2.0003     2.2000
 1300.5000     1.9113     2.2183
 1301.0000     1.9096     2.2216
 1301.5000     1.9078     2.2369
 1302.0000     1.9061     2.0189
 1302.5000     1.9043     2.0009
 1303.0000     1.9026     2.0011
 1303.5000     1.9009     2.2195
 1304.0000     1.8991     2.2015
 1304.5000     1.9089     2.1835
 1305.0000     1.9215     2.1655
 1305.5000     1.9341     2.1657
 1306.0000     1.9468     2.1476
 1306.5000     1.9594     2.1297
 1307.0000     1.9721     2.0207
 1307.5000     1.9847     2.0210
 1308.0000     1.9973     2.4939
 1308.5000     2.0100     2.4759
 1309.0000     2.0226     2.4760
 1309.5000     2.0352     2.4762
 1310.0000     2.0479     2.4764
