~VERSION INFORMATION
 VERS.                2.0:   CWLS LOG ASCII STANDARD - VERSION 2.0
 WRAP.                 NO:   ONE LINE PER DEPTH STEP
~WELL INFORMATION
#MNEM.UNIT      DATA TYPE    INFORMATION
#----------   ------------   ------------------------------
 STRT.F           42.0000:   START DEPTH
 STOP.F          866.0000:   STOP DEPTH
 STEP.F            0.5000:   STEP LENGTH
 NULL.          -999.2500:   NO VALUE
 COMP. FENIX & SCISSON INC:   COMPANY
 WELL.      NPR-SX #47-11:   WELL
 FLD .             TEAPOT:   FIELD
 LOC .      S11 T38N R78W:   LOCATION
 CNTY.            NATRONA:   COUNTY
 STAT.            WYOMING:   STATE
 CTRY. UNITED STATES OF AMERICA:   COUNTRY
 SRVC.            Unknown:   SERVICE COMPANY
 DATE.        25-FEB-1978:   LOGDATE
 API .       490251058700:   API NUMBER
~CURVE INFORMATION
#MNEM.UNIT       API CODE    CURVE DESCRIPTION
#----------   ------------   ------------------------------
 DEPT.F                  :   
 SPR .MV     07 010 01 00:   SPONTANEOUS POTENTIAL
 SN  .OHMM   07 040 16 00:   SHORT NORMAL 16'
 ILD .OHMM   07 120 46 00:   INDUCTION LOG DEEP
 CORR.G/C3   45 356 01 00:   DENSITY CORRECTION
 RHOB.G/C3   45 350 01 00:   BULK DENSITY
 DPHI.DEC    45 890 12 00:   DENSITY POROSITY SANDSTONE
 CALD.IN     45 280 60 00:   CALIPER FROM DENSITY LOG
 GRD .GAPI   45 310 01 00:   GAMMA RAY FROM DENSITY LOG
~PARAMETER INFORMATION
#MNEM.UNIT          VALUE    DESCRIPTION
#----------   ------------   ------------------------------
 PD  .                 GL:   PERMANENT DATUM
 EPD .F              5202:   ELEVATION PERMANENT DATUM
 LMF .                 KB:   LOG MEASURED FROM
 DAPD.F                 4:   FEET ABOVE PERMANENT DATUM
 DMF .                 KB:   DRILLING MEASURED FROM
 EKB .F              5206:   KELLING BUSHING
 EGL .F              5202:   GROUND LEVEL
 DATE.            2-25-78:   RUN DATE
 RUN .                  1:   RUN NUMBER
 DD  .F               870:   DEPTH DRILLER
 DL  .F               870:   DEPTH LOGGER
 BLI .F               865:   BOTTOM LOG INTERVAL
 TLI .F                47:   TOP LOG INTERVAL
 CS  .IN            8.625:   CASING SIZE
 CBD .F                40:   CASING BOTTOM DRILLER
 CBL .F                47:   CASING BOTTOM LOGGER
 BS  .IN            7.875:   BIT SIZE
 BSD .F               870:   BIT SIZE AT DEPTH
 DFT .                KCL:   DRILLING FLUID TYPE
 DFD .                8.7:   DRILLING FLUID DENSITY
 DFV .                 35:   DRILLING FLUID VISCOSITY
 DFL .                4.8:   DRILLING FLUID LOSS
 MSS .         CIRCULATED:   MUD SAMPLE SOURCE
 RMS .OHMM            1.5:   RESISTIVITY MUD SAMPLE
 MST .F                70:   MUD SAMPLE TEMPERATURE
 RMF .OHMM            .75:   RESISTIVITY MUD FILTRATE SAMPLE
 MFST.F                74:   MUD FILTRATE SAMPLE TEMPERATURE
 RMC .OHMM            1.8:   RESISTIVITY MUD CAKE
 MCST.F                68:   MUD CAKE SAMPLE TEMPERATURE
 MFSS.              PRESS:   MUD FILTRATE SAMPLE SOURCE
 RMB .OHMM            1.5:   RESISTIVITY MUD AT BHT
 BHT .F                70:   BOTTOM HOLE TEMPERATURE
 TCS .HRS               2:   TIME CURCULATED STOPPED
 MRT .F                70:   MAXIMUM RECORDED TEMPERATURE
 LUN .               2958:   LOGGING UNIT NUMBER
 LUL .               CASP:   LOGGING UNIT LOCATION
 CLNT.            A2DTECH:   CLIENT CODE
 ORIG.        2" 5" PRINT:   ORIGIN OF DATA
 UWI .       490251058700:   UNIQUE WELL ID
 DICO. A2D Technologies, Inc.:   DIGITIZING COMPANY
~OTHER INFORMATION
~A   DEPT      SPR         SN        ILD       CORR       RHOB       DPHI         CALD      GRD   
   42.0000  -999.2500  -999.2500  -999.2500  -999.2500  -999.2500  -999.2500     8.9464  -999.2500
   42.5000  -999.2500  -999.2500  -999.2500  -999.2500  -999.2500  -999.2500     9.4594  -999.2500
   43.0000  -999.2500  -999.2500  -999.2500  -999.2500  -999.2500  -999.2500     9.4500  -999.2500
   43.5000  -999.2500  -999.2500  -999.2500  -999.2500  -999.2500  -999.2500     9.4425  -999.2500
   44.0000  -999.2500  -999.2500  -999.2500  -999.2500  -999.2500  -999.2500     9.4419  -999.2500
   44.5000  -999.2500  -999.2500  -999.2500  -999.2500  -999.2500  -999.2500     9.4424  -999.2500
   45.0000  -999.2500  -999.2500  -999.2500  -999.2500  -999.2500  -999.2500     9.4424  -999.2500
   45.5000  -999.2500  -999.2500  -999.2500  -999.2500  -999.2500  -999.2500     9.4301  -999.2500
   46.0000  -999.2500  -999.2500  -999.2500  -999.2500  -999.2500  -999.2500     9.4094  -999.2500
   46.5000  -999.2500  -999.2500  -999.2500  -999.2500  -999.2500  -999.2500     9.3651  -999.2500
   47.0000    -9.3700     3.9079     1.5985  -999.2500  -999.2500  -999.2500     9.3102  -999.2500
   47.5000   -11.2515     4.8040     0.9933  -999.2500  -999.2500  -999.2500     9.2552  -999.2500
   48.0000   -13.3736     5.2549     1.9295  -999.2500  -999.2500  -999.2500     9.2002  -999.2500
   48.5000   -14.9043     5.5720     2.8682  -999.2500  -999.2500  -999.2500     9.1453    73.7271
   49.0000   -15.3958     5.8223     2.8094  -999.2500  -999.2500  -999.2500     9.0904    71.8452
   49.5000   -16.0449     5.9621    12.8348  -999.2500  -999.2500  -999.2500     9.0355    74.4809
   50.0000   -16.6170     6.0977     8.8214  -999.2500  -999.2500  -999.2500     8.9707    76.8863
   50.5000   -16.5227     6.2474     4.2619  -999.2500  -999.2500  -999.2500     8.8285    80.0263
   51.0000   -16.4338     6.4049     3.3937  -999.2500  -999.2500  -999.2500     8.6899    80.0409
   51.5000   -18.2122     6.3210     3.4133  -999.2500  -999.2500  -999.2500     8.6685    80.5983
   52.0000   -16.1258     6.2108     3.4723     0.0305     2.2635     0.2630     8.6683    75.1015
   52.5000   -15.2192     6.1203     3.5759     0.0275     2.2035     0.2121     8.6686    79.0480
   53.0000   -14.8477     6.0593     3.6826     0.0199     2.2446     0.2255     8.6686    77.0210
   53.5000   -15.1940     6.0454     3.7924     0.0145     2.2719     0.2016     8.6686    77.2136
   54.0000   -13.6769     6.0174     3.9056     0.0150     2.2926     0.1955     8.6686    78.0632
   54.5000   -13.9377     7.2990     4.0221     0.0060     2.3214     0.1982     8.6686    78.9741
   55.0000   -14.2508     6.5886     4.2242     0.0097     2.3144     0.1850     8.6686    78.4864
   55.5000   -14.2042     6.3931     4.4571     0.0107     2.3349     0.1747     8.6686    79.2986
   56.0000   -15.5526     6.1362     4.7029     0.0113     2.3490     0.1722     8.6686    82.0742
   56.5000   -17.2484     6.9703     4.9623     0.0094     2.3621     0.1527     8.6686    84.9640
   57.0000   -19.0141     7.4695     5.2047     0.0076     2.3723     0.1499     8.6686    87.8380
   57.5000   -19.2396     8.3529     5.2756     0.0082     2.3965     0.1386     8.6686    89.2671
   58.0000   -19.3852     9.0352     5.3475     0.0154     2.4206     0.1516     8.6686    90.3501
   58.5000   -19.4998     9.2053     5.4208     0.0216     2.4219     0.1705     8.6686    88.7549
   59.0000   -19.6155     9.3687     5.4865     0.0173     2.3942     0.1711     8.6686    91.2050
   59.5000   -19.7336     9.5501     5.4865     0.0118     2.3692     0.1716     8.6686    93.0140
   60.0000   -19.8482     9.3881     5.4444     0.0182     2.3681     0.1747     8.6686    92.3550
   60.5000   -19.9594     9.2129     5.3621     0.0251     2.3647     0.1693     8.6686    92.7165
   61.0000   -20.0932     8.9521     5.2810     0.0286     2.3658     0.1709     8.6686    92.8768
   61.5000   -20.4112     9.0352     5.2011     0.0238     2.3726     0.1729     8.6686    93.3353
   62.0000   -20.3414     8.8534     5.0957     0.0204     2.3688     0.1684     8.6686    93.6386
   62.5000   -20.2291     8.7074     5.1066     0.0203     2.3711     0.1639     8.6686    92.5809
   63.0000   -20.4628     8.4977     5.1233     0.0186     2.3816     0.1605     8.6686    91.5235
   63.5000   -20.7108     8.2380     5.1401     0.0169     2.3840     0.1591     8.6686    92.1010
   64.0000   -20.9576     7.8284     5.1569     0.0152     2.3885     0.1613     8.6686    93.7263
   64.5000   -21.2033     6.9760     5.1737     0.0101     2.3895     0.1648     8.6686    94.5776
   65.0000   -21.4146     7.0407     5.1907     0.0095     2.3826     0.1606     8.6686    94.4613
   65.5000   -21.4150     6.6978     5.2972     0.0136     2.3840     0.1602     8.6686    93.9728
   66.0000   -21.4141     6.5998     5.3965     0.0134     2.3912     0.1552     8.6692    97.3883
   66.5000   -21.4116     6.4774     5.4977     0.0158     2.3916     0.1552     8.6725    99.9017
   67.0000   -21.4182     6.5406     5.6008     0.0188     2.3964     0.1562     8.6758   102.0264
   67.5000   -22.0402     6.4775     5.7058     0.0199     2.3966     0.1553     8.6791    98.4001
   68.0000   -22.7452     6.5901     5.8128     0.0204     2.3936     0.1553     8.6824    99.4198
   68.5000   -23.3954     6.7431     5.9073     0.0178     2.3935     0.1587     8.6857   101.7715
   69.0000   -23.3400     6.8483     5.9286     0.0154     2.3914     0.1622     8.6888   100.4311
   69.5000   -23.2550     6.8045     5.9694     0.0155     2.3856     0.1648     8.6792    98.1361
   70.0000   -23.1728     6.7853     6.0105     0.0154     2.3803     0.1651     8.6670    95.3126
   70.5000   -23.0896     6.8320     6.0738     0.0115     2.3800     0.1671     8.6546    93.5027
   71.0000   -23.0017     6.8842     6.0492     0.0072     2.3797     0.1705     8.6422    95.4235
   71.5000   -23.1666     6.9118     5.9627     0.0056     2.3767     0.1690     8.6298    92.9009
   72.0000   -22.9214     6.5711     5.8774     0.0099     2.3731     0.1668     8.6176    94.1285
   72.5000   -22.7642     6.1996     5.7934     0.0145     2.3756     0.1629     8.6089    92.9401
   73.0000   -22.5917     6.0733     5.7108     0.0088     2.3794     0.1620     8.6091    94.6073
   73.5000   -22.4149     6.1118     5.6293     0.0018     2.3828     0.1612     8.6091    96.3734
   74.0000   -22.2390     6.1297     5.5490     0.0033     2.3862     0.1511     8.6091    92.6637
   74.5000   -22.0595     5.7965     5.4865     0.0039     2.3963     0.1504     8.6091    92.0570
   75.0000   -21.9520     5.6930     5.5021     0.0025     2.4102     0.1445     8.6091    89.8764
   75.5000   -21.8654     5.7316     5.5150     0.0035     2.4107     0.1387     8.6091    89.7114
   76.0000   -21.7801     5.7804     5.5280     0.0044     2.4176     0.1436     8.6091    91.6922
   76.5000   -21.6946     5.8295     5.5410    -0.0012     2.4251     0.1485     8.6091    90.9188
   77.0000   -21.6090     5.8791     5.5540    -0.0013     2.4130     0.1506     8.6092    89.7559
   77.5000   -21.5234     5.9291     5.5670     0.0043     2.4082     0.1591     8.6091    91.5275
   78.0000   -21.4376     5.9073     5.5805     0.0047     2.4016     0.1614     8.6022    94.1676
   78.5000   -21.3524     5.9621     5.5895     0.0000     2.3903     0.1669     8.5943    96.1014
   79.0000   -21.2684     5.8885     5.5033    -0.0010     2.3832     0.1711     8.5864    94.1435
   79.5000   -21.3352     5.7509     5.3868    -0.0047     2.3808     0.1781     8.5784    93.0039
   80.0000   -21.6472     5.6165     5.2728    -0.0083     2.3674     0.1719     8.5705    95.0130
   80.5000   -21.9508     5.4852     5.1615     0.0033     2.3551     0.1643     8.5694    97.1689
   81.0000   -22.1544     5.3570     5.0525     0.0058     2.3689     0.1631     8.5694    97.3991
   81.5000   -21.7139     5.1895     4.9108     0.0046     2.3792     0.1626     8.5694    95.2493
   82.0000   -21.2774     5.1914     4.9141     0.0074     2.3793     0.1601     8.5694    95.4192
