~VERSION INFORMATION
 VERS.                2.0:   CWLS LOG ASCII STANDARD - VERSION 2.0
 WRAP.                 NO:   ONE LINE PER DEPTH STEP
~WELL INFORMATION
#MNEM.UNIT      DATA TYPE    INFORMATION
#----------   ------------   ------------------------------
 STRT.F           42.0000:   START DEPTH
 STOP.F          533.0000:   STOP DEPTH
 STEP.F            0.5000:   STEP LENGTH
 NULL.          -999.2500:   NO VALUE
 COMP.    FENIX & SCISSON:   COMPANY
 WELL.      NPR-3 #38S3-3:   WELL
 FLD .             TEAPOT:   FIELD
 LOC .       S3 T38N R78W:   LOCATION
 CNTY.            NATRONA:   COUNTY
 STAT.            WYOMING:   STATE
 CTRY. UNITED STATES OF AMERICA:   COUNTRY
 SRVC.           BIRDWELL:   SERVICE COMPANY
 DATE.        29-JUN-1978:   LOGDATE
 API .       490251066300:   API NUMBER
~CURVE INFORMATION
#MNEM.UNIT       API CODE    CURVE DESCRIPTION
#----------   ------------   ------------------------------
 DEPT.F                  :   
 ILD .OHMM   05 120 46 00:   INDUCTION LOG DEEP
 SN  .OHMM   05 040 16 00:   SHORT NORMAL 16"
 SPR .MV     05 010 01 00:   SPONTANEOUS POTENTIAL FROM RES.
 CALD.IN     45 280 60 00:   CALIPER FROM DENSITY LOG
 CORR.G/C3   45 356 01 00:   DENSITY CORRECTION
 DPHI.DEC    45 890 12 00:   DENSITY POROSITY SANDSTONE
 GRD .GAPI   45 310 01 00:   GAMMA RAY FROM DENSITY LOG
 RHOB.G/C3   45 350 01 00:   BULK DENSITY
~PARAMETER INFORMATION
#MNEM.UNIT          VALUE    DESCRIPTION
#----------   ------------   ------------------------------
 PD  .                 GL:   PERMANENT DATUM
 EPD .F              5238:   ELEVATION PERMANENT DATUM
 LMF .                 KB:   LOG MEASURED FROM
 DAPD.F                 4:   FEET ABOVE PERMANENT DATUM
 DMF .                 KB:   DRILLING MEASURED FROM
 EKB .F              5242:   KELLING BUSHING
 EGL .F              5238:   GROUND LEVEL
 DATE.        29-JUN-1978:   RUN DATE
 RUN .                  1:   RUN NUMBER
 DD  .F               530:   DEPTH DRILLER
 DL  .F               540:   DEPTH LOGGER
 BLI .F               533:   BOTTOM LOG INTERVAL
 TLI .F                40:   TOP LOG INTERVAL
 CS  .IN            8.625:   CASING SIZE
 CBD .F                40:   CASING BOTTOM DRILLER
 BS  .IN            7.875:   BIT SIZE
 BSD .F               530:   BIT SIZE AT DEPTH
 DFT .                KCL:   DRILLING FLUID TYPE
 DFD .                8.7:   DRILLING FLUID DENSITY
 DFV .                 34:   DRILLING FLUID VISCOSITY
 DFPH.                9.5:   DRILLING FLUID PH
 MSS .           FLOWLINE:   MUD SAMPLE SOURCE
 RMS .OHMM            0.2:   RESISTIVITY MUD SAMPLE
 MST .F                82:   MUD SAMPLE TEMPERATURE
 RMF .OHMM           0.18:   RESISTIVITY MUD FILTRATE SAMPLE
 MFST.F                82:   MUD FILTRATE SAMPLE TEMPERATURE
 RMC .OHMM           0.14:   RESISTIVITY MUD CAKE
 MCST.F                82:   MUD CAKE SAMPLE TEMPERATURE
 MFSS.               MEAS:   MUD FILTRATE SAMPLE SOURCE
 TCS .HRS               1:   TIME CURCULATED STOPPED
 LUN .               2958:   LOGGING UNIT NUMBER
 LUL .             CASPER:   LOGGING UNIT LOCATION
 ENGI.             MILLER:   RECORDING ENGINEER
 WITN.         ZARGARNIAN:   WITNESSED BY
 CLNT.            A2DTECH:   CLIENT CODE
 ORIG.           5" PRINT:   ORIGIN OF DATA
 UWI .       490251066300:   UNIQUE WELL ID
 DICO. A2D Technologies, Inc.:   DIGITIZING COMPANY
~OTHER INFORMATION
~A   DEPT      ILD         SN        SPR       CALD       CORR       DPHI         GRD      RHOB   
# ...
  406.5000    13.4126    12.4950    -8.0816     7.6385     0.0203     0.1730    69.3944     2.4099
  407.0000    13.5064    12.4942    -8.5292     7.6666     0.0203     0.1733    65.3412     2.4062
  407.5000    13.6008    12.4934    -8.9775     7.6965     0.0172     0.1640    63.3811     2.4105
  408.0000    13.6017    12.3213    -9.2755     7.7114     0.0112     0.1265    62.7710     2.4460
  408.5000    13.6028    12.3203    -9.4230     7.7263     0.0052     0.1274    61.4125     2.4798
  409.0000    13.5099    12.3195    -9.5699     7.7561     0.0037     0.1313    58.9999     2.4865
  409.5000    13.4178    12.2339    -9.4807     7.7561     0.0036     0.1346    58.0605     2.4670
  410.0000    13.4189    12.1489    -9.5639     7.7560     0.0051     0.1384    59.1314     2.4596
  410.5000    13.1449    12.1479    -9.5118     7.7709     0.0080     0.1478    60.0370     2.4573
  411.0000    12.8762    11.8981    -9.4075     7.7708     0.0110     0.1610    60.3065     2.4506
  411.5000    12.5263    11.8155    -9.2541     7.7707     0.0139     0.1706    61.1906     2.4259
  412.0000    12.1021    11.6527    -9.2507     7.7707     0.0153     0.1754    62.5267     2.4116
  412.5000    11.9275    11.4920    -9.2481     7.7706     0.0168     0.1793    65.3569     2.4012
  413.0000    11.7317    11.4912    -9.0947     7.7705     0.0167     0.1808    68.4894     2.4012
  413.5000    11.6503    11.3329    -8.9412     7.7704     0.0167     0.1793    70.1277     2.4042
  414.0000    11.4897    11.3322    -8.9379     7.7704     0.0167     0.1676    61.1316     2.4102
  414.5000    11.4098    11.3313    -8.9351     7.7703     0.0151     0.1691    57.0756     2.4171
  415.0000    11.3305    11.3305    -8.9323     7.7702     0.0136     0.1751    55.5674     2.4133
  415.5000    11.1744    11.2518    -8.9293     7.7734     0.0061     0.1754    55.7058     2.4081
  416.0000    11.1737    11.1737    -8.9259     7.7850     0.0120     0.1727    59.2874     2.4111
  416.5000    11.1619    11.1728    -9.0735     7.7850     0.0149     0.1631    65.7105     2.4201
  417.0000    11.0952    11.0188    -9.2211     7.7999     0.0164     0.1613    66.1511     2.4294
  417.5000    11.0181    10.9235    -9.5388     7.7848     0.0163     0.1607    64.0413     2.4329
  418.0000    11.0174    10.8663    -9.8165     7.7698     0.0148     0.1610    61.1697     2.4299
  418.5000    10.8656    10.7907    -9.9639     7.7547     0.0148     0.1466    58.7764     2.4374
  419.0000    10.7157    10.7157   -10.1112     7.7546     0.0147     0.1444    57.8698     2.4517
  419.5000    10.7150    10.7150   -10.1083     7.7478     0.0132     0.1485    62.7959     2.4480
  420.0000    10.7143    10.6406   -10.4063     7.7245     0.0131     0.1558    64.4511     2.4405
  420.5000    10.6399    10.5666   -10.5532     7.7095     0.0107     0.1573    64.7195     2.4383
  421.0000    10.5658    10.4210   -10.7008     7.7094     0.0101     0.1456    65.0048     2.4391
  421.5000    10.4924    10.4203   -11.0155     7.7093     0.0085     0.1450    65.8946     2.4474
  422.0000    10.3479    10.4196   -11.2966     7.7093     0.0081     0.1513    63.5709     2.4496
  422.5000    10.2760    10.4188   -11.4434     7.7092     0.0069     0.1552    61.2258     2.4436
  423.0000    10.2752    10.4904   -11.5910     7.7091     0.0054     0.1429    61.6636     2.4406
  423.5000    10.4175    10.5624   -11.5874     7.7090     0.0068     0.1426    63.5985     2.4482
  424.0000    10.4890    10.5616   -11.4342     7.7090     0.0068     0.1504    65.1277     2.4564
  424.5000    10.5608    10.5607   -11.4316     7.7146     0.0072     0.1561    65.3724     2.4370
  425.0000    10.6333    10.5600   -11.2782     7.7238     0.0097     0.1567    63.5619     2.4355
  425.5000    10.7063    10.6327   -11.1243     7.7255     0.0101     0.1540    62.9411     2.4408
  426.0000    10.7054    10.6318   -10.9333     7.7386     0.0111     0.1519    71.0217     2.4430
  426.5000    10.7047    10.7048   -10.6677     7.7439     0.0126     0.1510    70.1122     2.4431
  427.0000    10.7040    10.7039   -10.6647     7.7534     0.0125     0.1507    66.9573     2.4438
  427.5000    10.7031    10.7032   -10.6611     7.7534     0.0110     0.1501    64.5508     2.4461
  428.0000    10.5557    10.7025   -10.6586     7.7683     0.0104     0.1498    62.2941     2.4491
  428.5000    10.6283    10.7016   -10.6556     7.7682     0.0094     0.1492    65.5734     2.4506
  429.0000    10.7010    10.6273   -10.6526     7.7531     0.0093     0.1501    69.3047     2.4507
  429.5000    10.7003    10.6266   -10.7995     7.7381     0.0108     0.1525    72.1408     2.4507
  430.0000    10.6995    10.5528   -10.7967     7.7231     0.0111     0.1609    68.3812     2.4477
  430.5000    10.6988    10.2645   -10.9699     7.7080     0.0122     0.1618    63.2801     2.4297
  431.0000    10.6976    10.1933   -11.0977     7.6930     0.0114     0.1582    62.8198     2.4320
  431.5000    10.6236    10.1225   -11.2393     7.6546     0.0106     0.1546    64.1975     2.4418
  432.0000    10.6967    10.0522   -11.2361     7.6180     0.0109     0.1498    68.6328     2.4508
  432.5000    10.6958     9.9822   -11.2329     7.6029     0.0120     0.1441    69.9688     2.4561
  433.0000    10.6951    10.0509   -11.2301     7.6028     0.0105     0.1420    70.2570     2.4591
  433.5000    10.7683    10.0500   -11.2266     7.5878     0.0089     0.1426    69.6208     2.4599
  434.0000    10.8422    10.1190   -11.2237     7.6027     0.0089     0.1444    68.5850     2.4569
  434.5000    10.8415    10.2589   -11.3720     7.6026     0.0089     0.1501    69.1725     2.4502
  435.0000    10.9916    10.4008   -11.2180     7.6175     0.0103     0.1561    69.9098     2.4419
  435.5000    11.0775    10.6178   -11.0642     7.6324     0.0103     0.1603    69.6727     2.4375
  436.0000    11.2979    10.9144   -10.6102     7.6174     0.0103     0.1623    64.9472     2.4311
  436.5000    11.6133    11.5333    -9.8555     7.6023     0.0117     0.1646    65.6816     2.4203
  437.0000    11.9377    11.9376    -8.6256     7.5723     0.0116     0.1773    66.2692     2.4150
  437.5000    12.2783    12.2711    -6.9920     7.5273     0.0131     0.1902    66.2551     2.3820
  438.0000    12.6140    12.4409    -6.0869     7.4823     0.0130     0.2296    64.5972     2.3535
  438.5000    13.0560    12.6131    -5.1818     7.4673     0.0145     0.2791    61.4422     2.3056
  439.0000    13.7016    12.6121    -4.5493     7.4672     0.0144     0.2769    54.3951     2.2501
  439.5000    13.8912    12.6113    -3.8221     7.4821     0.0144     0.2659    50.6385     2.2561
  440.0000    13.8901    12.6104    -3.6689     7.4820     0.0150     0.2571    51.8248     2.2764
  440.5000    13.7936    12.6094    -3.8165     7.4985     0.0166     0.2466    54.9573     2.2937
  441.0000    13.6978    12.7839    -3.8135     7.5268     0.0172     0.2427    57.4910     2.3042
  441.5000    13.4161    12.7831    -3.8103     7.5417     0.0187     0.2382    59.5727     2.3049
  442.0000    13.4150    12.8708    -3.9579     7.5566     0.0207     0.2238    60.4597     2.3102
  442.5000    13.4141    13.1393    -4.4062     7.5715     0.0231     0.2061    61.1969     2.3440
  443.0000    13.5064    13.1383    -4.5537     7.5864     0.0260     0.2046    61.4851     2.3628
  443.5000    13.5989    13.1373    -4.8516     7.6013     0.0304     0.2049    61.1716     2.3598
  444.0000    13.7871    13.1365    -4.8481     7.6162     0.0319     0.2046    58.1664     2.3568
  444.5000    14.0745    13.1356    -4.9956     7.6311     0.0363     0.1926    52.6162     2.3651
  445.0000    14.1713    13.0442    -5.1432     7.6460     0.0378     0.1788    50.6589     2.3824
  445.5000    14.5669    12.9536    -5.1397     7.6609     0.0317     0.1620    53.0400     2.4035
  446.0000    14.8708    12.8636    -5.1368     7.6608     0.0183     0.1371    55.4268     2.4754
  446.5000    15.0766    12.7743    -4.9829     7.6607     0.0048     0.1524    51.3708     2.4740
