~VERSION INFORMATION
 VERS.                2.0:   CWLS LOG ASCII STANDARD - VERSION 2.0
 WRAP.                 NO:   ONE LINE PER DEPTH STEP
~WELL INFORMATION
#MNEM.UNIT      DATA TYPE    INFORMATION
#----------   ------------   ------------------------------
 STRT.F           34.0000:   START DEPTH
 STOP.F          614.0000:   STOP DEPTH
 STEP.F            0.5000:   STEP LENGTH
 NULL.          -999.2500:   NO VALUE
 COMP. FENIX & SCISSON INC:   COMPANY
 WELL.      71-SX-3 #71-3:   WELL
 FLD .             TEAPOT:   FIELD
 LOC .       S3 T38N R78W:   LOCATION
 CNTY.            NATRONA:   COUNTY
 STAT.            WYOMING:   STATE
 CTRY. UNITED STATES OF AMERICA:   COUNTRY
 SRVC.              Welex:   SERVICE COMPANY
 DATE.        10-MAR-1977:   LOGDATE
 API .       490251028900:   API NUMBER
~CURVE INFORMATION
#MNEM.UNIT       API CODE    CURVE DESCRIPTION
#----------   ------------   ------------------------------
 DEPT.F                  :   
 CALD.IN     45 280 60 00:   CALIPER
 GRD .GAPI   45 310 01 00:   GAMMA RAY FROM DENSITY LOG
 RHOB.G/C3   45 350 01 00:   BULK DENSITY
 DPHI.DEC    45 890 12 00:   DENSITY POROSITY SANDSTONE
 CORR.G/C3   45 356 01 00:   DENSITY CORRECTION
 SGRD.OHMM   07 220 05 00:   SHALLOW RESISTIVITY
 ILD .OHMM   07 120 46 00:   INDUCTION LOG DEEP
 ILM .OHMM   07 120 44 00:   INDUCTION LOG MEDIUM
 SPR .MV     07 010 01 00:   SPONTANEOUS POTENTIAL
~PARAMETER INFORMATION
#MNEM.UNIT          VALUE    DESCRIPTION
#----------   ------------   ------------------------------
 PD  .                 GL:   PERMANENT DATUM
 EPD .F              5117:   ELEVATION PERMANENT DATUM
 LMF .                 GL:   LOG MEASURED FROM
 DMF .                 GL:   DRILLING MEASURED FROM
 EGL .F              5117:   GROUND LEVEL
 DATE.          3-10-1977:   RUN DATE
 RUN .                  1:   RUN NUMBER
 DD  .F               630:   DEPTH DRILLER
 DL  .F               619:   DEPTH LOGGER
 BLI .F               617:   BOTTOM LOG INTERVAL
 TLI .F                34:   TOP LOG INTERVAL
 CS  .IN            8.625:   CASING SIZE
 CBD .F                40:   CASING BOTTOM DRILLER
 CBL .F                41:   CASING BOTTOM LOGGER
 BS  .IN            7.875:   BIT SIZE
 BSD .F               630:   BIT SIZE AT DEPTH
 DFT .            KCL MUD:   DRILLING FLUID TYPE
 DFD .                  9:   DRILLING FLUID DENSITY
 DFV .                 33:   DRILLING FLUID VISCOSITY
 MSS .            MUD PIT:   MUD SAMPLE SOURCE
 RMS .OHMM           2.33:   RESISTIVITY MUD SAMPLE
 MST .F                57:   MUD SAMPLE TEMPERATURE
 RMF .OHMM           1.83:   RESISTIVITY MUD FILTRATE SAMPLE
 MFST.F                57:   MUD FILTRATE SAMPLE TEMPERATURE
 RMC .OHMM           2.53:   RESISTIVITY MUD CAKE
 MCST.F                57:   MUD CAKE SAMPLE TEMPERATURE
 MFSS.           FANN KIT:   MUD FILTRATE SAMPLE SOURCE
 MCSS.           FANN KIT:   MUD CAKE SAMPLE SOURCE
 RMB .OHMM            2.1:   RESISTIVITY MUD AT BHT
 BHT .F                63:   BOTTOM HOLE TEMPERATURE
 TCS .HRS             1.5:   TIME CURCULATED STOPPED
 MRT .F                63:   MAXIMUM RECORDED TEMPERATURE
 LUN .               8611:   LOGGING UNIT NUMBER
 LUL .           GILLETTE:   LOGGING UNIT LOCATION
 ENGI.               DOAK:   RECORDING ENGINEER
 WITN.              BURKE:   WITNESSED BY
 CLNT.            A2DTECH:   CLIENT CODE
 ORIG.       2", 5" PRINT:   ORIGIN OF DATA
 UWI .       490251028900:   UNIQUE WELL ID
 DICO. A2D Technologies, Inc.:   DIGITIZING COMPANY
~OTHER INFORMATION
~A   DEPT     CALD        GRD       RHOB       DPHI       CORR       SGRD        ILD        ILM        SPR   
# ...
  107.0000     7.9554   105.8433     2.4635     0.1164     0.0498     7.2691     5.5563     6.3545   -47.0243
  107.5000     7.9503   103.8339     2.4576     0.1181     0.0520     7.1110     5.5166     6.2666   -46.8252
  108.0000     7.9452   101.8295     2.4600     0.1191     0.0528     7.1736     5.4769     6.1807   -46.6310
  108.5000     7.9402   102.6907     2.4628     0.1182     0.0539     7.3098     5.4468     6.0823   -46.4397
  109.0000     7.9351   105.0261     2.4657     0.1172     0.0550     7.2484     5.4612     6.1112   -46.6002
  109.5000     7.9300   107.1530     2.4685     0.1162     0.0560     7.1110     5.4750     6.1463   -47.2446
  110.0000     7.9249   105.2894     2.4707     0.1153     0.0571     7.1360     5.4892     6.1816   -47.6536
  110.5000     7.9198   102.3215     2.4663     0.1165     0.0580     7.1956     5.5170     6.2147   -47.4224
  111.0000     7.9147   102.0912     2.4602     0.1187     0.0563     7.2429     5.6087     6.3059   -47.2051
  111.5000     7.9129   104.2862     2.4545     0.1210     0.0545     7.6216     5.7019     6.3984   -46.7172
  112.0000     7.9118   103.8544     2.4488     0.1233     0.0527     8.0135     5.7966     6.4923   -46.2145
  112.5000     7.9106    99.2459     2.4446     0.1243     0.0509     7.8772     5.8929     6.5875   -45.9474
  113.0000     7.9095    94.6902     2.4464     0.1238     0.0505     7.7107     5.9822     6.6310   -45.8012
  113.5000     7.9084    90.0973     2.4478     0.1242     0.0518     7.5142     6.0372     6.6603   -46.2509
  114.0000     7.9072    85.7036     2.4406     0.1278     0.0498     7.6978     6.0934     6.8194   -46.7109
  114.5000     7.9061    86.6778     2.4323     0.1313     0.0473     7.9363     6.1529     7.0178   -47.1997
  115.0000     7.9050    87.8641     2.4272     0.1348     0.0470     8.1823     6.2129     7.3094   -47.6934
  115.5000     7.9038    87.0879     2.4306     0.1337     0.0521     8.4358     6.2735     7.2870   -47.5509
  116.0000     7.9027    84.7416     2.4338     0.1317     0.0570     8.7047     6.3348     7.2479   -46.9678
  116.5000     7.9016    85.6468     2.4337     0.1314     0.0592     8.5524     6.3966     7.2090   -46.3794
  117.0000     7.9004    87.7423     2.4292     0.1320     0.0558     8.3589     6.4589     7.1110   -45.7924
  117.5000     7.8993    89.8053     2.4278     0.1317     0.0525     8.2551     6.4868     7.1722   -45.2017
  118.0000     7.8982    91.0595     2.4393     0.1309     0.0506     8.4543     6.4868     7.2825   -45.4580
  118.5000     7.8970    87.4441     2.4560     0.1185     0.0545     8.6250     6.4709     7.3773   -46.3628
  119.0000     7.8959    83.8183     2.4728     0.1066     0.0582     8.4814     6.4433     7.2931   -47.2732
  119.5000     7.8948    81.9811     2.4869     0.0978     0.0620     8.2261     6.4158     7.2209   -47.0969
  120.0000     7.8934    79.0943     2.4971     0.0892     0.0657     7.9808     6.3883     7.1494   -46.7023
  120.5000     7.8909    74.3012     2.5073     0.0835     0.0694     7.7269     6.3609     7.0459   -46.3083
  121.0000     7.8883    69.5352     2.5174     0.0802     0.0732     7.9373     6.3337     7.0631   -46.2434
  121.5000     7.8857    65.2805     2.5231     0.0763     0.0727     8.0875     6.3092     7.0957   -46.4733
  122.0000     7.8832    67.7156     2.5100     0.0849     0.0709     7.6803     6.3034     7.1281   -46.2295
  122.5000     7.8806    71.7055     2.4916     0.0956     0.0691     7.5142     6.2975     7.1608   -45.8228
  123.0000     7.8780    75.7506     2.4805     0.1019     0.0673     8.4113     6.2916     7.1938   -46.0054
  123.5000     7.8756    76.8679     2.4827     0.1023     0.0655    11.3262     6.2857     7.2270   -46.3782
  124.0000     7.8774    75.4063     2.4819     0.1026     0.0637    15.6762     6.2799     7.2428   -46.6838
  124.5000     7.8901    78.9403     2.4792     0.1028     0.0619     9.9946     6.2740     7.1712   -46.4286
  125.0000     7.9026    82.9706     2.4766     0.1041     0.0611     7.5142     6.2681     7.1165   -46.1676
  125.5000     7.9138    86.3604     2.4745     0.1055     0.0604     7.7173     6.2623     7.0623   -45.9083
  126.0000     7.9139    86.6104     2.4712     0.1069     0.0600     7.8468     6.2565     7.0086   -45.3897
  126.5000     7.9138    84.3481     2.4684     0.1083     0.0608     7.9785     6.2492     6.9814   -44.5389
  127.0000     7.9139    84.9031     2.4678     0.1095     0.0616     8.1126     6.2378     7.0322   -43.6211
  127.5000     7.9140    86.4679     2.4661     0.1107     0.0624     8.2487     6.2265     7.1067   -42.9417
  128.0000     7.9126    89.5498     2.4624     0.1121     0.0632     8.3870     6.2153     7.1773   -42.5805
  128.5000     7.8872    93.5984     2.4586     0.1141     0.0638     8.5473     6.2040     7.1286   -42.3046
  129.0000     7.8621    97.7234     2.4549     0.1162     0.0632     8.4396     6.1928     7.0290   -42.0339
  129.5000     7.8372    99.6476     2.4530     0.1164     0.0626     8.2172     6.1817     6.9307   -41.7729
  130.0000     7.8127    98.1706     2.4542     0.1166     0.0620     8.0135     6.1705     6.9173   -41.5369
  130.5000     7.7820    94.3132     2.4545     0.1206     0.0598     8.0846     6.1593     6.9720   -41.3087
  131.0000     7.7519    90.5647     2.4444     0.1275     0.0571     8.1521     6.1482     7.0363   -41.0818
  131.5000     7.7220    89.4702     2.4304     0.1344     0.0543     8.2203     6.1371     7.1010   -40.8547
  132.0000     7.6920    90.8395     2.4184     0.1402     0.0516     8.2890     6.1260     7.1766   -40.6177
  132.5000     7.6618    92.5194     2.4202     0.1392     0.0492     8.4273     6.1150     7.0791   -41.1541
  133.0000     7.6347    94.2034     2.4216     0.1377     0.0475     8.6072     6.1039     7.0074   -42.0200
  133.5000     7.6535    95.8880     2.4202     0.1385     0.0457     8.7851     6.0927     6.8771   -42.8824
  134.0000     7.6732    97.5973     2.4159     0.1413     0.0440     8.3929     6.0820     6.7061   -43.5619
  134.5000     7.6954    97.0664     2.4116     0.1441     0.0422     7.9443     6.0109     6.5394   -43.4702
  135.0000     7.8140    94.7111     2.4103     0.1447     0.0405     7.5197     5.9427     6.3768   -43.3982
  135.5000     7.9302    92.3778     2.4120     0.1435     0.0387     7.3668     5.8751     6.2523   -43.2336
  136.0000     7.9220    90.0511     2.4123     0.1421     0.0384     7.1766     5.8082     6.2982   -42.9282
  136.5000     7.9088    87.7280     2.4098     0.1448     0.0396     7.2104     5.7421     6.4271   -42.6224
  137.0000     7.8958    85.4319     2.4081     0.1461     0.0408     7.2927     5.6768     6.3941   -42.5659
  137.5000     7.9032    84.6464     2.4115     0.1432     0.0420     7.3773     5.5993     6.3682   -42.5758
  138.0000     7.9151    86.3110     2.4148     0.1394     0.0432     7.4626     5.6348     6.3418   -42.9237
  138.5000     7.9272    87.9436     2.4181     0.1365     0.0445     7.5139     5.6947     6.3154   -43.2966
  139.0000     7.9528    89.6013     2.4190     0.1389     0.0457     7.3664     5.7551     6.3100   -43.0970
  139.5000     7.9365    91.1052     2.4170     0.1406     0.0469     7.2429     5.8163     6.3541   -42.7729
  140.0000     7.9211    88.4542     2.4183     0.1381     0.0481     7.2950     5.8780     6.4697   -42.4432
  140.5000     7.9062    85.5810     2.4206     0.1369     0.0494     8.3094     5.9847     6.5874   -42.1150
  141.0000     7.8908    82.7149     2.4175     0.1394     0.0506     8.2451     6.0606     6.7073   -41.7860
  141.5000     7.8743    79.7906     2.4116     0.1440     0.0518     8.0742     6.1373     6.8293   -41.4458
  142.0000     7.8578    79.4725     2.4077     0.1457     0.0540     7.8691     6.2151     6.9536   -41.6018
  142.5000     7.8404    81.1692     2.4172     0.1401     0.0569     7.9880     6.2938     7.0801   -42.0216
  143.0000     7.7971    82.8959     2.4275     0.1329     0.0598     8.1485     6.3736     7.1110   -42.7152
