~VERSION INFORMATION
 VERS.                2.0:   CWLS LOG ASCII STANDARD - VERSION 2.0
 WRAP.                 NO:   ONE LINE PER DEPTH STEP
~WELL INFORMATION
#MNEM.UNIT      DATA TYPE    INFORMATION
#----------   ------------   ------------------------------
 STRT.F           82.0000:   START DEPTH
 STOP.F         1194.0000:   STOP DEPTH
 STEP.F            0.5000:   STEP LENGTH
 NULL.          -999.2500:   NO VALUE
 COMP.       INTEX OIL CO:   COMPANY
 WELL.   76S-11 NPR #3-11:   WELL
 FLD .             TEAPOT:   FIELD
 LOC .      S11 T38N R78W:   LOCATION
 CNTY.            NATRONA:   COUNTY
 STAT.            WYOMING:   STATE
 CTRY. UNITED STATES OF AMERICA:   COUNTRY
 SRVC.       Schlumberger:   SERVICE COMPANY
 DATE.        30-AUG-1966:   LOGDATE
 API .       490250972800:   API NUMBER
~CURVE INFORMATION
#MNEM.UNIT       API CODE    CURVE DESCRIPTION
#----------   ------------   ------------------------------
 DEPT.F                  :   
 SPR .MV     05 010 01 00:   SPONTANEOUS POTENTIAL FROM RES.
 CILD.MMHO   05 110 46 00:   CONDUCTIVITY INDUCTION LOG DEEP
 ILD .OHMM   05 120 46 00:   INDUCTION LOG DEEP
 ASN .OHMM   05 041 16 00:   AMPLIFIED SHORT NORMAL 16"
 CALD.IN     45 280 60 00:   CALIPER FROM DENSITY LOG
 CORR.G/C3   45 356 01 00:   DENSITY CORRECTION
 RHOB.G/C3   45 350 01 00:   BULK DENSITY
 DPHI.DEC    45 890 12 00:   DENSITY POROSITY SANDSTONE
 GRD .GAPI   45 310 01 00:   GAMMA RAY FROM DENSITY LOG
~PARAMETER INFORMATION
#MNEM.UNIT          VALUE    DESCRIPTION
#----------   ------------   ------------------------------
 PD  .                 GL:   PERMANENT DATUM
 EPD .F              5261:   ELEVATION PERMANENT DATUM
 LMF .                 KB:   LOG MEASURED FROM
 DAPD.F                 5:   FEET ABOVE PERMANENT DATUM
 DMF .                 KB:   DRILLING MEASURED FROM
 EKB .F              5266:   KELLING BUSHING
 EGL .F              5261:   GROUND LEVEL
 DATE.            8-30-66:   RUN DATE
 RUN .                  1:   RUN NUMBER
 DD  .F              1191:   DEPTH DRILLER
 DL  .F              1191:   DEPTH LOGGER
 BLI .F              1190:   BOTTOM LOG INTERVAL
 TLI .F                87:   TOP LOG INTERVAL
 CS  .IN            8.625:   CASING SIZE
 CBD .F                10:   CASING BOTTOM DRILLER
 BS  .IN             6.75:   BIT SIZE
 BSD .F              1191:   BIT SIZE AT DEPTH
 DFT .           CHEM-GEL:   DRILLING FLUID TYPE
 DFD .                9.8:   DRILLING FLUID DENSITY
 DFV .                 60:   DRILLING FLUID VISCOSITY
 MSS .         CIRCULATED:   MUD SAMPLE SOURCE
 RMS .OHMM            .76:   RESISTIVITY MUD SAMPLE
 MST .F                85:   MUD SAMPLE TEMPERATURE
 RMF .OHMM            .46:   RESISTIVITY MUD FILTRATE SAMPLE
 MFST.F                88:   MUD FILTRATE SAMPLE TEMPERATURE
 MFSS.                  M:   MUD FILTRATE SAMPLE SOURCE
 RMB .OHMM           .695:   RESISTIVITY MUD AT BHT
 BHT .F                93:   BOTTOM HOLE TEMPERATURE
 TCS .HRS               1:   TIME CURCULATED STOPPED
 MRT .F                93:   MAXIMUM RECORDED TEMPERATURE
 LUN .               3527:   LOGGING UNIT NUMBER
 LUL .               CSPR:   LOGGING UNIT LOCATION
 ENGI.               HAUG:   RECORDING ENGINEER
 WITN.                MAY:   WITNESSED BY
 CLNT.            A2DTECH:   CLIENT CODE
 ORIG. 2", 2.5", 5" PRINT:   ORIGIN OF DATA
 UWI .       490250972800:   UNIQUE WELL ID
 DICO. A2D Technologies, Inc.:   DIGITIZING COMPANY
~OTHER INFORMATION
~A   DEPT      SPR        CILD       ILD          ASN     CALD       CORR       RHOB       DPHI        GRD   
# ...
  739.0000   -48.1698   153.6790     6.3033     8.6734     7.3244     0.0721     2.5184     0.0838   115.2291
  739.5000   -48.4636   153.1936     6.3222     8.7458     7.3170     0.0718     2.5112     0.0913   116.6969
  740.0000   -48.4062   151.9960     6.3387     8.7722     7.3097     0.0619     2.4858     0.0988   116.8724
  740.5000   -48.1918   150.4514     6.3636     8.7921     7.3023     0.0484     2.4737     0.1063   117.1953
  741.0000   -47.9967   148.9068     6.3912     8.8238     7.2949     0.0508     2.4822     0.1079   118.4751
  741.5000   -47.9027   147.3622     6.4181     8.9254     7.2875     0.0661     2.4983     0.0930   119.8386
  742.0000   -48.2174   145.8176     6.4452     9.0195     7.2818     0.0817     2.5404     0.0806   119.7572
  742.5000   -48.1792   144.7290     6.4725     9.1152     7.2818     0.0990     2.5465     0.0671   118.5372
  743.0000   -47.9249   143.9363     6.4992     9.0251     7.2817     0.1059     2.5590     0.0550   120.2855
  743.5000   -47.7083   143.1437     6.5269     8.8839     7.2817     0.1127     2.5741     0.0456   121.8633
  744.0000   -47.5172   142.2156     6.5376     8.9255     7.2817     0.0920     2.5445     0.0463   123.9551
  744.5000   -47.7287   142.5032     6.5389     9.1057     7.2817     0.0457     2.5135     0.0818   122.2543
  745.0000   -47.8639   142.9595     6.5940     9.3125     7.2817     0.0505     2.4925     0.1047   119.6814
  745.5000   -47.6814   143.4159     6.6662     9.4484     7.2817     0.0592     2.4881     0.1020   118.7872
  746.0000   -47.5156   143.8723     6.7357     9.4212     7.2818     0.0416     2.4744     0.0952   120.3028
  746.5000   -47.6458   143.5249     6.8064     9.4253     7.2818     0.0463     2.4865     0.0884   121.4659
  747.0000   -47.8377   140.8476     6.8766     9.4989     7.2818     0.0689     2.5265     0.0816   120.9394
  747.5000   -48.0415   138.1703     6.9466     9.6294     7.2818     0.0801     2.5274     0.0747   120.4574
  748.0000   -47.8949   135.7880     7.0177     9.7859     7.2818     0.0683     2.5206     0.0795   121.9597
  748.5000   -47.4253   134.1859     7.0863     9.9845     7.2818     0.0633     2.5242     0.0779   123.4032
  749.0000   -47.4825   132.5838     7.1600    10.0851     7.2818     0.0620     2.5117     0.0771   125.2524
  749.5000   -47.8739   130.9816     7.2237    10.0917     7.2818     0.0597     2.4989     0.0936   124.0044
  750.0000   -48.2718   129.3795     7.2796    10.1115     7.2818     0.0522     2.4929     0.0972   122.3253
  750.5000   -48.3931   127.7774     7.3786    10.1321     7.2818     0.0446     2.4882     0.1009   120.5233
  751.0000   -47.8599   126.1753     7.4711    10.1817     7.2818     0.0432     2.4845     0.1018   118.7552
  751.5000   -47.8453   124.5732     7.5671    10.2565     7.2818     0.0498     2.4885     0.0989   117.4952
  752.0000   -48.1153   122.9711     7.6614    10.2942     7.2818     0.0571     2.4939     0.0963   116.6804
  752.5000   -48.2519   121.2575     7.7565    10.5020     7.2818     0.0564     2.4997     0.0939   114.9017
  753.0000   -48.4749   120.1677     7.8514    10.8019     7.2818     0.0545     2.5059     0.0907   111.6743
  753.5000   -48.2481   119.0005     7.9460    11.0685     7.2818     0.0723     2.5256     0.0883   107.7705
  754.0000   -47.7072   117.8290     8.0414    11.3300     7.2818     0.0953     2.5498     0.0684   103.4564
  754.5000   -47.8848   116.6602     8.1355    11.6859     7.2818     0.1261     2.5727     0.0490   103.2468
  755.0000   -48.3518   115.4919     8.2287    11.6042     7.2818     0.1184     2.5834     0.0424   103.0767
  755.5000   -48.4407   114.2815     8.2078    11.2838     7.2817     0.0852     2.5757     0.0485   103.1150
  756.0000   -48.3052   115.0894     8.1452    11.0321     7.2819     0.0488     2.5541     0.0627   104.5890
  756.5000   -48.1762   115.9224     8.0922    10.7341     7.2817     0.0468     2.5323     0.0769   110.0514
  757.0000   -48.1118   116.7253     8.0347    10.6556     7.2815     0.0545     2.5114     0.0857   113.9806
  757.5000   -48.0533   117.9189     7.9795    10.8161     7.2830     0.0638     2.5016     0.0913   117.5318
  758.0000   -48.3923   119.1142     7.9234    10.7720     7.2671     0.0722     2.4977     0.0906   117.0831
  758.5000   -48.8341   120.3094     7.8671    10.6172     7.2405     0.0811     2.5029     0.0883   116.4641
  759.0000   -48.3895   121.2575     7.8121    10.6460     7.2133     0.0864     2.5086     0.0888   117.8943
  759.5000   -48.0741   121.7007     7.7549    10.6548     7.2123     0.0821     2.5146     0.0854   118.1729
  760.0000   -48.3522   122.0681     7.7312    10.6753     7.2394     0.0850     2.5298     0.0777   118.7962
  760.5000   -48.8358   122.4354     7.7233    10.6904     7.2645     0.0913     2.5431     0.0677   120.1234
  761.0000   -48.5747   122.8058     7.7099    10.7058     7.2816     0.0882     2.5372     0.0709   121.4509
  761.5000   -48.2331   123.1723     7.6990    10.7255     7.2816     0.0829     2.5280     0.0754   122.1737
  762.0000   -48.1314   123.5392     7.6868    10.7033     7.2818     0.0779     2.5291     0.0754   121.1267
  762.5000   -48.2778   123.9061     7.6752    10.6506     7.2818     0.0721     2.5222     0.0789   118.8895
  763.0000   -48.3883   124.2527     7.6634    10.6063     7.2818     0.0680     2.5082     0.0866   117.8314
  763.5000   -48.4727   124.5553     7.6516    10.5581     7.2818     0.0782     2.5194     0.0830   118.7108
  764.0000   -48.1573   124.8420     7.6398    10.5122     7.2818     0.0897     2.5337     0.0759   119.0330
  764.5000   -47.8055   125.1289     7.6280    10.4646     7.2818     0.0941     2.5274     0.0724   118.7241
  765.0000   -47.5332   125.4149     7.6162    10.4191     7.2818     0.0715     2.5152     0.0808   118.6382
  765.5000   -47.5941   125.7017     7.6044    10.3705     7.2818     0.0547     2.5040     0.0905   118.5686
  766.0000   -47.6621   125.9886     7.5926    10.3351     7.2818     0.0654     2.5194     0.0860   120.7172
  766.5000   -47.4439   126.2475     7.5810    10.3506     7.2818     0.0867     2.5420     0.0721   122.9279
  767.0000   -47.2066   126.6068     7.5691    10.3758     7.2818     0.1096     2.5556     0.0574   124.2259
  767.5000   -47.0892   126.9342     7.5577    10.3893     7.2818     0.0939     2.5301     0.0750   123.7977
  768.0000   -47.3184   127.2616     7.5453    10.4264     7.2818     0.0566     2.5039     0.0938   120.1223
  768.5000   -47.4578   127.5890     7.5367    10.3636     7.2819     0.0406     2.4897     0.1024   116.8702
  769.0000   -47.1490   127.9097     7.5295    10.0987     7.2816     0.0457     2.5010     0.0936   115.7383
  769.5000   -46.9085   128.2421     7.4465     9.6631     7.2822     0.0479     2.5193     0.0860   118.4197
  770.0000   -47.1226   128.5769     7.3469     9.7222     7.2817     0.0511     2.5153     0.0811   122.1570
  770.5000   -47.2691   128.9102     7.2496     9.9663     7.2808     0.0554     2.5013     0.0917   125.7937
  771.0000   -47.1783   129.2535     7.1526    10.0176     7.2859     0.0622     2.4879     0.1032   126.9268
  771.5000   -47.0867   132.8374     7.0532     9.9069     7.2373     0.0722     2.4803     0.1047   127.2314
  772.0000   -47.1773   136.5992     6.9597     9.8038     7.1473     0.0853     2.4907     0.0973   126.2457
  772.5000   -47.3573   140.3602     6.8331     9.6996     7.0635     0.0944     2.5037     0.0909   124.9012
  773.0000   -47.5104   144.1218     6.6448     9.5909     7.0445     0.1032     2.5174     0.0818   123.5515
  773.5000   -47.6696   147.8867     6.4828     9.3751     7.0830     0.0894     2.5114     0.0886   122.9756
  774.0000   -47.5622   151.6517     6.3200     9.1737     7.1241     0.0571     2.4987     0.1001   122.8554
  774.5000   -47.4078   155.4167     6.1599     8.9727     7.1884     0.0455     2.4934     0.1047   122.9449
  775.0000   -47.2486   159.1816     5.9949     8.7703     7.2565     0.0490     2.4918     0.0976   123.9686
