~VERSION INFORMATION
 VERS.                2.0:   CWLS LOG ASCII STANDARD - VERSION 2.0
 WRAP.                 NO:   ONE LINE PER DEPTH STEP
~WELL INFORMATION
#MNEM.UNIT      DATA TYPE    INFORMATION
#----------   ------------   ------------------------------
 STRT.F            4.0000:   START DEPTH
 STOP.F          578.0000:   STOP DEPTH
 STEP.F            0.5000:   STEP LENGTH
 NULL.          -999.2500:   NO VALUE
 COMP.              FENIX:   COMPANY
 WELL.   NPR-3 #14SX11-11:   WELL
 FLD .             TEAPOT:   FIELD
 LOC .      S11 T38N R78W:   LOCATION
 CNTY.            NATRONA:   COUNTY
 STAT.            WYOMING:   STATE
 CTRY. UNITED STATES OF AMERICA:   COUNTRY
 SRVC.           BIRDWELL:   SERVICE COMPANY
 DATE.        14-FEB-1978:   LOGDATE
 API .       490251057100:   API NUMBER
~CURVE INFORMATION
#MNEM.UNIT       API CODE    CURVE DESCRIPTION
#----------   ------------   ------------------------------
 DEPT.F                  :   
 ILD .OHMM   05 120 46 00:   INDUCTION LOG DEEP
 SN  .OHMM   05 040 16 00:   SHORT NORMAL 16"
 SPR .MV     05 010 01 00:   SPONTANEOUS POTENTIAL FROM RES.
 CALD.IN     45 280 60 00:   CALIPER FROM DENSITY LOG
 CORR.G/C3   45 356 01 00:   DENSITY CORRECTION
 DPHI.DEC    45 890 12 00:   DENSITY POROSITY SANDSTONE
 GRD .GAPI   45 310 01 00:   GAMMA RAY FROM DENSITY LOG
 RHOB.G/C3   45 350 01 00:   BULK DENSITY
~PARAMETER INFORMATION
#MNEM.UNIT          VALUE    DESCRIPTION
#----------   ------------   ------------------------------
 PD  .                 GL:   PERMANENT DATUM
 EPD .F              5183:   ELEVATION PERMANENT DATUM
 LMF .                 KB:   LOG MEASURED FROM
 DAPD.F                 4:   FEET ABOVE PERMANENT DATUM
 DMF .                 KB:   DRILLING MEASURED FROM
 EKB .F              5187:   KELLING BUSHING
 EGL .F              5183:   GROUND LEVEL
 DATE.        14-FEB-1978:   RUN DATE
 RUN .                  1:   RUN NUMBER
 DD  .F               580:   DEPTH DRILLER
 DL  .F               580:   DEPTH LOGGER
 BLI .F               578:   BOTTOM LOG INTERVAL
 TLI .F                20:   TOP LOG INTERVAL
 CS  .IN            8.625:   CASING SIZE
 CBD .F                15:   CASING BOTTOM DRILLER
 CBL .F                39:   CASING BOTTOM LOGGER
 BS  .IN            7.875:   BIT SIZE
 BSD .F               580:   BIT SIZE AT DEPTH
 DFT .         LIGNO-SULF:   DRILLING FLUID TYPE
 DFD .                8.6:   DRILLING FLUID DENSITY
 DFV .                 33:   DRILLING FLUID VISCOSITY
 DFPH.                 11:   DRILLING FLUID PH
 DFL .                  4:   DRILLING FLUID LOSS
 MSS .           FLOWLINE:   MUD SAMPLE SOURCE
 RMS .OHMM            1.3:   RESISTIVITY MUD SAMPLE
 MST .F                62:   MUD SAMPLE TEMPERATURE
 RMF .OHMM            1.2:   RESISTIVITY MUD FILTRATE SAMPLE
 MFST.F                64:   MUD FILTRATE SAMPLE TEMPERATURE
 RMC .OHMM            1.6:   RESISTIVITY MUD CAKE
 MCST.F                62:   MUD CAKE SAMPLE TEMPERATURE
 MFSS.               MEAS:   MUD FILTRATE SAMPLE SOURCE
 BHT .F                70:   BOTTOM HOLE TEMPERATURE
 TCS .HRS               3:   TIME CURCULATED STOPPED
 MRT .F                70:   MAXIMUM RECORDED TEMPERATURE
 LUN .               2958:   LOGGING UNIT NUMBER
 LUL .               CASP:   LOGGING UNIT LOCATION
 ENGI.            POINTER:   RECORDING ENGINEER
 WITN.           MCGINLEY:   WITNESSED BY
 CLNT.            A2DTECH:   CLIENT CODE
 ORIG.           5" PRINT:   ORIGIN OF DATA
 UWI .       490251057100:   UNIQUE WELL ID
 DICO. A2D Technologies, Inc.:   DIGITIZING COMPANY
~OTHER INFORMATION
~A    DEPT     ILD         SN        SPR       CALD       CORR       DPHI         GRD      RHOB   
# ...
  449.5000    17.0540    17.2342   -43.0250     7.3562     0.0608     0.1571    67.2077     2.3887
  450.0000    16.6995    16.7597   -43.3338     7.4012     0.0607     0.1580    65.9875     2.3850
  450.5000    16.1271    16.5257   -43.3396     7.4766     0.0576     0.1599    64.9192     2.3895
  451.0000    15.6827    16.2950   -43.0424     7.7039     0.0576     0.1629    63.6990     2.3865
  451.5000    15.4635    16.0674   -42.8968     7.5362     0.0575     0.1645    62.1667     2.3803
  452.0000    15.4604    15.9533   -42.9040     7.5380     0.0469     0.1719    61.4105     2.3767
  452.5000    15.5649    15.8398   -42.7569     7.5502     0.0393     0.1783    62.9247     2.3767
  453.0000    15.5610    15.8360   -42.7642     7.5495     0.0378     0.1822    64.8960     2.3729
  453.5000    15.6670    15.8328   -42.6170     7.5793     0.0392     0.1813    66.5633     2.3519
  454.0000    15.6630    15.9405   -42.6243     7.5483     0.0421     0.1756    68.0906     2.3474
  454.5000    15.7697    15.9612   -42.4626     7.5325     0.0421     0.1702    68.9995     2.3556
  455.0000    15.8754    15.9947   -42.3267     7.5015     0.0435     0.1655    67.3248     2.3662
  455.5000    15.8722    16.0281   -42.3111     7.4857     0.0494     0.1591    64.2823     2.3722
  456.0000    15.7586    16.0642   -42.6142     7.5025     0.0553     0.1552    62.9123     2.3714
  456.5000    15.7555    15.9522   -42.9182     7.6060     0.0612     0.1510    64.8843     2.3759
  457.0000    15.7523    15.7315   -43.0732     7.6814     0.0672     0.1468    67.4649     2.3842
  457.5000    15.6403    15.6218   -42.9239     7.7568     0.0701     0.1432    69.4376     2.3988
  458.0000    15.4218    15.6205   -43.0791     7.7867     0.0670     0.1412    71.4286     2.4093
  458.5000    15.3121    15.6195   -43.0820     7.7860     0.0608     0.1391    72.7974     2.4173
  459.0000    15.1933    15.5106   -43.2365     7.8158     0.0549     0.1376    73.3801     2.4202
  459.5000    14.8864    15.2960   -43.2394     7.8152     0.0518     0.1340    71.0968     2.4187
  460.0000    14.5770    14.9803   -43.2424     7.8298     0.0532     0.1368    64.4069     2.4096
  460.5000    14.3733    14.7731   -43.2460     7.8291     0.0562     0.1416    61.6684     2.4028
  461.0000    14.0745    14.2611   -43.2489     7.8285     0.0531     0.1446    61.2095     2.4050
  461.5000    13.9744    13.7819   -43.0996     7.8279     0.0440     0.1449    61.9664     2.4102
  462.0000    13.7792    13.5913   -43.1033     7.8729     0.0409     0.1470    65.3069     2.4102
  462.5000    13.7604    13.5904   -42.9545     8.0091     0.0408     0.1445    68.4954     2.4076
  463.0000    13.5832    13.5895   -42.8061     7.9933     0.0408     0.1396    70.3162     2.4048
  463.5000    13.4866    13.4015   -42.3545     7.9471     0.0407     0.1438    68.9447     2.4146
  464.0000    13.3908    13.2161   -42.3581     7.9447     0.0406     0.1483    69.5497     2.4100
  464.5000    13.2955    13.1240   -42.3610     7.9306     0.0465     0.1514    71.0672     2.4047
  465.0000    13.2010    13.0323   -42.3640     7.9300     0.0495     0.1484    68.1759     2.3964
  465.5000    13.1071    13.0314   -42.3669     7.9142     0.0494     0.1424    66.6532     2.3959
  466.0000    13.0133    13.0305   -42.3698     7.8984     0.0493     0.1409    66.4983     2.4091
  466.5000    12.9208    13.0296   -42.3728     7.9132     0.0492     0.1427    66.7993     2.4151
  467.0000    12.9182    13.0288   -42.3616     7.9124     0.0492     0.1445    67.7082     2.4142
  467.5000    12.9156    13.0279   -41.9241     7.9119     0.0486     0.1455    68.3131     2.4150
  468.0000    13.0030    13.0270   -41.4732     7.8960     0.0476     0.1431    68.2573     2.4142
  468.5000    13.1818    13.0259   -41.3239     7.8801     0.0467     0.1347    64.0511     2.4073
  469.0000    13.1645    12.8458   -41.1753     7.8643     0.0462     0.1389    61.1606     2.4223
  469.5000    12.9046    12.6681   -41.0274     7.8486     0.0389     0.1416    59.7899     2.4268
  470.0000    12.6363    12.4929   -41.0304     7.8328     0.0358     0.1389    61.1547     2.4162
  470.5000    12.1189    12.4058   -41.0333     7.8170     0.0358     0.1407    63.4321     2.4290
  471.0000    11.7849    12.1497   -41.0369     7.8164     0.0402     0.1426    62.8205     2.4269
  471.5000    11.6202    11.9817   -41.1914     7.8158     0.0476     0.1375    62.6535     2.4086
  472.0000    11.6179    11.8981   -43.3155     7.8000     0.0521     0.1241    63.7466     2.4198
  472.5000    11.6150    11.7334   -43.9245     7.7841     0.0550     0.1216    65.9321     2.4438
  473.0000    11.6127    11.6515   -41.6547     7.7683     0.0550     0.1189    70.8627     2.4461
  473.5000    11.5301    11.6508   -41.0516     7.7677     0.0534     0.1117    73.4433     2.4520
  474.0000    11.4481    11.5695   -40.7515     7.7519     0.0518     0.1105    74.6561     2.4648
  474.5000    11.3667    11.4888   -40.6029     7.7361     0.0503     0.1102    74.8059     2.4640
  475.0000    11.2859    11.4881   -40.6065     7.7508     0.0487     0.1123    73.1305     2.4639
  475.5000    11.2056    11.4079   -40.6095     7.7653     0.0472     0.1196    72.5196     2.4614
  476.0000    11.2028    11.4070   -40.6124     7.7800     0.0471     0.1205    72.0607     2.4495
  476.5000    11.1232    11.4063   -40.7668     7.7792     0.0440     0.1202    71.2979     2.4502
  477.0000    11.1989    11.4055   -40.7698     7.7940     0.0440     0.1233    69.7184     2.4457
  477.5000    11.3525    11.4840   -40.7727     7.7932     0.0439     0.1335    67.3398     2.4389
  478.0000    11.4293    11.4833   -40.9279     7.7926     0.0424     0.1320    65.8171     2.4343
  478.5000    11.5064    11.6428   -40.9308     7.7921     0.0333     0.1344    64.9023     2.4305
  479.0000    11.5842    11.8045   -41.0853     7.8068     0.0362     0.1350    64.8993     2.4282
  479.5000    11.6625    11.8858   -41.0882     7.8213     0.0422     0.1317    65.5043     2.4259
  480.0000    11.6596    11.8848   -41.2426     7.8369     0.0466     0.1276    67.0211     2.4261
  480.5000    11.5767    11.8840   -41.2455     7.8733     0.0511     0.1273    68.2339     2.4311
  481.0000    11.5743    11.8832   -41.0970     7.9258     0.0513     0.1246    68.9909     2.4348
  481.5000    11.5720    11.8003   -40.9252     7.9252     0.0659     0.1210    69.1399     2.4408
  482.0000    11.4897    11.7995   -40.7998     7.9094     0.0689     0.1167    69.8176     2.4535
  482.5000    11.4075    11.7172   -40.8034     7.9088     0.0688     0.1131    71.4128     2.4610
  483.0000    11.3264    11.6354   -40.8064     7.8930     0.0687     0.1063    72.7776     2.4654
  483.5000    11.2458    11.5542   -40.6571     7.8924     0.0672     0.1039    73.9905     2.4677
  484.0000    11.0887    11.4737   -40.5091     7.8766     0.0656     0.1084    75.2033     2.4714
  484.5000    10.8582    11.3150   -40.3606     7.8455     0.0581     0.1154    75.0484     2.4624
  485.0000    10.6324    11.2361   -40.5152     7.8297     0.0535     0.1193    70.0310     2.4495
  485.5000    10.5563    11.0807   -40.5187     7.7835     0.0595     0.1226    72.6109     2.4457
  486.0000    10.4813    11.0799   -40.5216     7.7373     0.0639     0.1248    72.7599     2.4419
  486.5000    10.4792    11.1560   -40.5246     7.7215     0.0637     0.1320    72.4165     2.4366
  487.0000    10.4771    11.3110   -40.5275     7.6905     0.0593     0.1364    71.2335     2.4222
  487.5000    10.4750    11.6282   -40.5304     7.6140     0.0562     0.1444    70.1667     2.4177
  488.0000    10.5458    11.8717   -40.6849     7.5522     0.0517     0.1588    68.4920     2.4116
  488.5000    10.7757    11.9536   -40.9909     7.5540     0.0366     0.1853    64.6896     2.3948
  489.0000    11.2199    12.3740   -41.1460     7.6424     0.0321     0.2013    56.3280     2.3593
  489.5000    11.9402    12.9992   -40.9974     7.7178     0.0425     0.2136    51.0059     2.3175
