~VERSION INFORMATION
 VERS.                2.0:   CWLS LOG ASCII STANDARD - VERSION 2.0
 WRAP.                 NO:   ONE LINE PER DEPTH STEP
~WELL INFORMATION
#MNEM.UNIT      DATA TYPE    INFORMATION
#----------   ------------   ------------------------------
 STRT.F            2.0000:   START DEPTH
 STOP.F          484.0000:   STOP DEPTH
 STEP.F            0.5000:   STEP LENGTH
 NULL.          -999.2500:   NO VALUE
 COMP. LAWRENCE/ALLISON INC:   COMPANY
 WELL. NPR 3 #68-52-1-SX-3:   WELL
 FLD .             NPR #3:   FIELD
 LOC .       S3 T38N R78W:   LOCATION
 CNTY.            NATRONA:   COUNTY
 STAT.            WYOMING:   STATE
 CTRY. UNITED STATES OF AMERICA:   COUNTRY
 SRVC.           Gearhart:   SERVICE COMPANY
 DATE.        14-JUN-1988:   LOGDATE
 API .       490251122200:   API NUMBER
~CURVE INFORMATION
#MNEM.UNIT       API CODE    CURVE DESCRIPTION
#----------   ------------   ------------------------------
 DEPT.F                  :   
 GRR .GAPI   07 310 01 00:   GAMMA RAY FROM RES. LOG.
 RILD.OHMM   07 120 46 00:   INDUCTION LOG DEEP RESISTIVITY
 RILM.OHMM   07 120 44 00:   INDUCTION LOG MEDIUM RESISTIVITY
~PARAMETER INFORMATION
#MNEM.UNIT          VALUE    DESCRIPTION
#----------   ------------   ------------------------------
 PD  .                 GL:   PERMANENT DATUM
 EPD .F              5168:   ELEVATION PERMANENT DATUM
 LMF .                 KB:   LOG MEASURED FROM
 DAPD.F                 5:   FEET ABOVE PERMANENT DATUM
 DMF .                 KB:   DRILLING MEASURED FROM
 EKB .F              5173:   KELLING BUSHING
 EGL .F              5168:   GROUND LEVEL
 DATE.          6-14-1988:   RUN DATE
 RUN .                  1:   RUN NUMBER
 DD  .F               490:   DEPTH DRILLER
 DL  .F               491:   DEPTH LOGGER
 BLI .F               484:   BOTTOM LOG INTERVAL
 TLI .F                40:   TOP LOG INTERVAL
 CS  .IN            8.625:   CASING SIZE
 CBD .F                40:   CASING BOTTOM DRILLER
 CBL .F                40:   CASING BOTTOM LOGGER
 BS  .IN            7.875:   BIT SIZE
 BSD .F               490:   BIT SIZE AT DEPTH
 DFT .                AIR:   DRILLING FLUID TYPE
 TLAB.HRS            2248:   TIME LOGGER AT BOTTOM
 MRT .F                75:   MAXIMUM RECORDED TEMPERATURE
 LUN .               7597:   LOGGING UNIT NUMBER
 LUL .           GILLETTE:   LOGGING UNIT LOCATION
 ENGI.              BENCK:   RECORDING ENGINEER
 WITN.             STRONG:   WITNESSED BY
 CLNT.            A2DTECH:   CLIENT CODE
 ORIG.           5" PRINT:   ORIGIN OF DATA
 UWI .       490251122200:   UNIQUE WELL ID
 DICO. A2D Technologies, Inc.:   DIGITIZING COMPANY
~OTHER INFORMATION
~A    DEPT      GRR      RILD       RILM   
# ...
  184.0000    97.7034     2.8783     2.4813
  184.5000    94.7605     2.9164     2.5045
  185.0000    93.3380     2.9773     2.5457
  185.5000    97.3169     3.0774     2.7107
  186.0000   101.7929     3.3339     2.9877
  186.5000   106.2099     3.6799     3.2930
  187.0000   106.2880     4.0619     3.6295
  187.5000   105.9528     4.4548     4.0004
  188.0000   106.9791     4.8475     4.4092
  188.5000   108.3996     5.2841     4.8598
  189.0000   108.9075     5.8025     5.2431
  189.5000   108.5008     6.0706     5.6126
  190.0000   109.1864     6.3328     5.8248
  190.5000   110.9605     6.2905     5.8910
  191.0000   112.7200     6.2268     5.9368
  191.5000   113.8358     6.1643     5.9891
  192.0000   113.2551     6.1037     5.8462
  192.5000   112.5909     6.0430     5.5711
  193.0000   111.0388     5.7161     5.2927
  193.5000   109.4930     5.4250     5.0281
  194.0000   109.7213     5.1487     4.7768
  194.5000   113.3241     5.0212     4.5380
  195.0000   116.8301     4.8790     4.3289
  195.5000   117.0886     4.7795     4.2889
  196.0000   115.1590     4.7483     4.3289
  196.5000   113.2677     4.7496     4.4006
  197.0000   111.8079     5.1019     4.5529
  197.5000   112.0643     5.3232     4.7695
  198.0000   113.9570     5.5542     4.9964
  198.5000   115.7980     5.7951     5.2340
  199.0000   116.0089     6.0466     5.4835
  199.5000   115.4453     6.3090     5.7450
  200.0000   114.6628     6.5833     6.0190
  200.5000   113.8780     6.8660     6.3060
  201.0000   113.0977     7.1059     6.6333
  201.5000   112.3098     7.2928     6.8393
  202.0000   112.2881     7.4847     7.1408
  202.5000   112.9194     7.6935     7.2099
  203.0000   113.5499     7.6935     7.2099
  203.5000   113.7440     7.6460     7.2099
  204.0000   112.6932     7.5132     7.2099
  204.5000   109.6978     7.3826     7.1516
  205.0000   108.7942     7.2543     6.9960
  205.5000   108.7360     7.1283     6.8438
  206.0000   110.1500     7.0044     6.6943
  206.5000   111.6325     6.8832     6.4703
  207.0000   113.1063     6.6216     6.2530
  207.5000   114.3276     6.3698     6.0430
  208.0000   115.1800     6.1279     5.8401
  208.5000   115.9543     5.8951     5.6439
  209.0000   115.4754     5.6714     5.4264
  209.5000   114.9266     5.5088     5.1416
  210.0000   116.2106     5.5370     4.8736
  210.5000   118.3424     5.5797     4.8386
  211.0000   120.5060     5.6141     4.9378
  211.5000   122.4478     5.8433     5.0546
  212.0000   122.1196     6.0687     5.2823
  212.5000   120.5965     6.3018     5.5095
  213.0000   119.1315     6.5436     5.8949
  213.5000   118.0034     6.7947     6.2688
  214.0000   117.1481     7.0555     6.6665
  214.5000   116.3070     7.3449     7.0120
  215.0000   115.5616     7.4033     7.0120
  215.5000   115.5987     7.4665     7.0120
  216.0000   116.4296     7.5303     7.0120
  216.5000   117.3298     7.5945     7.0286
  217.0000   118.2612     7.6225     7.0506
  217.5000   117.7331     7.6225     7.0728
  218.0000   116.2033     7.6226     7.0774
  218.5000   113.5530     7.6225     7.0774
  219.0000   111.8291     7.6225     7.0774
  219.5000   111.8439     7.6225     7.0774
  220.0000   112.3895     7.6225     7.0774
  220.5000   116.5261     7.6225     7.0774
  221.0000   118.1093     7.6225     7.0774
  221.5000   118.3246     7.6225     7.0790
  222.0000   118.6176     7.6225     7.0869
  222.5000   119.5128     7.6225     7.0946
  223.0000   119.3552     7.6226     7.1024
  223.5000   118.7324     7.6229     7.1101
  224.0000   117.9692     7.6239     7.1178
  224.5000   117.0158     7.5652     7.1258
  225.0000   116.0417     7.5124     7.1333
  225.5000   115.9668     7.4595     7.1382
  226.0000   116.8454     7.3652     7.1433
  226.5000   118.0413     6.9600     6.5228
  227.0000   119.2414     6.5771     6.1423
  227.5000   120.7931     6.2152     5.7840
  228.0000   123.0705     5.9338     5.4466
  228.5000   125.3478     5.9338     5.1155
  229.0000   127.6979     5.9338     5.1155
  229.5000   127.6733     5.9338     5.2739
  230.0000   124.4464     5.8394     5.4748
  230.5000   121.0174     5.7353     5.6126
  231.0000   117.6061     5.6331     5.5608
  231.5000   117.6489     5.5501     5.4481
  232.0000   118.4811     5.4473     5.2154
  232.5000   120.9315     5.4082     4.8804
  233.0000   122.9033     5.4636     4.5752
  233.5000   121.9343     5.5030     4.5325
  234.0000   119.7169     5.5428     4.7415
  234.5000   117.4874     5.5828     5.0141
  235.0000   116.4254     5.6888     5.3018
  235.5000   116.4182     5.9939     5.6057
  236.0000   115.7001     6.3154     5.9270
  236.5000   114.5119     6.6539     6.1778
  237.0000   113.0693     6.8801     6.3369
  237.5000   112.5228     7.0142     6.5724
  238.0000   112.8801     6.9066     6.5012
  238.5000   113.2324     6.7592     6.3645
  239.0000   113.5844     6.5818     6.2155
  239.5000   113.9443     6.2442     5.8795
  240.0000   114.4412     5.9754     5.5366
  240.5000   117.9120     5.7182     5.2136
  241.0000   121.0978     5.5095     4.9095
  241.5000   122.1501     5.5095     4.7931
  242.0000   122.3232     5.5095     4.8527
  242.5000   120.7347     5.5608     4.9600
  243.0000   119.1714     5.7753     5.0700
  243.5000   117.6487     6.0618     5.2994
  244.0000   117.2429     6.3625     5.6255
  244.5000   116.9366     6.6782     5.9718
  245.0000   113.9385     7.0095     6.3319
  245.5000   110.3857     7.3186     6.5644
  246.0000   109.1198     7.5052     6.8408
  246.5000   109.0479     7.6965     7.1289
  247.0000   111.1748     7.8927     7.4133
  247.5000   113.6341     8.0934     7.6225
  248.0000   116.0641     8.2915     7.7652
  248.5000   116.5859     8.4445     7.7788
  249.0000   113.7474     8.4413     7.7990
  249.5000   111.0281     8.5993     7.8193
  250.0000   109.0701     8.5993     7.8376
  250.5000   109.8978     8.5199     7.8375
  251.0000   111.5443     8.5398     7.8376
  251.5000   112.0281     8.5550     7.8376
  252.0000   112.1640     8.5703     7.8376
  252.5000   112.2869     8.5858     7.8376
  253.0000   112.4139     8.5997     7.8376
  253.5000   112.5423     8.5991     7.8376
  254.0000   112.6599     8.6161     7.8376
  254.5000   112.2909     8.6698     7.8372
  255.0000   110.7495     8.7241     7.8564
  255.5000   109.2275     8.7615     7.8824
  256.0000   107.7099     8.5933     7.9106
  256.5000   106.1813     8.4203     7.7786
  257.0000   105.4783     8.1214     7.5335
  257.5000   105.4595     7.6183     6.8652
  258.0000   106.0705     6.9716     6.2549
  258.5000   107.4193     6.5237     5.6997
  259.0000   110.5604     6.1581     5.1631
  259.5000   117.8660     6.0450     5.0127
  260.0000   125.4375     6.0401     4.9869
  260.5000   124.7941     6.0445     4.9751
  261.0000   113.7252     6.3393     5.6098
  261.5000   106.6343     6.6819     6.2319
  262.0000   103.1218     7.4934     6.9230
  262.5000   102.3499     8.4035     7.5041
  263.0000   103.0925     9.3366     8.1410
  263.5000   104.4820     9.8458     9.0144
  264.0000   106.2991     9.9750     9.0042
  264.5000   107.5581    10.0563     9.0664
  265.0000   107.6847    10.1647     9.1101
  265.5000   107.8381    10.3635     9.1540
  266.0000   107.6963    11.0497     9.1981
  266.5000   106.7852    11.7819     9.2424
  267.0000   102.7972    12.5635     9.5843
  267.5000    96.1950    13.4220    10.1812
  268.0000    87.4097    14.6883    11.4218
  268.5000    78.6659    16.1189    13.3501
  269.0000    70.3958    17.6887    15.6150
  269.5000    65.1219    18.9698    17.3629
  270.0000    59.9024    20.6567    19.0650
  270.5000    59.6638    22.5089    20.9470
  271.0000    61.5544    24.4903    22.0949
  271.5000    64.6629    25.2604    22.6102
  272.0000    66.8793    24.8865    22.6912
  272.5000    67.2263    24.4695    22.7732
  273.0000    66.0789    24.0595    22.0239
  273.5000    65.0716    23.6563    21.2920
  274.0000    66.9775    23.4158    20.5822
  274.5000    69.0111    23.4881    19.9024
