~VERSION INFORMATION
 VERS.                2.0:   CWLS LOG ASCII STANDARD - VERSION 2.0
 WRAP.                 NO:   ONE LINE PER DEPTH STEP
~WELL INFORMATION
#MNEM.UNIT      DATA TYPE    INFORMATION
#----------   ------------   ------------------------------
 STRT.F            0.0000:   START DEPTH
 STOP.F         3030.0000:   STOP DEPTH
 STEP.F            0.5000:   STEP LENGTH
 NULL.          -999.2500:   NO VALUE
 COMP. LAWRENCE/ALLISON INC:   COMPANY
 WELL. NAVAL PETROLEUM RESERVE 3 AX-3 #36  X 34-34:   WELL
 FLD .         N. P. R #3:   FIELD
 LOC .      S34 T39N R78W:   LOCATION
 CNTY.            NATRONA:   COUNTY
 STAT.            WYOMING:   STATE
 CTRY. UNITED STATES OF AMERICA:   COUNTRY
 SRVC.      Dresser Atlas:   SERVICE COMPANY
 DATE.        29-JUN-1985:   LOGDATE
 API .       490251103200:   API NUMBER
~CURVE INFORMATION
#MNEM.UNIT       API CODE    CURVE DESCRIPTION
#----------   ------------   ------------------------------
 DEPT.F                  :   
 RFOC.OHMM   07 220 01 00:   RESISTIVITY FOCUSED LOG
 RILM.OHMM   07 120 44 00:   RESITIVITY LONG MEDIUM
 SPR .MV     07 010 01 00:   SPONTANEOUS POTENTIAL
 RILD.OHMM   07 120 46 00:   INDUCTION LOG DEEP RESITIVITY
 GRR .GAPI   07 310 01 00:   GAMMA RAY
 DT  .US/F   60 520 00 00:   INTERVAL TRANSIT TIME
 CALD.IN     45 280 60 00:   CALIPER FROM DENSITY LOG
 CORR.G/C3   45 356 01 00:   DENSITY CORRECTION
 CNC .DEC    42 890 03 00:   NEUTRON POROSITY SANDSTONE
 DEN .G/C3   45 350 01 00:   COMPENSATED BULK DENSTIY
 PORD.DEC    45 890 12 00:   POROSITY DENSITY SANDSTONE
~PARAMETER INFORMATION
#MNEM.UNIT          VALUE    DESCRIPTION
#----------   ------------   ------------------------------
 PD  .                 GL:   PERMANENT DATUM
 EPD .F              5108:   ELEVATION PERMANENT DATUM
 LMF .                 KB:   LOG MEASURED FROM
 DAPD.F                12:   FEET ABOVE PERMANENT DATUM
 DMF .                 KB:   DRILLING MEASURED FROM
 EKB .F              5120:   KELLING BUSHING
 EGL .F              5108:   GROUND LEVEL
 DATE.       29-JUNE-1985:   RUN DATE
 RUN .                  1:   RUN NUMBER
 DD  .F              3033:   DEPTH DRILLER
 DL  .F              3033:   DEPTH LOGGER
 BLI .F              3030:   BOTTOM LOG INTERVAL
 CS  .IN            8.625:   CASING SIZE
 CBD .F               601:   CASING BOTTOM DRILLER
 CBL .F               601:   CASING BOTTOM LOGGER
 BS  .IN            7.875:   BIT SIZE
 BSD .F              3033:   BIT SIZE AT DEPTH
 DFT .   FOAM & KCL WATER:   DRILLING FLUID TYPE
 MSS .           FLOWLINE:   MUD SAMPLE SOURCE
 RMS .OHMM           0.44:   RESISTIVITY MUD SAMPLE
 MST .F                82:   MUD SAMPLE TEMPERATURE
 RMF .OHMM           0.44:   RESISTIVITY MUD FILTRATE SAMPLE
 MFST.F                82:   MUD FILTRATE SAMPLE TEMPERATURE
 MFSS.               MEAS:   MUD FILTRATE SAMPLE SOURCE
 RMB .OHMM           0.31:   RESISTIVITY MUD AT BHT
 BHT .F               116:   BOTTOM HOLE TEMPERATURE
 TCS .HRS               3:   TIME CURCULATED STOPPED
 MRT .F               116:   MAXIMUM RECORDED TEMPERATURE
 LUN .               6274:   LOGGING UNIT NUMBER
 LUL .               GLTE:   LOGGING UNIT LOCATION
 ENGI.             RAUTIO:   RECORDING ENGINEER
 WITN.       MR. JENNINGS:   WITNESSED BY
 CLNT.            A2DTECH:   CLIENT CODE
 ORIG.        2" 5" PRINT:   ORIGIN OF DATA
 UWI .       490251103200:   UNIQUE WELL ID
 DICO. A2D Technologies, Inc.:   DIGITIZING COMPANY
~OTHER INFORMATION
~A    DEPT    RFOC       RILM        SPR       RILD         GRR        DT       CALD       CORR        CNC        DEN       PORD   
# ...
 2623.0000     9.1833     8.1808    45.5825     8.0413   105.5471    80.0383     7.2569    -0.0270     0.2233     2.4612     0.1130
 2623.5000     9.0598     8.1272    45.7397     8.1021   107.3794    80.1092     7.2571    -0.0329     0.2217     2.4636     0.1139
 2624.0000     8.8772     8.1326    45.7594     8.1058   108.3027    80.0294     7.2572    -0.0238     0.2214     2.4665     0.1142
 2624.5000     8.8830     8.1378    45.9030     8.0531   101.6537    79.8753     7.2574     0.0201     0.2290     2.4681     0.1121
 2625.0000     9.4634     8.1420    45.9096     8.1141    99.2436    79.7211     7.2575     0.0274     0.2317     2.4673     0.1090
 2625.5000     9.8722     8.1462    45.9152     8.1178   101.3790    79.5669     7.2577     0.0125     0.2298     2.4591     0.1075
 2626.0000    10.2272     8.2085    45.9223     8.1215   104.7300    79.5724     7.2578    -0.0040     0.2268     2.4501     0.1102
 2626.5000     9.2835     8.2128    45.9279     8.1820   107.1684    80.2366     7.2580    -0.0114     0.2247     2.4448     0.1148
 2627.0000     9.0951     8.2171    46.0851     8.1867   107.7851    80.8355     7.2612    -0.0173     0.2243     2.4411     0.1178
 2627.5000     9.1010     8.2214    46.0909     8.2477   105.3394    80.8319     7.2733    -0.0188     0.2249     2.4381     0.1208
 2628.0000     9.3101     8.2267    46.2494     8.2514   104.4836    80.8283     7.2735     0.0088     0.2282     2.4359     0.1229
 2628.5000     9.7686     8.2882    46.2550     8.3130   104.1948    80.9001     7.2737     0.0235     0.2370     2.4336     0.1253
 2629.0000     9.7046     8.3508    46.2607     8.3758   104.5155    80.8956     7.2738     0.0385     0.2424     2.4321     0.1271
 2629.5000     9.6435     8.4735    46.4192     8.3796   104.5332    80.8921     7.2890     0.0432     0.2439     2.4314     0.1289
 2630.0000     9.7172     8.5372    46.4249     8.4421   103.3352    80.8836     7.2892     0.0147     0.2415     2.4434     0.1313
 2630.5000    10.0666     8.6013    46.4306     8.5654   101.5312    81.1852     7.2893    -0.0048     0.2371     2.4487     0.1271
 2631.0000    10.2831     8.6059    46.4364     8.6292   100.3332    81.2576     7.2895    -0.0152     0.2330     2.4472     0.1207
 2631.5000     9.7348     8.6114    46.4433     8.6332   100.3509    81.1025     7.2896    -0.0212     0.2320     2.4457     0.1210
 2632.0000     9.4941     8.4966    46.4489     8.6371    98.5469    80.5719     7.2898    -0.0121     0.2314     2.4483     0.1228
 2632.5000     9.6761     8.4420    46.4546     8.5225    97.6515    80.1918     7.2899    -0.0105     0.2409     2.4578     0.1198
 2633.0000    10.3131     8.2717    46.6132     8.3500   100.0939    79.8117     7.2750    -0.0089     0.2468     2.4646     0.1167
 2633.5000    11.1347     8.1049    46.7703     8.1242   101.6232    80.1838     7.2752    -0.0058     0.2477     2.4676     0.1131
 2634.0000    10.6847     8.0528    47.0790     8.0715   102.2399    80.7073     7.2753     0.0002     0.2440     2.4548     0.1101
 2634.5000     9.1085     8.1145    47.6909     8.1325   101.0455    81.4568     7.2755     0.0018     0.2428     2.4473     0.1082
 2635.0000     8.8641     8.0633    48.3039     8.1363   100.1541    81.6039     7.2756     0.0049     0.2467     2.4451     0.1161
 2635.5000     8.7450     8.0674    48.9156     8.1400   100.4713    81.5932     7.2758     0.0065     0.2500     2.4458     0.1209
 2636.0000     8.8733     8.0156    49.6788     8.0319   105.6370    81.2946     7.2759     0.0050     0.2497     2.4466     0.1230
 2636.5000     9.2028     7.9651    50.5950     8.0356   104.6134    80.8392     7.2911    -0.0118     0.2473     2.4414     0.1209
 2637.0000     9.7931     7.9693    51.5097     8.0392   100.8204    80.5344     7.2913    -0.0294     0.2397     2.4276     0.1212
 2637.5000    10.2875     7.9734    52.4245     8.0992    98.4103    80.3050     7.2914    -0.0233     0.2318     2.3971     0.1293
 2638.0000     9.8033     8.0335    53.3575     8.2175    96.3032    80.3005     7.2916    -0.0007     0.2248     2.4061     0.1480
 2638.5000     9.4083     8.1514    54.1039     8.2787    95.4118    80.3731     7.2917     0.0009     0.2272     2.4106     0.1492
 2639.0000     9.1547     8.3279    54.8671     8.3987    96.0321    80.5193     7.2919     0.0115     0.2363     2.4046     0.1438
 2639.5000     9.0317     8.3904    55.9334     8.4035    96.6523    81.0428     7.2920     0.0536     0.2581     2.3874     0.1432
 2640.0000     9.1266     8.3959    57.1526     8.4661    98.5051    81.8224     7.2922     0.0612     0.2629     2.3806     0.1552
 2640.5000     9.4938     8.4590    57.9158     8.5292   100.3205    82.8420     7.2923    -0.0018     0.2574     2.3853     0.1594
 2641.0000     9.1113     8.5226    58.8305     8.6528    98.2134    84.4198     7.2925    -0.0303     0.2568     2.3949     0.1582
 2641.5000     8.8649     8.6468    59.6130     8.8406    93.6822    86.2988     7.2926    -0.0317     0.2628     2.4040     0.1542
 2642.0000     9.4450     8.8350    60.3584     8.9687    90.5449    86.7470     7.2928     0.0180     0.2643     2.3980     0.1485
 2642.5000     9.9219     8.9636    60.9701     9.0987    87.3492    86.6673     7.2875     0.0361     0.2619     2.3829     0.1473
 2643.0000    10.4227     9.0941    61.5818     9.2307    85.8482    86.5884     7.2780     0.0422     0.2573     2.3792     0.1570
 2643.5000    10.9504     9.2923    62.3465     9.4309    88.5932    86.5848     7.2782     0.0347     0.2558     2.3800     0.1618
 2644.0000    10.0080     9.3621    62.8067     9.5012    89.8195    87.4096     7.2783     0.0138     0.2558     2.3822     0.1624
 2644.5000     9.6023     9.4984    63.4184     9.7063    88.6215    87.5566     7.2785     0.0063     0.2555     2.3845     0.1618
 2645.0000     9.6803     9.6459    63.8988     9.7797    87.7266    87.2510     7.2786     0.0003     0.2515     2.3920     0.1602
 2645.5000     9.8793     9.7782    64.6432     9.9908    87.7443    86.3438     7.2637    -0.0011     0.2376     2.4133     0.1545
 2646.0000    10.1002     9.9206    65.1034    10.0653    88.0615    84.9095     7.2651     0.0080     0.2182     2.4477     0.1373
 2646.5000    10.6842     9.9952    65.5636    10.2826    84.7423    82.8485     7.2791     0.0201     0.2206     2.4627     0.1140
 2647.0000    11.5420    10.2129    66.0253    10.5057    85.3660    81.5882     7.2792     0.0322     0.2242     2.4612     0.1122
 2647.5000    12.4671    10.3616    66.1824    10.5840    88.4105    81.0576     7.2794     0.0383     0.2351     2.4327     0.1170
 2648.0000    13.0965    10.5124    66.3396    10.7374    87.5156    80.8281     7.2946     0.0264     0.2447     2.4177     0.1375
 2648.5000    11.9396    10.5916    66.8000    10.8186    85.1090    82.4812     7.2947     0.0082     0.2459     2.4087     0.1466
 2649.0000    10.9409    10.5234    67.1099    10.7472    83.9111    84.5098     7.2949     0.0115     0.2420     2.4072     0.1465
 2649.5000    11.0230    10.3832    67.2671    10.6045    85.1374    85.1849     7.2952     0.0356     0.2379     2.4125     0.1456
 2650.0000    11.9897    10.3178    67.1212    10.3178    87.2727    84.8792     7.3102     0.0297     0.2356     2.4192     0.1402
 2650.5000    11.9142    10.1999    66.9728    10.1797    88.1995    83.7461     7.3104     0.0147     0.2347     2.4245     0.1365
 2651.0000    11.6740    10.1087    66.4969    10.1136    87.9107    83.3660     7.3106     0.0148     0.2341     2.4343     0.1320
 2651.5000    11.4385     9.8397    65.6157     9.9793    86.7127    83.0604     7.3107     0.0149     0.2331     2.4403     0.1293
 2652.0000    11.8515     9.7074    65.3155     9.8386    86.7634    81.1743     7.3108     0.0150     0.2349     2.4426     0.1256
 2652.5000    12.4499     9.7113    65.1662     9.7139    88.8658    80.1165     7.3110     0.0120     0.2431     2.4434     0.1247
 2653.0000    12.7192     9.7047    65.1698     9.7195    91.3042    79.8118     7.3112     0.0031     0.2491     2.4223     0.1344
