~VERSION INFORMATION
 VERS.                2.0:   CWLS LOG ASCII STANDARD - VERSION 2.0
 WRAP.                 NO:   ONE LINE PER DEPTH STEP
~WELL INFORMATION
#MNEM.UNIT      DATA TYPE    INFORMATION
#----------   ------------   ------------------------------
 STRT.F           16.0000:   START DEPTH
 STOP.F          474.0000:   STOP DEPTH
 STEP.F            0.5000:   STEP LENGTH
 NULL.          -999.2500:   NO VALUE
 COMP. FENIX & SCISSON INCORPORATED:   COMPANY
 WELL.    NPR #3 #58-SX-3:   WELL
 FLD .             TEAPOT:   FIELD
 LOC .       S3 T38N R78W:   LOCATION
 CNTY.            NATRONA:   COUNTY
 STAT.            WYOMING:   STATE
 CTRY. UNITED STATES OF AMERICA:   COUNTRY
 SRVC.           BIRDWELL:   SERVICE COMPANY
 DATE.        19-OCT-1978:   LOGDATE
 API .       490251072000:   API NUMBER
~CURVE INFORMATION
#MNEM.UNIT       API CODE    CURVE DESCRIPTION
#----------   ------------   ------------------------------
 DEPT.F                  :   
 CALD.IN     45 280 60 00:   CALIPER FROM DENSITY LOG
 CORR.G/C3   45 356 01 00:   DENSITY CORRECTION
 DPHI.DEC    45 890 12 00:   DENSITY POROSITY SANDSTONE
 GRD .GAPI   45 310 01 00:   GAMMA RAY FROM DENSITY LOG
 RHOB.G/C3   45 350 01 00:   BULK DENSITY
 ILD .OHMM   05 120 46 00:   INDUCTION LOG DEEP
 SN  .OHMM   05 040 16 00:   SHORT NORMAL 16"
 SPR .MV     05 010 01 00:   SPONTANEOUS POTENTIAL FROM RES.
~PARAMETER INFORMATION
#MNEM.UNIT          VALUE    DESCRIPTION
#----------   ------------   ------------------------------
 PD  .                 GL:   PERMANENT DATUM
 EPD .F              5198:   ELEVATION PERMANENT DATUM
 LMF .                 KB:   LOG MEASURED FROM
 DAPD.F                 4:   FEET ABOVE PERMANENT DATUM
 DMF .                 KB:   DRILLING MEASURED FROM
 EKB .F              5202:   KELLING BUSHING
 EGL .F              5198:   GROUND LEVEL
 DATE.        19-OCT-1978:   RUN DATE
 RUN .                  1:   RUN NUMBER
 DD  .F               474:   DEPTH DRILLER
 DL  .F               474:   DEPTH LOGGER
 BLI .F               474:   BOTTOM LOG INTERVAL
 TLI .F                30:   TOP LOG INTERVAL
 CBD .F                40:   CASING BOTTOM DRILLER
 CBL .F                38:   CASING BOTTOM LOGGER
 BS  .IN            7.875:   BIT SIZE
 BSD .F               474:   BIT SIZE AT DEPTH
 DFT .                KCL:   DRILLING FLUID TYPE
 DFD .                8.7:   DRILLING FLUID DENSITY
 DFV .                 38:   DRILLING FLUID VISCOSITY
 DFPH.                9.0:   DRILLING FLUID PH
 DFL .                 13:   DRILLING FLUID LOSS
 MSS .           FLOWLINE:   MUD SAMPLE SOURCE
 RMS .OHMM            .25:   RESISTIVITY MUD SAMPLE
 MST .F                58:   MUD SAMPLE TEMPERATURE
 RMF .OHMM             .2:   RESISTIVITY MUD FILTRATE SAMPLE
 MFST.F                60:   MUD FILTRATE SAMPLE TEMPERATURE
 RMC .OHMM            .24:   RESISTIVITY MUD CAKE
 MCST.F                60:   MUD CAKE SAMPLE TEMPERATURE
 MFSS.               MEAS:   MUD FILTRATE SAMPLE SOURCE
 MCSS.               MEAS:   MUD CAKE SAMPLE SOURCE
 RMB .OHMM            .23:   RESISTIVITY MUD AT BHT
 BHT .F                70:   BOTTOM HOLE TEMPERATURE
 TCS .HRS               3:   TIME CURCULATED STOPPED
 MRT .F                70:   MAXIMUM RECORDED TEMPERATURE
 LUN .               2958:   LOGGING UNIT NUMBER
 LUL .               CASP:   LOGGING UNIT LOCATION
 ENGI.           REYNOLDS:   RECORDING ENGINEER
 WITN.           DINSMORE:   WITNESSED BY
 CLNT.            A2DTECH:   CLIENT CODE
 ORIG.           5" PRINT:   ORIGIN OF DATA
 UWI .       490251072000:   UNIQUE WELL ID
 DICO. A2D Technologies, Inc.:   DIGITIZING COMPANY
~OTHER INFORMATION
~A   DEPT     CALD       CORR       DPHI         GRD      RHOB        ILD         SN        SPR   
# ...
  178.0000     7.9628     0.0030     0.1187    49.5306     2.4790     7.9773     7.2311   -35.5276
  178.5000     7.9632     0.0030     0.1181    52.9227     2.4805     7.9249     7.5314   -35.8198
  179.0000     7.9636     0.0030     0.1157    62.2242     2.4835     7.9265     7.7385   -36.2595
  179.5000     7.9493     0.0016     0.1146    78.4681     2.4865     7.9284     7.8442   -36.4042
  180.0000     7.9497     0.0016     0.1134    77.1344     2.4895     7.9299     7.8976   -36.6957
  180.5000     7.9501     0.0002     0.1133    70.5816     2.4940     7.9314     7.8976   -36.8411
  181.0000     7.9506     0.0002     0.1133    57.7748     2.4955     7.8792     7.8976   -36.8376
  181.5000     7.9510    -0.0013     0.1156    53.0438     2.4948     7.8711     7.8442   -37.1298
  182.0000     7.9515    -0.0013     0.1180    55.9937     2.4853     7.8079     7.7912   -37.2745
  182.5000     7.9519    -0.0012     0.1191    60.1254     2.4809     7.7251     7.7385   -37.4192
  183.0000     7.9606    -0.0012     0.1179    63.2230     2.4832     7.6709     7.7083   -37.4157
  183.5000     7.9676    -0.0012     0.1156    60.6090     2.4869     7.5722     7.6862   -37.4130
  184.0000     7.9680    -0.0012     0.1153    57.7482     2.4869     7.5228     7.5314   -37.4095
  184.5000     7.9685    -0.0012     0.1179    55.3806     2.4870     7.4733     7.4299   -37.4067
  185.0000     7.9689    -0.0012     0.1226    51.3881     2.4841     7.3739     7.3245   -37.4041
  185.5000     7.9694     0.0003     0.1276    47.9865     2.4783     7.2761     7.2311   -37.4011
  186.0000     7.9698     0.0003     0.1337    47.5391     2.4665     7.0825     7.0312   -37.5458
  186.5000     7.9703     0.0003     0.1402    47.8292     2.4512     6.9410     6.8029   -37.6905
  187.0000     7.9708     0.0004     0.1449    48.8590     2.4461     6.7562     6.6659   -37.6870
  187.5000     7.9712     0.0004     0.1472    49.5933     2.4410     6.5322     6.4875   -37.6842
  188.0000     7.9716     0.0004     0.1508    49.1459     2.4329     6.3153     6.1839   -37.8290
  188.5000     7.9721     0.0019     0.1625    48.8462     2.4177     6.0643     5.7810   -37.8899
  189.0000     7.9725     0.0019     0.1908    48.8419     2.3815     5.7838     5.4757   -37.8227
  189.5000     7.9729     0.0048     0.2096    53.2679     2.3462     5.4237     5.1865   -37.8199
  190.0000     7.9585     0.0165     0.2244    66.5587     2.3139     4.8496     4.6848   -37.8171
  190.5000     7.9591     0.0238     0.2370    65.0763     2.2851     4.5629     4.3480   -37.8136
  191.0000     7.9446     0.0340     0.2579    60.1976     2.2610     4.1781     4.0354   -37.6633
  191.5000     7.9451     0.0414     0.2614    59.0116     2.2515     3.9284     3.7175   -37.6606
  192.0000     7.9308     0.0292     0.2567    58.8597     2.2494     3.6489     3.4526   -37.5103
  192.5000     7.9164     0.0137     0.2390    59.1753     2.2612     3.4566     3.2044   -37.5068
  193.0000     7.9169     0.0020     0.2095    60.6226     2.3083     3.2523     2.9740   -37.3569
  193.5000     7.9174    -0.0038     0.1877    68.5947     2.3673     3.0187     3.1186   -37.3228
  194.0000     7.9178    -0.0067     0.1767    72.5787     2.3791     2.8404     2.3938   -37.0560
  194.5000     7.9182    -0.0096     0.1682    73.9049     2.3909     2.7835     2.0480   -36.9498
  195.0000     7.9186    -0.0096     0.1567    74.0473     2.4061     2.8803     2.0901   -36.9022
  195.5000     7.9192    -0.0094     0.1493    71.3832     2.4322     3.1899     2.6501   -36.7522
  196.0000     7.9195    -0.0063     0.1398    66.5045     2.4514     3.6750     3.2410   -36.7493
  196.5000     7.9200    -0.0034     0.1398    65.3185     2.4529     4.3617     3.7965   -36.7463
  197.0000     7.9204    -0.0005     0.1350    65.0188     2.4522     5.1700     4.1184   -36.7429
  197.5000     7.9209     0.0021     0.1283    66.0486     2.4589     5.5721     4.4074   -36.7401
  198.0000     7.9213     0.0051     0.1259    68.1123     2.4671     5.8472     4.6259   -36.8855
  198.5000     7.9365     0.0080     0.1256    68.8466     2.4708     6.0479     4.9797   -36.8820
  199.0000     7.9371     0.0095     0.1255    65.7393     2.4738     6.1318     5.2931   -36.8785
  199.5000     7.9375     0.0095     0.1267    63.2240     2.4738     6.2169     5.5882   -36.2857
  200.0000     7.9230     0.0095     0.1310    59.9701     2.4717     6.2816     5.8203   -35.3980
  200.5000     7.9057     0.0080     0.1348    59.3783     2.4636     6.1760     6.0621   -35.6491
  201.0000     7.8929     0.0051     0.1407    62.3307     2.4592     6.0514     6.0211   -35.8569
  201.5000     7.8926     0.0051     0.1548    63.8068     2.4540     5.8892     5.8203   -35.8666
  202.0000     7.8923     0.0051     0.1652    64.6912     2.4180     5.7704     5.5129   -35.8744
  202.5000     7.8920     0.0051     0.1658    66.6174     2.3974     5.6151     5.2931   -35.8821
  203.0000     7.8917     0.0051     0.1581    68.5741     2.4121     5.3550     5.1514   -35.8899
  203.5000     7.8914     0.0052     0.1486    69.8565     2.4247     5.2115     5.0477   -35.7502
  204.0000     7.8911     0.0066     0.1404    70.8894     2.4365     5.0374     4.9099   -35.7581
  204.5000     7.8908     0.0066     0.1348    68.6719     2.4454     4.9024     4.6848   -35.7676
  205.0000     7.8757     0.0080     0.1312    68.2274     2.4543     4.7387     4.5904   -35.6260
  205.5000     7.8606     0.0080     0.1285    71.0324     2.4624     4.8363     4.5904   -35.6357
  206.0000     7.8308     0.0080     0.1268    75.6297     2.4668     5.1411     4.7167   -35.6434
  206.5000     7.8009     0.0080     0.1262    74.1315     2.4713     5.5025     4.9496   -35.9462
  207.0000     7.7858     0.0080     0.1256    75.3114     2.4750     5.8097     5.2506   -36.2493
  207.5000     7.7707     0.0080     0.1229    75.7535     2.4765     6.1384     5.6263   -37.2911
  208.0000     7.7704     0.0080     0.1208    74.7177     2.4780     6.5653     6.0211   -38.0363
  208.5000     7.7405     0.0080     0.1200    72.7960     2.4825     6.8384     6.3568   -37.7491
  209.0000     7.7254     0.0109     0.1194    69.6927     2.4869     7.0746     6.7272   -37.4617
  209.5000     7.7103     0.0124     0.1197    66.2939     2.4884     7.2695     7.1337   -37.1747
  210.0000     7.7249     0.0168     0.1203    67.4249     2.4744     7.4191     7.4805   -37.1844
  210.5000     7.7245     0.0257     0.1214    71.4606     2.4745     7.5206     7.6862   -37.1921
  211.0000     7.7242     0.0358     0.1220    72.1977     2.4752     7.5206     7.6862   -37.3474
  211.5000     7.7239     0.0401     0.1223    70.8669     2.4767     7.5206     7.6343   -37.6502
  212.0000     7.7236     0.0401     0.1226    68.7975     2.4775     7.4474     7.5827   -38.1004
  212.5000     7.7234     0.0401     0.1240    66.4327     2.4775     7.3689     7.4805   -38.2559
  213.0000     7.7231     0.0387     0.1285    63.9202     2.4658     7.2202     7.3797   -38.5604
  213.5000     7.7376     0.0431     0.1338    63.1802     2.4547     7.0746     7.2265   -38.7156
  214.0000     7.7521     0.0623     0.1257    67.4564     2.4533     6.9792     7.0854   -38.7234
  214.5000     7.7666     0.0839     0.1116    70.4148     2.4695     6.8384     6.9777   -38.8786
  215.0000     7.7988     0.0985     0.1019    71.1519     2.4931     6.7461     6.8958   -39.0339
  215.5000     7.8251     0.0766     0.1004    71.1505     2.5146     6.5653     6.7569   -39.1911
  216.0000     7.8316     0.0577     0.1095    71.1491     2.5117     6.3893     6.5761   -39.3463
  216.5000     7.8546     0.0445     0.1193    70.5568     2.4888     6.2181     6.4001   -39.5016
  217.0000     7.8834     0.0372     0.1308    70.2600     2.4712     6.0514     6.2712   -39.5089
  217.5000     7.8979     0.0299     0.1380    69.1728     2.4550     5.9247     6.1449   -39.6646
  218.0000     7.9124     0.0254     0.1449    66.7117     2.4447     5.8097     5.9389   -39.8328
