~VERSION INFORMATION
 VERS.                2.0:   CWLS LOG ASCII STANDARD - VERSION 2.0
 WRAP.                 NO:   ONE LINE PER DEPTH STEP
~WELL INFORMATION
#MNEM.UNIT      DATA TYPE    INFORMATION
#----------   ------------   ------------------------------
 STRT.F           30.0000:   START DEPTH
 STOP.F         2432.5000:   STOP DEPTH
 STEP.F            0.5000:   STEP LENGTH
 NULL.          -999.2500:   NO VALUE
 COMP. FENIX & SCISSON INC:   COMPANY
 WELL.     72 SHX 4 #72-4:   WELL
 FLD .             TEAPOT:   FIELD
 LOC .       S4 T38N R78W:   LOCATION
 CNTY.            NATRONA:   COUNTY
 STAT.            WYOMING:   STATE
 CTRY. UNITED STATES OF AMERICA:   COUNTRY
 SRVC.           BIRDWELL:   SERVICE COMPANY
 DATE.        05-MAR-1979:   LOGDATE
 API .       490251074300:   API NUMBER
~CURVE INFORMATION
#MNEM.UNIT       API CODE    CURVE DESCRIPTION
#----------   ------------   ------------------------------
 DEPT.F                  :   
 SPR .MV     05 010 01 00:   SPONTANEOUS POTENTIAL FROM RES.
 SN  .OHMM   05 040 16 00:   SHORT NORMAL 16"
 ILD .OHMM   05 120 46 00:   INDUCTION LOG DEEP
 CALD.IN     45 280 60 00:   CALIPER
 GRD .GAPI   45 310 01 00:   GAMMA RAY FROM DENSITY LOG
 RHOB.G/C3   45 350 01 00:   BULK DENSITY
 CORR.G/C3   45 356 01 00:   DENSITY CORRECTION
 DPHI.DEC    45 890 12 00:   DENSITY POROSITY SANDSTONE
~PARAMETER INFORMATION
#MNEM.UNIT          VALUE    DESCRIPTION
#----------   ------------   ------------------------------
 PD  .                 GL:   PERMANENT DATUM
 EPD .F              5194:   ELEVATION PERMANENT DATUM
 LMF .                 KB:   LOG MEASURED FROM
 DAPD.F                10:   FEET ABOVE PERMANENT DATUM
 DMF .                 KB:   DRILLING MEASURED FROM
 EKB .F              5204:   KELLING BUSHING
 EGL .F              5194:   GROUND LEVEL
 DATE.             3-5-79:   RUN DATE
 RUN .                  1:   RUN NUMBER
 DD  .F              2560:   DEPTH DRILLER
 DL  .F              2432:   DEPTH LOGGER
 BLI .F              2432:   BOTTOM LOG INTERVAL
 TLI .F               400:   TOP LOG INTERVAL
 CS  .IN            9.625:   CASING SIZE
 CBD .F               685:   CASING BOTTOM DRILLER
 CBL .F               685:   CASING BOTTOM LOGGER
 BS  .IN             8.75:   BIT SIZE
 BSD .F              2560:   BIT SIZE AT DEPTH
 DFT .                AIR:   DRILLING FLUID TYPE
 TCS .HRS               5:   TIME CURCULATED STOPPED
 LUN .               3006:   LOGGING UNIT NUMBER
 LUL .             CASPER:   LOGGING UNIT LOCATION
 ENGI.         B. ROLLINS:   RECORDING ENGINEER
 WITN.           DINSMORE:   WITNESSED BY
 CLNT.            A2DTECH:   CLIENT CODE
 ORIG.           5" PRINT:   ORIGIN OF DATA
 UWI .       490251074300:   UNIQUE WELL ID
 DICO. A2D Technologies, Inc.:   DIGITIZING COMPANY
~OTHER INFORMATION
~A   DEPT      SPR         SN        ILD        CALD       GRD       RHOB         CORR      DPHI  
# ...
 1123.5000  -999.2500  -999.2500  -999.2500     9.5624    74.9253     2.5408     0.0234     0.0054
 1124.0000  -999.2500  -999.2500  -999.2500     9.5596    74.4442     2.5350     0.0215     0.0119
 1124.5000  -999.2500  -999.2500  -999.2500     9.5568    73.9093     2.5279     0.0199     0.0180
 1125.0000  -999.2500  -999.2500  -999.2500     9.5540    73.7524     2.5217     0.0194     0.0188
 1125.5000  -999.2500  -999.2500  -999.2500     9.5512    74.4847     2.5237     0.0190     0.0080
 1126.0000  -999.2500  -999.2500  -999.2500     9.5483    75.3058     2.5258     0.0185     0.0080
 1126.5000  -999.2500  -999.2500  -999.2500     9.5455    75.9846     2.5238     0.0180     0.0164
 1127.0000  -999.2500  -999.2500  -999.2500     9.5427    76.0583     2.5191     0.0176     0.0182
 1127.5000  -999.2500  -999.2500  -999.2500     9.5400    76.1445     2.5161     0.0171     0.0200
 1128.0000  -999.2500  -999.2500  -999.2500     9.5262    76.2306     2.5150     0.0166     0.0206
 1128.5000  -999.2500  -999.2500  -999.2500     9.5081    76.3208     2.5159     0.0162     0.0146
 1129.0000  -999.2500  -999.2500  -999.2500     9.4899    76.1831     2.5185     0.0149     0.0108
 1129.5000  -999.2500  -999.2500  -999.2500     9.4718    75.8868     2.5199     0.0130     0.0160
 1130.0000  -999.2500  -999.2500  -999.2500     9.4620    75.0987     2.5159     0.0105     0.0232
 1130.5000  -999.2500  -999.2500  -999.2500     9.4766    73.7364     2.5127     0.0081     0.0191
 1131.0000  -999.2500  -999.2500  -999.2500     9.4903    73.3506     2.5149     0.0056     0.0143
 1131.5000  -999.2500  -999.2500  -999.2500     9.5040    74.5524     2.5171     0.0024     0.0126
 1132.0000  -999.2500  -999.2500  -999.2500     9.5177    75.6117     2.5192    -0.0024     0.0116
 1132.5000  -999.2500  -999.2500  -999.2500     9.5315    76.3478     2.5170    -0.0087     0.0210
 1133.0000  -999.2500  -999.2500  -999.2500     9.5453    75.9335     2.5085    -0.0199     0.0297
 1133.5000  -999.2500  -999.2500  -999.2500     9.5586    75.5828     2.4999    -0.0156     0.0297
 1134.0000  -999.2500  -999.2500  -999.2500     9.5554    76.3752     2.5014     0.0002     0.0161
 1134.5000  -999.2500  -999.2500  -999.2500     9.5514    77.2351     2.5158     0.0158     0.0065
 1135.0000  -999.2500  -999.2500  -999.2500     9.5475    78.1156     2.5303     0.0284     0.0054
 1135.5000  -999.2500  -999.2500  -999.2500     9.5436    77.1368     2.5334     0.0283     0.0094
 1136.0000  -999.2500  -999.2500  -999.2500     9.5397    75.1189     2.5306     0.0286     0.0155
 1136.5000  -999.2500  -999.2500  -999.2500     9.5358    74.8876     2.5262     0.0288     0.0184
 1137.0000  -999.2500  -999.2500  -999.2500     9.5319    75.0494     2.5226     0.0290     0.0156
 1137.5000  -999.2500  -999.2500  -999.2500     9.5280    74.8856     2.5243     0.0292     0.0116
 1138.0000  -999.2500  -999.2500  -999.2500     9.5241    74.0319     2.5285     0.0295     0.0093
 1138.5000  -999.2500  -999.2500  -999.2500     9.5202    74.9147     2.5327     0.0297     0.0070
 1139.0000  -999.2500  -999.2500  -999.2500     9.5163    75.7336     2.5368     0.0299     0.0047
 1139.5000  -999.2500  -999.2500  -999.2500     9.5125    75.8243     2.5400     0.0295     0.0023
 1140.0000  -999.2500  -999.2500  -999.2500     9.5085    75.8894     2.5412     0.0279     0.0000
 1140.5000  -999.2500  -999.2500  -999.2500     9.5047    76.1434     2.5424     0.0263    -0.0004
 1141.0000  -999.2500  -999.2500  -999.2500     9.5008    77.5846     2.5422     0.0247    -0.0004
 1141.5000  -999.2500  -999.2500  -999.2500     9.4969    77.7862     2.5418     0.0231     0.0024
 1142.0000  -999.2500  -999.2500  -999.2500     9.4930    75.8274     2.5378     0.0214     0.0056
 1142.5000  -999.2500  -999.2500  -999.2500     9.4891    73.8040     2.5336     0.0198     0.0084
 1143.0000  -999.2500  -999.2500  -999.2500     9.4852    73.6557     2.5293     0.0182     0.0087
 1143.5000  -999.2500  -999.2500  -999.2500     9.4813    74.5514     2.5273     0.0166     0.0117
 1144.0000  -999.2500  -999.2500  -999.2500     9.4797    75.4491     2.5261     0.0142     0.0187
 1144.5000  -999.2500  -999.2500  -999.2500     9.4836    75.9457     2.5143     0.0115     0.0257
 1145.0000  -999.2500  -999.2500  -999.2500     9.4875    76.0042     2.5013     0.0086     0.0327
 1145.5000  -999.2500  -999.2500  -999.2500     9.4913    77.0858     2.4880     0.0071     0.0385
 1146.0000  -999.2500  -999.2500  -999.2500     9.4951    78.1378     2.4854     0.0063     0.0385
 1146.5000  -999.2500  -999.2500  -999.2500     9.4994    79.1888     2.4928     0.0148     0.0169
 1147.0000  -999.2500  -999.2500  -999.2500     9.5141    80.1640     2.5043     0.0153     0.0138
 1147.5000  -999.2500  -999.2500  -999.2500     9.5291    79.8895     2.5149     0.0144     0.0130
 1148.0000  -999.2500  -999.2500  -999.2500     9.5440    77.2704     2.5155     0.0089     0.0142
 1148.5000  -999.2500  -999.2500  -999.2500     9.5587    74.7823     2.5164     0.0022     0.0191
 1149.0000  -999.2500  -999.2500  -999.2500     9.5611    72.3175     2.5147     0.0017     0.0252
 1149.5000  -999.2500  -999.2500  -999.2500     9.5629    71.0890     2.5094     0.0014     0.0313
 1150.0000  -999.2500  -999.2500  -999.2500     9.5648    73.6921     2.4998     0.0011     0.0321
 1150.5000  -999.2500  -999.2500  -999.2500     9.5667    76.9908     2.4986     0.0008     0.0233
 1151.0000  -999.2500  -999.2500  -999.2500     9.5686    78.6308     2.5022     0.0005     0.0233
 1151.5000  -999.2500  -999.2500  -999.2500     9.5705    79.8215     2.5059     0.0002     0.0211
 1152.0000  -999.2500  -999.2500  -999.2500     9.5724    80.7462     2.5069    -0.0006     0.0188
 1152.5000  -999.2500  -999.2500  -999.2500     9.5743    80.4911     2.5075    -0.0040     0.0224
 1153.0000  -999.2500  -999.2500  -999.2500     9.5763    80.2573     2.5070    -0.0073     0.0305
 1153.5000  -999.2500  -999.2500  -999.2500     9.5782    80.0418     2.4954    -0.0106     0.0393
 1154.0000  -999.2500  -999.2500  -999.2500     9.5801    79.0841     2.4839    -0.0140     0.0394
 1154.5000  -999.2500  -999.2500  -999.2500     9.5820    77.8437     2.4840    -0.0099     0.0258
 1155.0000  -999.2500  -999.2500  -999.2500     9.5839    76.6117     2.4924    -0.0042     0.0172
 1155.5000  -999.2500  -999.2500  -999.2500     9.5858    76.5310     2.5081     0.0014     0.0172
 1156.0000  -999.2500  -999.2500  -999.2500     9.5877    77.6416     2.5134     0.0071     0.0180
 1156.5000  -999.2500  -999.2500  -999.2500     9.5896    78.7403     2.5135     0.0103     0.0197
 1157.0000  -999.2500  -999.2500  -999.2500     9.5915    79.7510     2.5136     0.0108     0.0174
 1157.5000  -999.2500  -999.2500  -999.2500     9.5934    79.8099     2.5175     0.0113     0.0063
 1158.0000  -999.2500  -999.2500  -999.2500     9.5953    78.3218     2.5254     0.0118     0.0036
 1158.5000  -999.2500  -999.2500  -999.2500     9.5972    76.6957     2.5334     0.0118     0.0036
 1159.0000  -999.2500  -999.2500  -999.2500     9.5992    75.3300     2.5343     0.0113     0.0046
 1159.5000  -999.2500  -999.2500  -999.2500     9.6041    76.2065     2.5336     0.0109     0.0087
 1160.0000  -999.2500  -999.2500  -999.2500     9.6092    77.1105     2.5316     0.0104     0.0128
 1160.5000  -999.2500  -999.2500  -999.2500     9.6143    77.9292     2.5279     0.0101     0.0170
 1161.0000  -999.2500  -999.2500  -999.2500     9.6194    77.6674     2.5227     0.0154     0.0184
 1161.5000  -999.2500  -999.2500  -999.2500     9.6245    77.3532     2.5198     0.0212     0.0094
 1162.0000  -999.2500  -999.2500  -999.2500     9.6296    78.9457     2.5301     0.0271     0.0000
 1162.5000  -999.2500  -999.2500  -999.2500     9.6347    81.1865     2.5408     0.0279    -0.0001
 1163.0000  -999.2500  -999.2500  -999.2500     9.6397    83.4370     2.5464     0.0276     0.0032
 1163.5000  -999.2500  -999.2500  -999.2500     9.6448    84.5743     2.5436     0.0273     0.0036
