~VERSION INFORMATION
 VERS.                2.0:   CWLS LOG ASCII STANDARD - VERSION 2.0
 WRAP.                 NO:   ONE LINE PER DEPTH STEP
~WELL INFORMATION
#MNEM.UNIT      DATA TYPE    INFORMATION
#----------   ------------   ------------------------------
 STRT.F           30.0000:   START DEPTH
 STOP.F         1178.5000:   STOP DEPTH
 STEP.F            0.5000:   STEP LENGTH
 NULL.          -999.2500:   NO VALUE
 COMP. FENIX & SCISSON INC:   COMPANY
 WELL.     64-S-14 #14-14:   WELL
 FLD .        TEAPOT DOME:   FIELD
 LOC .      S14 T38N R78W:   LOCATION
 CNTY.            NATRONA:   COUNTY
 STAT.            WYOMING:   STATE
 CTRY. UNITED STATES OF AMERICA:   COUNTRY
 SRVC.            Unknown:   SERVICE COMPANY
 DATE.        19-APR-1978:   LOGDATE
 API .       490251061400:   API NUMBER
~CURVE INFORMATION
#MNEM.UNIT       API CODE    CURVE DESCRIPTION
#----------   ------------   ------------------------------
 DEPT.F                  :   
 SPR .MV     05 010 01 00:   SPONTANEOUS POTENTIAL
 SN  .OHMM   05 040 16 00:   SHORT NORMAL 16'
 ILD .OHMM   05 120 46 00:   INDUCTION LOG DEEP
 CALD.IN     45 280 60 00:   CALIPER
 GRD .GAPI   45 310 01 00:   GAMMA RAY FROM DENSITY LOG
 RHOB.G/C3   45 350 01 00:   BULK DENSITY
 DPHI.DEC    45 890 12 00:   DENSITY POROSITY SANDSTONE
 CORR.G/C3   45 356 01 00:   DENSITY CORRECTION
~PARAMETER INFORMATION
#MNEM.UNIT          VALUE    DESCRIPTION
#----------   ------------   ------------------------------
 PD  .                 GL:   PERMANENT DATUM
 EPD .F              5235:   ELEVATION PERMANENT DATUM
 LMF .                 KB:   LOG MEASURED FROM
 DMF .                 KB:   DRILLING MEASURED FROM
 EKB .F              5299:   KELLING BUSHING
 EGL .F              5295:   GROUND LEVEL
 DATE.          4-19-1978:   RUN DATE
 RUN .                  1:   RUN NUMBER
 DD  .F              1180:   DEPTH DRILLER
 DL  .F              1182:   DEPTH LOGGER
 BLI .F              1176:   BOTTOM LOG INTERVAL
 TLI .F                50:   TOP LOG INTERVAL
 CS  .IN            8.625:   CASING SIZE
 CBD .F                40:   CASING BOTTOM DRILLER
 CBL .F                50:   CASING BOTTOM LOGGER
 BS  .IN            7.875:   BIT SIZE
 BSD .F              1180:   BIT SIZE AT DEPTH
 DFT .                KCL:   DRILLING FLUID TYPE
 DFD .                8.7:   DRILLING FLUID DENSITY
 DFV .                 33:   DRILLING FLUID VISCOSITY
 DFPH.               10.5:   DRILLING FLUID PH
 DFL .               12.3:   DRILLING FLUID LOSS
 MSS .            MUD PIT:   MUD SAMPLE SOURCE
 RMS .OHMM            .54:   RESISTIVITY MUD SAMPLE
 MST .F                62:   MUD SAMPLE TEMPERATURE
 RMF .OHMM            .65:   RESISTIVITY MUD FILTRATE SAMPLE
 MFST.F                60:   MUD FILTRATE SAMPLE TEMPERATURE
 RMC .OHMM            .35:   RESISTIVITY MUD CAKE
 MCST.F                60:   MUD CAKE SAMPLE TEMPERATURE
 MFSS.           MEASURED:   MUD FILTRATE SAMPLE SOURCE
 RMB .OHMM            .42:   RESISTIVITY MUD AT BHT
 BHT .F                80:   BOTTOM HOLE TEMPERATURE
 TCS .HRS               2:   TIME CURCULATED STOPPED
 MRT .F                80:   MAXIMUM RECORDED TEMPERATURE
 LUN .               2955:   LOGGING UNIT NUMBER
 LUL .               CASP:   LOGGING UNIT LOCATION
 ENGI.             MILLER:   RECORDING ENGINEER
 WITN.           MCGINLEY:   WITNESSED BY
 CLNT.            A2DTECH:   CLIENT CODE
 ORIG.      2" & 5" PRINT:   ORIGIN OF DATA
 UWI .       490251061400:   UNIQUE WELL ID
 DICO. A2D Technologies, Inc.:   DIGITIZING COMPANY
~OTHER INFORMATION
~A   DEPT      SPR         SN        ILD       CALD         GRD      RHOB       DPHI       CORR   
# ...
  840.0000   -42.8550     4.2016     3.8436     7.6333    96.7675     2.4376     0.1415     0.0031
  840.5000   -42.8623     4.0319     3.7983     7.7288    98.8722     2.4395     0.1383     0.0021
  841.0000   -42.8696     3.9496     3.7727     7.7200    98.5760     2.4447     0.1352     0.0011
  841.5000   -42.8770     3.9677     3.7900     7.6926    95.6617     2.4461     0.1364    -0.0002
  842.0000   -42.8843     3.9860     3.8074     7.5520    95.0340     2.4457     0.1363     0.0066
  842.5000   -42.8916     4.1249     3.9120     7.4196    94.2781     2.4475     0.1328     0.0154
  843.0000   -42.8989     4.4905     4.1529     7.4599    92.2952     2.4521     0.1287     0.0244
  843.5000   -42.9063     4.8897     4.4087     7.6492    91.3254     2.4638     0.1243     0.0372
  844.0000   -42.9136     5.1800     4.6803     7.8349    92.0472     2.4748     0.1198     0.0532
  844.5000   -42.9209     5.3199     4.9702     8.0203    92.7810     2.4807     0.1153     0.0691
  845.0000   -42.9283     5.4682     5.1791     8.1891    91.8581     2.4864     0.1138     0.0849
  845.5000   -42.9356     5.6206     5.3534     8.2080    89.6345     2.4864     0.1146     0.1075
  846.0000   -42.9429     5.7246     5.4442     8.1672    87.6328     2.4859     0.1120     0.1332
  846.5000   -42.9502     5.7772     5.4456     8.1072    88.5342     2.5054     0.1019     0.1594
  847.0000   -42.9576     5.8306     5.4500     8.0467    91.4732     2.5266     0.0939     0.1549
  847.5000   -42.9649     5.8843     5.4528     7.9847    94.6563     2.5229     0.0978     0.1360
  848.0000   -42.9722     5.9385     5.4555     7.8550    95.4280     2.5143     0.1026     0.1175
  848.5000   -42.9796     5.9932     5.4582     7.6447    94.7172     2.5058     0.1074     0.0990
  849.0000   -42.9869     6.0484     5.4609     7.5442    94.3210     2.4973     0.1100     0.0835
  849.5000   -42.9942     6.1041     5.4636     7.4483    96.4892     2.4898     0.1108     0.0721
  850.0000   -43.0015     6.1604     5.4664     7.3899   100.7637     2.4949     0.1104     0.0607
  850.5000   -43.0089     6.2171     5.4691     7.3340   105.0956     2.4976     0.1098     0.0498
  851.0000   -43.0162     6.2482     5.4718     7.2781   105.3255     2.4987     0.1093     0.0463
  851.5000   -43.0235     6.2538     5.4745     7.2223   104.9685     2.4996     0.1088     0.0400
  852.0000   -43.0308     6.2595     5.4773     7.1659   103.0557     2.4962     0.1127     0.0315
  852.5000   -43.0382     6.2651     5.4800     7.1110   100.1593     2.4813     0.1235     0.0237
  853.0000   -43.0455     6.2708     5.4828     7.0900    97.2487     2.4664     0.1308     0.0197
  853.5000   -43.0528     6.2765     5.4855     7.1013    94.3378     2.4561     0.1314     0.0157
  854.0000   -43.0602     6.2821     5.4883     7.1113    92.3045     2.4486     0.1317     0.0138
  854.5000   -43.0675     6.2879     5.4910     7.1205    91.4803     2.4436     0.1319     0.0203
  855.0000   -43.0748     6.2934     5.4929     7.1334    88.8395     2.4462     0.1322     0.0191
  855.5000   -43.0821     6.3035     5.4558     7.2083    85.9632     2.4495     0.1324     0.0176
  856.0000   -43.0895     6.2828     5.4232     7.2821    85.8375     2.4497     0.1343     0.0161
  856.5000   -43.0968     6.2252     5.3908     7.3553    89.4247     2.4487     0.1360     0.0146
  857.0000   -43.1041     6.1682     5.3586     7.4284    90.6995     2.4476     0.1364     0.0132
  857.5000   -43.1115     6.1117     5.3265     7.5016    91.4084     2.4466     0.1345     0.0117
  858.0000   -43.1188     6.0558     5.2946     7.5748    92.2837     2.4516     0.1318     0.0113
  858.5000   -43.1261     6.0003     5.2630     7.6479    93.1632     2.4572     0.1291     0.0174
  859.0000   -43.1334     5.9454     5.2315     7.7211    94.0370     2.4627     0.1264     0.0173
  859.5000   -43.1408     5.8909     5.1994     7.7943    94.9938     2.4655     0.1263     0.0158
  860.0000   -43.1481     5.8235     5.1256     7.8675    97.7083     2.4610     0.1299     0.0142
  860.5000   -43.1554     5.7349     5.0322     7.9408    99.7446     2.4549     0.1357     0.0127
  861.0000   -43.1628     5.6476     4.9404     8.0129    99.7380     2.4450     0.1442     0.0111
  861.5000   -43.1701     5.5127     4.8503     8.0599    98.5584     2.4229     0.1499     0.0096
  862.0000   -43.1774     5.3070     4.7619     7.9657    94.1500     2.4132     0.1521     0.0080
  862.5000   -43.1847     5.1091     4.6750     7.8719    89.6614     2.3989     0.1649     0.0065
  863.0000   -43.1921     4.9185     4.5898     7.8453    88.9034     2.3793     0.1768     0.0049
  863.5000   -43.1997     4.7351     4.5061     7.9042    89.0208     2.3599     0.1887     0.0044
  864.0000   -43.2076     4.3068     4.0558     7.9960    88.4389     2.3403     0.2006     0.0092
  864.5000   -43.2135     3.8649     3.5762     8.0718    87.0017     2.3208     0.2129     0.0170
  865.0000   -43.1595     3.4684     3.1533     8.0642    86.6725     2.3013     0.2189     0.0330
  865.5000   -42.8568     3.1126     2.7805     8.0561    85.6988     2.2816     0.2252     0.0542
  866.0000   -42.5577     2.7932     2.4517     8.1158    83.8975     2.2629     0.2317     0.0768
  866.5000   -42.2619     2.5066     2.1618     8.2592    82.2424     2.2628     0.2198     0.0983
  867.0000   -42.0259     2.2582     1.9148     8.4017    84.1991     2.2936     0.2002     0.0994
  867.5000   -42.0327     2.1024     1.8629     8.2550    87.0808     2.3529     0.1807     0.0914
  868.0000   -42.0331     2.0408     1.8293     8.0818    94.2985     2.3862     0.1611     0.1052
  868.5000   -42.0328     2.0407     1.8277     7.9072    98.8732     2.4184     0.1418     0.1184
  869.0000   -42.0330     2.0772     1.9153     7.7654    95.4993     2.4475     0.1307     0.1075
  869.5000   -42.0330     2.2202     2.1462     7.6293    92.9134     2.4585     0.1269     0.1033
  870.0000   -42.0330     2.5900     2.4050     7.4940    92.7742     2.4669     0.1252     0.1084
  870.5000   -42.0330     3.0221     2.6941     7.3818    95.2174     2.4692     0.1244     0.1107
  871.0000   -42.0330     3.5252     3.0178     7.3562    97.2565     2.4695     0.1233     0.0977
  871.5000   -42.0330     3.8859     3.3805     7.2628    97.9371     2.4694     0.1294     0.0685
  872.0000   -42.0330     4.1742     3.7041     7.1610    99.1294     2.4602     0.1409     0.0414
  872.5000   -42.0330     4.2113     3.8101     7.1269   104.5255     2.4392     0.1524     0.0186
  873.0000   -42.0330     4.2113     3.8101     7.1609   109.7668     2.4183     0.1581     0.0159
  873.5000   -42.0330     4.2113     3.6913     7.1950   114.9564     2.3993     0.1645     0.0150
  874.0000   -42.0330     4.2113     3.4658     7.2288   119.4572     2.3861     0.1721     0.0197
  874.5000   -42.0330     4.1729     3.2534     7.2302   118.5025     2.3757     0.1761     0.0429
  875.0000   -42.0330     4.0411     3.1122     7.2300   112.6521     2.3758     0.1664     0.0498
  875.5000   -42.0330     3.8212     3.1117     7.2299   105.7028     2.4029     0.1597     0.0234
  876.0000   -42.0330     3.5971     3.1119     7.2293    98.7653     2.3963     0.1603     0.0142
  876.5000   -42.0330     3.3870     3.1295     7.2562    94.7427     2.4024     0.1572     0.0189
  877.0000   -42.0330     3.2898     3.1638     7.2875    94.4469     2.4057     0.1539     0.0246
  877.5000   -42.0330     3.3184     3.1979     7.3189    96.7881     2.4237     0.1413     0.0197
  878.0000   -42.0330     3.5428     3.2284     7.3502    99.5534     2.4438     0.1339     0.0115
  878.5000   -42.0330     3.8039     3.3108     7.3817    98.9947     2.4506     0.1352     0.0063
  879.0000   -42.0330     3.9496     3.4941     7.4366    98.1688     2.4518     0.1320     0.0059
  879.5000   -42.0330     3.9860     3.6876     7.5001    97.3598     2.4570     0.1287     0.0055
  880.0000   -42.0330     4.1619     3.8918     7.5638    96.6817     2.4625     0.1255     0.0050
