~VERSION INFORMATION
 VERS.                2.0:   CWLS LOG ASCII STANDARD - VERSION 2.0
 WRAP.                 NO:   ONE LINE PER DEPTH STEP
~WELL INFORMATION
#MNEM.UNIT      DATA TYPE    INFORMATION
#----------   ------------   ------------------------------
 STRT.F            0.0000:   START DEPTH
 STOP.F          437.0000:   STOP DEPTH
 STEP.F            0.5000:   STEP LENGTH
 NULL.          -999.2500:   NO VALUE
 COMP. BROWN JOHN E&C INC:   COMPANY
 WELL. NPR 3 SX-10 #64-1-10:   WELL
 FLD .             TEAPOT:   FIELD
 LOC .      S10 T38N R78W:   LOCATION
 CNTY.            NATRONA:   COUNTY
 STAT.            WYOMING:   STATE
 CTRY. UNITED STATES OF AMERICA:   COUNTRY
 SRVC.     Atlas Wireline:   SERVICE COMPANY
 DATE.        29-APR-1991:   LOGDATE
 API .       490251133600:   API NUMBER
~CURVE INFORMATION
#MNEM.UNIT       API CODE    CURVE DESCRIPTION
#----------   ------------   ------------------------------
 DEPT.F                  :   
 GRR .GAPI   07 310 01 00:   GAMMA RAY
 RILD.OHMM   07 120 46 00:   INDUCTION LOG DEEP RESISTIVITY
 RILM.OHMM   07 120 44 00:   INDUCTION LOG MEDIUM RESISTIVITY
~PARAMETER INFORMATION
#MNEM.UNIT          VALUE    DESCRIPTION
#----------   ------------   ------------------------------
 EPD .F              5185:   ELEVATION PERMANENT DATUM
 LMF .                 KB:   LOG MEASURED FROM
 DAPD.F                 5:   FEET ABOVE PERMANENT DATUM
 DMF .                 KB:   DRILLING MEASURED FROM
 EKB .F              5190:   KELLING BUSHING
 EGL .F              5185:   GROUND LEVEL
 DATE.        29-APR-1991:   RUN DATE
 RUN .                  1:   RUN NUMBER
 DD  .F               440:   DEPTH DRILLER
 DL  .F               439:   DEPTH LOGGER
 BLI .F               437:   BOTTOM LOG INTERVAL
 CS  .IN            8.625:   CASING SIZE
 CBD .F                44:   CASING BOTTOM DRILLER
 CBL .F                44:   CASING BOTTOM LOGGER
 BS  .IN            7.875:   BIT SIZE
 BSD .F               440:   BIT SIZE AT DEPTH
 DFT .                AIR:   DRILLING FLUID TYPE
 LUN .           HL- 6272:   LOGGING UNIT NUMBER
 LUL .             CASPER:   LOGGING UNIT LOCATION
 ENGI.            KINNETT:   RECORDING ENGINEER
 WITN.             STRONG:   WITNESSED BY
 CLNT.            A2DTECH:   CLIENT CODE
 ORIG.           5" PRINT:   ORIGIN OF DATA
 UWI .       490251133600:   UNIQUE WELL ID
 DICO. A2D Technologies, Inc.:   DIGITIZING COMPANY
~OTHER INFORMATION
~A    DEPT      GRR      RILD       RILM   
    0.0000    14.0115  -999.2500  -999.2500
    0.5000    16.0743  -999.2500  -999.2500
    1.0000    20.8936  -999.2500  -999.2500
    1.5000    24.3347  -999.2500  -999.2500
    2.0000    26.1678  -999.2500  -999.2500
    2.5000    24.3255  -999.2500  -999.2500
    3.0000    21.3347  -999.2500  -999.2500
    3.5000    18.3440  -999.2500  -999.2500
    4.0000    16.2720  -999.2500  -999.2500
    4.5000    16.7269  -999.2500  -999.2500
    5.0000    21.7759  -999.2500  -999.2500
    5.5000    36.7024  -999.2500  -999.2500
    6.0000    49.3318  -999.2500  -999.2500
    6.5000    58.0562  -999.2500  -999.2500
    7.0000    63.7943  -999.2500  -999.2500
    7.5000    66.0869  -999.2500  -999.2500
    8.0000    66.5429  -999.2500  -999.2500
    8.5000    66.3074  -999.2500  -999.2500
    9.0000    65.6137  -999.2500  -999.2500
    9.5000    65.3795  -999.2500  -999.2500
   10.0000    66.2937  -999.2500  -999.2500
   10.5000    68.8160  -999.2500  -999.2500
   11.0000    69.0422  -999.2500  -999.2500
   11.5000    63.9829  -999.2500  -999.2500
   12.0000    58.0059  -999.2500  -999.2500
   12.5000    56.3934  -999.2500  -999.2500
   13.0000    56.6185  -999.2500  -999.2500
   13.5000    57.5328  -999.2500  -999.2500
   14.0000    59.8253  -999.2500  -999.2500
   14.5000    64.8743  -999.2500  -999.2500
   15.0000    64.8852  -999.2500  -999.2500
   15.5000    61.6493  -999.2500  -999.2500
   16.0000    57.5099  -999.2500  -999.2500
   16.5000    55.8959  -999.2500  -999.2500
   17.0000    56.5850  -999.2500  -999.2500
   17.5000    57.9707  -999.2500  -999.2500
   18.0000    59.8374  -999.2500  -999.2500
   18.5000    62.8039  -999.2500  -999.2500
   19.0000    61.9909  -999.2500  -999.2500
   19.5000    59.1853  -999.2500  -999.2500
   20.0000    57.7031  -999.2500  -999.2500
   20.5000    62.2744  -999.2500  -999.2500
   21.0000    69.7280  -999.2500  -999.2500
   21.5000    76.2354  -999.2500  -999.2500
   22.0000    83.1813  -999.2500  -999.2500
   22.5000    84.0967  -999.2500  -999.2500
   23.0000    83.1722  -999.2500  -999.2500
   23.5000    83.1676  -999.2500  -999.2500
   24.0000    84.5413  -999.2500  -999.2500
   24.5000    81.7802  -999.2500  -999.2500
   25.0000    78.1003  -999.2500  -999.2500
   25.5000    79.0146  -999.2500  -999.2500
   26.0000    84.5230  -999.2500  -999.2500
   26.5000    86.8155  -999.2500  -999.2500
   27.0000    85.8921  -999.2500  -999.2500
   27.5000    81.7528  -999.2500  -999.2500
   28.0000    78.5323  -999.2500  -999.2500
   28.5000    82.2031  -999.2500  -999.2500
   29.0000    82.4294  -999.2500  -999.2500
   29.5000    79.4374  -999.2500  -999.2500
   30.0000    77.1358  -999.2500  -999.2500
   30.5000    78.7392  -999.2500  -999.2500
   31.0000    78.9654  -999.2500  -999.2500
   31.5000    78.5003  -999.2500  -999.2500
   32.0000    78.9551  -999.2500  -999.2500
   32.5000    80.3300  -999.2500  -999.2500
   33.0000    79.8648  -999.2500  -999.2500
   33.5000    78.0226  -999.2500  -999.2500
   34.0000    77.0992  -999.2500  -999.2500
   34.5000    79.3917  -999.2500  -999.2500
   35.0000    81.2248  -999.2500  -999.2500
   35.5000    82.3688  -999.2500  -999.2500
   36.0000    83.9722  -999.2500  -999.2500
   36.5000    86.2647  -999.2500  -999.2500
   37.0000    86.8054  -999.2500  -999.2500
   37.5000    83.9585  -999.2500  -999.2500
   38.0000    78.4409  -999.2500  -999.2500
   38.5000    77.0580  -999.2500  -999.2500
   39.0000    77.0535  -999.2500  -999.2500
   39.5000    77.9677  -999.2500  -999.2500
   40.0000    83.0168  -999.2500  -999.2500
   40.5000    87.1471  -999.2500  -999.2500
   41.0000    85.3040  -999.2500  -999.2500
   41.5000    83.0023  -999.2500  -999.2500
   42.0000    82.3097  -999.2500  -999.2500
   42.5000    88.0468  -999.2500  -999.2500
   43.0000    96.3117  -999.2500  -999.2500
   43.5000   105.0361  -999.2500  -999.2500
   44.0000   114.2199  -999.2500  -999.2500
   44.5000   120.6471  -999.2500  -999.2500
   45.0000   123.6288  -999.2500  -999.2500
   45.5000   125.2333     6.3524   164.1394
   46.0000   125.6882     1.6455     2.3722
   46.5000   126.1430     1.4669     2.4405
   47.0000   126.5967     1.8773     2.8356
   47.5000   132.1052     2.8151     3.4888
   48.0000   136.4651     5.9817     4.3331
   48.5000   138.9873     9.0672     5.2360
   49.0000   140.3610     6.8535     6.0059
   49.5000   141.9644     5.9796     5.9614
   50.0000   143.3577     5.0696     5.9175
   50.5000   144.9538     4.9611     5.9161
   51.0000   146.7982     4.8898     6.3991
   51.5000   145.4267     4.8544     7.3295
   52.0000   141.7582     5.5227     6.6768
   52.5000   139.0085     6.3283     6.4406
   53.0000   139.0152     6.9993     6.3023
   53.5000   137.5683     7.0963     6.3008
   54.0000   134.2360     6.8948     6.4361
   54.5000   129.3895     6.6988     6.6292
   55.0000   128.0163     6.5085     6.9099
   55.5000   129.6328     6.6493     7.2114
   56.0000   131.4772     6.8913     7.5260
   56.5000   131.7120     7.2975     7.9108
   57.0000   130.3406     7.7832     8.2559
   57.5000   130.1176     8.5430     8.6162
   58.0000   132.1935     8.6656     9.0567
   58.5000   133.1191     8.8528     9.4518
   59.0000   131.5179     9.1750     9.8642
   59.5000   126.4711     9.5797    10.1501
   60.0000   119.8163     9.9339    10.3003
   60.5000   122.1202    10.3610    10.4381
   61.0000   124.4242    10.7381    10.8152
   61.5000   124.4311    11.0497    11.4498
   62.0000   123.9356    11.2884    11.7795
   62.5000   122.6085    11.3687    11.8620
   63.0000   119.8587    11.4492    12.0295
   63.5000   118.9467    11.6132    12.0267
   64.0000   118.7238    11.6955    11.8530
   64.5000   118.9603    11.6938    11.8503
   65.0000   121.9533    11.6924    11.6791
   65.5000   124.4868    11.6074    11.5932
   66.0000   123.1154    11.5231    11.5077
   66.5000   119.4468    11.3477    11.4224
   67.0000   119.4536    11.0348    11.3383
   67.5000   118.3118    10.8763    11.2548
   68.0000   117.1700    10.7973    11.1720
   68.5000   119.4739    10.7189    11.0897
   69.0000   118.9374    10.7177    11.0080
   69.5000   115.1648    10.5637    10.8491
   70.0000   113.5219    10.5625    10.7692
   70.5000   117.2057    10.4858    10.6899
   71.0000   119.5096    10.4846    10.6112
   71.5000   120.2038    10.4084    10.6086
   72.0000   117.9152    10.3328    10.5305
   72.5000   114.9357    10.3316    10.5275
   73.0000   115.4019    10.2565    10.6007
   73.5000   118.1652    10.2550    10.6749
   74.0000   123.4553    10.2538    10.5957
   74.5000   124.1512    10.2526    10.4427
   75.0000   122.3203    10.2514    10.3658
   75.5000   121.4081    10.1770    10.2161
   76.0000   120.9557    10.1758    10.0686
   76.5000   120.5030    10.1018     9.9945
   77.0000   122.1778    10.0285     9.9209
   77.5000   124.1922     9.9556     9.8477
   78.0000   122.1330     9.8127     9.8450
   78.5000   115.4783     9.7414     9.8427
   79.0000   115.0239     9.6660     9.7702
   79.5000   118.7078     9.5905     9.6291
   80.0000   121.9305     9.5304     9.5582
   80.5000   125.3829     9.4611     9.4878
   81.0000   124.7005     9.3924     9.4856
   81.5000   123.7885     9.3242     9.3486
   82.0000   121.4982     9.2565     9.3465
   82.5000   117.3702     9.2554     9.2776
   83.0000   116.4578     9.2543     9.2755
   83.5000   116.4649     9.2532     9.2732
   84.0000   118.3094     9.2521     9.2706
   84.5000   124.3727     9.2510     9.2684
   85.0000   130.0842     9.2499     9.2663
   85.5000   130.7340     9.2489     9.3312
   86.0000   124.0809     9.2478     9.3285
   86.5000   119.9530     9.2464     9.3938
   87.0000   117.8924     9.3122     9.4591
   87.5000   121.3448     9.3781     9.4563
   88.0000   123.4190     9.3097     9.3198
   88.5000   120.8989     9.2421     9.2511
   89.0000   116.5412     8.9796     9.1829
   89.5000   119.3045     8.7246     8.9213
   90.0000   121.6084     8.4162     8.6057
   90.5000   121.6152     8.1772     8.2421
