~VERSION INFORMATION
 VERS.                2.0:   CWLS LOG ASCII STANDARD - VERSION 2.0
 WRAP.                 NO:   ONE LINE PER DEPTH STEP
~WELL INFORMATION
#MNEM.UNIT      DATA TYPE    INFORMATION
#----------   ------------   ------------------------------
 STRT.F           16.0000:   START DEPTH
 STOP.F          634.0000:   STOP DEPTH
 STEP.F            0.5000:   STEP LENGTH
 NULL.          -999.2500:   NO VALUE
 COMP. LAWRENCE/ALLISON INC:   COMPANY
 WELL.    14-15 SX #11-11:   WELL
 FLD .             TEAPOT:   FIELD
 LOC .      S11 T38N R78W:   LOCATION
 CNTY.            NATRONA:   COUNTY
 STAT.            WYOMING:   STATE
 CTRY. UNITED STATES OF AMERICA:   COUNTRY
 SRVC.      Dresser Atlas:   SERVICE COMPANY
 DATE.        06-JAN-1985:   LOGDATE
 API .       490251101700:   API NUMBER
~CURVE INFORMATION
#MNEM.UNIT       API CODE    CURVE DESCRIPTION
#----------   ------------   ------------------------------
 DEPT.F                  :   
 SPR .MV     11 010 01 00:   SPONTANEOUS POTENTIAL FROM RES.
 RD  .OHMM   11 220 10 00:   RESISTIVITY DEEP
 RS  .OHMM   11 220 09 00:   RESISTIVITY SHALLOW
 RMLL.OHMM   20 270 04 00:   RESISTIVITY MICROLATEROLOG
 AC  .US/F   60 520 00 00:   ACCOUSTIC SONIC
 CNC .DEC    42 890 03 00:   COMPENSATED NEUTRON POROSITY SANDSTONE
 PORD.DEC    45 890 12 00:   POROSITY DENSITY SANDSTONE
 GRD .GAPI   45 310 01 00:   GAMMA RAY FROM DENSITY LOG
 CALD.IN     45 280 60 00:   CALIPER FROM DENSITY
 CORR.G/C3   45 356 01 00:   DENSITY CORRECTION
 DEN .G/C3   45 350 01 00:   COMPENSATED BULK DENSTIY
~PARAMETER INFORMATION
#MNEM.UNIT          VALUE    DESCRIPTION
#----------   ------------   ------------------------------
 PD  .                 GL:   PERMANENT DATUM
 EPD .F            5196.8:   ELEVATION PERMANENT DATUM
 LMF .                 KB:   LOG MEASURED FROM
 DMF .                 KB:   DRILLING MEASURED FROM
 EKB .F            5196.8:   KELLING BUSHING
 EGL .F            5196.8:   GROUND LEVEL
 DATE.        06-JAN-1985:   RUN DATE
 RUN .                  1:   RUN NUMBER
 DD  .F               650:   DEPTH DRILLER
 DL  .F               636:   DEPTH LOGGER
 BLI .F               634:   BOTTOM LOG INTERVAL
 CS  .IN            8.625:   CASING SIZE
 CBD .F                20:   CASING BOTTOM DRILLER
 CBL .F                22:   CASING BOTTOM LOGGER
 BS  .IN             6.25:   BIT SIZE
 BSD .F               650:   BIT SIZE AT DEPTH
 DFT .        KCL POLYMER:   DRILLING FLUID TYPE
 RMS .OHMM           .105:   RESISTIVITY MUD SAMPLE
 MST .F                72:   MUD SAMPLE TEMPERATURE
 RMF .OHMM            .08:   RESISTIVITY MUD FILTRATE SAMPLE
 MFST.F                72:   MUD FILTRATE SAMPLE TEMPERATURE
 RMC .OHMM            .13:   RESISTIVITY MUD CAKE
 MCST.F                72:   MUD CAKE SAMPLE TEMPERATURE
 MFSS.               CALC:   MUD FILTRATE SAMPLE SOURCE
 MCSS.               CALC:   MUD CAKE SAMPLE SOURCE
 TCS .HRS               3:   TIME CURCULATED STOPPED
 LUN .               6307:   LOGGING UNIT NUMBER
 LUL .               GLTE:   LOGGING UNIT LOCATION
 ENGI.               MACK:   RECORDING ENGINEER
 WITN.               PAGE:   WITNESSED BY
 CLNT.            A2DTECH:   CLIENT CODE
 ORIG.           5" PRINT:   ORIGIN OF DATA
 UWI .       490251101700:   UNIQUE WELL ID
 DICO. A2D Technologies, Inc.:   DIGITIZING COMPANY
 R1  . POROSITY WITH SANDSTONE:   REMARKS 1
~OTHER INFORMATION
~A   DEPT      SPR         RD         RS       RMLL         AC        CNC       PORD        GRD       CALD       CORR        DEN   
# ...
  260.0000   -64.8335    11.9602     9.3650  -999.2500   100.8070     0.2913     0.1132   100.6502     6.5471     0.1785     2.4881
  260.5000   -64.8354    12.2051     9.5606  -999.2500   101.3333     0.2919     0.1054   104.5930     6.5463     0.1861     2.5010
  261.0000   -64.6858    12.2892     9.7602  -999.2500   101.7248     0.2932     0.1042   109.1391     6.5456     0.1879     2.5094
  261.5000   -64.6873    12.2884     9.8269  -999.2500   102.2456     0.2950     0.1027   109.7499     6.5448     0.1848     2.5109
  262.0000   -64.5378    12.2873     9.8939  -999.2500   102.9117     0.2965     0.1000   108.8497     6.5441     0.1909     2.5125
  262.5000   -64.5393    12.1172     9.8241  -999.2500   103.3651     0.3017     0.0982   110.6745     6.5585     0.2211     2.5163
  263.0000   -64.5408    11.9495     9.6875  -999.2500   103.4425     0.3032     0.1000   112.8000     6.5730     0.2272     2.5178
  263.5000   -64.5423    11.7841     9.5527  -999.2500   103.2192     0.3062     0.1006   112.3537     6.5874     0.2258     2.5171
  264.0000   -64.5438    11.6210     9.2901  -999.2500   102.9207     0.3126     0.0979   111.3022     6.5866     0.2261     2.5179
  264.5000   -64.5453    11.3022     9.1608  -999.2500   102.6221     0.3023     0.0949   112.5200     6.5857     0.2335     2.5209
  265.0000   -64.5471    11.0687     9.0334  -999.2500   102.3988     0.2954     0.0940   116.3096     6.5850     0.2411     2.5255
  265.5000   -64.5486    11.0680     9.0321  -999.2500   102.2501     0.2927     0.0935   116.7710     6.5386     0.2457     2.5286
  266.0000   -64.5501    11.1442     9.1047  -999.2500   102.3281     0.3027     0.0939   114.9631     6.5075     0.2413     2.5286
  266.5000   -64.5516    11.2212     9.2837  -999.2500   102.2551     0.3018     0.1044   104.3806     6.4915     0.2051     2.5215
  267.0000   -64.5531    11.2985     9.4776  -999.2500   102.1070     0.3006     0.1104   105.9010     6.4908     0.1780     2.5131
  267.5000   -64.5546    11.3764     9.6086  -999.2500   101.8837     0.3015     0.1162   106.8162     6.4900     0.1660     2.5008
  268.0000   -64.5561    11.4548     9.6742  -999.2500   101.6598     0.3046     0.1174   104.1006     6.4893     0.1722     2.4856
  268.5000   -64.5576    11.4538     9.5393  -999.2500   101.5122     0.3022     0.1141   104.4106     6.4733     0.1783     2.4864
  269.0000   -64.7101    11.5329     9.4720  -999.2500   101.5144     0.2956     0.1123   105.9310     6.4726     0.1799     2.4925
  269.5000   -64.7116    11.7744     9.4053  -999.2500   101.7422     0.2844     0.1138   106.5437     6.4718     0.1799     2.4963
  270.0000   -64.8642    12.1890     9.3390  -999.2500   102.1204     0.2857     0.1144   106.5512     6.4711     0.1694     2.4918
  270.5000   -64.8657    12.5310     9.3377  -999.2500   102.2100     0.2992     0.1123   107.0126     6.4551     0.1589     2.4925
  271.0000   -65.0182    12.9723     9.2719  -999.2500   101.9745     0.2963     0.1091   107.6252     6.4544     0.1620     2.4971
  271.5000   -65.0197    13.3363     9.2706  -999.2500   101.9767     0.2881     0.1064   109.2969     6.4536     0.1682     2.5040
  272.0000   -65.0212    13.3403     9.2693  -999.2500   102.2797     0.2854     0.1058   110.6660     6.4529     0.1773     2.5078
  272.5000   -65.1738    12.9696     9.1404  -999.2500   102.3572     0.2975     0.1097   110.0683     6.4521     0.1866     2.5070
  273.0000   -65.1753    12.5250     9.0132  -999.2500   102.3594     0.3023     0.1124   106.8988     6.4514     0.1910     2.4972
  273.5000   -65.4789    12.1831     8.9497  -999.2500   102.2864     0.3045     0.1128    99.9472     6.4506     0.1843     2.4935
  274.0000   -65.6315    11.9314     8.8866  -999.2500   102.2135     0.3024     0.1070   102.0727     6.4497     0.1655     2.4958
  274.5000   -65.7840    11.7663     8.7630  -999.2500   102.0653     0.2982     0.0989   107.6778     6.4490     0.1505     2.5041
  275.0000   -66.2387    11.6034     8.7618  -999.2500   102.4687     0.2997     0.0986   108.4417     6.4482     0.1400     2.5155
  275.5000   -66.3912    11.5222     8.6399  -999.2500   103.4238     0.3238     0.0999   107.2309     6.4628     0.1386     2.5193
  276.0000   -66.8459    11.2842     8.5197  -999.2500   104.2531     0.3404     0.1027   104.6425     6.4619     0.1492     2.5194
  276.5000   -66.9985    11.2054     8.5186  -999.2500   105.1575     0.3374     0.1060   103.9257     6.4612     0.1629     2.5171
  277.0000   -67.4532    10.8228     8.5174  -999.2500   106.1372     0.3362     0.1101   104.7060     6.4604     0.1690     2.5134
  277.5000   -67.7571    10.3809     8.5162  -999.2500   106.5148     0.3381     0.1192   105.7766     6.5204     0.2038     2.5010
  278.0000   -67.9097     9.8883     8.2790  -999.2500   105.8409     0.3414     0.1328   106.5204     6.5653     0.2265     2.4780
  278.5000   -68.0622     9.4191     7.8195  -999.2500   104.7905     0.3381     0.1361   106.6793     6.5799     0.2356     2.4529
  279.0000   -68.0637     8.9101     7.2449  -999.2500   103.8905     0.3318     0.1310   107.8986     6.5790     0.2040     2.4555
  279.5000   -68.0652     8.5463     6.8571  -999.2500   102.9905     0.3279     0.1193   109.2677     6.5782     0.1467     2.4734
  280.0000   -68.0667     8.3119     6.6300  -999.2500   102.5416     0.3110     0.1100   108.8214     6.5775     0.1423     2.4954
  280.5000   -67.9168     8.6046     7.2042  -999.2500   102.1679     0.3002     0.1073   108.3731     6.5767     0.1423     2.5037
  281.0000   -67.6165     9.0949     7.6671  -999.2500   101.7942     0.2984     0.1079   108.9877     6.5760     0.1454     2.5038
  281.5000   -67.4666     9.6131     8.1599  -999.2500   101.4957     0.3100     0.1097   109.9029     6.5752     0.1516     2.4993
  282.0000   -67.3170    10.0907     8.5054  -999.2500   101.3470     0.3186     0.1110   110.9694     6.5745     0.1609     2.4978
  282.5000   -66.8653    10.4460     8.6830  -999.2500   101.2740     0.3102     0.1086   112.0359     6.5737     0.1747     2.4986
  283.0000   -66.5651    10.6651     8.7426  -999.2500   101.4272     0.3016     0.1041   113.1024     6.5729     0.1883     2.5062
  283.5000   -66.2645    10.7384     8.7411  -999.2500   101.8054     0.2906     0.0999   113.4125     6.5720     0.1987     2.5160
  284.0000   -66.2660    10.8124     8.8010  -999.2500   102.3339     0.2886     0.1032   112.5123     6.5713     0.2017     2.5168
  284.5000   -66.2675    10.8869     8.9227  -999.2500   102.7873     0.3058     0.1083   109.1916     6.5705     0.2079     2.5017
  285.0000   -66.1175    10.8861     8.9832  -999.2500   103.2407     0.3163     0.1162   109.0459     6.5850     0.2140     2.4866
  285.5000   -65.9683    10.8854     8.9820  -999.2500   103.6940     0.3152     0.1255   111.3246     6.5842     0.2125     2.4715
  286.0000   -66.1209    10.8094     8.9187  -999.2500   104.0722     0.3112     0.1289   114.5091     6.5835     0.2066     2.4632
  286.5000   -66.1224    10.7332     8.9175  -999.2500   104.4511     0.3080     0.1316   113.3063     6.5675     0.2021     2.4655
  287.0000   -66.2749    10.6556     8.7934  -999.2500   104.7534     0.3071     0.1274   112.5574     6.5212     0.2022     2.4776
  287.5000   -66.2764    10.3607     8.6711  -999.2500   104.4987     0.3080     0.1129   112.1111     6.4901     0.2038     2.4898
  288.0000   -66.4290     9.8584     8.4914  -999.2500   103.5188     0.3102     0.1070   110.1519     6.4893     0.1223     2.5072
  288.5000   -66.5816     9.0465     7.9765  -999.2500   102.6078     0.3151     0.1079   106.6798     6.5039     0.1269     2.5080
  289.0000   -66.7341     8.2441     7.3896  -999.2500   101.8762     0.3237     0.1148   107.4437     6.5334     0.1376     2.4936
  289.5000   -66.7357     7.9076     6.9414  -999.2500   101.3064     0.3228     0.1170   109.4180     6.5631     0.1724     2.4899
  290.0000   -66.8885     7.8525     6.5659  -999.2500   101.1577     0.3126     0.1161   112.7538     6.6079     0.2192     2.4899
