~VERSION INFORMATION
 VERS.                2.0:   CWLS LOG ASCII STANDARD - VERSION 2.0
 WRAP.                 NO:   ONE LINE PER DEPTH STEP
~WELL INFORMATION
#MNEM.UNIT      DATA TYPE    INFORMATION
#----------   ------------   ------------------------------
 STRT.F           34.0000:   START DEPTH
 STOP.F          514.0000:   STOP DEPTH
 STEP.F            0.5000:   STEP LENGTH
 NULL.          -999.2500:   NO VALUE
 COMP. FENIX & SCISSON INC:   COMPANY
 WELL. NPR 3 #41 SX 10-10:   WELL
 FLD .             TEAPOT:   FIELD
 LOC .      S10 T38N R78W:   LOCATION
 CNTY.            NATRONA:   COUNTY
 STAT.            WYOMING:   STATE
 CTRY. UNITED STATES OF AMERICA:   COUNTRY
 SRVC.           BIRDWELL:   SERVICE COMPANY
 DATE.        25-JUN-1978:   LOGDATE
 API .       490251065200:   API NUMBER
~CURVE INFORMATION
#MNEM.UNIT       API CODE    CURVE DESCRIPTION
#----------   ------------   ------------------------------
 DEPT.F                  :   
 SPR .MV     07 010 01 00:   SPONTANEOUS POTENTIAL
 ILD .OHMM   07 120 46 00:   INDUCTION LOG DEEP
 SN  .OHMM   07 040 16 00:   SHORT NORMAL 16"
 CALD.IN     45 280 60 00:   CALIPER FROM DENSITY LOG
 GRD .GAPI   45 310 01 00:   GAMMA RAY FROM DENSITY LOG
 CORR.G/C3   45 356 01 00:   DENSITY CORRECTION
 DPHI.DEC    45 890 12 00:   DENSITY POROSITY SANDSTONE
 DEN .G/C3   45 350 01 00:   COMPENSATED BULK DENSTIY
 GRN .GAPI   35 310 01 00:   GAMMA RAY
 NEUT.NAPI   35 330 01 00:   NEUTRON
~PARAMETER INFORMATION
#MNEM.UNIT          VALUE    DESCRIPTION
#----------   ------------   ------------------------------
 PD  .                 GL:   PERMANENT DATUM
 EPD .F              5235:   ELEVATION PERMANENT DATUM
 LMF .                 KB:   LOG MEASURED FROM
 DAPD.F                 4:   FEET ABOVE PERMANENT DATUM
 DMF .                 KB:   DRILLING MEASURED FROM
 EKB .F              5239:   KELLING BUSHING
 EGL .F              5235:   GROUND LEVEL
 DATE.        25-JUN-1978:   RUN DATE
 RUN .                  1:   RUN NUMBER
 DD  .F               510:   DEPTH DRILLER
 DL  .F               514:   DEPTH LOGGER
 BLI .F               514:   BOTTOM LOG INTERVAL
 TLI .F                30:   TOP LOG INTERVAL
 CS  .IN            8.625:   CASING SIZE
 CBD .F                40:   CASING BOTTOM DRILLER
 CBL .F                40:   CASING BOTTOM LOGGER
 BS  .IN            7.875:   BIT SIZE
 BSD .F               510:   BIT SIZE AT DEPTH
 DFT .                KCL:   DRILLING FLUID TYPE
 DFD .                8.6:   DRILLING FLUID DENSITY
 DFV .                 31:   DRILLING FLUID VISCOSITY
 DFPH.                9.5:   DRILLING FLUID PH
 DFL .                 17:   DRILLING FLUID LOSS
 MSS .           FLOWLINE:   MUD SAMPLE SOURCE
 RMS .OHMM             .5:   RESISTIVITY MUD SAMPLE
 MST .F                74:   MUD SAMPLE TEMPERATURE
 RMF .OHMM            .54:   RESISTIVITY MUD FILTRATE SAMPLE
 MFST.F                72:   MUD FILTRATE SAMPLE TEMPERATURE
 RMC .OHMM            1.0:   RESISTIVITY MUD CAKE
 MCST.F                66:   MUD CAKE SAMPLE TEMPERATURE
 MFSS.               MEAS:   MUD FILTRATE SAMPLE SOURCE
 MCSS.               MEAS:   MUD CAKE SAMPLE SOURCE
 BHT .F                74:   BOTTOM HOLE TEMPERATURE
 TCS .HRS            0100:   TIME CURCULATED STOPPED
 MRT .F                74:   MAXIMUM RECORDED TEMPERATURE
 LUN .               2958:   LOGGING UNIT NUMBER
 LUL .               CASP:   LOGGING UNIT LOCATION
 ENGI.           REYNOLDS:   RECORDING ENGINEER
 CLNT.            A2DTECH:   CLIENT CODE
 ORIG.           5" PRINT:   ORIGIN OF DATA
 UWI .       490251065200:   UNIQUE WELL ID
 DICO. A2D Technologies, Inc.:   DIGITIZING COMPANY
~OTHER INFORMATION
~A   DEPT      SPR        ILD         SN       CALD        GRD       CORR       DPHI        DEN        GRN       NEUT   
   34.0000  -999.2500  -999.2500  -999.2500  -999.2500  -999.2500  -999.2500  -999.2500  -999.2500  -999.2500  -999.2500
   34.5000  -999.2500  -999.2500  -999.2500  -999.2500    77.2082  -999.2500  -999.2500  -999.2500  -999.2500  -999.2500
   35.0000  -999.2500  -999.2500  -999.2500  -999.2500    93.8713  -999.2500  -999.2500  -999.2500  -999.2500  -999.2500
   35.5000  -999.2500  -999.2500  -999.2500  -999.2500   100.5900  -999.2500  -999.2500  -999.2500  -999.2500  -999.2500
   36.0000  -999.2500  -999.2500  -999.2500  -999.2500   100.8931  -999.2500  -999.2500  -999.2500  -999.2500  -999.2500
   36.5000  -999.2500  -999.2500  -999.2500  -999.2500   102.7045  -999.2500  -999.2500  -999.2500  -999.2500  -999.2500
   37.0000  -999.2500  -999.2500  -999.2500  -999.2500   102.4043  -999.2500  -999.2500  -999.2500  -999.2500  -999.2500
   37.5000  -999.2500  -999.2500  -999.2500  -999.2500   102.1041  -999.2500  -999.2500  -999.2500  -999.2500  -999.2500
   38.0000  -999.2500  -999.2500  -999.2500  -999.2500    99.2401  -999.2500  -999.2500  -999.2500  -999.2500  -999.2500
   38.5000  -999.2500  -999.2500  -999.2500  -999.2500    96.6775  -999.2500  -999.2500  -999.2500  -999.2500  -999.2500
   39.0000  -999.2500  -999.2500  -999.2500  -999.2500    96.0752  -999.2500  -999.2500  -999.2500  -999.2500  -999.2500
   39.5000  -999.2500  -999.2500  -999.2500  -999.2500    98.3395  -999.2500  -999.2500  -999.2500  -999.2500  -999.2500
   40.0000  -999.2500  -999.2500  -999.2500  -999.2500   101.0559  -999.2500  -999.2500  -999.2500  -999.2500  -999.2500
   40.5000   -67.8272     7.6250     9.5679     7.5802   102.5716     0.0694     0.1463     2.4539  -999.2500  -999.2500
   41.0000   -64.8269     7.5687     9.6311     7.5199   103.0199     0.0693     0.1493     2.4592  -999.2500  -999.2500
   41.5000   -70.9995     7.5135     9.6272     7.5201   102.4180     0.0678     0.1550     2.4419  -999.2500  -999.2500
   42.0000   -64.3920     7.4587     9.6240     7.5051   100.4587     0.0423     0.1433     2.4359  -999.2500  -999.2500
   42.5000   -64.5495     7.4550     9.6884     7.5959   100.6106     0.0438     0.1489     2.4704  -999.2500  -999.2500
   43.0000   -65.4590     7.5559     9.6844     7.6414    99.1041     0.0347     0.1433     2.4674  -999.2500  -999.2500
   43.5000   -66.0677     7.7114     9.7484     7.7624    98.9547     0.0212     0.1424     2.4449  -999.2500  -999.2500
   44.0000   -66.8286     7.8700     9.9488     7.8532   103.0289     0.0152     0.1454     2.4561    50.8490  1420.9984
   44.5000   -67.1365     8.0319    10.0841     7.8684   101.3713     0.0274     0.1508     2.4599    50.4771  1426.3838
   45.0000   -67.4445     8.1971    10.2922     7.8384    99.8644     0.0347     0.1533     2.4449    49.7904  1446.6106
   45.5000   -67.7524     8.3649    10.5776     7.7932   100.0167     0.0347     0.1392     2.4463    48.9671  1458.7448
   46.0000   -67.9100     8.5370    10.8708     7.6725   101.1369     0.0347     0.1327     2.4606    49.7156  1438.4886
   46.5000   -68.0677     8.7126    11.1008     7.7331   104.1825     0.0331     0.1330     2.4735    47.9940  1466.8114
   47.0000   -68.0765     8.8918    11.3232     7.8994   105.6021     0.0316     0.1345     2.4749    49.1168  1437.1099
   47.5000   -68.0837     9.0747    11.3990     7.9147   101.3803     0.0318     0.1358     2.4726    51.7365  1408.7632
   48.0000   -68.0909     9.2605    11.4744     7.9753    97.4602     0.0421     0.1403     2.4658    50.5089  1360.1744
   48.5000   -68.0981     9.3867    11.4696     8.0811    96.1041     0.0481     0.1454     2.4553    47.2455  1389.8431
   49.0000   -68.1053     9.5138    11.6256     8.1417    97.7647     0.0496     0.1306     2.4508    48.1437  1469.4403
   49.5000   -68.1128     9.6425    11.7148     8.1267    98.0678     0.0511     0.1291     2.4593    48.5928  1511.2563
   50.0000   -68.1215     9.7047    11.8616     8.0816    97.0138     0.0495     0.1204     2.4846    46.1976  1485.6061
   50.5000   -68.2791     9.7682    11.9401     7.9760    96.8641     0.0495     0.1131     2.4921    46.7964  1499.0863
   51.0000   -68.2863     9.7633    11.9351     7.9308   100.0333     0.0495     0.1183     2.4989    50.6886  1501.8624
   51.5000   -68.2935     9.7594    11.9312     7.9461   100.9397     0.0510     0.1316     2.4991    51.5938  1465.3268
   52.0000   -68.3008     9.6215    11.8406     7.9613   100.9291     0.0510     0.1375     2.4860    51.1348  1468.0126
   52.5000   -68.3096     9.4855    11.5968     7.9766    97.6247     0.0480     0.1418     2.4635    50.0150  1472.0442
   53.0000   -68.3168     9.3461    11.3548     7.9311    96.2687     0.0420     0.1446     2.4583    49.1916  1492.2712
   53.5000   -68.3240     9.0916    11.1178     7.7956    96.5718     0.0404     0.1449     2.4545    47.0958  1503.0527
   54.0000   -68.3312     8.9012    10.8107     7.6749   100.3440     0.0419     0.1464     2.4432    46.8713  1501.6903
   54.5000   -68.1881     8.7754    10.6586     7.6146   102.0046     0.0449     0.1430     2.4522    48.5180  1488.1840
   55.0000   -68.1955     8.7719    10.4264     7.6299   101.0809     0.0449     0.1440     2.4560    50.0150  1449.0405
   55.5000   -67.9035     8.7684    10.2885     7.6452    99.5945     0.0449     0.1452     2.4537    50.6138  1465.5784
   56.0000   -67.7585     8.8258    10.1437     7.6453    97.9369     0.0449     0.1385     2.4560    50.0150  1466.5524
   56.5000   -68.2186     8.8214    10.0704     7.6304    97.4855     0.0464     0.1479     2.4627    48.1437  1484.0804
   57.0000   -68.0755     8.8179     9.9976     7.6154   102.6155     0.0493     0.1470     2.4552    46.6467  1492.1635
   57.5000   -67.7819     8.8765     9.8569     7.5552   103.2202     0.0508     0.1509     2.4477    46.6467  1480.0063
   58.0000   -67.7909     8.8721     9.7849     7.5251   102.9040     0.0538     0.1434     2.4469    46.6467  1463.8014
   58.5000   -67.9485     8.8685     9.7817     7.5554   101.7152     0.0538     0.1509     2.4582    47.1707  1477.2816
   59.0000   -68.1060     8.8642     9.7110     7.6160   101.4146     0.0538     0.1443     2.4521    51.1377  1475.9192
   59.5000   -68.1132     8.8607     9.7078     7.6313   105.1872     0.0523     0.1407     2.4597    53.0090  1481.3002
   60.0000   -68.1204     8.7961     9.7046     7.5559   106.5461     0.0477     0.1380     2.4642    52.8593  1488.0337
   60.5000   -68.1278     8.7926     9.7013     7.4201   105.1901     0.0417     0.1232     2.4799    53.9072  1490.7227
   61.0000   -68.1366     8.7891     9.6974     7.5713   101.8069     0.0432     0.1204     2.4867    56.7515  1485.3090
   61.5000   -68.1438     8.7770     9.6942     7.7829   101.2714     0.0448     0.1274     2.4882    56.6766  1481.2480
   62.0000   -68.1510     8.7207     9.6910     8.0121   101.7257     0.0477     0.1340     2.4881    55.7036  1474.4884
   62.5000   -68.0060     8.6571     9.6878     8.1458   101.4255     0.0477     0.1355     2.4761    55.4665  1469.0780
   63.0000   -67.8646     8.6537     9.6178     8.2215   101.5777     0.0492     0.1389     2.4679    55.7036  1460.7888
   63.5000   -67.7215     8.5906     9.4816     8.1914   102.3353     0.0567     0.1383     2.4641    54.4311  1471.7472
   64.0000   -67.7305     8.5279     9.4131     8.1311   103.3909     0.0656     0.1392     2.4634    55.8533  1486.5768
   64.5000   -67.4369     8.4065     9.2807     8.0255   105.3532     0.0746     0.1398     2.4633    56.3772  1494.6597
   65.0000   -67.2937     8.3453     9.2136     7.9335   106.7121     0.0656     0.1265     2.4682    56.1527  1486.5507
   65.5000   -67.1505     8.2844     9.1471     7.8446   107.1660     0.0491     0.1123     2.4941    53.1587  1473.0443
   66.0000   -67.1555     8.1673     9.0809     7.7994   104.6999     0.0461     0.0951     2.5122    54.2814  1462.0562
   66.5000   -67.1541     8.1078     9.0772     7.7391   106.1212     0.0566     0.1464     2.5091    55.2545  1478.4155
   67.0000   -67.1527     7.9864     9.0742     7.6788   105.8132     0.0641     0.1464     2.4708    56.9012  1468.9539
