~VERSION INFORMATION
 VERS.                2.0:   CWLS LOG ASCII STANDARD - VERSION 2.0
 WRAP.                 NO:   ONE LINE PER DEPTH STEP
~WELL INFORMATION
#MNEM.UNIT      DATA TYPE    INFORMATION
#----------   ------------   ------------------------------
 STRT.F            0.0000:   START DEPTH
 STOP.F          820.0000:   STOP DEPTH
 STEP.F            0.5000:   STEP LENGTH
 NULL.          -999.2500:   NO VALUE
 COMP. LAWRENCE/ALLISON INC:   COMPANY
 WELL.       44 SX #16-11:   WELL
 FLD .             TEAPOT:   FIELD
 LOC .      S11 T38N R78W:   LOCATION
 CNTY.            NATRONA:   COUNTY
 STAT.            WYOMING:   STATE
 CTRY. UNITED STATES OF AMERICA:   COUNTRY
 SRVC.           Gearhart:   SERVICE COMPANY
 DATE.        26-AUG-1988:   LOGDATE
 API .       490251124600:   API NUMBER
~CURVE INFORMATION
#MNEM.UNIT       API CODE    CURVE DESCRIPTION
#----------   ------------   ------------------------------
 DEPT.F                  :   
 GRR .GAPI   07 310 01 00:   GAMMA RAY FROM RES. LOG.
 RILD.OHMM   07 120 46 00:   INDUCTION LOG DEEP RESISTIVITY
 RILM.OHMM   07 120 44 00:   INDUCTION LOG MEDIUM RESISTIVITY
~PARAMETER INFORMATION
#MNEM.UNIT          VALUE    DESCRIPTION
#----------   ------------   ------------------------------
 PD  .                 GL:   PERMANENT DATUM
 EPD .F              5197:   ELEVATION PERMANENT DATUM
 LMF .                 KB:   LOG MEASURED FROM
 DAPD.F                10:   FEET ABOVE PERMANENT DATUM
 DMF .                 KB:   DRILLING MEASURED FROM
 EKB .F              5207:   KELLING BUSHING
 EDF .F              5206:   DRILLING FLOOR
 EGL .F              5197:   GROUND LEVEL
 DATE.            8-26-88:   RUN DATE
 RUN .                  1:   RUN NUMBER
 DD  .F               820:   DEPTH DRILLER
 DL  .F               819:   DEPTH LOGGER
 BLI .F               811:   BOTTOM LOG INTERVAL
 TLI .F                50:   TOP LOG INTERVAL
 CS  .IN            9.625:   CASING SIZE
 CBD .F                50:   CASING BOTTOM DRILLER
 CBL .F                50:   CASING BOTTOM LOGGER
 BS  .IN             8.75:   BIT SIZE
 BSD .F               820:   BIT SIZE AT DEPTH
 DFT .                AIR:   DRILLING FLUID TYPE
 BHT .F                70:   BOTTOM HOLE TEMPERATURE
 TCS .HRS            0200:   TIME CURCULATED STOPPED
 TLAB.HRS            0342:   TIME LOGGER AT BOTTOM
 MRT .F                70:   MAXIMUM RECORDED TEMPERATURE
 LUN .               7609:   LOGGING UNIT NUMBER
 LUL .           GILLETTE:   LOGGING UNIT LOCATION
 ENGI.           JOHNSTON:   RECORDING ENGINEER
 WITN.             STRONG:   WITNESSED BY
 CLNT.            A2DTECH:   CLIENT CODE
 ORIG.        2" 5" PRINT:   ORIGIN OF DATA
 UWI .       490251124600:   UNIQUE WELL ID
 DICO. A2D Technologies, Inc.:   DIGITIZING COMPANY
~OTHER INFORMATION
~A    DEPT      GRR      RILD       RILM   
# ...
  182.0000   102.3627    14.6596    14.1744
  182.5000   106.1217    14.8346    14.3165
  183.0000   109.3288    15.0298    14.5067
  183.5000   110.7736    15.2964    14.6957
  184.0000   110.8498    15.5671    14.8872
  184.5000   109.5892    15.8423    15.0812
  185.0000   108.1748    16.1247    15.6269
  185.5000   105.9711    16.6628    16.5636
  186.0000   103.7848    17.9596    18.0854
  186.5000   101.6378    19.3573    19.7470
  187.0000    98.6507    20.8637    21.5613
  187.5000    95.5540    21.6668    23.5573
  188.0000    92.4072    21.3798    25.9404
  188.5000    91.3651    20.9777    25.9289
  189.0000    94.0525    20.5832    24.4518
  189.5000    97.0650    20.1961    22.9523
  190.0000   100.0840    19.3580    21.5447
  190.5000   103.0932    18.3982    20.2951
  191.0000   105.7961    17.4472    19.2465
  191.5000   104.9696    17.0557    18.2521
  192.0000   104.1238    16.6556    17.2836
  192.5000   104.3307    16.2650    16.7835
  193.0000   106.0872    15.9351    16.2841
  193.5000   107.8538    15.6930    16.0804
  194.0000   108.3582    15.4546    15.9117
  194.5000   108.0099    15.2198    15.7447
  195.0000   108.2771    14.9885    15.5795
  195.5000   109.6102    14.7607    15.4161
  196.0000   109.2957    14.5485    15.2708
  196.5000   108.6701    14.3763    15.1487
  197.0000   108.4672    14.2079    15.2420
  197.5000   109.9447    14.0394    15.3874
  198.0000   111.4063    13.9177    15.5342
  198.5000   111.1494    12.7706    15.5828
  199.0000   110.0838    11.7819    14.4211
  199.5000   110.1289    10.8698    12.5950
  200.0000   116.3361    10.0282    10.8985
  200.5000   122.3667     9.2519     9.4220
  201.0000   128.2069     8.5356     8.0684
  201.5000   133.0571     7.8748     7.5303
  202.0000   136.6431     7.2652     7.0027
  202.5000   135.1007     6.8678     6.7359
  203.0000   130.9683     6.8809     6.7405
  203.5000   127.1614     6.9052     6.7625
  204.0000   124.3671     6.9295     6.7746
  204.5000   124.3157     6.9539     6.7865
  205.0000   125.6012     6.9784     6.8034
  205.5000   127.3269     6.9983     6.7626
  206.0000   129.3801     6.9692     6.6932
  206.5000   132.5637     6.9448     6.6244
  207.0000   136.0930     6.9204     6.5561
  207.5000   139.0342     6.8961     6.4905
  208.0000   141.3755     6.8678     6.4905
  208.5000   141.3548     6.9112     6.5930
  209.0000   139.8103     6.9806     6.6778
  209.5000   137.9305     7.0507     6.7637
  210.0000   136.7308     7.1314     6.8506
  210.5000   134.8030     7.0960     6.9328
  211.0000   132.2747     7.0550     6.8798
  211.5000   129.7396     7.0143     6.8193
  212.0000   127.7145     6.9738     6.7593
  212.5000   127.5010     6.9336     6.6999
  213.0000   127.2573     6.8936     6.6410
  213.5000   127.0079     6.8538     6.5826
  214.0000   126.7632     6.8034     6.5247
  214.5000   126.6092     6.8168     6.4668
  215.0000   128.1085     6.8354     6.4290
  215.5000   131.3725     6.8539     6.4525
  216.0000   132.3746     6.8725     6.5190
  216.5000   129.7280     6.8912     6.5863
  217.0000   126.7514     6.9099     6.6542
  217.5000   126.8690     6.9284     6.7229
  218.0000   127.9069     6.9844     6.7922
  218.5000   128.1318     7.0510     6.8623
  219.0000   126.4704     7.1183     6.9328
  219.5000   125.3125     7.2946     7.0662
  220.0000   126.7553     7.5018     7.2016
  220.5000   128.5988     7.7155     7.3397
  221.0000   129.2973     7.9347     7.4803
  221.5000   127.6696     8.0602     7.6174
  222.0000   127.4865     8.0053     7.6174
  222.5000   127.6785     7.9675     7.6381
  223.0000   127.3992     7.9296     7.6835
  223.5000   125.3409     7.9098     7.7292
  224.0000   123.1002     7.9357     7.7622
  224.5000   121.9435     7.9561     7.7480
  225.0000   124.5894     7.9766     7.7349
  225.5000   128.5983     7.9970     7.7218
  226.0000   130.7771     8.0176     7.7087
  226.5000   128.8035     8.0382     7.6956
  227.0000   126.9160     8.0602     7.6198
  227.5000   126.7421     7.8703     7.4894
  228.0000   126.6124     7.6188     7.3315
  228.5000   125.3648     7.3754     7.1200
  229.0000   124.5194     7.1314     6.8659
  229.5000   125.8997     7.1470     6.8686
  230.0000   127.8116     7.1743     6.8868
  230.5000   128.6457     7.2022     6.9210
  231.0000   129.8760     7.2300     6.9552
  231.5000   131.6627     7.2579     6.9894
  232.0000   133.4515     7.2859     7.0238
  232.5000   134.4326     7.3140     7.0584
  233.0000   131.8228     7.3410     7.0817
  233.5000   129.0115     7.3643     7.1092
  234.0000   126.9635     7.3877     7.1368
  234.5000   127.4969     7.4111     7.1645
  235.0000   129.1482     7.4345     7.1923
  235.5000   130.2488     7.4581     7.2202
  236.0000   127.5849     7.4818     7.2482
  236.5000   124.6586     7.5054     7.2764
  237.0000   126.8836     7.5295     7.3046
  237.5000   131.2630     7.5624     7.3330
  238.0000   135.6414     7.6207     7.3906
  238.5000   138.5919     7.6788     7.4518
  239.0000   134.7657     7.7374     7.5136
  239.5000   130.4088     7.7964     7.5759
  240.0000   127.3567     7.8357     7.6174
  240.5000   128.4483     7.6680     7.4506
  241.0000   130.9477     7.5450     7.3282
  241.5000   131.7482     7.4238     7.2079
  242.0000   128.9953     7.3046     7.0896
  242.5000   127.0738     7.1874     6.9731
  243.0000   128.3448     7.0720     6.8586
  243.5000   131.7298     6.9585     6.7460
  244.0000   135.0561     6.8468     6.6352
  244.5000   137.7129     6.7744     6.5301
  245.0000   135.9071     6.7270     6.4276
  245.5000   133.2103     6.6798     6.3267
  246.0000   132.4458     6.6330     6.2505
  246.5000   135.1655     6.5866     6.3336
  247.0000   137.1139     6.5519     6.3623
  247.5000   136.4096     6.6389     6.3911
  248.0000   135.7570     6.7092     6.4201
  248.5000   135.2307     6.7804     6.4296
  249.0000   136.1238     6.8036     6.2634
  249.5000   135.7967     6.8034     6.2505
  250.0000   133.2711     6.8033     6.2505
  250.5000   130.8304     6.8137     6.4295
  251.0000   130.6635     6.9147     6.5506
  251.5000   132.1559     7.0172     6.6739
  252.0000   132.6935     7.1212     6.7997
  252.5000   129.0509     7.2267     6.9277
  253.0000   126.6905     7.3337     7.0582
  253.5000   124.6807     7.4052     7.1989
  254.0000   123.7099     7.3283     7.2707
  254.5000   124.0946     7.2715     7.3358
  255.0000   125.1335     7.2151     7.3281
  255.5000   126.3454     7.1591     7.2796
  256.0000   127.8625     7.1036     7.2315
  256.5000   129.3715     7.0485     7.1837
  257.0000   130.3347     6.9938     7.1362
  257.5000   127.9757     6.9396     7.0890
  258.0000   125.1178     6.8857     7.0422
  258.5000   124.3205     6.8323     6.9956
  259.0000   128.8571     6.7793     6.9494
  259.5000   133.4793     6.7268     6.9035
  260.0000   136.2911     6.6746     6.8678
  260.5000   136.9063     6.6228     7.0098
  261.0000   137.6600     6.6139     7.1355
  261.5000   137.7099     6.7491     7.2634
  262.0000   134.4959     6.9151     7.4004
  262.5000   130.5914     7.0851     7.5489
  263.0000   127.8264     7.2593     7.7003
  263.5000   127.4235     7.4378     7.8548
  264.0000   127.3506     7.6207     8.0124
  264.5000   123.5984     7.8081     8.1732
  265.0000   120.4042     7.9847     8.2912
  265.5000   121.2235     7.9847     8.2912
  266.0000   122.6831     7.8244     8.1437
  266.5000   122.9602     7.7018     7.9338
  267.0000   122.3666     7.5812     7.7294
  267.5000   121.7561     7.4944     7.5303
  268.0000   121.2520     7.3937     7.3363
  268.5000   121.6737     7.2943     7.1473
  269.0000   124.0245     7.1962     6.9631
  269.5000   126.9592     7.0995     6.7836
  270.0000   130.2500     6.9984     6.6079
  270.5000   133.5658     6.9984     6.4276
  271.0000   135.8748     7.0543     6.4303
  271.5000   137.2654     7.2165     6.4283
  272.0000   136.3536     7.3824     6.6616
  272.5000   135.0444     7.5523     6.8385
