~VERSION INFORMATION
 VERS.                2.0:   CWLS LOG ASCII STANDARD - VERSION 2.0
 WRAP.                 NO:   ONE LINE PER DEPTH STEP
~WELL INFORMATION
#MNEM.UNIT      DATA TYPE    INFORMATION
#----------   ------------   ------------------------------
 STRT.F           66.0000:   START DEPTH
 STOP.F          814.0000:   STOP DEPTH
 STEP.F            0.5000:   STEP LENGTH
 NULL.          -999.2500:   NO VALUE
 COMP.   FLUOR DANIEL INC:   COMPANY
 WELL. NAVAL PETROLEUM RESERVE 3 SX-2 #32-11-2:   WELL
 FLD .        N.P.R NO. 3:   FIELD
 LOC .       S2 T38N R78W:   LOCATION
 CNTY.            NATRONA:   COUNTY
 STAT.            WYOMING:   STATE
 CTRY. UNITED STATES OF AMERICA:   COUNTRY
 SRVC.      Dresser Atlas:   SERVICE COMPANY
 DATE.        15-AUG-1985:   LOGDATE
 API .       490251104000:   API NUMBER
~CURVE INFORMATION
#MNEM.UNIT       API CODE    CURVE DESCRIPTION
#----------   ------------   ------------------------------
 DEPT.F                  :   
 SPR .MV     07 010 01 00:   SPONTANEOUS POTENTIAL
 RILD.OHMM   07 120 46 00:   INDUCTION LOG DEEP RESISTIVITY
 RILM.OHMM   07 120 44 00:   INDUCTION LOG MEDIUM RESISTIVITY
 RFOC.OHMM   07 220 04 00:   RESISTIVITY FOCUSED LOG
 PORD.DEC    45 890 12 00:   POROSITY DENSITY SANDSTONE
 CNC .DEC    42 890 03 00:   NEUTRON POROSITY SANDSTONE
 GRD .GAPI   45 310 01 00:   GAMMA RAY FROM DENSITY LOG
 CALD.IN     45 280 60 00:   CALIPER FROM DENSITY LOG
 CORR.G/C3   45 356 01 00:   DENSITY CORRECTION
 DEN .G/C3   45 350 01 00:   COMPENSATED BULK DENSTIY
~PARAMETER INFORMATION
#MNEM.UNIT          VALUE    DESCRIPTION
#----------   ------------   ------------------------------
 PD  .                 GL:   PERMANENT DATUM
 EPD .F              5113:   ELEVATION PERMANENT DATUM
 LMF .                 GL:   LOG MEASURED FROM
 DMF .                 GL:   DRILLING MEASURED FROM
 EGL .F              5113:   GROUND LEVEL
 DATE.            8-15-85:   RUN DATE
 RUN .                  1:   RUN NUMBER
 DD  .F               817:   DEPTH DRILLER
 DL  .F               817:   DEPTH LOGGER
 BLI .F               814:   BOTTOM LOG INTERVAL
 CS  .IN            8.625:   CASING SIZE
 CBD .F                79:   CASING BOTTOM DRILLER
 CBL .F                79:   CASING BOTTOM LOGGER
 BS  .IN            7.875:   BIT SIZE
 BSD .F               817:   BIT SIZE AT DEPTH
 DFT .          KCL WATER:   DRILLING FLUID TYPE
 MSS .               TANK:   MUD SAMPLE SOURCE
 RMS .OHMM            .25:   RESISTIVITY MUD SAMPLE
 MST .F                70:   MUD SAMPLE TEMPERATURE
 BHT .F               100:   BOTTOM HOLE TEMPERATURE
 TCS .HRS               2:   TIME CURCULATED STOPPED
 MRT .F               100:   MAXIMUM RECORDED TEMPERATURE
 LUN .            HL-6274:   LOGGING UNIT NUMBER
 LUL .           GILLETTE:   LOGGING UNIT LOCATION
 ENGI.             RAUTIO:   RECORDING ENGINEER
 WITN.           JENNINGS:   WITNESSED BY
 CLNT.            A2DTECH:   CLIENT CODE
 ORIG.       2", 5" PRINT:   ORIGIN OF DATA
 UWI .       490251104000:   UNIQUE WELL ID
 DICO. A2D Technologies, Inc.:   DIGITIZING COMPANY
~OTHER INFORMATION
~A   DEPT      SPR       RILD       RILM       RFOC       PORD        CNC        GRD       CALD       CORR        DEN   
# ...
  434.5000   -40.3500     9.7060     9.6986    10.1602     0.1406     0.2731    87.1032     8.4331     0.1018     2.4445
  435.0000   -40.3586     9.7084     9.6327    10.0918     0.1406     0.2765    91.7707     8.4322     0.1108     2.4437
  435.5000   -40.4986     9.7103     9.5673    10.0239     0.1345     0.2771    92.9662     8.4465     0.0793     2.4557
  436.0000   -40.3452     9.7801     9.5689     9.9565     0.1255     0.2787    89.6571     8.4458     0.0549     2.4677
  436.5000   -40.3438     9.7820     9.5035     9.8210     0.1206     0.2828    86.9487     8.4298     0.0357     2.4760
  437.0000   -40.1908     9.7840     9.5714     9.7553     0.1173     0.2919    86.6426     8.4291     0.0357     2.4814
  437.5000   -40.0378     9.7860     9.7067     9.6898     0.1152     0.3004    87.5363     8.4284     0.0327     2.4857
  438.0000   -40.1879     9.7884     9.8439     9.6918     0.1143     0.3040    89.6327     8.4277     0.0192     2.4812
  438.5000   -39.8833     9.8587     9.9139     9.6941     0.1210     0.2870    92.6314     8.4270     0.0086     2.4714
  439.0000   -39.5785     9.9295     9.9155    10.3220     0.1249     0.2779    91.4230     8.4261     0.0026     2.4713
  439.5000   -39.4256     9.9315     9.9169    10.9145     0.1171     0.2731    89.0148     8.4253     0.0101     2.4797
  440.0000   -38.9696     9.9335     9.9870    11.3816     0.1119     0.2732    86.8869     8.4246     0.0207     2.4924
  440.5000   -38.6651     9.7982     9.8505    11.6238     0.1074     0.2795    87.8007     8.4239     0.0267     2.4969
  441.0000   -38.2091     9.5983     9.5156    11.2013     0.1107     0.2816    89.2965     8.4383     0.0147     2.4796
  441.5000   -37.4409     9.2720     9.0510    10.0496     0.1225     0.2819    90.1931     8.4375     0.0071     2.4698
  442.0000   -36.9937     9.0194     8.7564     9.3117     0.1304     0.2810    90.1859     8.4366     0.0192     2.4623
  442.5000   -36.8407     8.9586     8.7578     9.1213     0.1332     0.2876    88.9789     8.4208     0.0222     2.4578
  443.0000   -36.6877     8.8983     8.8201     9.1868     0.1341     0.2894    91.8076     8.4201     0.0162     2.4585
  443.5000   -36.2317     8.9623     8.8213     9.3823     0.1323     0.2885    96.1732     8.4194     0.0131     2.4623
  444.0000   -35.7757     8.8406     8.5805     9.4496     0.1286     0.2764    92.5639     8.4187     0.0192     2.4667
  444.5000   -35.4712     8.5401     8.0396     9.4520     0.1250     0.2722    92.2578     8.4179     0.0313     2.4690
  445.0000   -35.1465     8.0234     7.3149     9.3879     0.1226     0.2779    92.5526     8.4170     0.0462     2.4705
  445.5000   -34.7103     7.8048     7.0171     9.2601     0.1247     0.2840    92.5185     8.4766     0.0627     2.4665
  446.0000   -34.4059     7.9158     6.9691     9.0713     0.1299     0.2858    88.6355     8.7319     0.1108     2.4614
  446.5000   -34.2529     8.1503     7.3689     8.5823     0.1381     0.2700    85.3265     8.9420     0.1694     2.4419
  447.0000   -34.2514     8.3725     7.9004     8.1719     0.1620     0.2621    84.1195     8.8358     0.2025     2.4096
  447.5000   -34.7045     8.5508     8.4881     7.8987     0.1665     0.2612    82.9126     8.6333     0.1989     2.4020
  448.0000   -35.0141     8.6724     8.8325     7.8455     0.1565     0.2830    82.3062     8.4125     0.0733     2.4103
  448.5000   -35.6103     8.7346     8.8950     7.7927     0.1496     0.2936    83.6538     8.2913     0.0687     2.4226
  449.0000   -35.9123     8.7364     8.7733     7.8101     0.1466     0.2861    89.5005     8.3057     0.0733     2.4335
  449.5000   -36.0623     8.6776     8.6533     8.1283     0.1457     0.2806    94.2996     8.3501     0.0612     2.4373
  450.0000   -36.2124     8.5390     8.4175     8.4175     0.1456     0.2815    91.8914     8.3193     0.0402     2.4371
  450.5000   -36.4486     8.2846     8.2765     8.6161     0.1450     0.2964    88.8827     8.3078     0.0132     2.4357
  451.0000   -36.9566     7.9891     8.1354     8.9012     0.1455     0.3038    87.0590     8.2962     0.0042     2.4290
  451.5000   -37.1037     8.1032     7.9685     8.5983     0.1536     0.3179    86.4688     8.3024    -0.0108     2.4161
  452.0000   -36.9449     8.1620     8.0268     8.4222     0.1602     0.3218    87.9473     8.3169    -0.0168     2.4087
  452.5000   -36.9391     8.1642     8.0849     8.3071     0.1618     0.3070    88.8433     8.3162    -0.0092     2.4079
  453.0000   -36.4787     8.1097     8.0871     8.3082     0.1606     0.2993    87.6336     8.3156     0.0058     2.4124
  453.5000   -35.8485     8.1120     8.0893     8.4987     0.1526     0.2924    86.1214     8.3301     0.0194     2.4221
  454.0000   -35.2535     8.1146     8.0919     9.0336     0.1447     0.2853    87.0138     8.3294     0.0331     2.4401
  454.5000   -34.7931     8.0600     8.0941     9.4196     0.1379     0.2794    89.4077     8.3440     0.0345     2.4454
  455.0000   -34.6358     8.0627     8.0402     9.4209     0.1406     0.2763    90.0000     8.3433     0.0195     2.4228
  455.5000   -34.4784     8.0089     7.7676     8.9747     0.1536     0.2851    89.3904     8.3428    -0.0030     2.4101
  456.0000   -34.4606     7.6303     7.4523     8.7297     0.1616     0.2936    88.4790     8.3422    -0.0105     2.4062
  456.5000   -34.3152     7.1631     7.0430     8.4868     0.1645     0.3051    89.9720     8.3415    -0.0090     2.4070
  457.0000   -34.4610     6.8784     6.7653     8.3174     0.1627     0.3106    91.7652     8.3409    -0.0045     2.4093
  457.5000   -34.6052     6.6450     6.6274     8.0906     0.1612     0.3018    94.1591     8.3403     0.0061     2.4070
  458.0000   -34.5994     6.5545     6.5829     7.4961     0.1603     0.2984    96.5508     8.3548     0.0091     2.4017
  458.5000   -34.7450     6.4657     6.4492     7.0915     0.1634     0.2915    98.9447     8.3541    -0.0029     2.3972
  459.0000   -34.7392     6.4678     6.4062     6.9461     0.1664     0.2942    96.5337     8.3385    -0.0224     2.3949
  459.5000   -34.7333     6.4743     6.4977     6.9509     0.1700     0.2933    94.7234     8.3379    -0.0329     2.3994
  460.0000   -34.7261     6.6544     6.5908     7.6053     0.1703     0.2869    92.8728     8.3373    -0.0118     2.4107
  460.5000   -34.5688     6.7494     6.6848     7.7128     0.1682     0.2890    91.4009     8.3366     0.0158     2.4242
  461.0000   -34.4114     6.8458     6.7802     7.7677     0.1590     0.2933    91.9929     8.3361     0.0318     2.4317
  461.5000   -34.2541     6.9435     6.8293     7.7146     0.1489     0.2927    92.8853     8.3507     0.0319     2.4369
  462.0000   -34.2483     6.9939     6.9268     7.7159     0.1443     0.2875    96.4804     8.3500     0.0154     2.4392
  462.5000   -34.0909     7.0446     7.0257     7.8796     0.1419     0.2769   100.6739     8.3494    -0.0056     2.4391
  463.0000   -33.9333     7.0469     7.1264     7.9356     0.1407     0.2675   100.3651     8.3639    -0.0236     2.4399
  463.5000   -34.0793     7.0488     7.1780     7.9923     0.1407     0.2636    97.3535     8.3632     0.0004     2.4466
  464.0000   -34.3765     7.0999     7.2300     7.8827     0.1410     0.2632    94.3420     8.3476     0.0365     2.4556
  464.5000   -34.6737     7.1514     7.2319     7.7749     0.1374     0.2851    94.0330     8.3319     0.0501     2.4639
  465.0000   -34.6664     7.1037     7.1837     7.7762     0.1292     0.2905    94.3249     8.3312     0.0687     2.4729
  465.5000   -34.6605     7.1057     7.1359     7.8861     0.1244     0.2951    94.9148     8.3306     0.0832     2.4781
  466.0000   -34.6545     7.1576     7.1881     7.9422     0.1198     0.2972    95.2087     8.3301     0.0907     2.4811
  466.5000   -35.1034     7.2598     7.2401     8.0547     0.1162     0.3029    95.7988     8.3295     0.0803     2.4818
  467.0000   -35.2491     7.3125     7.2926     8.2830     0.1162     0.2972    96.4345     8.3289     0.0604     2.4810
  467.5000   -35.2418     7.3655     7.3454     8.3418     0.1166     0.2820    96.9828     8.3282     0.0067     2.4675
