~VERSION INFORMATION
 VERS.                2.0:   CWLS LOG ASCII STANDARD - VERSION 2.0
 WRAP.                 NO:   ONE LINE PER DEPTH STEP
~WELL INFORMATION
#MNEM.UNIT      DATA TYPE    INFORMATION
#----------   ------------   ------------------------------
 STRT.F           70.0000:   START DEPTH
 STOP.F          865.0000:   STOP DEPTH
 STEP.F            0.5000:   STEP LENGTH
 NULL.          -999.2500:   NO VALUE
 COMP. U S NAVY/INTEX OIL CO:   COMPANY
 WELL.   54S 11 NPR #3-11:   WELL
 FLD .             TEAPOT:   FIELD
 LOC .      S11 T38N R78W:   LOCATION
 CNTY.            NATRONA:   COUNTY
 STAT.            WYOMING:   STATE
 CTRY. UNITED STATES OF AMERICA:   COUNTRY
 SRVC.         Lane Wells:   SERVICE COMPANY
 DATE.        11-MAR-1960:   LOGDATE
 API .       490250634900:   API NUMBER
~CURVE INFORMATION
#MNEM.UNIT       API CODE    CURVE DESCRIPTION
#----------   ------------   ------------------------------
 DEPT.F                  :   
 SPR .MV     05 010 01 00:   SPONTANEOUS POTENTIAL FROM RES.
 ASN .OHMM   05 041 16 00:   AMPLIFIED SHORT NORMAL 16"
 ILD .OHMM   05 120 46 00:   INDUCTION LOG DEEP
 CILD.MMHO   05 110 46 00:   CONDUCTIVITY INDUCTION LOG DEEP
~PARAMETER INFORMATION
#MNEM.UNIT          VALUE    DESCRIPTION
#----------   ------------   ------------------------------
 PD  .                 GL:   PERMANENT DATUM
 EPD .F              5198:   ELEVATION PERMANENT DATUM
 LMF .                 KB:   LOG MEASURED FROM
 DAPD.F                 5:   FEET ABOVE PERMANENT DATUM
 DMF .                 KB:   DRILLING MEASURED FROM
 EKB .F              5203:   KELLING BUSHING
 EGL .F              5198:   GROUND LEVEL
 DATE.            3-11-60:   RUN DATE
 RUN .                  1:   RUN NUMBER
 DD  .F               870:   DEPTH DRILLER
 DL  .F               867:   DEPTH LOGGER
 BLI .F               865:   BOTTOM LOG INTERVAL
 TLI .F                70:   TOP LOG INTERVAL
 CS  .IN            8.625:   CASING SIZE
 CBD .F                12:   CASING BOTTOM DRILLER
 BS  .IN            7.875:   BIT SIZE
 BSD .F               870:   BIT SIZE AT DEPTH
 DFT .   GEL/OIL EMULSION:   DRILLING FLUID TYPE
 DFD .                9.2:   DRILLING FLUID DENSITY
 DFV .                 36:   DRILLING FLUID VISCOSITY
 DFPH.                7.5:   DRILLING FLUID PH
 DFL .                4.4:   DRILLING FLUID LOSS
 MSS .                PIT:   MUD SAMPLE SOURCE
 RMS .OHMM            6.8:   RESISTIVITY MUD SAMPLE
 MST .F                54:   MUD SAMPLE TEMPERATURE
 RMF .OHMM            4.2:   RESISTIVITY MUD FILTRATE SAMPLE
 MFST.F                69:   MUD FILTRATE SAMPLE TEMPERATURE
 RMC .OHMM            5.1:   RESISTIVITY MUD CAKE
 MCST.F                69:   MUD CAKE SAMPLE TEMPERATURE
 MFSS.              PRESS:   MUD FILTRATE SAMPLE SOURCE
 MCSS.              PRESS:   MUD CAKE SAMPLE SOURCE
 RMB .OHMM            5.2:   RESISTIVITY MUD AT BHT
 BHT .F                70:   BOTTOM HOLE TEMPERATURE
 TCS .HRS              .5:   TIME CURCULATED STOPPED
 MRT .F                70:   MAXIMUM RECORDED TEMPERATURE
 LUN .             L-4474:   LOGGING UNIT NUMBER
 LUL .             CASPER:   LOGGING UNIT LOCATION
 ENGI.      GRIGGS/NELSON:   RECORDING ENGINEER
 WITN.   JORGENSEN/HUDSON:   WITNESSED BY
 CLNT.            A2DTECH:   CLIENT CODE
 ORIG.       2", 5" PRINT:   ORIGIN OF DATA
 UWI .       490250634900:   UNIQUE WELL ID
 DICO. A2D Technologies, Inc.:   DIGITIZING COMPANY
~OTHER INFORMATION
~A   DEPT       SPR         ASN        ILD      CILD  
# ...
  800.0000   -16.5189     9.2901     8.0649   147.8495
  800.5000   -15.1932     9.1468     8.0595   148.6380
  801.0000   -13.9144     9.1316     8.0545   149.4265
  801.5000   -12.7848     9.1124     8.0494   150.2151
  802.0000   -12.8441     9.0613     8.0444   151.0036
  802.5000   -12.8798     8.9381     8.0394   151.7921
  803.0000   -12.9116     8.7149     8.0344   152.5789
  803.5000   -12.9429     8.6410     8.0294   153.1998
  804.0000   -12.9694     8.5842     8.0244   153.0068
  804.5000   -12.8213     8.5437     8.0194   152.8226
  805.0000   -12.4793     8.5107     8.0144   152.6370
  805.5000   -12.6815     8.5117     8.0093   152.4519
  806.0000   -12.8731     8.5272     8.0043   152.2668
  806.5000   -13.0705     8.5640     7.9993   152.0818
  807.0000   -13.5862     8.6154     7.9943   151.8972
  807.5000   -14.5517     8.6852     7.9892   151.7122
  808.0000   -15.5106     8.7846     7.9843   151.5479
  808.5000   -16.3766     8.8975     7.9791   150.2886
  809.0000   -15.8605     8.9932     8.0374   148.0459
  809.5000   -14.7182     9.1151     8.1559   145.7706
  810.0000   -14.9678     9.4024     8.2744   143.5036
  810.5000   -15.3972     9.7483     8.3926   141.2366
  811.0000   -15.4998    10.2246     8.6114   138.8889
  811.5000   -15.4907    10.9375     8.8671   134.2589
  812.0000   -15.9508    11.6482     9.2064   129.4581
  812.5000   -16.5633    12.4340     9.5535   124.6574
  813.0000   -17.6243    13.2827     9.9006   119.8566
  813.5000   -18.6733    14.0558    10.2475   115.0559
  814.0000   -19.9121    14.8288    10.5946   110.2551
  814.5000   -21.2117    15.6021    10.9420   106.6617
  815.0000   -22.5194    16.2162    11.2877   106.7876
  815.5000   -23.3517    17.1316    11.5479   106.9104
  816.0000   -23.9094    17.9709    11.5445   107.0395
  816.5000   -23.7372    18.7517    11.5219   107.1655
  817.0000   -23.1700    18.3274    11.3949   107.2914
  817.5000   -22.9842    17.7406    11.3240   107.4174
  818.0000   -23.5730    17.1563    11.2566   107.5433
  818.5000   -25.2183    16.9437    11.1891   107.6693
  819.0000   -25.5768    17.0248    11.1215   107.7952
  819.5000   -24.5129    16.8844    11.0539   107.9212
  820.0000   -23.5767    16.3863    10.9863   108.0471
  820.5000   -23.6430    16.0470    10.9179   108.1718
  821.0000   -22.7541    15.8186    10.8359   108.2930
  821.5000   -22.1867    15.5928    10.7530   108.4273
  822.0000   -22.6920    15.3752    10.6702   109.8774
  822.5000   -22.9175    15.2579    10.5873   111.3092
  823.0000   -22.8747    15.1460    10.5045   112.7410
  823.5000   -23.4952    15.0353    10.4217   114.0743
  824.0000   -23.7422    14.9137    10.3388   115.1288
  824.5000   -23.5790    14.5618    10.2560   116.1832
  825.0000   -22.5922    14.2156    10.1739   117.2376
  825.5000   -21.5985    13.8693    10.0918   118.2921
  826.0000   -21.8589    13.5183    10.0139   119.3465
  826.5000   -22.8518    13.4539     9.9357   120.4009
  827.0000   -23.0635    13.4060     9.8576   121.4554
  827.5000   -22.8571    13.3555     9.7796   122.5098
  828.0000   -22.6409    13.2422     9.7015   122.9984
  828.5000   -22.4291    13.0140     9.6235   123.3111
  829.0000   -22.5088    12.8259     9.5454   123.6238
  829.5000   -22.9143    12.9336     9.4674   123.9341
  830.0000   -23.0434    13.1318     9.3895   124.2366
  830.5000   -22.6849    12.9085     9.3123   124.5628
  831.0000   -22.8329    12.6192     9.2267   127.4304
  831.5000   -23.0197    12.3280     9.1419   130.2206
  832.0000   -23.0300    12.0376     9.0574   133.0108
  832.5000   -23.0299    11.7487     8.9728   135.8009
  833.0000   -22.9170    11.5264     8.8882   138.5911
  833.5000   -22.7177    11.4825     8.8004   138.5367
  834.0000   -22.3536    11.4368     8.7611   138.1461
  834.5000   -21.9341    11.3911     8.7354   137.7488
  835.0000   -22.2179    11.3452     8.7101   137.3539
  835.5000   -22.9459    11.2993     8.6848   136.9596
  836.0000   -23.6794    11.2535     8.6594   136.5654
  836.5000   -24.1810    11.2076     8.6340   136.1711
  837.0000   -24.1538    11.1618     8.6086   135.7768
  837.5000   -23.8458    11.1159     8.5831   135.3826
  838.0000   -23.8070    11.0700     8.5577   134.9431
  838.5000   -23.8943    11.0245     8.5323   137.3087
  839.0000   -23.9864    10.9542     8.5069   139.6743
  839.5000   -24.0704    10.8712     8.4815   142.0399
  840.0000   -24.4990    10.7876     8.4561   144.2652
  840.5000   -25.0481    10.7037     8.4307   143.4037
  841.0000   -25.4861    10.6211     8.4053   142.5692
  841.5000   -24.9773    10.5787     8.3799   141.7439
  842.0000   -24.8871    10.6424     8.3545   140.9189
  842.5000   -24.8873    10.4829     8.3291   141.3530
  843.0000   -25.0919     9.8211     8.3037   142.2976
  843.5000   -25.2937     9.7627     8.2782   143.2415
  844.0000   -25.5051     9.6860     8.2528   144.1868
  844.5000   -25.2876     9.5998     8.2274   145.1314
  845.0000   -24.9692     9.5143     8.2020   146.0760
  845.5000   -24.6517     9.4288     8.1766   147.0206
  846.0000   -24.5254     9.3433     8.1512   147.9652
  846.5000   -24.6870     9.2574     8.1258   148.9098
  847.0000   -24.8447     9.2113     8.1004   149.4207
  847.5000   -25.0034     9.1732     8.0747   148.4401
  848.0000   -25.1617     9.1353     8.0661   147.4596
  848.5000   -25.3198     9.0997     8.0659   146.4791
  849.0000   -25.4783     9.0855     8.0659   145.4986
  849.5000   -25.6410     9.0722     8.0660   144.5180
  850.0000   -25.9426     9.0589     8.0660   143.5375
  850.5000   -26.3995     9.0455     8.0660   142.4731
  851.0000   -26.8482     9.0316     8.0659   142.4731
  851.5000   -27.1366     9.0309     8.0658   142.4731
  852.0000   -27.0744     9.0340     8.0658   142.4731
  852.5000   -27.0193     9.0373     8.0758   142.4731
  853.0000   -27.0112     9.0404     8.1409   142.4727
  853.5000   -27.3626     9.0438     8.2057   142.4733
  854.0000   -27.7211     9.0556     8.2705   142.4684
  854.5000   -27.5342     9.1063     8.3316   142.9640
  855.0000   -27.0310     9.1286     8.3281   143.5675
  855.5000   -27.4399     9.1114     8.3222   144.1734
  856.0000   -27.8541     9.0944     8.3165   144.7790
  856.5000   -28.2617     9.0699     8.3109   145.3843
  857.0000   -28.6697     9.0174     8.3054   145.9897
  857.5000   -29.0739     8.9665     8.2998   146.5950
  858.0000   -29.1574     8.9203     8.2942   147.2003
  858.5000   -29.1958     8.9212     8.2886   147.8057
  859.0000   -29.2334     8.9031     8.2830   148.4110
  859.5000   -29.2696     8.8456     8.2775   149.0163
  860.0000   -29.3224     8.7888     8.2719   149.6217
  860.5000   -29.7881     8.7318     8.2663   150.2270
  861.0000   -29.6098     8.6744     8.2607   150.8323
  861.5000   -29.3501     8.6210     8.2553   151.4337
  862.0000   -29.1841     8.6432     8.2500   147.8495
  862.5000   -29.7671     8.7394     8.2419   147.8495
  863.0000   -30.1698     8.8390     8.1779   147.8495
  863.5000   -29.9996     8.7943     8.1132  -999.2500
  864.0000   -29.8459     8.6877     8.0649  -999.2500
  864.5000   -29.9366     8.6903     8.0659  -999.2500
  865.0000   -29.8271     8.6898     8.0659  -999.2500
