~VERSION INFORMATION
 VERS.                2.0:   CWLS LOG ASCII STANDARD - VERSION 2.0
 WRAP.                 NO:   ONE LINE PER DEPTH STEP
~WELL INFORMATION
#MNEM.UNIT      DATA TYPE    INFORMATION
#----------   ------------   ------------------------------
 STRT.F           36.0000:   START DEPTH
 STOP.F          503.0000:   STOP DEPTH
 STEP.F            0.5000:   STEP LENGTH
 NULL.          -999.2500:   NO VALUE
 COMP.    FENIX & SCISSON:   COMPANY
 WELL.     NPR ##3 77-S-3:   WELL
 FLD .             TEAPOT:   FIELD
 LOC .       S3 T38N R78W:   LOCATION
 CNTY.            NATRONA:   COUNTY
 STAT.            WYOMING:   STATE
 CTRY. UNITED STATES OF AMERICA:   COUNTRY
 SRVC.       Schlumberger:   SERVICE COMPANY
 DATE.        04-MAR-1977:   LOGDATE
 API .       490251029500:   API NUMBER
~CURVE INFORMATION
#MNEM.UNIT       API CODE    CURVE DESCRIPTION
#----------   ------------   ------------------------------
 DEPT.F                  :   
 SPR .MV     07 010 01 00:   SPONTANEOUS POTENTIAL
 ILD .OHMM   07 120 46 00:   INDUCTION LOG DEEP
 ILM .OHMM   07 120 44 00:   INDUCTION LOG MEDIUM
 LL8 .OHMM   07 220 08 00:   LATEROLOG-8 RES.
 GRD .GAPI   45 310 01 00:   GAMMA RAY FROM DENSITY LOG
 CALD.IN     45 280 60 00:   CALIPER FROM DENSITY LOG
 CORR.G/C3   45 356 01 00:   DENSITY CORRECTION
 RHOB.G/C3   45 350 01 00:   BULK DENSITY
 DPHI.DEC    45 890 12 00:   DENSITY POROSITY SANDSTONE
~PARAMETER INFORMATION
#MNEM.UNIT          VALUE    DESCRIPTION
#----------   ------------   ------------------------------
 PD  .                 GL:   PERMANENT DATUM
 EPD .F              5165:   ELEVATION PERMANENT DATUM
 LMF .                 KB:   LOG MEASURED FROM
 DAPD.F                 4:   FEET ABOVE PERMANENT DATUM
 DMF .                 GL:   DRILLING MEASURED FROM
 EKB .F              5169:   KELLING BUSHING
 EGL .F              5165:   GROUND LEVEL
 DATE.        04-MAR-1977:   RUN DATE
 RUN .                  1:   RUN NUMBER
 DD  .F               500:   DEPTH DRILLER
 DL  .F               504:   DEPTH LOGGER
 BLI .F               503:   BOTTOM LOG INTERVAL
 TLI .F                46:   TOP LOG INTERVAL
 CS  .IN            8.625:   CASING SIZE
 CBD .F                42:   CASING BOTTOM DRILLER
 CBL .F                46:   CASING BOTTOM LOGGER
 BS  .IN            7.875:   BIT SIZE
 BSD .F               500:   BIT SIZE AT DEPTH
 DFT .                KCL:   DRILLING FLUID TYPE
 DFD .                8.6:   DRILLING FLUID DENSITY
 DFV .                 32:   DRILLING FLUID VISCOSITY
 DFPH.                8.0:   DRILLING FLUID PH
 DFL .                7.6:   DRILLING FLUID LOSS
 MSS .            MUD PIT:   MUD SAMPLE SOURCE
 RMS .OHMM            .66:   RESISTIVITY MUD SAMPLE
 MST .F                56:   MUD SAMPLE TEMPERATURE
 RMF .OHMM            .49:   RESISTIVITY MUD FILTRATE SAMPLE
 MFST.F                56:   MUD FILTRATE SAMPLE TEMPERATURE
 RMC .OHMM             .4:   RESISTIVITY MUD CAKE
 MCST.F                56:   MUD CAKE SAMPLE TEMPERATURE
 MFSS.               MEAS:   MUD FILTRATE SAMPLE SOURCE
 MCSS.               CALC:   MUD CAKE SAMPLE SOURCE
 TCS .HRS            0100:   TIME CURCULATED STOPPED
 LUN .               7680:   LOGGING UNIT NUMBER
 LUL .               CSPR:   LOGGING UNIT LOCATION
 ENGI.    LOHBECK/ TAYLOR:   RECORDING ENGINEER
 WITN.              BURKE:   WITNESSED BY
 CLNT.            A2DTECH:   CLIENT CODE
 ORIG.           5" PRINT:   ORIGIN OF DATA
 UWI .       490251029500:   UNIQUE WELL ID
 DICO. A2D Technologies, Inc.:   DIGITIZING COMPANY
~OTHER INFORMATION
~A   DEPT      SPR        ILD        ILM        LL8         GRD      CALD       CORR       RHOB       DPHI   
# ...
  255.0000   -52.4788     8.2077     8.1230     9.7389    72.9790     8.0706     0.0017     2.4750     0.1090
  255.5000   -52.6182     8.1556     8.0709     9.7422    72.5299     8.0704     0.0002     2.4674     0.1141
  256.0000   -52.9038     8.1612     8.0191     9.7455    72.7545     8.0703     0.0137     2.4592     0.1153
  256.5000   -53.0399     8.1657     8.0240     9.6808    73.0126     8.0701     0.0212     2.4809     0.1024
  257.0000   -53.0232     8.1139     8.0278     9.4860    72.3054     8.0700     0.0257     2.4847     0.1057
  257.5000   -53.1626     8.1183     8.0317     9.2302    71.8563     8.0698     0.0196     2.4786     0.1081
  258.0000   -53.1459     8.0657     7.9802     9.1689    72.5299     8.0696     0.0264     2.4861     0.1006
  258.5000   -53.1325     8.0145     7.9841     9.1728    73.0146     8.0695     0.0135     2.4861     0.0997
  259.0000   -53.1191     7.9647     7.9879     9.3685    73.6527     8.0694     0.0084     2.4801     0.1057
  259.5000   -52.9563     7.9130     7.9357     9.4368    73.4281     8.0692     0.0121     2.4688     0.1105
  260.0000   -52.9429     7.8086     7.8305     9.3741    72.7545     8.0691     0.0106     2.4568     0.1173
  260.5000   -52.7801     7.7601     7.7813     9.3134    72.9790     8.0689     0.0091     2.4590     0.1190
  261.0000   -52.7667     7.6576     7.6252     9.2516    71.4072     8.0538     0.0143     2.4530     0.1172
  261.5000   -52.4544     7.5565     7.5241     9.1284    71.6354     8.0536     0.0233     2.4771     0.1070
  262.0000   -52.4410     7.2032     7.3732     8.9439    72.0808     8.0685     0.0248     2.4927     0.0941
  262.5000   -52.2781     6.7720     7.0770     8.8851    72.7545     8.0683     0.0202     2.4912     0.0959
  263.0000   -52.1153     6.3227     6.7926     8.7661    72.7545     8.0681     0.0210     2.4889     0.1031
  263.5000   -51.9524     6.1110     6.4302     8.1828    72.7545     8.0680     0.0127     2.4791     0.1055
  264.0000   -51.9379     5.9887     6.1293     6.0789    72.7545     8.0679     0.0187     2.4753     0.1043
  264.5000   -51.9257     5.9507     5.9239     5.0797    73.6527     8.0677     0.0149     2.4678     0.1113
  265.0000   -52.0651     5.9954     5.8446     5.6373    75.4491     8.0676     0.0127     2.4543     0.1157
  265.5000   -52.0484     6.0823     6.0122     6.8989    77.2455     8.0674     0.0224     2.4295     0.1260
  266.0000   -52.1878     6.2133     6.1412     7.7092    77.6946     8.0673     0.0270     2.4092     0.1377
  266.5000   -52.3206     6.2599     6.2297     8.1489    77.4701     8.0821     0.0006     2.4077     0.1407
  267.0000   -52.6062     6.2634     6.2759     8.3169    76.7964     8.0820     0.0006     2.4204     0.1293
  267.5000   -52.7429     6.1366     6.1927     8.3776    76.1228     8.0668    -0.0031     2.4346     0.1245
  268.0000   -53.0279     5.9282     5.9852     8.2089    75.2245     8.0667     0.0058     2.4446     0.1224
  268.5000   -53.3139     5.7312     5.7846     7.5052    74.3263     8.0665     0.0238     2.4541     0.1179
  269.0000   -53.3001     5.6583     5.6295     4.7224    73.6527     8.0664     0.0245     2.4624     0.1134
  269.5000   -53.4365     5.7449     5.6322     4.5315    74.7755     8.0812     0.0365     2.4346     0.1242
  270.0000   -53.4228     5.8749     5.7134     5.0994    77.6946     8.0811     0.0507     2.4563     0.1167
  270.5000   -53.2599     6.1651     5.9996     8.5716    78.3683     8.0960     0.0320     2.4202     0.1366
  271.0000   -52.9476     6.4755     6.3439     8.4566    77.0210     8.0958     0.0168     2.4210     0.1420
  271.5000   -52.7843     6.7638     6.5250     8.1719    75.6338     8.0956     0.0010     2.4412     0.1264
  272.0000   -52.4683     7.0851     6.8047     7.9515    73.9904     8.0955     0.0057     2.4712     0.1084
  272.5000   -52.0105     7.2377     7.0963     8.3490    72.7545     8.1104     0.0117     2.4885     0.0979
  273.0000   -51.8366     7.2417     7.3495     8.5855    71.4072     8.1102     0.0034     2.4824     0.1057
  273.5000   -51.5351     7.0969     7.5072     8.1831    68.4880     8.0950     0.0102     2.4757     0.1084
  274.0000   -51.3722     6.7650     7.5629     7.5859    67.5748     8.0949     0.0146     2.4839     0.1034
  274.5000   -51.3587     6.3600     7.5144     7.2799    68.4993     8.0947     0.0146     2.4884     0.0988
  275.0000   -51.4953     5.9381     7.1135     9.0875    69.1617     8.0946     0.0221     2.4876     0.0976
  275.5000   -51.9304     5.5441     6.7326     9.2173    69.1617     8.0944     0.0188     2.4831     0.1000
  276.0000   -52.5116     5.2123     6.1962     8.6637    70.2844     8.0943     0.0116     2.4763     0.1087
  276.5000   -52.9466     5.1073     5.5478     6.5712    71.4072     8.0941     0.0146     2.4710     0.1105
  277.0000   -53.3817     5.1463     5.1479     4.5238    74.1018     8.0940     0.0236     2.4560     0.1157
  277.5000   -53.6706     5.3304     5.1166     4.3418    76.5719     8.0938     0.0205     2.4410     0.1193
  278.0000   -53.6539     5.5980     5.2294     7.7128    77.2455     8.0937     0.0138     2.4049     0.1365
  278.5000   -53.4910     6.0441     5.4575     7.7261    75.4491     8.0935     0.0123     2.4071     0.1491
  279.0000   -53.1787     6.5257     5.7321     6.6282    70.9581     8.0934     0.0063     2.4224     0.1355
  279.5000   -53.0159     7.3954     6.0204     6.6765    70.0599     8.0932     0.0192     2.4686     0.1130
  280.0000   -52.8450     8.1522     6.5065     8.4504    69.1617     8.0931     0.0287     2.4859     0.1055
  280.5000   -52.3912     8.2133     7.0261     9.2511    68.2635     8.0929     0.0212     2.4739     0.1097
  281.0000   -52.1901     8.0490     7.6929     9.5823    68.7126     8.0928     0.0279     2.5076     0.0971
  281.5000   -51.7665     8.2224     8.3546     9.6477    68.7126     8.0926     0.0212     2.5151     0.0914
  282.0000   -51.6037     8.6352     8.8855     9.6511    68.9371     8.0775     0.0144     2.5016     0.0893
  282.5000   -51.2925     8.6400     9.0028     9.6656    68.7126     8.0773     0.0129     2.4924     0.0999
  283.0000   -51.1285     8.4660     8.8823     9.9295    67.3579     8.0621     0.0219     2.4895     0.1004
  283.5000   -50.9657     8.3554     8.7042    10.0713    66.4671     8.0620     0.0264     2.4992     0.0965
  284.0000   -50.9523     8.2439     8.6484    10.1448    66.9162     8.0618     0.0240     2.5060     0.0898
  284.5000   -50.7894     8.2496     8.5347    10.1482    68.9371     8.0617     0.0323     2.5217     0.0764
  285.0000   -50.9289     8.2542     8.4790    10.0122    69.6108     8.0465     0.0383     2.5225     0.0831
  285.5000   -51.0616     8.4320     8.7220     9.6083    69.6108     8.0464     0.0263     2.5112     0.0858
  286.0000   -51.0483     8.4952     8.9710     9.7455    69.6108     8.0462     0.0150     2.4984     0.0900
  286.5000   -51.1877     8.3252     9.1634     9.9534    69.6108     8.0461     0.0225     2.4961     0.0930
  287.0000   -51.6194     8.2722     9.1047     9.8873    69.6108     8.0459     0.0158     2.4977     0.0909
  287.5000   -51.9050     8.2197     8.7389     9.7547    69.1430     8.0458     0.0220     2.4991     0.0960
  288.0000   -52.1939     8.2244     8.5046     9.7589    68.2635     8.0456     0.0172     2.4833     0.1027
  288.5000   -52.4795     8.2861     8.3908     9.7623    68.4880     8.0455     0.0052     2.4795     0.1069
  289.0000   -52.7623     8.5233     8.3959     9.7656    69.3862     8.0604     0.0127     2.4855     0.1016
  289.5000   -52.8984     8.7674     8.4582     9.7008    69.1617     8.0602     0.0187     2.4937     0.0958
  290.0000   -53.1839     9.0810     8.5801     9.7049    68.0389     8.0601     0.0239     2.5027     0.0900
  290.5000   -53.1700     9.2126     8.8250     9.7083    65.7934     8.0599     0.0193     2.5109     0.0842
  291.0000   -53.0072     9.2177     9.2671    10.0535    65.3443     8.0598     0.0240     2.5055     0.0856
