~VERSION INFORMATION
 VERS.                2.0:   CWLS LOG ASCII STANDARD - VERSION 2.0
 WRAP.                 NO:   ONE LINE PER DEPTH STEP
~WELL INFORMATION
#MNEM.UNIT      DATA TYPE    INFORMATION
#----------   ------------   ------------------------------
 STRT.F          190.0000:   START DEPTH
 STOP.F         3246.0000:   STOP DEPTH
 STEP.F            0.5000:   STEP LENGTH
 NULL.          -999.2500:   NO VALUE
 COMP. BROWN JOHN E&C INC:   COMPANY
 WELL.      STX-15 #84-15:   WELL
 FLD .             TEAPOT:   FIELD
 LOC .      S15 T38N R78W:   LOCATION
 CNTY.            NATRONA:   COUNTY
 STAT.            WYOMING:   STATE
 CTRY. UNITED STATES OF AMERICA:   COUNTRY
 SRVC.           BIRDWELL:   SERVICE COMPANY
 DATE.        17-MAR-1978:   LOGDATE
 API .       490251111600:   API NUMBER
~CURVE INFORMATION
#MNEM.UNIT       API CODE    CURVE DESCRIPTION
#----------   ------------   ------------------------------
 DEPT.F                  :   
 ILD .OHMM   05 120 46 00:   INDUCTION LOG DEEP
 SN  .OHMM   05 040 16 00:   SHORT NORMAL 16"
 SPR .MV     05 010 01 00:   SPONTANEOUS POTENTIAL FROM RES.
 GRD .GAPI   45 310 01 00:   GAMMA RAY FROM DENSITY LOG
 CALD.IN     45 280 60 00:   CALIPER
 RHOB.G/C3   45 350 01 00:   BULK DENSITY
 CORR.G/C3   45 356 01 00:   DENSITY CORRECTION
 DPHI.DEC    45 890 12 00:   DENSITY POROSITY SANDSTONE
~PARAMETER INFORMATION
#MNEM.UNIT          VALUE    DESCRIPTION
#----------   ------------   ------------------------------
 PD  .                 GL:   PERMANENT DATUM
 EPD .F              5241:   ELEVATION PERMANENT DATUM
 LMF .                 KB:   LOG MEASURED FROM
 DAPD.F                10:   FEET ABOVE PERMANENT DATUM
 DMF .                 KB:   DRILLING MEASURED FROM
 EKB .F              5251:   KELLING BUSHING
 EGL .F              5241:   GROUND LEVEL
 DATE.            3-17-78:   RUN DATE
 RUN .                  1:   RUN NUMBER
 DD  .F              3250:   DEPTH DRILLER
 DL  .F              3250:   DEPTH LOGGER
 BLI .F              3244:   BOTTOM LOG INTERVAL
 TLI .F               224:   TOP LOG INTERVAL
 CS  .IN            8.625:   CASING SIZE
 CBL .F               224:   CASING BOTTOM LOGGER
 BS  .IN            7.875:   BIT SIZE
 BSD .F              3250:   BIT SIZE AT DEPTH
 DFD .                8.9:   DRILLING FLUID DENSITY
 DFV .                 31:   DRILLING FLUID VISCOSITY
 DFPH.               10.5:   DRILLING FLUID PH
 DFL .                  8:   DRILLING FLUID LOSS
 MSS .           FLOWLINE:   MUD SAMPLE SOURCE
 RMS .OHMM            1.3:   RESISTIVITY MUD SAMPLE
 MST .F                70:   MUD SAMPLE TEMPERATURE
 RMF .OHMM            1.1:   RESISTIVITY MUD FILTRATE SAMPLE
 MFST.F                70:   MUD FILTRATE SAMPLE TEMPERATURE
 RMC .OHMM            1.4:   RESISTIVITY MUD CAKE
 MCST.F                70:   MUD CAKE SAMPLE TEMPERATURE
 MFSS.               MEAS:   MUD FILTRATE SAMPLE SOURCE
 MCSS.               MEAS:   MUD CAKE SAMPLE SOURCE
 RMB .OHMM            .77:   RESISTIVITY MUD AT BHT
 BHT .F               118:   BOTTOM HOLE TEMPERATURE
 TCS .HRS               6:   TIME CURCULATED STOPPED
 MRT .F               118:   MAXIMUM RECORDED TEMPERATURE
 LUN .               2958:   LOGGING UNIT NUMBER
 LUL .               CASP:   LOGGING UNIT LOCATION
 ENGI.             MILLER:   RECORDING ENGINEER
 WITN.           MCGINLEY:   WITNESSED BY
 CLNT.            A2DTECH:   CLIENT CODE
 ORIG.     1", 2.5" PRINT:   ORIGIN OF DATA
 UWI .       490251111600:   UNIQUE WELL ID
 DICO. A2D Technologies, Inc.:   DIGITIZING COMPANY
~OTHER INFORMATION
~A   DEPT      ILD         SN        SPR         GRD      CALD       RHOB       CORR       DPHI   
# ...
 1607.5000     7.8134     7.4077   -31.7554    83.6689    11.3325     2.5493     0.0347     0.0614
 1608.0000     7.8281     7.4077   -31.8301    83.1457    11.3326     2.5589     0.0422     0.0565
 1608.5000     7.8237     7.4077   -31.9041    83.9094    11.3326     2.5672     0.0501     0.0517
 1609.0000     7.8176     7.4077   -31.9783    84.6379    11.3326     2.5761     0.0477     0.0485
 1609.5000     7.8109     7.4077   -32.0524    84.9135    11.3326     2.5766     0.0409     0.0531
 1610.0000     7.8042     7.4077   -32.1264    83.8237    11.3326     2.5705     0.0344     0.0579
 1610.5000     7.7978     7.4077   -32.2009    83.1631    11.3326     2.5618     0.0279     0.0627
 1611.0000     7.7912     7.4077   -32.2747    84.8003    11.3326     2.5533     0.0213     0.0675
 1611.5000     7.7847     7.4077   -32.3485    86.2899    11.3326     2.5449     0.0160     0.0723
 1612.0000     7.7781     7.4077   -32.4254    87.0997    11.3326     2.5361     0.0137     0.0741
 1612.5000     7.7716     7.4077   -32.4634    86.7448    11.3326     2.5325     0.0120     0.0741
 1613.0000     7.7650     7.4077   -32.4135    86.2589    11.3326     2.5339     0.0132     0.0724
 1613.5000     7.7585     7.4076   -32.3452    85.8244    11.3326     2.5366     0.0165     0.0711
 1614.0000     7.7519     7.4077   -32.2779    85.3444    11.3326     2.5393     0.0196     0.0697
 1614.5000     7.7454     7.4076   -32.2102    85.0954    11.3326     2.5420     0.0228     0.0683
 1615.0000     7.7389     7.4076   -32.1426    85.7239    11.3326     2.5446     0.0260     0.0669
 1615.5000     7.7323     7.4078   -32.0751    84.8984    11.3327     2.5474     0.0291     0.0661
 1616.0000     7.7258     7.4072   -32.0073    83.1100    11.3327     2.5495     0.0319     0.0683
 1616.5000     7.7192     7.4079   -31.9399    82.6385    11.3326     2.5492     0.0312     0.0709
 1617.0000     7.7127     7.4093   -31.8723    82.8785    11.3329     2.5436     0.0297     0.0735
 1617.5000     7.7064     7.4434   -31.8041    83.0059    11.3327     2.5379     0.0296     0.0761
 1618.0000     7.6993     7.4813   -31.7385    83.1472    11.3321     2.5316     0.0295     0.0786
 1618.5000     7.6936     7.5229   -31.6705    83.3818    11.3349     2.5257     0.0535     0.0805
 1619.0000     7.6880     7.5543   -31.6955    82.8482    11.3075     2.5241     0.0785     0.0774
 1619.5000     7.7139     7.5710   -31.7568    81.6347    11.2479     2.5433     0.0919     0.0728
 1620.0000     7.7419     7.5904   -31.8170    80.6373    11.1948     2.5578     0.0739     0.0681
 1620.5000     7.7713     7.6096   -31.8758    81.7267    11.1385     2.5566     0.0231     0.0635
 1621.0000     7.7999     7.6286   -31.9358    83.2785    11.1425     2.5551     0.0269     0.0619
 1621.5000     7.8290     7.6477   -31.9953    84.9086    11.1495     2.5530     0.0269     0.0630
 1622.0000     7.8582     7.6669   -32.0550    86.2196    11.1591     2.5515     0.0312     0.0582
 1622.5000     7.8872     7.6861   -32.1147    86.5327    11.1669     2.5563     0.0305     0.0598
 1623.0000     7.9163     7.7054   -32.1742    84.7570    11.1753     2.5621     0.0251     0.0630
 1623.5000     7.9455     7.7248   -32.2340    82.9060    11.1840     2.5561     0.0202     0.0663
 1624.0000     7.9751     7.7442   -32.2931    80.8553    11.1919     2.5509     0.0154     0.0697
 1624.5000     7.9752     7.7636   -32.3533    79.3652    11.2006     2.5452     0.0147     0.0717
 1625.0000     7.9755     7.7832   -32.4135    79.3490    11.2101     2.5407     0.0192     0.0717
 1625.5000     7.9757     7.8025   -32.4522    79.3017    11.1877     2.5437     0.0229     0.0671
 1626.0000     7.9758     7.8227   -32.4210    80.4913    11.1009     2.5515     0.0266     0.0633
 1626.5000     7.9759     7.8305   -32.3908    82.0154    11.0910     2.5591     0.0313     0.0595
 1627.0000     7.9758     7.8298   -32.3585    83.5666    11.0766     2.5630     0.0266     0.0580
 1627.5000     7.9759     7.8299   -32.3269    85.0360    11.0662     2.5563     0.0153     0.0640
 1628.0000     7.9758     7.8300   -32.2953    86.6463    11.0536     2.5494     0.0056     0.0700
 1628.5000     7.9758     7.8299   -32.2635    87.4947    11.0415     2.5428    -0.0028     0.0733
 1629.0000     7.9759     7.8299   -32.2318    87.1890    11.0297     2.5358     0.0069     0.0691
 1629.5000     7.9754     7.8299   -32.2002    86.8428    11.0176     2.5433     0.0156     0.0650
 1630.0000     7.9812     7.8299   -32.1684    86.5147    11.0057     2.5538     0.0188     0.0643
 1630.5000     7.9950     7.8299   -32.1370    86.1716    10.9938     2.5531     0.0213     0.0663
 1631.0000     8.0081     7.8299   -32.1055    85.8325    10.9812     2.5515     0.0238     0.0685
 1631.5000     8.0213     7.8299   -32.0720    85.5044    10.9752     2.5491     0.0267     0.0685
 1632.0000     8.0347     7.8299   -32.0549    85.2772    10.9758     2.5535     0.0273     0.0635
 1632.5000     8.0480     7.8299   -32.0567    85.0822    10.9758     2.5594     0.0240     0.0590
 1633.0000     8.0613     7.8299   -32.0564    85.1787    10.9757     2.5660     0.0210     0.0542
 1633.5000     8.0747     7.8299   -32.0562    85.3925    10.9759     2.5755     0.0179     0.0582
 1634.0000     8.0881     7.8299   -32.0565    85.7130    10.9758     2.5585     0.0148     0.0626
 1634.5000     8.1015     7.8299   -32.0564    86.8479    10.9757     2.5365     0.0117     0.0669
 1635.0000     8.1149     7.8299   -32.0564    87.1679    10.9763     2.5424     0.0087     0.0713
 1635.5000     8.1284     7.8299   -32.0564    86.1877    10.9755     2.5429     0.0055     0.0749
 1636.0000     8.1419     7.8299   -32.0564    85.3801    10.9742     2.5316     0.0026     0.0714
 1636.5000     8.1554     7.8299   -32.0564    84.7071    10.9414     2.5433     0.0001     0.0718
 1637.0000     8.1689     7.8299   -32.0564    86.0509    10.9071     2.5413     0.0052     0.0746
 1637.5000     8.1824     7.8299   -32.0564    89.5199    10.8716     2.5372     0.0123     0.0757
 1638.0000     8.1960     7.8299   -32.0564    88.8553    10.8368     2.5352     0.0178     0.0685
 1638.5000     8.2095     7.8299   -32.0564    87.7694    10.8019     2.5445     0.0213     0.0624
 1639.0000     8.2231     7.8299   -32.0564    86.6006    10.7666     2.5541     0.0254     0.0564
 1639.5000     8.2367     7.8298   -32.0564    85.8708    10.7319     2.5634     0.0266     0.0556
 1640.0000     8.2505     7.8299   -32.0564    85.6673    10.6988     2.5718     0.0205     0.0578
 1640.5000     8.2640     7.8298   -32.0564    85.4405    10.6811     2.5635     0.0164     0.0600
 1641.0000     8.2757     7.8298   -32.0564    85.6197    10.6640     2.5551     0.0215     0.0622
 1641.5000     8.2758     7.8300   -32.0564    85.9055    10.6476     2.5516     0.0275     0.0566
 1642.0000     8.2762     7.8294   -32.0563    86.4785    10.6313     2.5636     0.0347     0.0587
 1642.5000     8.2761     7.8301   -32.0560    85.0793    10.6103     2.5641     0.0309     0.0631
 1643.0000     8.2761     7.8318   -32.0562    86.1056    10.5807     2.5589     0.0218     0.0653
 1643.5000     8.2761     7.8602   -32.0561    87.7037    10.5509     2.5544     0.0123     0.0675
 1644.0000     8.2761     7.8851   -32.0549    90.3973    10.5183     2.5496     0.0158     0.0693
 1644.5000     8.2761     7.9120   -32.0577    89.4519    10.4981     2.5450     0.0239     0.0685
 1645.0000     8.2761     7.9380   -32.0576    85.8131    10.5004     2.5435     0.0316     0.0657
 1645.5000     8.2761     7.9643   -32.1983    85.0803    10.4999     2.5552     0.0394     0.0631
 1646.0000     8.2761     7.9908   -32.3895    84.7393    10.4998     2.5657     0.0347     0.0603
 1646.5000     8.2761     8.0173   -32.5832    84.5836    10.5000     2.5687     0.0291     0.0575
 1647.0000     8.2761     8.0437   -32.7691    84.6088    10.4999     2.5653     0.0232     0.0611
 1647.5000     8.2761     8.0701   -32.9585    85.1409    10.5000     2.5585     0.0175     0.0649
