~VERSION INFORMATION
 VERS.                2.0:   CWLS LOG ASCII STANDARD - VERSION 2.0
 WRAP.                 NO:   ONE LINE PER DEPTH STEP
~WELL INFORMATION
#MNEM.UNIT      DATA TYPE    INFORMATION
#----------   ------------   ------------------------------
 STRT.F           70.0000:   START DEPTH
 STOP.F          884.0000:   STOP DEPTH
 STEP.F            0.5000:   STEP LENGTH
 NULL.          -999.2500:   NO VALUE
 COMP. U S NAVY/INTEX OIL CO:   COMPANY
 WELL.   NPR#3 "S" #16-35:   WELL
 FLD .             TEAPOT:   FIELD
 LOC .      S35 T39N R78W:   LOCATION
 CNTY.            NATRONA:   COUNTY
 STAT.            WYOMING:   STATE
 CTRY. UNITED STATES OF AMERICA:   COUNTRY
 SRVC.         Lane Wells:   SERVICE COMPANY
 DATE.        21-MAR-1960:   LOGDATE
 API .       490250651800:   API NUMBER
~CURVE INFORMATION
#MNEM.UNIT       API CODE    CURVE DESCRIPTION
#----------   ------------   ------------------------------
 DEPT.F                  :   
 SPR .MV     05 010 01 00:   SPONTANEOUS POTENTIAL FROM RES.
 ASN .OHMM   05 040 16 00:   AMPLIFIED SHORT NORMAL 16"
 ILD .OHMM   05 120 46 00:   INDUCTION LOG DEEP
 CILD.MMHO   05 110 46 00:   CONDUCTIVITY INDUCTION LOG DEEP
 GR  .GAPI   30 310 01 00:   GAMMA RAY
~PARAMETER INFORMATION
#MNEM.UNIT          VALUE    DESCRIPTION
#----------   ------------   ------------------------------
 PD  .                 GL:   PERMANENT DATUM
 EPD .F              5091:   ELEVATION PERMANENT DATUM
 LMF .                 KB:   LOG MEASURED FROM
 DAPD.F                 5:   FEET ABOVE PERMANENT DATUM
 DMF .                 KB:   DRILLING MEASURED FROM
 EKB .F              5096:   KELLING BUSHING
 EGL .F              5091:   GROUND LEVEL
 DATE.          3-21-1960:   RUN DATE
 RUN .                  1:   RUN NUMBER
 DD  .F               913:   DEPTH DRILLER
 DL  .F               885:   DEPTH LOGGER
 BLI .F               883:   BOTTOM LOG INTERVAL
 TLI .F                70:   TOP LOG INTERVAL
 CS  .IN            8.625:   CASING SIZE
 CBD .F                12:   CASING BOTTOM DRILLER
 BS  .IN            7.875:   BIT SIZE
 BSD .F               913:   BIT SIZE AT DEPTH
 DFT .   GEL-OIL EMULSION:   DRILLING FLUID TYPE
 DFD .                9.9:   DRILLING FLUID DENSITY
 DFV .                 40:   DRILLING FLUID VISCOSITY
 MSS .           FLOWLINE:   MUD SAMPLE SOURCE
 RMS .OHMM              3:   RESISTIVITY MUD SAMPLE
 MST .F                64:   MUD SAMPLE TEMPERATURE
 RMF .OHMM            2.2:   RESISTIVITY MUD FILTRATE SAMPLE
 MFST.F                64:   MUD FILTRATE SAMPLE TEMPERATURE
 RMC .OHMM              4:   RESISTIVITY MUD CAKE
 MCST.F                64:   MUD CAKE SAMPLE TEMPERATURE
 MFSS.                MUD:   MUD FILTRATE SAMPLE SOURCE
 MCSS.              PRESS:   MUD CAKE SAMPLE SOURCE
 RMB .OHMM            2.7:   RESISTIVITY MUD AT BHT
 BHT .F                70:   BOTTOM HOLE TEMPERATURE
 MRT .F                70:   MAXIMUM RECORDED TEMPERATURE
 LUN .             L-4474:   LOGGING UNIT NUMBER
 LUL .             CASPER:   LOGGING UNIT LOCATION
 ENGI.             NELSON:   RECORDING ENGINEER
 WITN.          JORGENSEN:   WITNESSED BY
 CLNT.            A2DTECH:   CLIENT CODE
 ORIG.      2" & 5" PRINT:   ORIGIN OF DATA
 UWI .       490250651800:   UNIQUE WELL ID
 DICO. A2D Technologies, Inc.:   DIGITIZING COMPANY
~OTHER INFORMATION
~A   DEPT      SPR          ASN      ILD        CILD        GR   
# ...
  192.0000   -33.1760     6.4347     4.5929   234.0092  -999.2500
  192.5000   -33.3224     6.6804     4.6294   230.7394  -999.2500
  193.0000   -33.4544     6.9188     4.6663   227.4698  -999.2500
  193.5000   -33.6205     7.1679     4.7027   224.2050  -999.2500
  194.0000   -33.6780     7.2719     4.7401   220.9833  -999.2500
  194.5000   -33.5270     7.2931     4.7753   219.9880  -999.2500
  195.0000   -33.3965     7.1450     4.8148   219.9880  -999.2500
  195.5000   -33.2516     6.9269     4.8462   219.9880  -999.2500
  196.0000   -33.1162     6.7449     4.8946   225.2647  -999.2500
  196.5000   -32.9727     6.5425     4.8523   231.6180  -999.2500
  197.0000   -32.8392     6.3707     4.6903   237.9713  -999.2500
  197.5000   -32.6902     6.3436     4.5422   244.3246  -999.2500
  198.0000   -32.5667     6.3827     4.3846   250.6779  -999.2500
  198.5000   -32.4159     6.1667     4.2343   257.0312  -999.2500
  199.0000   -32.6962     5.7514     4.0773   263.3845  -999.2500
  199.5000   -33.2085     5.3751     3.9272   269.7378  -999.2500
  200.0000   -33.6530     5.0692     3.7558   277.6111  -999.2500
  200.5000   -34.1252     5.0295     3.7464   281.2125  -999.2500
  201.0000   -34.5844     5.0411     3.7708   281.5186  -999.2500
  201.5000   -35.0493     5.2974     3.7890   282.4595  -999.2500
  202.0000   -35.5105     5.6118     3.8091   283.0132  -999.2500
  202.5000   -35.9833     5.9300     3.8287   283.0132  -999.2500
  203.0000   -36.3595     6.2411     3.8483   271.9928  -999.2500
  203.5000   -36.0346     6.5586     3.8678   260.7023  -999.2500
  204.0000   -35.6512     6.8741     3.8867   249.4118  -999.2500
  204.5000   -35.2701     7.1347     3.9063   238.1212  -999.2500
  205.0000   -34.8916     7.1788     3.9247   226.8307  -999.2500
  205.5000   -34.5111     7.2188     3.9451   215.5402  -999.2500
  206.0000   -34.1290     7.2530     3.9631   209.7621  -999.2500
  206.5000   -33.7541     7.2897     3.9820   205.7634  -999.2500
  207.0000   -33.3642     7.3246     4.0255   201.7647  -999.2500
  207.5000   -33.0047     7.3607     4.4159   197.7660  -999.2500
  208.0000   -32.5878     7.3960     4.8877   193.7673  -999.2500
  208.5000   -32.5413     7.4317     5.1461   189.7685  -999.2500
  209.0000   -32.8390     7.4662     5.3920   185.7698  -999.2500
  209.5000   -33.0678     7.4453     5.6330   182.1729  -999.2500
  210.0000   -33.3452     7.2369     5.8894   185.0720  -999.2500
  210.5000   -33.4951     7.0295     6.0553   187.7065  -999.2500
  211.0000   -33.3066     6.8202     5.9026   190.3409  -999.2500
  211.5000   -33.1359     6.6130     5.7569   192.9754  -999.2500
  212.0000   -32.9580     6.4040     5.6044   197.2463  -999.2500
  212.5000   -32.7839     6.1959     5.4578   205.0628  -999.2500
  213.0000   -32.6090     5.9877     5.3074   212.8793  -999.2500
  213.5000   -32.4451     5.7787     5.1592   220.6958  -999.2500
  214.0000   -32.4949     5.5732     5.0099   228.5123  -999.2500
  214.5000   -32.6172     5.3595     4.8612   236.3288  -999.2500
  215.0000   -32.7304     5.1889     4.7127   243.3974  -999.2500
  215.5000   -32.8427     5.1714     4.5641   254.1189  -999.2500
  216.0000   -32.9643     5.2305     4.4155   263.9040  -999.2500
  216.5000   -32.8657     5.3520     4.2667   276.9538  -999.2500
  217.0000   -32.6994     5.4112     4.1176   291.3806  -999.2500
  217.5000   -32.5443     5.2649     3.9690   308.2233  -999.2500
  218.0000   -32.3857     5.0735     3.8198   309.4766  -999.2500
  218.5000   -32.2247     4.8855     3.6714   310.9820  -999.2500
  219.0000   -32.0945     4.6977     3.5224   311.2725  -999.2500
  219.5000   -32.1555     4.5071     3.3752   310.0240  -999.2500
  220.0000   -32.2346     4.3249     3.3098   308.2233  -999.2500
  220.5000   -32.3063     4.3903     3.5321   302.3304  -999.2500
  221.0000   -32.3946     4.6629     3.7366   291.9808  -999.2500
  221.5000   -32.4233     4.9515     3.8408   281.6312  -999.2500
  222.0000   -32.3406     5.1198     3.9454   271.2815  -999.2500
  222.5000   -32.2696     5.0562     4.0234   267.2119  -999.2500
  223.0000   -32.1913     4.9755     4.0522   265.0060  -999.2500
  223.5000   -32.1167     5.0104     4.0948   265.0060  -999.2500
  224.0000   -32.0406     5.0817     4.1295   265.0060  -999.2500
  224.5000   -31.9640     5.1413     4.1709   265.0060  -999.2500
  225.0000   -31.8902     5.2110     4.1894   264.7602  -999.2500
  225.5000   -31.8104     5.2602     4.1901   267.9347  -999.2500
  226.0000   -31.7451     5.2678     4.1697   274.1178  -999.2500
  226.5000   -31.6453     5.1254     3.9707   280.3120  -999.2500
  227.0000   -31.5229     4.8730     3.7715   294.0951  -999.2500
  227.5000   -31.4167     4.6490     3.5689   311.9900  -999.2500
  228.0000   -31.3041     4.4138     3.3710   329.9117  -999.2500
  228.5000   -31.1942     4.1828     3.1675   351.0326  -999.2500
  229.0000   -31.0833     3.9506     2.9716   374.1537  -999.2500
  229.5000   -30.9715     3.7202     2.7614   401.7527  -999.2500
  230.0000   -30.8631     3.6853     2.6218   430.6723  -999.2500
  230.5000   -30.7474     3.6926     2.5694   458.4439  -999.2500
  231.0000   -30.6464     3.8289     2.5907   486.4946  -999.2500
  231.5000   -30.5116     3.9822     2.6054   486.4946  -999.2500
  232.0000   -30.5146     4.1317     2.6250   470.3601  -999.2500
  232.5000   -30.7785     4.2861     2.6379   443.7576  -999.2500
  233.0000   -31.0209     4.4301     2.6760   416.7299  -999.2500
  233.5000   -31.2837     4.6002     2.8661   389.7438  -999.2500
  234.0000   -31.5262     4.7006     3.0347   365.4167  -999.2500
  234.5000   -31.7957     4.6859     3.2131   347.2187  -999.2500
  235.0000   -31.9079     4.6428     3.3781   329.0982  -999.2500
  235.5000   -31.9001     4.5822     3.5656   309.9993  -999.2500
  236.0000   -31.8957     4.5174     3.6545   307.1199  -999.2500
  236.5000   -31.9151     4.5171     3.6533   303.9166  -999.2500
  237.0000   -31.7421     4.5798     3.6778   301.0204  -999.2500
  237.5000   -31.4543     4.6354     3.6953   301.0204  -999.2500
  238.0000   -31.2133     4.6472     3.7117   301.0204  -999.2500
  238.5000   -30.9533     4.6231     3.7376   301.0204  -999.2500
  239.0000   -30.7055     4.6065     3.6816   301.3325  -999.2500
  239.5000   -30.4385     4.5822     3.5785   302.8211  -999.2500
  240.0000   -30.0775     4.5031     3.4932   313.7055  -999.2500
  240.5000   -29.6751     4.3981     3.4007   327.0310  -999.2500
  241.0000   -29.4290     4.2981     3.3115   340.4399  -999.2500
  241.5000   -29.7827     4.1942     3.2210   353.8611  -999.2500
  242.0000   -30.2168     4.0953     3.1305   367.2955  -999.2500
  242.5000   -30.4008     3.9887     3.0408   380.7487  -999.2500
  243.0000   -30.0897     3.9479     2.9492   394.2183  -999.2500
  243.5000   -29.8415     3.9471     2.8609   407.6917  -999.2500
  244.0000   -29.5826     4.0165     2.7692   419.8680  -999.2500
  244.5000   -29.8124     4.3387     2.7574   416.2665  -999.2500
  245.0000   -30.1072     4.6270     2.7948   401.6687  -999.2500
  245.5000   -30.3972     4.9183     2.8114   382.6003  -999.2500
  246.0000   -30.6869     5.2160     2.9087   363.5318  -999.2500
  246.5000   -30.9790     5.5117     3.1128   344.4634  -999.2500
  247.0000   -31.2666     5.9811     3.3114   325.3950  -999.2500
  247.5000   -31.5644     6.2017     3.5142   306.3265  -999.2500
  248.0000   -31.8547     6.1997     3.7159   287.0493  -999.2500
  248.5000   -31.9319     5.9846     3.9142   276.9593  -999.2500
  249.0000   -31.5994     5.5991     4.1253   273.2021  -999.2500
  249.5000   -31.0254     5.2898     4.2509   272.0061  -999.2500
  250.0000   -30.5239     4.9974     4.0509   272.4911  -999.2500
  250.5000   -29.9325     4.7268     3.8685   273.1457  -999.2500
  251.0000   -29.8326     4.4227     3.6723   273.8852  -999.2500
  251.5000   -30.1446     4.2612     3.4933   282.1881  -999.2500
  252.0000   -30.3552     4.0858     3.2868   292.0816  -999.2500
  252.5000   -30.6687     3.9125     3.1881   305.9724  -999.2500
