~VERSION INFORMATION
 VERS.                2.0:   CWLS LOG ASCII STANDARD - VERSION 2.0
 WRAP.                 NO:   ONE LINE PER DEPTH STEP
~WELL INFORMATION
#MNEM.UNIT      DATA TYPE    INFORMATION
#----------   ------------   ------------------------------
 STRT.F           32.0000:   START DEPTH
 STOP.F          812.0000:   STOP DEPTH
 STEP.F            0.5000:   STEP LENGTH
 NULL.          -999.2500:   NO VALUE
 COMP. FENIX & SCISSON INC:   COMPANY
 WELL.       75 SX #15-15:   WELL
 FLD .             TEAPOT:   FIELD
 LOC .      S15 T38N R78W:   LOCATION
 CNTY.            NATRONA:   COUNTY
 STAT.            WYOMING:   STATE
 CTRY. UNITED STATES OF AMERICA:   COUNTRY
 SRVC.              Welex:   SERVICE COMPANY
 DATE.        28-FEB-1977:   LOGDATE
 API .       490251030100:   API NUMBER
~CURVE INFORMATION
#MNEM.UNIT       API CODE    CURVE DESCRIPTION
#----------   ------------   ------------------------------
 DEPT.F                  :   
 SPR .MV     07 010 01 00:   SPONTANEOUS POTENTIAL
 ILD .OHMM   07 120 46 00:   INDUCTION LOG DEEP
 SGRD.OHMM   07 220 05 00:   SHALLOW RESISTIVITY
 ILM .OHMM   07 120 44 00:   INDUCTION LOG MEDIUM
 GRD .GAPI   45 310 01 00:   GAMMA RAY FROM DENSITY LOG
 CALD.IN     45 280 60 00:   CALIPER FROM DENSITY LOG
 RHOB.G/C3   45 350 01 00:   BULK DENSITY
 DPHI.DEC    45 890 12 00:   DENSITY POROSITY SANDSTONE
 CORR.G/C3   45 356 01 00:   DENSITY CORRECTION
~PARAMETER INFORMATION
#MNEM.UNIT          VALUE    DESCRIPTION
#----------   ------------   ------------------------------
 PD  .                 GL:   PERMANENT DATUM
 EPD .F              5264:   ELEVATION PERMANENT DATUM
 LMF .                 GL:   LOG MEASURED FROM
 DMF .                 GL:   DRILLING MEASURED FROM
 EGL .F              5264:   GROUND LEVEL
 DATE.          2-28-1977:   RUN DATE
 RUN .                  1:   RUN NUMBER
 DD  .F               830:   DEPTH DRILLER
 DL  .F               814:   DEPTH LOGGER
 BLI .F               812:   BOTTOM LOG INTERVAL
 TLI .F                42:   TOP LOG INTERVAL
 CS  .IN            8.625:   CASING SIZE
 CBD .F                40:   CASING BOTTOM DRILLER
 CBL .F                42:   CASING BOTTOM LOGGER
 BS  .IN            7.875:   BIT SIZE
 BSD .F               830:   BIT SIZE AT DEPTH
 DFT .           CHEM-GEL:   DRILLING FLUID TYPE
 DFD .                9.3:   DRILLING FLUID DENSITY
 DFV .                 38:   DRILLING FLUID VISCOSITY
 DFPH.               10.5:   DRILLING FLUID PH
 DFL .               16.2:   DRILLING FLUID LOSS
 MSS .          FLOW LINE:   MUD SAMPLE SOURCE
 RMS .OHMM           0.44:   RESISTIVITY MUD SAMPLE
 MST .F                62:   MUD SAMPLE TEMPERATURE
 RMF .OHMM            .38:   RESISTIVITY MUD FILTRATE SAMPLE
 MFST.F                62:   MUD FILTRATE SAMPLE TEMPERATURE
 RMC .OHMM           0.79:   RESISTIVITY MUD CAKE
 MCST.F                62:   MUD CAKE SAMPLE TEMPERATURE
 MFSS.           MEASURED:   MUD FILTRATE SAMPLE SOURCE
 MCSS.           MEASURED:   MUD CAKE SAMPLE SOURCE
 RMB .OHMM           .368:   RESISTIVITY MUD AT BHT
 BHT .F                74:   BOTTOM HOLE TEMPERATURE
 TCS .HRS               3:   TIME CURCULATED STOPPED
 MRT .F                74:   MAXIMUM RECORDED TEMPERATURE
 LUN .               8611:   LOGGING UNIT NUMBER
 LUL .           GILLETTE:   LOGGING UNIT LOCATION
 ENGI.               DOAK:   RECORDING ENGINEER
 WITN.               JAPP:   WITNESSED BY
 CLNT.            A2DTECH:   CLIENT CODE
 ORIG.       2", 5" PRINT:   ORIGIN OF DATA
 UWI .       490251030100:   UNIQUE WELL ID
 DICO. A2D Technologies, Inc.:   DIGITIZING COMPANY
~OTHER INFORMATION
~A   DEPT      SPR        ILD       SGRD        ILM         GRD        CALD       RHOB       DPHI      CORR  
# ...
  178.0000   -50.3971     7.3112    10.3709     7.8529   125.9367     8.0307     2.4761     0.1013     0.0310
  178.5000   -50.3011     7.3065    10.2128     7.8584   124.4724     8.0710     2.4642     0.1092     0.0263
  179.0000   -50.2050     7.3018    10.0572     7.8733   124.8141     8.0837     2.4537     0.1144     0.0256
  179.5000   -50.1087     7.2976     9.9040     7.8882   126.4946     8.0372     2.4539     0.1130     0.0266
  180.0000   -50.0098     7.2951     9.7530     7.9031   126.1964     7.9875     2.4543     0.1116     0.0302
  180.5000   -50.0922     7.5281     9.6168     7.9181   120.6034     7.9371     2.4546     0.1103     0.0347
  181.0000   -50.2004     7.6932    11.6689     8.0140   115.9470     7.8869     2.4527     0.1128     0.0387
  181.5000   -50.3086     7.8622    11.4777     8.1942   113.8035     7.8366     2.4435     0.1176     0.0376
  182.0000   -50.4164     8.0347    11.2468     8.3784   113.9017     7.7864     2.4347     0.1217     0.0364
  182.5000   -50.5242     8.2110    11.6689     8.5668   115.5339     7.7357     2.4302     0.1209     0.0351
  183.0000   -50.6320     8.3912    11.3963     8.7598   113.8651     7.6870     2.4438     0.1175     0.0358
  183.5000   -50.7398     8.5316    11.1437     8.9563   111.6523     7.6584     2.4548     0.1142     0.0371
  184.0000   -50.8476     8.4524    11.6689     9.1840   112.4656     7.6757     2.4660     0.1108     0.0384
  184.5000   -50.9553     8.4566    11.6719     8.9178   113.4497     7.6969     2.4738     0.1134     0.0396
  185.0000   -51.0631     8.1026    10.6374     8.6219   112.2067     7.7185     2.4615     0.1200     0.0409
  185.5000   -51.1709     7.7307    11.3334     8.2807   110.8541     7.7400     2.4461     0.1266     0.0421
  186.0000   -51.2787     6.9715    11.7769     7.6416   110.3429     7.7594     2.4307     0.1329     0.0434
  186.5000   -51.3867     6.1739    10.7316     7.0518   110.7778     7.7625     2.4153     0.1408     0.0447
  187.0000   -51.4955     5.4676     9.1840     6.5075   111.1643     7.7651     2.4000     0.1492     0.0439
  187.5000   -51.6061     4.8421     9.1826     6.1239   110.4791     7.7678     2.3846     0.1628     0.0428
  188.0000   -51.2205     4.2877     9.1981     5.2905   108.3048     7.7705     2.3589     0.1839     0.0417
  188.5000   -50.7754     3.7947     7.8759     4.6016   114.9667     7.7732     2.3158     0.2061     0.0400
  189.0000   -50.3305     3.3284     5.5282     4.0025   123.3203     7.7760     2.2727     0.2283     0.0362
  189.5000   -49.8865     3.3316     3.8848     3.4596   131.8333     7.7792     2.2296     0.2505     0.0272
  190.0000   -49.4397     3.3023     2.9042     3.4596   136.2346     7.7802     2.1760     0.2729     0.0162
  190.5000   -49.0165     3.4332     3.3678     3.6637   132.3371     7.7195     2.1818     0.2788     0.0073
  191.0000   -49.1133     3.6636     3.8201     4.1426   126.0491     7.6151     2.2062     0.2567     0.0030
  191.5000   -49.2301     3.9095     6.0029     4.7779   119.3147     7.5120     2.2442     0.2311    -0.0016
  192.0000   -49.3437     4.3757    10.0547     5.5106   112.5413     7.4081     2.3312     0.1762     0.0019
  192.5000   -49.2735     5.1661    13.5217     6.3557   105.7685     7.3051     2.4088     0.1321     0.0075
  193.0000   -49.0171     6.0992    13.0071     7.3304    99.0848     7.3497     2.4219     0.1293     0.0090
  193.5000   -48.7654     7.2009    12.4415     8.4545    94.8889     7.4802     2.4322     0.1262     0.0105
  194.0000   -48.7009     8.5016    14.0184     9.7510    91.6800     7.6086     2.4423     0.1211     0.0193
  194.5000   -48.9728    10.0372    16.3604    11.2464    88.9647     7.7380     2.4522     0.1155     0.0290
  195.0000   -49.2402    11.8502    19.0382    12.9711    86.1585     7.8353     2.4622     0.1099     0.0334
  195.5000   -49.5087    12.5612    24.7130    15.2416    84.4101     7.8330     2.4709     0.1062     0.0375
  196.0000   -49.7769    11.6578    32.6908    14.3504    83.4769     7.8235     2.4687     0.1104     0.0416
  196.5000   -50.0451    10.4365    23.0624    13.3896    90.0863     7.8143     2.4577     0.1172     0.0449
  197.0000   -50.3140     9.3432    17.0709    12.4460    94.9219     7.8055     2.4353     0.1279     0.0448
  197.5000   -50.5840     8.3644    14.4932    10.6550    99.7951     7.7991     2.4076     0.1434     0.0425
  198.0000   -50.8016     7.4882    13.6083     9.0402   107.2102     7.7992     2.3795     0.1589     0.0377
  198.5000   -50.6624     6.7037     9.7123     7.6701   119.6754     7.7992     2.3514     0.1743     0.0329
  199.0000   -50.0223     6.0014     5.8005     6.5077   132.1035     7.7992     2.3231     0.1887     0.0281
  199.5000   -49.2428     5.5339     4.3957     5.9024   141.4520     7.7992     2.3095     0.2006     0.0234
  200.0000   -48.4705     5.9460     5.5534     6.7687   141.4674     7.7992     2.3428     0.1790     0.0234
  200.5000   -47.7118     6.2917    11.2395     7.5412   120.5185     7.7992     2.3807     0.1566     0.0286
  201.0000   -47.1620     6.6609    16.4070     8.4019   108.3995     7.7992     2.4184     0.1341     0.0338
  201.5000   -46.5945     7.1358    15.9496     9.3608   104.8492     7.7992     2.4412     0.1253     0.0388
  202.0000   -46.0271     8.0392    14.9634    10.4292   105.2903     7.7992     2.4414     0.1255     0.0410
  202.5000   -45.4598     9.0515    15.2837    11.4835   105.9189     7.7992     2.4488     0.1261     0.0435
  203.0000   -44.8925    10.1925    15.8097    12.4789   105.4406     7.7993     2.4587     0.1214     0.0486
  203.5000   -44.3248    11.4769    16.3211    13.5607   105.1724     7.7995     2.4718     0.1164     0.0529
  204.0000   -43.7564    12.9231    16.8815    14.7362   106.3141     7.7955     2.4609     0.1149     0.0523
  204.5000   -43.2156    14.0455    17.4632    15.9599   105.1525     7.7533     2.4427     0.1242     0.0496
  205.0000   -42.9907    14.8969    18.0647    15.7591   101.4201     7.7425     2.4376     0.1276     0.0470
  205.5000   -42.7790    15.6887    18.8586    15.5254    98.9314     7.7309     2.4445     0.1237     0.0444
  206.0000   -42.5664    16.5225    20.1021    15.2416    98.5820     7.7193     2.4518     0.1233     0.0418
  206.5000   -42.3535    17.4007    21.4222    15.6686    97.7752     7.7079     2.4449     0.1253     0.0392
  207.0000   -42.1407    18.6651    23.0630    15.4102    95.7912     7.7090     2.4443     0.1251     0.0366
  207.5000   -41.9278    18.5732    21.9666    14.9949    93.7120     7.7420     2.4438     0.1258     0.0349
  208.0000   -41.7149    18.4317    20.7200    14.5556    92.2562     7.7744     2.4372     0.1285     0.0352
  208.5000   -41.5021    18.2912    19.5441    15.0430    93.9493     7.8069     2.4307     0.1311     0.0355
  209.0000   -41.2892    18.1519    18.8378    15.5967    97.7625     7.8395     2.4243     0.1338     0.0357
  209.5000   -41.0763    18.0136    19.4648    16.1707   101.5582     7.8719     2.4210     0.1361     0.0360
  210.0000   -40.8635    17.8763    19.9356    16.7658   105.3439     7.8956     2.4252     0.1329     0.0362
  210.5000   -40.6506    17.7401    20.2782    17.3829   109.1387     7.8707     2.4292     0.1307     0.0365
  211.0000   -40.4372    17.6046    20.4202    18.0225   111.5443     7.8466     2.4332     0.1299     0.0367
  211.5000   -40.2232    17.4704    20.5507    18.6850   107.8996     7.8226     2.4373     0.1290     0.0370
  212.0000   -40.0636    17.3392    21.0038    19.3656   104.2499     7.7987     2.4414     0.1264     0.0372
  212.5000   -39.9048    17.6257    22.7975    20.2218   101.6188     7.7747     2.4453     0.1237     0.0375
  213.0000   -39.7454    17.9819    25.7650    21.1054   100.6996     7.7507     2.4458     0.1256     0.0377
  213.5000   -39.5861    18.3454    24.7153    22.0277   101.1741     7.7266     2.4411     0.1275     0.0380
  214.0000   -39.4267    18.7162    22.7203    22.9902   101.7151     7.7272     2.4365     0.1286     0.0382
