~VERSION INFORMATION
 VERS.                2.0:   CWLS LOG ASCII STANDARD - VERSION 2.0
 WRAP.                 NO:   ONE LINE PER DEPTH STEP
~WELL INFORMATION
#MNEM.UNIT      DATA TYPE    INFORMATION
#----------   ------------   ------------------------------
 STRT.F            2.0000:   START DEPTH
 STOP.F          522.0000:   STOP DEPTH
 STEP.F            0.5000:   STEP LENGTH
 NULL.          -999.2500:   NO VALUE
 COMP. LAWRENCE/ALLISON INC:   COMPANY
 WELL.      47-45 SX #3-3:   WELL
 FLD .             TEAPOT:   FIELD
 LOC .       S3 T38N R78W:   LOCATION
 CNTY.            NATRONA:   COUNTY
 STAT.            WYOMING:   STATE
 CTRY. UNITED STATES OF AMERICA:   COUNTRY
 SRVC.           Gearhart:   SERVICE COMPANY
 DATE.        17-JUN-1988:   LOGDATE
 API .       490251123600:   API NUMBER
~CURVE INFORMATION
#MNEM.UNIT       API CODE    CURVE DESCRIPTION
#----------   ------------   ------------------------------
 DEPT.F                  :   
 GRR .GAPI   07 310 01 00:   GAMMA RAY
 RILD.OHMM   07 120 46 00:   INDUCTION LOG DEEP RESISTIVITY
 RILM.OHMM   07 120 44 00:   INDUCTION LOG MEDIUM RESISTIVITY
~PARAMETER INFORMATION
#MNEM.UNIT          VALUE    DESCRIPTION
#----------   ------------   ------------------------------
 PD  .                 GL:   PERMANENT DATUM
 EPD .F              5197:   ELEVATION PERMANENT DATUM
 LMF .                 KB:   LOG MEASURED FROM
 DAPD.F                10:   FEET ABOVE PERMANENT DATUM
 DMF .                 KB:   DRILLING MEASURED FROM
 EKB .F              5207:   KELLING BUSHING
 EGL .F              5197:   GROUND LEVEL
 DATE.        17-JUN-1988:   RUN DATE
 RUN .                  1:   RUN NUMBER
 DD  .F               530:   DEPTH DRILLER
 DL  .F               530:   DEPTH LOGGER
 BLI .F             521.5:   BOTTOM LOG INTERVAL
 TLI .F                48:   TOP LOG INTERVAL
 CS  .IN            9.625:   CASING SIZE
 CBD .F                48:   CASING BOTTOM DRILLER
 CBL .F                48:   CASING BOTTOM LOGGER
 BS  .IN             8.75:   BIT SIZE
 BSD .F               530:   BIT SIZE AT DEPTH
 DFT .                AIR:   DRILLING FLUID TYPE
 TLAB.HRS            0600:   TIME LOGGER AT BOTTOM
 MRT .F                70:   MAXIMUM RECORDED TEMPERATURE
 LUN .               7597:   LOGGING UNIT NUMBER
 LUL .           GILLETTE:   LOGGING UNIT LOCATION
 ENGI.          HUCKFELDT:   RECORDING ENGINEER
 WITN.             STRONG:   WITNESSED BY
 CLNT.            A2DTECH:   CLIENT CODE
 ORIG.           5" PRINT:   ORIGIN OF DATA
 UWI .       490251123600:   UNIQUE WELL ID
 DICO. A2D Technologies, Inc.:   DIGITIZING COMPANY
~OTHER INFORMATION
~A    DEPT      GRR      RILD       RILM   
# ...
  275.0000   121.5152     8.9723     8.9662
  275.5000   121.8182     8.9678     9.1536
  276.0000   120.0000     8.9022     9.4747
  276.5000   114.5455     8.6287     9.6722
  277.0000   109.9617     7.7954     9.2109
  277.5000   112.7273     7.1695     8.1834
  278.0000   119.6970     6.7796     7.1206
  278.5000   124.8485     6.5913     6.3262
  279.0000   131.8182     6.5887     5.5816
  279.5000   138.7879     6.7246     5.5035
  280.0000   140.6061     6.9586     5.9390
  280.5000   131.8182     7.2516     6.4989
  281.0000   122.1212     7.6095     7.2614
  281.5000   116.0606     8.3827     8.3419
  282.0000   115.1515     9.3635     9.3206
  282.5000   116.3636    10.2579    10.1287
  283.0000   115.7536    10.8231    10.7142
  283.5000   113.8401    10.8187    10.9285
  284.0000   111.2121    10.8908    11.0025
  284.5000   110.3030    10.9623    10.9998
  285.0000   112.1212    11.1099    10.8458
  285.5000   113.6364    11.5798    10.6200
  286.0000   114.8485    12.2327    10.6179
  286.5000   115.1515    13.1979    11.3788
  287.0000   111.8182    14.2393    12.2798
  287.5000   105.1515    15.4698    13.8161
  288.0000    88.4848    16.6905    15.8719
  288.5000    74.8485    18.2592    18.2337
  289.0000    70.3030    20.4582    20.2319
  289.5000    68.4717    22.6222    22.1920
  290.0000    67.5758    24.5772    24.5643
  290.5000    67.5758    25.6120    25.9627
  291.0000    67.5758    26.3225    26.6902
  291.5000    70.0000    26.8656    27.4366
  292.0000    73.0303    27.2501    28.2025
  292.5000    75.4545    27.5998    28.7972
  293.0000    77.2727    28.1692    29.3895
  293.5000    78.1818    28.7475    29.7961
  294.0000    75.1515    29.1377    29.9978
  294.5000    72.7273    29.7389    30.6233
  295.0000    73.0303    30.3663    31.4781
  295.5000    73.6364    30.7644    32.3585
  296.0000    71.1395    31.1819    33.2880
  296.5000    66.3636    31.3865    34.9120
  297.0000    64.5455    31.3708    36.1385
  297.5000    62.7273    30.9260    36.6385
  298.0000    62.7273    30.4817    35.3791
  298.5000    65.1515    29.6378    31.8721
  299.0000    69.7213    28.8148    29.5108
  299.5000    73.6364    27.8208    28.3095
  300.0000    73.9396    26.8350    27.6034
  300.5000    73.9426    26.6556    26.1310
  301.0000    73.9457    26.4733    25.1335
  301.5000    73.9486    26.4682    25.1251
  302.0000    74.8606    26.8311    25.4681
  302.5000    73.9551    27.3883    26.5432
  303.0000    72.7452    27.7638    27.4873
  303.5000    72.4450    28.3404    28.0412
  304.0000    74.5699    28.7289    28.2273
  304.5000    77.3001    28.5207    28.2155
  305.0000    79.1515    28.1201    28.0109
  305.5000    80.0339    27.3429    27.4242
  306.0000    80.0368    27.1465    27.2249
  306.5000    80.0397    27.1393    27.2140
  307.0000    80.0426    26.9441    27.2049
  307.5000    80.0455    26.9355    27.1959
  308.0000    80.9576    26.9283    27.1869
  308.5000    80.6581    26.7349    27.1777
  309.0000    79.7511    26.5430    26.7917
  309.5000    79.7548    26.5316    26.4134
  310.0000    81.5759    25.6223    25.6811
  310.5000    84.9384    24.9141    24.9691
  311.0000    87.3400    24.2255    23.7762
  311.5000    88.8580    23.7200    22.9567
  312.0000    88.5572    23.5496    22.3186
  312.5000    90.0759    23.2052    21.6999
  313.0000    91.8970    23.0506    21.5425
  313.5000    92.2030    23.0444    21.3863
  314.0000    90.6914    23.2003    21.5282
  314.5000    88.8762    23.3557    21.6710
  315.0000    88.5753    23.3479    21.8148
  315.5000    88.5789    23.0197    22.1108
  316.0000    88.2788    23.0123    22.2575
  316.5000    86.6675    23.0062    22.4053
  317.0000    84.9513    23.0001    22.3976
  317.5000    84.6511    22.9939    22.3885
  318.0000    85.5639    23.3135    22.3810
  318.5000    85.8698    23.4653    22.3736
  319.0000    85.8727    23.6224    22.5221
  319.5000    85.8763    24.1130    22.8295
  320.0000    85.8792    24.2745    22.9810
  320.5000    84.6700    24.0986    23.4571
  321.0000    83.4608    24.0921    23.7754
  321.5000    82.2515    24.0842    23.9351
  322.0000    81.9514    23.9113    23.7596
  322.5000    83.7732    23.5754    23.4238
  323.0000    84.6852    23.5691    23.0912
  323.5000    84.6881    23.2380    22.9238
  324.0000    84.6910    22.9114    22.7576
  324.5000    84.6939    22.7455    22.7500
  325.0000    84.6976    22.5822    22.5850
  325.5000    84.7005    22.2650    21.9570
  326.0000    84.7034    21.9522    21.4971
  326.5000    85.0093    21.4941    21.0468
  327.0000    86.2243    21.0442    20.8941
  327.5000    84.9695    20.8931    20.4565
  328.0000    82.5938    20.8875    20.3080
  328.5000    82.9004    21.0288    20.0196
  329.0000    85.0246    21.4642    19.8744
  329.5000    87.4517    21.6079    20.1458
  330.0000    88.3637    21.6007    20.4208
  330.5000    88.6697    21.4456    20.5563
  331.0000    88.3702    21.2916    20.8598
  331.5000    87.1610    20.9925    21.2668
  332.0000    86.5571    21.2803    21.4097
  332.5000    88.0759    21.4228    21.1056
  333.0000    88.9879    21.4157    20.9525
  333.5000    89.9006    21.4100    20.8005
  334.0000    89.9035    20.9632    20.6480
  334.5000    89.9064    20.8127    20.4983
  335.0000    88.6972    20.6584    20.2088
  335.5000    89.3062    20.3716    20.0622
  336.0000    91.1759    20.3662    19.6420
  336.5000    93.2521    20.2199    19.6163
  337.0000    94.1633    19.7980    19.4914
  337.5000    89.6215    19.6558    19.4850
  338.0000    87.2002    19.2456    19.3437
  338.5000    85.9910    19.1062    19.3372
  339.0000    85.9940    19.1011    19.1969
  339.5000    86.6035    18.9640    18.7933
  340.0000    87.2125    18.9589    18.1458
  340.5000    87.5184    18.9539    17.6427
  341.0000    87.5213    18.8176    17.3935
  341.5000    87.5242    18.5522    17.1479
  342.0000    87.5279    18.0394    17.1420
  342.5000    87.5308    17.5408    17.4959
  343.0000    87.5337    17.6583    17.4900
  343.5000    87.2328    18.0251    17.6076
  344.0000    86.6304    18.1458    17.6003
  344.5000    86.0272    18.1397    17.5944
  345.0000    86.0309    18.1349    17.5871
  345.5000    87.2459    18.0047    17.5813
  346.0000    87.5518    17.8754    17.4538
  346.5000    87.8570    17.6242    17.3272
  347.0000    86.3455    17.3756    17.0825
  347.5000    85.4042    17.1315    16.9585
  348.0000    85.1392    17.0085    16.7177
  348.5000    86.3549    16.6535    16.5964
  349.0000    87.2669    16.5340    16.4761
  349.5000    87.8759    16.2839    16.1310
  350.0000    89.3939    16.0510    16.0140
  350.5000    92.4333    15.7783    15.7941
  351.0000    93.3532    15.5057    15.5664
  351.5000    92.7560    15.0861    15.0309
  352.0000    92.1566    14.9777    14.7170
  352.5000    92.1677    14.8700    14.6110
  353.0000    92.1765    14.8660    14.7090
  353.5000    93.7005    14.8620    14.8065
  354.0000    94.6184    14.9725    15.0106
  354.5000    94.6273    15.7175    15.1111
  355.0000    92.1218    16.1397    15.3173
  355.5000    89.7987    16.4737    15.5273
  356.0000    88.2924    16.3553    15.6324
  356.5000    85.8770    16.2377    15.8458
  357.0000    84.0655    16.1210    15.9518
  357.5000    82.8622    16.1167    15.8370
  358.0000    82.8733    16.1123    15.8326
  358.5000    85.3063    16.1079    15.9388
  359.0000    88.9516    16.1035    15.7136
  359.5000    92.3213    15.6536    15.3853
  360.0000    93.2139    15.2254    14.9597
  360.5000    91.4046    14.8036    14.6472
  361.0000    89.8960    14.3943    14.3413
  361.5000    88.0889    14.1920    13.9445
  362.0000    89.3099    13.9926    13.6532
  362.5000    91.1369    13.8920    13.2755
  363.0000    93.5700    13.8883    12.9897
  363.5000    95.7001    13.8845    12.8145
  364.0000    97.2485    13.8807    12.8111
  364.5000    97.5359    14.2676    12.9867
  365.0000    96.3349    15.5172    13.1648
  365.5000    95.1316    17.0207    13.7214
