~VERSION INFORMATION
 VERS.                2.0:   CWLS LOG ASCII STANDARD - VERSION 2.0
 WRAP.                 NO:   ONE LINE PER DEPTH STEP
~WELL INFORMATION
#MNEM.UNIT      DATA TYPE    INFORMATION
#----------   ------------   ------------------------------
 STRT.F           70.0000:   START DEPTH
 STOP.F         1043.0000:   STOP DEPTH
 STEP.F            0.5000:   STEP LENGTH
 NULL.          -999.2500:   NO VALUE
 COMP. U S NAVY/INTEX OIL CO:   COMPANY
 WELL.       NPR 3 #54S-2:   WELL
 FLD .             TEAPOT:   FIELD
 LOC .       S2 T38N R78W:   LOCATION
 CNTY.            NATRONA:   COUNTY
 STAT.            WYOMING:   STATE
 CTRY. UNITED STATES OF AMERICA:   COUNTRY
 SRVC.         Lane Wells:   SERVICE COMPANY
 DATE.        14-JUN-1960:   LOGDATE
 API .       490250643300:   API NUMBER
~CURVE INFORMATION
#MNEM.UNIT       API CODE    CURVE DESCRIPTION
#----------   ------------   ------------------------------
 DEPT.F                  :   
 CILD.MMHO   05 110 46 00:   CONDUCTIVITY INDUCTION LOG DEEP
 ILD .OHMM   05 120 46 00:   INDUCTION LOG DEEP
 ASN .OHMM   05 041 16 00:   AMPLIFIED SHORT NORMAL 16"
 SPR .MV     05 010 01 00:   SPONTANEOUS POTENTIAL FROM RES.
~PARAMETER INFORMATION
#MNEM.UNIT          VALUE    DESCRIPTION
#----------   ------------   ------------------------------
 PD  .                 GL:   PERMANENT DATUM
 EPD .F              6164:   ELEVATION PERMANENT DATUM
 LMF .                 KB:   LOG MEASURED FROM
 DAPD.F                 5:   FEET ABOVE PERMANENT DATUM
 DMF .                 KB:   DRILLING MEASURED FROM
 EKB .F              6169:   KELLING BUSHING
 EGL .F              6164:   GROUND LEVEL
 DATE.            6-14-60:   RUN DATE
 RUN .                  1:   RUN NUMBER
 DD  .F              1045:   DEPTH DRILLER
 DL  .F              1045:   DEPTH LOGGER
 BLI .F              1043:   BOTTOM LOG INTERVAL
 TLI .F                70:   TOP LOG INTERVAL
 CS  .IN            8.625:   CASING SIZE
 CBD .F                12:   CASING BOTTOM DRILLER
 BS  .IN            7.875:   BIT SIZE
 BSD .F              1045:   BIT SIZE AT DEPTH
 DFT .   GEL/OIL EMULSION:   DRILLING FLUID TYPE
 DFD .                9.7:   DRILLING FLUID DENSITY
 DFV .                 45:   DRILLING FLUID VISCOSITY
 DFPH.                  8:   DRILLING FLUID PH
 DFL .               11.6:   DRILLING FLUID LOSS
 MSS .          FLOW LINE:   MUD SAMPLE SOURCE
 RMS .OHMM            1.6:   RESISTIVITY MUD SAMPLE
 MST .F                62:   MUD SAMPLE TEMPERATURE
 RMF .OHMM            1.4:   RESISTIVITY MUD FILTRATE SAMPLE
 MFST.F                60:   MUD FILTRATE SAMPLE TEMPERATURE
 RMC .OHMM           1.75:   RESISTIVITY MUD CAKE
 MCST.F                60:   MUD CAKE SAMPLE TEMPERATURE
 MFSS.                MUD:   MUD FILTRATE SAMPLE SOURCE
 MCSS.              PRESS:   MUD CAKE SAMPLE SOURCE
 RMB .OHMM            1.4:   RESISTIVITY MUD AT BHT
 BHT .F                72:   BOTTOM HOLE TEMPERATURE
 MRT .F                72:   MAXIMUM RECORDED TEMPERATURE
 LUN .             C-4474:   LOGGING UNIT NUMBER
 LUL .             CASPER:   LOGGING UNIT LOCATION
 ENGI.      NELSON/GRIGGS:   RECORDING ENGINEER
 WITN.   JORGENSEN/HUDSON:   WITNESSED BY
 CLNT.            A2DTECH:   CLIENT CODE
 ORIG.       2", 5" PRINT:   ORIGIN OF DATA
 UWI .       490250643300:   UNIQUE WELL ID
 DICO. A2D Technologies, Inc.:   DIGITIZING COMPANY
~OTHER INFORMATION
~A   DEPT     CILD          ILD        ASN      SPR   
# ...
  362.0000   242.1019     4.7331     4.6046   -44.8698
  362.5000   246.8707     4.7018     4.3854   -44.6716
  363.0000   250.4161     4.4878     4.1796   -44.5387
  363.5000   265.1887     4.2987     3.9766   -44.5964
  364.0000   276.9474     4.1042     3.7726   -44.6590
  364.5000   288.4849     3.9161     3.5724   -44.7153
  365.0000   300.2973     3.7184     3.3625   -44.7825
  365.5000   312.1097     3.5371     3.1702   -44.8277
  366.0000   323.9221     3.3183     2.9347   -44.9220
  366.5000   332.7815     3.1823     2.8702   -44.6879
  367.0000   332.7815     3.2013     2.8832   -44.2623
  367.5000   328.2876     3.1946     3.0140   -43.9517
  368.0000   325.5913     3.3074     3.1811   -43.5184
  368.5000   308.6145     3.5373     3.4432   -43.3241
  369.0000   295.0331     3.7361     3.6627   -43.6663
  369.5000   281.4517     3.9372     3.9198   -43.9441
  370.0000   264.4749     4.1582     3.9892   -44.2240
  370.5000   262.6774     4.2017     4.0349   -44.5452
  371.0000   260.8799     4.2069     4.0639   -44.7520
  371.5000   260.8799     4.2229     4.0873   -44.7212
  372.0000   260.8799     4.2321     4.1208   -44.7430
  372.5000   260.8799     4.2469     4.1242   -44.7188
  373.0000   260.8799     4.2549     4.0674   -44.8507
  373.5000   265.3737     4.2748     4.0008   -45.0498
  374.0000   268.9688     4.2583     3.9274   -45.2449
  374.5000   271.6651     4.0968     3.7639   -45.2318
  375.0000   282.5787     3.9540     3.6085   -45.1340
  375.5000   291.3096     3.8086     3.4554   -45.0851
  376.0000   302.2233     3.6648     3.3028   -45.1020
  376.5000   310.3122     3.5200     3.1467   -45.0352
  377.0000   321.0974     3.3754     2.9987   -44.5998
  377.5000   331.8827     3.2170     2.8285   -44.2161
  378.0000   342.6679     3.1878     2.7027   -43.8164
  378.5000   350.7569     3.2405     2.6833   -43.4397
  379.0000   346.4427     3.3300     2.8058   -42.9849
  379.5000   340.6906     3.4129     2.8933   -43.1493
  380.0000   336.3765     3.5865     3.1210   -43.6274
  380.5000   306.0431     3.7852     3.4729   -43.8501
  381.0000   287.8430     3.9613     3.7487   -43.8615
  381.5000   274.3614     4.1406     4.0994   -43.9270
  382.0000   263.5762     4.3351     4.3305   -43.9523
  382.5000   250.0946     4.5165     4.4136   -44.0288
  383.0000   250.8650     4.5462     4.5180   -43.8966
  383.5000   251.8922     4.5790     4.5509   -43.7014
  384.0000   253.2063     4.6322     4.5687   -43.3178
  384.5000   254.0826     4.6442     4.5311   -42.5669
  385.0000   260.9102     4.5967     4.3738   -42.2685
  385.5000   264.9723     4.5272     4.1057   -42.8262
  386.0000   282.1640     4.4205     3.8640   -43.2449
  386.5000   295.8947     4.1583     3.6274   -43.8040
  387.0000   309.6304     3.9156     3.3816   -43.5974
  387.5000   323.0448     3.6781     3.1529   -43.1431
  388.0000   336.8259     3.4023     2.8828   -42.7681
  388.5000   347.1618     3.2845     2.7074   -42.3890
  389.0000   347.1618     3.2968     2.7617   -41.9415
  389.5000   343.7914     3.3741     2.9652   -41.7033
  390.0000   341.7692     3.4604     3.1692   -41.9475
  390.5000   327.3889     3.5663     3.3530   -42.3088
  391.0000   316.2666     3.7077     3.5733   -42.6825
  391.5000   301.4369     3.8255     3.7260   -43.0659
  392.0000   286.6071     3.9487     3.8110   -43.2893
  392.5000   268.0700     4.0651     3.9111   -43.6679
  393.0000   265.3737     4.1966     3.9985   -43.3912
  393.5000   262.6774     4.3272     4.0931   -43.1194
  394.0000   262.0033     4.4010     4.1920   -43.3583
  394.5000   260.8799     4.4502     4.2123   -43.5439
  395.0000   265.2354     4.4649     4.1585   -43.6353
  395.5000   271.0428     4.4001     4.0613   -43.1926
  396.0000   276.8503     4.2976     3.9983   -42.8519
  396.5000   282.6577     4.2121     3.7741   -42.8120
  397.0000   288.4652     4.1195     3.6044   -43.5207
  397.5000   294.2726     4.0307     3.4876   -43.9929
  398.0000   298.6282     3.9398     3.3547   -43.2342
  398.5000   309.8628     3.8500     3.2388   -42.6608
  399.0000   318.8505     3.7598     3.0972   -42.0524
  399.5000   325.5913     3.6699     2.9999   -41.3844
  400.0000   333.2827     3.5798     2.9401   -40.9058
  400.5000   339.4357     3.4900     2.8740   -40.7372
  401.0000   345.5888     3.3994     2.8106   -40.4769
  401.5000   347.1618     3.3132     2.7659   -40.5932
  402.0000   353.8486     3.2742     2.7635   -40.8653
  402.5000   359.2278     3.2009     2.7677   -41.0941
  403.0000   364.6069     3.1296     2.7475   -41.3332
  403.5000   368.7323     3.0602     2.6084   -41.5815
  404.0000   378.1801     2.9900     2.4838   -41.7869
  404.5000   391.0901     2.9199     2.3560   -42.0593
  405.0000   404.0000     2.8505     2.2508   -42.3212
  405.5000   416.9099     2.7790     2.1638   -42.4288
  406.0000   429.8199     2.7114     2.0817   -42.1904
  406.5000   433.4437     2.6497     2.0665   -41.7921
  407.0000   423.5063     2.7259     2.1163   -41.4416
  407.5000   412.1504     2.8498     2.1899   -41.4660
  408.0000   400.7944     2.9629     2.3721   -41.7292
  408.5000   385.7927     3.0633     2.5482   -41.4380
  409.0000   369.2967     3.2190     2.7033   -40.9900
  409.5000   352.8007     3.4189     2.9004   -40.5926
  410.0000   336.3046     3.5907     2.9831   -40.2588
  410.5000   319.8086     3.7728     3.2958   -40.4333
  411.0000   314.8061     3.8365     3.5223   -40.7408
  411.5000   317.6642     3.7907     3.4359   -41.0010
  412.0000   320.0549     3.7248     3.4098   -41.2859
  412.5000   321.9962     3.6694     3.2887   -41.5486
  413.0000   329.9080     3.6021     3.1373   -41.8427
  413.5000   336.5678     3.5664     2.9992   -42.0215
  414.0000   343.2277     3.4891     2.8557   -41.8463
  414.5000   354.1701     3.3590     2.7150   -41.6609
  415.0000   367.1352     3.2492     2.5731   -41.5411
  415.5000   380.1003     3.1300     2.4337   -41.7729
  416.0000   393.0654     3.0168     2.3262   -41.9331
  416.5000   406.0305     2.8983     2.2192   -42.2186
  417.0000   418.9956     2.7885     2.1511   -41.8095
  417.5000   429.8486     2.6747     2.1799   -41.6286
  418.0000   421.5080     2.6468     2.2783   -42.0355
  418.5000   414.7564     2.7052     2.3865   -42.1857
  419.0000   401.0721     2.8103     2.6247   -42.0789
  419.5000   383.8490     2.8801     2.9550   -41.9185
  420.0000   366.5606     3.0347     3.2601   -41.7866
  420.5000   343.3798     3.3905     3.5675   -41.6323
  421.0000   316.9967     3.7106     3.8756   -41.5391
  421.5000   290.5795     4.0346     4.1818   -41.6517
  422.0000   268.4342     4.3631     4.3759   -41.7755
  422.5000   260.2320     4.6363     4.5013   -41.8862
  423.0000   253.3586     4.7638     4.6434   -42.0194
  423.5000   246.4853     4.8731     4.7274   -41.9706
  424.0000   239.6120     4.9828     4.8695   -41.7862
  424.5000   232.7386     5.0927     5.1142   -41.6424
  425.0000   226.7266     5.2018     5.3277   -41.4679
  425.5000   215.9653     5.3127     5.5534   -41.3695
  426.0000   206.4024     5.4201     5.7765   -41.5647
  426.5000   197.9659     5.5346     5.9766   -41.7719
  427.0000   197.6319     5.6208     6.1615   -41.9740
  427.5000   197.3331     5.6531     6.2333   -42.1812
  428.0000   197.0342     5.7028     6.2336   -42.3805
  428.5000   196.7354     5.7444     6.2366   -42.5939
  429.0000   196.4365     5.7928     6.1776   -42.7475
  429.5000   196.1377     5.8054     6.1230   -42.6764
  430.0000   195.8389     5.7582     6.0637   -42.5556
  430.5000   195.5400     5.7144     6.0404   -42.1369
  431.0000   195.2412     5.6678     6.0427   -41.7455
  431.5000   194.9423     5.6302     6.0425   -41.3047
  432.0000   194.6435     5.6291     6.0329   -41.2878
  432.5000   194.3447     5.6455     6.0130   -41.6184
  433.0000   194.0458     5.6618     5.9954   -41.8664
  433.5000   193.7470     5.6780     5.9856   -42.1712
  434.0000   193.4481     5.6946     5.9722   -42.3537
  434.5000   193.1493     5.7103     5.9583   -41.9726
