~VERSION INFORMATION
 VERS.                2.0:   CWLS LOG ASCII STANDARD - VERSION 2.0
 WRAP.                 NO:   ONE LINE PER DEPTH STEP
~WELL INFORMATION
#MNEM.UNIT      DATA TYPE    INFORMATION
#----------   ------------   ------------------------------
 STRT.F           30.0000:   START DEPTH
 STOP.F          547.0000:   STOP DEPTH
 STEP.F            0.5000:   STEP LENGTH
 NULL.          -999.2500:   NO VALUE
 COMP.   FINIX & SCISSION:   COMPANY
 WELL. SX-11 NPR #3 #11-11:   WELL
 FLD .             TEAPOT:   FIELD
 LOC .      S11 T38N R78W:   LOCATION
 CNTY.            NATRONA:   COUNTY
 STAT.            WYOMING:   STATE
 CTRY. UNITED STATES OF AMERICA:   COUNTRY
 SRVC.       Schlumberger:   SERVICE COMPANY
 DATE.        01-MAR-1977:   LOGDATE
 API .       490251058500:   API NUMBER
~CURVE INFORMATION
#MNEM.UNIT       API CODE    CURVE DESCRIPTION
#----------   ------------   ------------------------------
 DEPT.F                  :   
 ILD .OHMM               :   INDUCTION LOG DEEP
 ILM .OHMM   07 120 44 00:   INDUCTION LOG MEDIUM
 LL8 .OHMM   07 220 08 00:   
 SPR .MV     07 010 01 00:   SPONTANEOUS POTENTIAL
 CALD.IN     45 280 60 00:   CALIPER FROM DENSITY LOG
 CORR.G/C3   45 356 01 00:   DENSITY CORRECTION
 DPHI.DEC    45 890 12 00:   DENSITY POROSITY SANDSTONE
 GRD .GAPI   45 310 01 00:   GAMMA RAY FROM DENSITY LOG
 RHOB.G/C3   45 350 01 00:   BULK DENSITY
~PARAMETER INFORMATION
#MNEM.UNIT          VALUE    DESCRIPTION
#----------   ------------   ------------------------------
 PD  .                 GL:   PERMANENT DATUM
 EPD .F              5158:   ELEVATION PERMANENT DATUM
 LMF .                 GL:   LOG MEASURED FROM
 DMF .                 GL:   DRILLING MEASURED FROM
 EKB .F              5161:   KELLING BUSHING
 EGL .F              5158:   GROUND LEVEL
 DATE.        01-MAR-1977:   RUN DATE
 RUN .                  1:   RUN NUMBER
 DD  .F               575:   DEPTH DRILLER
 DL  .F               548:   DEPTH LOGGER
 BLI .F               547:   BOTTOM LOG INTERVAL
 TLI .F                45:   TOP LOG INTERVAL
 CS  .IN            8.625:   CASING SIZE
 CBD .F                40:   CASING BOTTOM DRILLER
 CBL .F                45:   CASING BOTTOM LOGGER
 BS  .IN            7.875:   BIT SIZE
 BSD .F               575:   BIT SIZE AT DEPTH
 DFT .                PIT:   DRILLING FLUID TYPE
 DFD .                8.7:   DRILLING FLUID DENSITY
 DFV .                 46:   DRILLING FLUID VISCOSITY
 DFPH.                  8:   DRILLING FLUID PH
 DFL .                6.8:   DRILLING FLUID LOSS
 MSS .                PIT:   MUD SAMPLE SOURCE
 RMS .OHMM          0.632:   RESISTIVITY MUD SAMPLE
 MST .F                65:   MUD SAMPLE TEMPERATURE
 RMF .OHMM          0.465:   RESISTIVITY MUD FILTRATE SAMPLE
 MFST.F                65:   MUD FILTRATE SAMPLE TEMPERATURE
 MFSS.               MEAS:   MUD FILTRATE SAMPLE SOURCE
 RMB .OHMM          0.635:   RESISTIVITY MUD AT BHT
 BHT .F                68:   BOTTOM HOLE TEMPERATURE
 TCS .HRS              12:   TIME CURCULATED STOPPED
 MRT .F                68:   MAXIMUM RECORDED TEMPERATURE
 LUN .               5642:   LOGGING UNIT NUMBER
 LUL .               CSPR:   LOGGING UNIT LOCATION
 ENGI.         JIM MARTIN:   RECORDING ENGINEER
 WITN.         STUEBINGER:   WITNESSED BY
 CLNT.            A2DTECH:   CLIENT CODE
 ORIG.           5" PRINT:   ORIGIN OF DATA
 UWI .       490251058500:   UNIQUE WELL ID
 DICO. A2D Technologies, Inc.:   DIGITIZING COMPANY
~OTHER INFORMATION
~A   DEPT      ILD        ILM        LL8        SPR       CALD       CORR       DPHI         GRD      RHOB   
# ...
  212.5000    13.3501    13.5243    13.4660   -30.0878     8.0173     0.0494     0.0839    81.7484     2.4992
  213.0000    13.0333    13.1669    13.0962   -29.7766     8.0033     0.0344     0.1100    80.8591     2.4775
  213.5000    12.7388    12.9517    12.7685   -29.4653     7.9744     0.0427     0.1079    80.1198     2.4667
  214.0000    12.4572    12.6322    12.4830   -29.1541     7.9455     0.0571     0.0965    79.6778     2.5060
  214.5000    12.2033    12.4589    12.2943   -28.9925     7.9162     0.0591     0.1007    81.6397     2.4825
  215.0000    11.9904    12.2879    12.1360   -29.4711     7.9027     0.0449     0.1151    82.0972     2.4569
  215.5000    11.7833    12.1192    11.9787   -29.8670     7.9362     0.0382     0.1223    81.6578     2.4450
  216.0000    11.5772    11.9321    11.8151   -30.3042     8.0098     0.0337     0.1181    81.4603     2.4547
  216.5000    11.3886    11.7668    11.5733   -30.6417     8.0557     0.0314     0.1091    81.2309     2.4744
  217.0000    11.1549    11.6271    11.4012   -30.9148     8.1017     0.0292     0.1030    81.2416     2.4826
  217.5000    11.0018    11.5470    11.1717   -31.1669     8.1177     0.0225     0.1125    81.4018     2.4661
  218.0000    10.8508    11.4675    10.9534   -31.4544     8.1334     0.0172     0.1191    81.8721     2.4526
  218.5000    10.7761    11.3886    10.7685   -31.4426     8.1195     0.0127     0.1240    82.4923     2.4406
  219.0000    10.7019    11.3101    10.5100   -31.4307     8.1208     0.0210     0.1189    82.7847     2.4518
  219.5000    10.6282    11.1549    10.2951   -31.4188     8.1217     0.0301     0.1216    82.1953     2.4443
  220.0000    10.8508    11.1549    10.2247   -31.1876     8.1078     0.0210     0.1255    81.7558     2.4360
  220.5000    11.0781    11.3886    10.3679   -31.0957     8.1089     0.0157     0.1159    80.8666     2.4735
  221.0000    11.5470    11.7889    11.3431   -31.2336     8.0949     0.0234     0.1042    78.7780     2.4952
  221.5000    11.9529    13.1669    13.2062   -31.2216     8.0810     0.0349     0.0946    76.2396     2.5125
  222.0000    12.2879    13.5460    14.1516   -31.2096     8.0670     0.0374     0.0850    73.7012     2.5335
  222.5000    11.8706    12.8080    13.0267   -31.0479     8.0531     0.0269     0.0787    72.5121     2.5507
  223.0000    11.5200    12.2854    12.1579   -31.0359     8.0544     0.0337     0.0865    75.6709     2.5349
  223.5000    11.1549    11.7843    11.4256   -31.0216     8.0552     0.0389     0.1015    78.8296     2.4997
  224.0000    10.8508    11.4604    10.8119   -31.0098     8.0565     0.0314     0.1060    79.8894     2.4794
  224.5000    10.6282    11.0684    10.3736   -31.5997     8.0723     0.0374     0.1102    80.3495     2.4674
  225.0000    10.4224    10.8384    10.1615   -31.8862     8.0771     0.0397     0.1162    80.5097     2.4556
  225.5000    10.3179    10.5551    10.2326   -32.1718     8.0895     0.0352     0.1163    80.9900     2.4622
  226.0000    10.1966    10.3385    10.3100   -32.3096     8.0753     0.0314     0.1120    81.9200     2.4705
  226.5000    10.1966    10.2576    10.4527   -32.2978     8.0915     0.0306     0.1168    83.5418     2.4589
  227.0000    10.1966    10.1966    10.5945   -32.4386     8.0926     0.0337     0.1201    83.6995     2.4511
  227.5000    10.1966    10.1264    10.3780   -32.2754     8.0936     0.0260     0.1247    83.4125     2.4365
  228.0000    10.1954    10.1264    10.0263   -32.2622     8.1097     0.0135     0.1264    83.5728     2.4455
  228.5000    10.1264    10.1264     9.8211   -32.1796     8.1106     0.0240     0.1204    83.1333     2.4605
  229.0000    10.0567    10.0567    10.1672   -32.0888     8.1117     0.0314     0.1123    82.2441     2.4710
  229.5000    10.0567     9.9874    10.4528   -32.0759     8.1127     0.0412     0.1195    81.3549     2.4395
  230.0000    10.0342     9.9806    10.2391   -32.0659     8.1289     0.0299     0.1267    80.7655     2.4230
  230.5000     9.9874     9.8878     9.6891   -32.0539     8.1298     0.0142     0.1378    80.1761     2.4042
  231.0000     9.9187     9.8504     9.4255   -32.0414     8.1158     0.0052     0.1321    80.4863     2.4214
  231.5000     9.9187     9.7826     9.4263   -31.8798     8.1018     0.0210     0.1240    81.9958     2.4447
  232.0000     9.9187     9.7685     9.6244   -31.7186     8.1031     0.0374     0.1153    83.2056     2.4612
  232.5000     9.8504     9.7152     9.8267   -31.5567     8.0892     0.0343     0.1165    82.6162     2.4701
  233.0000     9.8504     9.7152     9.9641   -31.2475     8.0453     0.0283     0.1186    81.4173     2.4566
  233.5000     9.8504     9.7152    10.0338   -31.0838     8.0311     0.0232     0.1210    80.1784     2.4446
  234.0000     9.8504     9.7152    10.1742   -30.9222     8.0474     0.0217     0.1249    79.0490     2.4483
  234.5000     9.9187     9.7826    10.1048   -30.7605     8.0783     0.0352     0.1179    79.9614     2.4611
  235.0000     9.9187     9.8504     9.8300   -30.9182     8.0943     0.0472     0.1134    80.8713     2.4723
  235.5000     9.9187     9.9509     9.5627   -31.6607     8.0954     0.0591     0.1056    81.3288     2.4866
  236.0000     9.9187    10.0567     9.4321   -32.2192     8.0964     0.0434     0.1182    78.4931     2.4608
  236.5000     9.9187    10.1271     9.5640   -32.5068     8.0825     0.0262     0.1305    76.7044     2.4345
  237.0000     9.9187    10.2336     9.8327   -32.6476     8.0835     0.0240     0.1345    77.0145     2.4247
  237.5000     9.7826    10.2673    10.0741   -32.7854     8.0848     0.0299     0.1325    79.7235     2.4242
  238.0000     9.5045     9.8608     9.9682   -32.7706     8.0858     0.0344     0.1255    83.0322     2.4430
  238.5000     9.2044     9.4402     9.5614   -33.0581     8.0867     0.0382     0.1199    85.4413     2.4587
  239.0000     8.8806     9.0666     9.1712   -33.0463     8.0726     0.0427     0.1146    85.7515     2.4564
  239.5000     8.6187     8.6984     8.8483   -33.1871     8.0587     0.0488     0.1158    85.0122     2.4662
  240.0000     8.3452     8.4458     8.3915   -33.0226     8.0448     0.0516     0.1179    83.9730     2.4407
  240.5000     8.0618     8.1177     8.0513   -33.0107     8.0161     0.0464     0.1266    83.3836     2.4211
  241.0000     7.8419     7.8964     7.7784   -32.9541     8.0019     0.0427     0.1320    84.3338     2.4129
  241.5000     7.6665     7.6811     7.7790   -32.6876     7.9880     0.0299     0.1338    85.3559     2.4391
  242.0000     7.5236     7.6283     8.1650   -32.5260     7.9743     0.0359     0.1230    85.0664     2.4496
  242.5000     7.5757     7.6283     8.6297   -32.0651     7.9603     0.0479     0.1170    84.6243     2.4608
  243.0000     7.6364     7.7880     8.8110   -31.4544     7.9464     0.0457     0.1134    87.1860     2.4676
  243.5000     7.7984     7.9511     8.6692   -31.1432     7.9638     0.0404     0.1167    88.3957     2.4578
  244.0000     7.9026     8.0642     8.4825   -31.2810     8.0281     0.0359     0.1206    86.0072     2.4480
  244.5000     8.0012     8.2306     8.3175   -32.0176     8.0995     0.0389     0.1167    84.2184     2.4525
  245.0000     8.1249     8.4030     8.2249   -32.5250     8.1154     0.0479     0.1089    83.4791     2.4758
  245.5000     8.2118     8.4809     8.2256   -32.7444     8.1165     0.0539     0.0984    82.7398     2.5005
  246.0000     8.3452     8.6000     8.3984   -32.7306     8.1174     0.0372     0.1122    82.4477     2.4870
  246.5000     8.4030     8.6984     8.6035   -32.8684     8.1185     0.0275     0.1212    83.0603     2.4629
  247.0000     8.4613     8.8194     8.8158   -32.7779     8.1195     0.0210     0.1242    84.1201     2.4425
  247.5000     8.5439     8.8806     8.9391   -32.5449     8.1205     0.0157     0.1275    85.1799     2.4297
  248.0000     8.6385     8.9143     9.0641   -32.4451     8.1217     0.0097     0.1306    85.9400     2.4214
  248.5000     8.6984     9.0042     9.2046   -32.2192     8.1226     0.0067     0.1335    86.5702     2.4141
