~VERSION INFORMATION
 VERS.                2.0:   CWLS LOG ASCII STANDARD - VERSION 2.0
 WRAP.                 NO:   ONE LINE PER DEPTH STEP
~WELL INFORMATION
#MNEM.UNIT      DATA TYPE    INFORMATION
#----------   ------------   ------------------------------
 STRT.F          690.5000:   START DEPTH
 STOP.F         2366.0000:   STOP DEPTH
 STEP.F            0.5000:   STEP LENGTH
 NULL.          -999.2500:   NO VALUE
 COMP. LAWRENCE/ALLISON INC:   COMPANY
 WELL.  NPR 3 #26SHX10-10:   WELL
 FLD .             TEAPOT:   FIELD
 LOC .      S10 T38N R78W:   LOCATION
 CNTY.            NATRONA:   COUNTY
 STAT.            WYOMING:   STATE
 CTRY. UNITED STATES OF AMERICA:   COUNTRY
 SRVC.            Unknown:   SERVICE COMPANY
 DATE.        30-DEC-1992:   LOGDATE
 API .       490251113600:   API NUMBER
~CURVE INFORMATION
#MNEM.UNIT       API CODE    CURVE DESCRIPTION
#----------   ------------   ------------------------------
 DEPT.F                  :   
 ROP .MIN/FT 91 810 01 00:   RATE OF DRILLING PENETRATION
 TGAS.UNITS  91 830 01 00:   TOTAL GAS FROM HOTWIRE
~PARAMETER INFORMATION
#MNEM.UNIT          VALUE    DESCRIPTION
#----------   ------------   ------------------------------
 EKB .F              5235:   KELLING BUSHING
 EGL .F              5225:   GROUND LEVEL
 DATE.           12-30-92:   RUN DATE
 DD  .F              2365:   DEPTH DRILLER
 BLI .F              2360:   BOTTOM LOG INTERVAL
 TLI .F              2160:   TOP LOG INTERVAL
 CS  .IN            8.625:   CASING SIZE
 CBD .F               675:   CASING BOTTOM DRILLER
 TCS .HRS            0200:   TIME CURCULATED STOPPED
 TLAB.HRS            1700:   TIME LOGGER AT BOTTOM
 ENGI.               HUSK:   RECORDING ENGINEER
 WITN.              TOWER:   WITNESSED BY
 CLNT.            A2DTECH:   CLIENT CODE
 ORIG.           5" PRINT:   ORIGIN OF DATA
 UWI .       490251113600:   UNIQUE WELL ID
 DICO. A2D Technologies, Inc.:   DIGITIZING COMPANY
~OTHER INFORMATION
~A   DEPT      ROP         TGAS 
# ...
 1055.0000     0.9852    86.7176
 1055.5000     0.9857    85.5805
 1056.0000     0.9755    83.3506
 1056.5000     0.9337    81.3898
 1057.0000     0.8393    82.4383
 1057.5000     0.7975    82.4280
 1058.0000     0.7979    82.4176
 1058.5000     0.7984    84.5250
 1059.0000     0.7988    87.6911
 1059.5000     0.7992    90.8572
 1060.0000     0.7891    92.9647
 1060.5000     0.7789    96.1624
 1061.0000     0.7371    99.2968
 1061.5000     0.6524   100.3453
 1062.0000     0.6203   100.3324
 1062.5000     0.6435    97.1456
 1063.0000     0.6545    92.8999
 1063.5000     0.6866    92.8896
 1064.0000     0.7397    92.8792
 1064.5000     0.7823    90.7513
 1065.0000     0.7933    91.7997
 1065.5000     0.7937    93.9070
 1066.0000     0.7730    94.9555
 1066.5000     0.7629    94.9426
 1067.0000     0.7527    91.7558
 1067.5000     0.7547    90.6866
 1068.0000     0.7642    90.6763
 1068.5000     0.7752    92.7836
 1069.0000     0.8178    92.7733
 1069.5000     0.8920    92.7629
 1070.0000     0.9874    92.7526
 1070.5000     1.0194    92.7423
 1071.0000     0.9987    92.7954
 1071.5000     0.9886    94.8392
 1072.0000     0.9890    94.8263
 1072.5000     0.9900    95.8774
 1073.0000     1.0230    95.8645
 1073.5000     1.0431    95.8541
 1074.0000     1.0330    95.8438
 1074.5000     0.9807    95.8334
 1075.0000     0.8650    95.8231
 1075.5000     0.8231    95.8128
 1076.0000     0.8130    95.8024
 1076.5000     0.8135    95.6615
 1077.0000     0.8139    94.7203
 1077.5000     0.8144    93.6512
 1078.0000     0.8148    92.5820
 1078.5000     0.8152    92.5717
 1079.0000     0.8157    92.5613
 1079.5000     0.8161    92.5510
 1080.0000     0.8165    93.6021
 1080.5000     0.8275    93.5891
 1081.0000     0.9017    93.5788
 1081.5000     0.9549    93.4729
 1082.0000     0.9869    92.4967
 1082.5000     0.9874    94.6066
 1083.0000     0.9456    96.7113
 1083.5000     0.8718    97.7598
 1084.0000     0.8198    96.6907
 1084.5000     0.7991    95.6215
 1085.0000     0.7890    94.5523
 1085.5000     0.7895    92.4243
 1086.0000     0.7899    92.4140
 1086.5000     0.8325    91.3447
 1087.0000     0.8857    91.3341
 1087.5000     0.9494    91.3216
 1088.0000     0.9815    91.3112
 1088.5000     1.0030    91.3009
 1089.0000     1.0034    91.2906
 1089.5000     1.0038    91.2802
 1090.0000     1.0043    91.2699
 1090.5000     1.0047    91.2596
 1091.0000     1.0051    91.2492
 1091.5000     1.0055    91.2388
 1092.0000     1.0060    91.2282
 1092.5000     1.0064    91.2156
 1093.0000     0.9751    91.2053
 1093.5000     0.8490    90.1361
 1094.0000     0.7861    88.0081
 1094.5000     0.7549    86.9390
 1095.0000     0.8544    84.8110
 1095.5000     1.0089    83.7418
 1096.0000     1.0199    83.7315
 1096.5000     1.0309    82.6623
 1097.0000     1.0206    82.6518
 1097.5000     1.0211    82.6391
 1098.0000     1.0216    82.6287
 1098.5000     1.0113    82.6184
 1099.0000     1.0118    82.6080
 1099.5000     1.0122    82.5977
 1100.0000     1.0238    82.9508
 1100.5000     1.0761    84.7576
 1101.0000     1.1289    83.7741
 1101.5000     1.1712    84.8973
 1102.0000     1.2346    86.0188
 1102.5000     1.2358    87.1412
 1103.0000     1.1700    87.2167
 1103.5000     1.0978    87.2788
 1104.0000     1.0346    87.3409
 1104.5000     0.9714    87.4030
 1105.0000     0.8555    86.3907
 1105.5000     0.7923    87.5271
 1106.0000     0.8030    89.7068
 1106.5000     0.8453    91.8866
 1107.0000     0.8987    90.8894
 1107.5000     0.9404    90.9529
 1108.0000     0.9722    91.1859
 1108.5000     0.9934    95.3269
 1109.0000     1.0040    95.3890
 1109.5000     1.0147    96.5099
 1110.0000     1.0042    96.5719
 1110.5000     1.0043    96.6340
 1111.0000     1.0039    95.6373
 1111.5000     0.9729    92.5074
 1112.0000     0.8992    90.4659
 1112.5000     0.8149    89.4706
 1113.0000     0.7833    88.4738
 1113.5000     0.7623    90.6691
 1114.0000     0.7835    91.7900
 1114.5000     0.8469    91.8521
 1115.0000     0.9005    91.9142
 1115.5000     0.9648    91.9762
 1116.0000     1.0055    92.0383
 1116.5000     0.9951    92.1004
 1117.0000     0.9846    91.1012
 1117.5000     0.9847    91.1657
 1118.0000     1.0059    91.2568
 1118.5000     1.0271    92.3506
 1119.0000     1.0483    92.4263
 1119.5000     1.0484    92.4884
 1120.0000     1.0169    92.5505
 1120.5000     0.9432    92.6126
 1121.0000     0.8483    91.6003
 1121.5000     0.8273    92.7367
 1122.0000     0.8169    92.7988
 1122.5000     0.8170    93.9197
 1123.0000     0.8171    97.1583
 1123.5000     0.8172    98.2792
 1124.0000     0.8173    97.2824
 1124.5000     0.8069    97.3600
 1125.0000     0.7120    98.4809
 1125.5000     0.5539   100.6607
 1126.0000     0.5434   100.7227
 1126.5000     0.6174   100.7848
 1127.0000     0.7230   100.8469
 1127.5000     0.7758   100.9090
 1128.0000     0.7865    98.8534
 1128.5000     0.7760    97.8565
 1129.0000     0.7656    93.6835
 1129.5000     0.7657    92.6867
 1130.0000     0.7658    92.7643
 1130.5000     0.7765    92.8264
 1131.0000     0.8504    90.7708
 1131.5000     0.9360    89.7741
 1132.0000     0.9667    88.7618
 1132.5000     0.8929    88.8394
 1133.0000     0.8192    88.9015
 1133.5000     0.7877    88.9636
 1134.0000     0.7772    89.0259
 1134.5000     0.7879    89.0894
 1135.0000     0.7985    89.1654
 1135.5000     0.7986    89.2274
 1136.0000     0.7988    89.2895
 1136.5000     0.7250    89.3516
 1137.0000     0.6091    88.3393
 1137.5000     0.6092    88.4169
 1138.0000     0.6409    88.4790
 1138.5000     0.6938    87.4823
 1139.0000     0.7361    87.5444
 1139.5000     0.7678    87.6070
 1140.0000     0.7996    87.6706
 1140.5000     0.8102    87.7461
 1141.0000     0.8104    87.8082
 1141.5000     0.7999    87.8703
 1142.0000     0.7684    87.9247
 1142.5000     0.7262    86.9201
 1143.0000     0.6736    87.0029
 1143.5000     0.6414    87.0598
 1144.0000     0.6105    87.1219
 1144.5000     0.6318    87.1839
 1145.0000     0.7163    88.3059
 1145.5000     0.7586    88.3694
 1146.0000     0.7692    88.4445
 1146.5000     0.8010    87.4323
 1147.0000     0.8011    87.5099
 1147.5000     0.8012    87.5719
 1148.0000     0.8013    87.6340
 1148.5000     0.8014    87.6961
 1149.0000     0.7804    87.7582
 1149.5000     0.7805    87.8203
 1150.0000     0.7700    87.8824
 1150.5000     0.8016    86.8338
 1151.0000     0.7909    85.7853
 1151.5000     0.7591    85.7982
 1152.0000     0.7051    86.8659
 1152.5000     0.6746    86.8768
 1153.0000     0.6850    86.9201
 1153.5000     0.7376    86.9648
 1154.0000     0.7797    87.0096
 1154.5000     0.7902    87.0543
 1155.0000     0.8007    87.0990
 1155.5000     0.8005    87.1438
 1156.0000     0.8004    87.1885
 1156.5000     0.8003    87.2333
 1157.0000     0.8002    87.2780
 1157.5000     0.8001    87.3227
 1158.0000     0.8000    87.3675
 1158.5000     0.7893    87.4122
 1159.0000     0.7787    87.4569
 1159.5000     0.7786    87.5017
 1160.0000     0.7890    87.5464
 1160.5000     0.7352    87.5912
 1161.0000     0.6694    87.6359
 1161.5000     0.6305    87.6806
 1162.0000     0.6093    87.7254
 1162.5000     0.5986    87.7701
 1163.0000     0.5880    87.8148
 1163.5000     0.5773    87.8596
 1164.0000     0.5878    87.9043
 1164.5000     0.5877    87.9491
 1165.0000     0.5876    87.9938
 1165.5000     0.6191    88.0385
 1166.0000     0.6717    88.0833
 1166.5000     0.7138    88.1280
 1167.0000     0.7559    88.1727
 1167.5000     0.7664    88.2175
 1168.0000     0.7873    88.2639
 1168.5000     0.7767    88.3108
 1169.0000     0.7660    88.3595
 1169.5000     0.7659    88.4082
 1170.0000     0.7658    88.4570
 1170.5000     0.7973    88.5057
 1171.0000     0.8816    88.5544
 1171.5000     0.9765    88.6032
 1172.0000     1.0186    88.6519
 1172.5000     1.0079    88.7006
 1173.0000     0.9656    88.7494
 1173.5000     0.8811    88.7981
 1174.0000     0.8166    88.8468
 1174.5000     0.7754    88.8956
 1175.0000     0.7753    88.9443
 1175.5000     0.7752    88.9930
 1176.0000     0.7751    89.0417
