~VERSION INFORMATION
 VERS.                2.0:   CWLS LOG ASCII STANDARD - VERSION 2.0
 WRAP.                 NO:   ONE LINE PER DEPTH STEP
~WELL INFORMATION
#MNEM.UNIT      DATA TYPE    INFORMATION
#----------   ------------   ------------------------------
 STRT.F         1099.5000:   START DEPTH
 STOP.F         2700.0000:   STOP DEPTH
 STEP.F            0.5000:   STEP LENGTH
 NULL.          -999.2500:   NO VALUE
 COMP. LAWRENCE/ALLISON INC NPR #3:   COMPANY
 WELL.   47 STX 14 #47-14:   WELL
 FLD .             TEAPOT:   FIELD
 LOC .      S14 T38N R78W:   LOCATION
 CNTY.            NATRONA:   COUNTY
 STAT.            WYOMING:   STATE
 CTRY. UNITED STATES OF AMERICA:   COUNTRY
 SRVC.            Unknown:   SERVICE COMPANY
 DATE.        01-SEP-1988:   LOGDATE
 API .       490251124400:   API NUMBER
~CURVE INFORMATION
#MNEM.UNIT       API CODE    CURVE DESCRIPTION
#----------   ------------   ------------------------------
 DEPT.F                  :   
 ROP .MIN/FT 91 810 01 00:   RATE OF DRILLING PENETRATION
 TGAS.UNITS  91 830 01 00:   TOTAL GAS FROM HOTWIRE
~PARAMETER INFORMATION
#MNEM.UNIT          VALUE    DESCRIPTION
#----------   ------------   ------------------------------
 EKB .F              5286:   KELLING BUSHING
 EGL .F              5276:   GROUND LEVEL
 DATE.             9-1-88:   RUN DATE
 DD  .F              2700:   DEPTH DRILLER
 CBD .F              1088:   CASING BOTTOM DRILLER
 TCS .HRS            1200:   TIME CURCULATED STOPPED
 TLAB.HRS            1223:   TIME LOGGER AT BOTTOM
 ENGI.               HUSK:   RECORDING ENGINEER
 WITN.           PETERSON:   WITNESSED BY
 CLNT.            A2DTECH:   CLIENT CODE
 ORIG.           5" PRINT:   ORIGIN OF DATA
 UWI .       490251124400:   UNIQUE WELL ID
 DICO. A2D Technologies, Inc.:   DIGITIZING COMPANY
~OTHER INFORMATION
~A  DEPT       ROP       TGAS   
# ...
 1707.0000     0.4075     6.5368
 1707.5000     0.4070     6.5319
 1708.0000     0.4066     6.5269
 1708.5000     0.4062     6.5220
 1709.0000     0.4058     6.5171
 1709.5000     0.4054     6.5122
 1710.0000     0.4012     6.5072
 1710.5000     0.3942     6.5023
 1711.0000     0.3938     6.4974
 1711.5000     0.3886     6.4925
 1712.0000     0.3826     6.4876
 1712.5000     0.3930     6.4826
 1713.0000     0.4253     6.4777
 1713.5000     0.4675     6.4728
 1714.0000     0.5050     6.4679
 1714.5000     0.4698     6.4629
 1715.0000     0.4211     6.4580
 1715.5000     0.3781     6.4531
 1716.0000     0.3379     6.4482
 1716.5000     0.3169     6.4433
 1717.0000     0.3165     6.4383
 1717.5000     0.3367     6.4334
 1718.0000     0.3570     6.4285
 1718.5000     0.3773     6.4236
 1719.0000     0.3872     6.4186
 1719.5000     0.3868     6.4137
 1720.0000     0.3857     6.4088
 1720.5000     0.3746     6.4039
 1721.0000     0.3636     6.3990
 1721.5000     0.3541     6.3940
 1722.0000     0.3557     6.3891
 1722.5000     0.3705     6.3842
 1723.0000     0.4020     6.3793
 1723.5000     0.4365     6.3743
 1724.0000     0.4824     6.3694
 1724.5000     0.4648     6.3645
 1725.0000     0.4300     6.3596
 1725.5000     0.3921     6.3547
 1726.0000     0.3607     6.3497
 1726.5000     0.3500     6.3448
 1727.0000     0.3496     6.3399
 1727.5000     0.3492     6.3350
 1728.0000     0.3488     6.3300
 1728.5000     0.3483     6.3251
 1729.0000     0.3479     6.3202
 1729.5000     0.3475     6.3153
 1730.0000     0.3471     6.3104
 1730.5000     0.3467     6.3054
 1731.0000     0.3513     6.3005
 1731.5000     0.3722     6.2956
 1732.0000     0.3995     6.2907
 1732.5000     0.4381     6.2857
 1733.0000     0.4621     6.2808
 1733.5000     0.4682     6.2759
 1734.0000     0.4633     6.2710
 1734.5000     0.4570     6.2661
 1735.0000     0.4515     6.2611
 1735.5000     0.4351     6.2562
 1736.0000     0.4248     6.2513
 1736.5000     0.4123     6.2464
 1737.0000     0.3970     6.2414
 1737.5000     0.3926     6.2365
 1738.0000     0.3852     6.2316
 1738.5000     0.3814     6.2267
 1739.0000     0.3810     6.2218
 1739.5000     0.3726     6.2168
 1740.0000     0.3698     6.2119
 1740.5000     0.3694     6.2070
 1741.0000     0.3896     6.2021
 1741.5000     0.4202     6.1971
 1742.0000     0.4611     6.1922
 1742.5000     0.5021     6.1873
 1743.0000     0.4582     6.1824
 1743.5000     0.4279     6.1775
 1744.0000     0.4168     6.1725
 1744.5000     0.4074     6.1676
 1745.0000     0.4090     6.1627
 1745.5000     0.4169     6.1578
 1746.0000     0.4139     6.1528
 1746.5000     0.3970     6.1479
 1747.0000     0.3679     6.1430
 1747.5000     0.3462     6.1381
 1748.0000     0.3283    14.6225
 1748.5000     0.3131    64.1570
 1749.0000     0.3004   114.6229
 1749.5000     0.2952   151.0329
 1750.0000     0.2893   161.4220
 1750.5000     0.2834   161.4344
 1751.0000     0.2781   161.4489
 1751.5000     0.2777   161.4608
 1752.0000     0.2837  -999.2500
 1752.5000     0.2872  -999.2500
 1753.0000     0.3292  -999.2500
 1753.5000     0.3927  -999.2500
 1754.0000     0.4408  -999.2500
 1754.5000     0.4603  -999.2500
 1755.0000     0.4578  -999.2500
 1755.5000     0.4424  -999.2500
 1756.0000     0.4149  -999.2500
 1756.5000     0.4011  -999.2500
 1757.0000     0.3793  -999.2500
 1757.5000     0.3609   258.3370
 1758.0000     0.3462   257.2844
 1758.5000     0.3283   256.3141
 1759.0000     0.3090   255.3853
 1759.5000     0.2854   256.6446
 1760.0000     0.2836   258.8535
 1760.5000     0.2986   267.5638
 1761.0000     0.3349   279.0409
 1761.5000     0.4038   289.7543
 1762.0000     0.4882   298.9807
 1762.5000     0.5665   301.3325
 1763.0000     0.6276   301.3552
 1763.5000     0.6735   301.3779
 1764.0000     0.6880   301.4005
 1764.5000     0.6447   301.4232
 1765.0000     0.5584   301.4459
 1765.5000     0.4931   301.4686
 1766.0000     0.4555   301.4913
 1766.5000     0.4374   301.5139
 1767.0000     0.4472   301.5366
 1767.5000     0.4571   301.5593
 1768.0000     0.4565   301.5820
 1768.5000     0.4457   301.6046
 1769.0000     0.4142   301.6273
 1769.5000     0.3827   301.6500
 1770.0000     0.3409   301.6727
 1770.5000     0.3093   301.6953
 1771.0000     0.2986   301.7180
 1771.5000     0.2993   301.7407
 1772.0000     0.3210   301.7634
 1772.5000     0.3511   301.7861
 1773.0000     0.3703   301.8087
 1773.5000     0.3787   301.8314
 1774.0000     0.3740   301.8541
 1774.5000     0.3546   301.8768
 1775.0000     0.3383   301.8994
 1775.5000     0.3117   301.9221
 1776.0000     0.3069   301.9448
 1776.5000     0.3374   301.9675
 1777.0000     0.4074   301.9901
 1777.5000     0.4571   302.0128
 1778.0000     0.4256   302.0355
 1778.5000     0.3941   302.0582
 1779.0000     0.3729   302.0809
 1779.5000     0.3414   301.0051
 1780.0000     0.3306   298.0733
 1780.5000     0.3422   298.8371
 1781.0000     0.3812   301.0460
 1781.5000     0.3807   302.4496
 1782.0000     0.3943   302.5321
 1782.5000     0.4210   302.6147
 1783.0000     0.4186   302.6973
 1783.5000     0.3970   302.7798
 1784.0000     0.3447   303.9773
 1784.5000     0.3336   305.0092
 1785.0000     0.3254   307.5686
 1785.5000     0.3249   310.6029
 1786.0000     0.3279   311.4634
 1786.5000     0.3379   309.4794
 1787.0000     0.3561   311.6237
 1787.5000     0.3917   319.9608
 1788.0000     0.4336   328.2979
 1788.5000     0.4561   332.5065
 1789.0000     0.4504   336.7480
 1789.5000     0.4231   340.9103
 1790.0000     0.3858   340.5515
 1790.5000     0.3654   340.2519
 1791.0000     0.3543   339.9522
 1791.5000     0.3432   339.6526
 1792.0000     0.3388   339.3529
 1792.5000     0.3383   339.0532
 1793.0000     0.3378   338.7536
 1793.5000     0.3373   338.4539
 1794.0000     0.3368   338.1543
 1794.5000     0.3607   337.8546
 1795.0000     0.3873   337.5549
 1795.5000     0.4178   337.2553
 1796.0000     0.4483   336.9556
 1796.5000     0.4168   336.6559
 1797.0000     0.4059   336.3563
 1797.5000     0.3845   336.0566
 1798.0000     0.3733   335.7570
 1798.5000     0.3622   335.4573
 1799.0000     0.3523   335.1577
 1799.5000     0.3518   334.8580
 1800.0000     0.3530   334.5583
 1800.5000     0.3690   334.4898
 1801.0000     0.4110   334.5782
 1801.5000     0.4529   334.6667
 1802.0000     0.5060   334.7552
 1802.5000     0.5868   334.8436
 1803.0000     0.4791   334.9321
 1803.5000     0.3956   335.0205
 1804.0000     0.3442   335.1090
 1804.5000     0.3149   335.1974
 1805.0000     0.3058   335.2859
 1805.5000     0.3101   335.3744
 1806.0000     0.3365   335.4628
 1806.5000     0.3789   335.5513
 1807.0000     0.4282   335.6397
 1807.5000     0.4941   335.7282
 1808.0000     0.5002   335.8167
 1808.5000     0.4410   335.9051
 1809.0000     0.3929   335.9936
 1809.5000     0.3559   336.0820
 1810.0000     0.3299   336.1705
 1810.5000     0.3426   336.2589
 1811.0000     0.3962   336.3474
 1811.5000     0.4370   336.4359
 1812.0000     0.4446   336.5243
 1812.5000     0.4441   336.6128
 1813.0000     0.4437   336.7012
 1813.5000     0.4433   336.7897
 1814.0000     0.4429   336.8781
 1814.5000     0.4425   336.9666
 1815.0000     0.4421   337.0551
 1815.5000     0.4306   337.1078
 1816.0000     0.3993   339.5504
 1816.5000     0.3893   347.7367
 1817.0000     0.3875   357.1106
 1817.5000     0.3782   367.1650
 1818.0000     0.3881   376.3772
 1818.5000     0.3876   389.8242
 1819.0000     0.3872   401.2466
 1819.5000     0.3868   403.3307
 1820.0000     0.3864   403.3487
 1820.5000     0.3939   403.3693
 1821.0000     0.4193   403.3900
 1821.5000     0.4651   403.4106
 1822.0000     0.5014   403.4312
 1822.5000     0.4376   403.4519
 1823.0000     0.4051   403.4725
 1823.5000     0.3726   403.4932
 1824.0000     0.3481   403.5138
 1824.5000     0.3413   403.5345
 1825.0000     0.3362   403.5551
 1825.5000     0.3302   403.5757
 1826.0000     0.3352   403.5964
 1826.5000     0.3572   403.6170
 1827.0000     0.4013   403.6377
 1827.5000     0.4478   403.6583
 1828.0000     0.4694   403.6790
