~VERSION INFORMATION
 VERS.                2.0:   CWLS LOG ASCII STANDARD - VERSION 2.0
 WRAP.                 NO:   ONE LINE PER DEPTH STEP
~WELL INFORMATION
#MNEM.UNIT      DATA TYPE    INFORMATION
#----------   ------------   ------------------------------
 STRT.F           34.0000:   START DEPTH
 STOP.F          517.0000:   STOP DEPTH
 STEP.F            0.5000:   STEP LENGTH
 NULL.          -999.2500:   NO VALUE
 COMP.    FENIX & SCISSON:   COMPANY
 WELL.       NPR #77-S-10:   WELL
 FLD .             TEAPOT:   FIELD
 LOC .      S10 T38N R78W:   LOCATION
 CNTY.            NATRONA:   COUNTY
 STAT.            WYOMING:   STATE
 CTRY. UNITED STATES OF AMERICA:   COUNTRY
 SRVC.              Welex:   SERVICE COMPANY
 DATE.        16-APR-1977:   LOGDATE
 API .       490251033600:   API NUMBER
~CURVE INFORMATION
#MNEM.UNIT       API CODE    CURVE DESCRIPTION
#----------   ------------   ------------------------------
 DEPT.F                  :   
 SPR .MV     07 010 01 00:   SPONTANEOUS POTENTIAL
 ILD .OHMM   07 120 46 00:   INDUCTION LOG DEEP
 ILM .OHMM   07 120 44 00:   INDUCTION LOG MEDIUM
 SGRD.OHMM   07 221 05 00:   SHALLOW SHORT GUARD RESISTIVITY
 CALD.IN     45 280 60 00:   CALIPER FROM DENSITY LOG
 GRD .GAPI   45 310 01 00:   GAMMA RAY FROM DENSITY LOG
 CORR.G/C3   45 356 01 00:   DENSITY CORRECTION
 RHOB.G/C3   45 350 01 00:   BULK DENSITY
 DPHI.DEC    45 890 12 00:   DENSITY POROSITY SANDSTONE
~PARAMETER INFORMATION
#MNEM.UNIT          VALUE    DESCRIPTION
#----------   ------------   ------------------------------
 PD  .                 GL:   PERMANENT DATUM
 EPD .F              5210:   ELEVATION PERMANENT DATUM
 LMF .                 GL:   LOG MEASURED FROM
 DMF .                 GL:   DRILLING MEASURED FROM
 EGL .F              5210:   GROUND LEVEL
 DATE.        16-APR-1977:   RUN DATE
 RUN .                  1:   RUN NUMBER
 DD  .F               525:   DEPTH DRILLER
 DL  .F               519:   DEPTH LOGGER
 BLI .F               517:   BOTTOM LOG INTERVAL
 TLI .F                30:   TOP LOG INTERVAL
 CS  .IN            8.625:   CASING SIZE
 BS  .IN            7.875:   BIT SIZE
 BSD .F               525:   BIT SIZE AT DEPTH
 DFT .            KCL MUD:   DRILLING FLUID TYPE
 DFD .                8.9:   DRILLING FLUID DENSITY
 BHT .F                61:   BOTTOM HOLE TEMPERATURE
 TCS .HRS            0300:   TIME CURCULATED STOPPED
 MRT .F                61:   MAXIMUM RECORDED TEMPERATURE
 ENGI.               DOAK:   RECORDING ENGINEER
 WITN.      B. HARRINGTON:   WITNESSED BY
 CLNT.            A2DTECH:   CLIENT CODE
 ORIG.           5" PRINT:   ORIGIN OF DATA
 UWI .       490251033600:   UNIQUE WELL ID
 DICO. A2D Technologies, Inc.:   DIGITIZING COMPANY
~OTHER INFORMATION
~A   DEPT      SPR        ILD        ILM       SGRD       CALD        GRD       CORR       RHOB       DPHI   
# ...
  143.5000   -44.3871    11.0191    15.2625    17.6890     7.7443   100.4295     0.0189     2.4753     0.1037
  144.0000   -44.3722    11.0245    15.1646    17.1007     7.7445   102.1634     0.0191     2.4737     0.1029
  144.5000   -44.3574    10.8786    15.0719    17.0536     7.7446   103.8641     0.0205     2.4706     0.1041
  145.0000   -44.3425    10.8077    14.1727    16.9482     7.7448   104.9192     0.0221     2.4670     0.1071
  145.5000   -44.3277    10.5914    14.2797    16.6124     7.7439   105.9743     0.0236     2.4663     0.1083
  146.0000   -44.4653    10.5978    14.6887    15.4626     7.7301   108.2252     0.0237     2.4685     0.1065
  146.5000   -44.4468    10.6029    13.7173    15.6894     7.7303   109.8782     0.0252     2.4723     0.1047
  147.0000   -44.4319    10.5338    13.8209    16.8205     7.7305   108.8406     0.0268     2.4753     0.1040
  147.5000   -44.4170    10.5402    13.1750    17.1247     7.7306   107.2051     0.0268     2.4775     0.1036
  148.0000   -44.4022    10.5453    13.7429    16.2164     7.7352   106.1675     0.0268     2.4798     0.1006
  148.5000   -44.3873    10.5503    14.2322    15.8390     7.7425   104.9741     0.0254     2.4805     0.1000
  149.0000   -44.3725    10.5554    13.3851    15.9597     7.7498   103.7519     0.0239     2.4767     0.1021
  149.5000   -44.3576    10.5605    13.2098    16.5313     7.7570   100.9643     0.0225     2.4745     0.1030
  150.0000   -44.3425    10.4196    12.8566    16.6573     7.7612    98.7309     0.0210     2.4752     0.1018
  150.5000   -44.3264    10.3546    13.3211    16.9010     7.7769    96.6460     0.0211     2.4782     0.1003
  151.0000   -44.3102    10.0805    13.5098    17.3846     7.7776    99.0501     0.0226     2.4835     0.0988
  151.5000   -44.2940    10.0158    12.1509    19.1594     7.7784   100.1065     0.0242     2.4887     0.0970
  152.0000   -44.2778     9.8182    11.7007    16.1340     7.7791   101.4739     0.0212     2.4909     0.0952
  152.5000   -44.2616     9.6896    11.9548    15.5966     7.7649   102.0723     0.0180     2.4819     0.0985
  153.0000   -44.2455     9.5627    12.0450    14.9734     7.7657   101.9328     0.0165     2.4729     0.1021
  153.5000   -44.2293     9.5686    12.0524    14.3751     7.7514   101.6439     0.0150     2.4684     0.1058
  154.0000   -44.2131     9.5745    11.6506    14.5838     7.7372   101.2055     0.0150     2.4683     0.1070
  154.5000   -44.3498     9.5804    11.3402    15.4209     7.7381   100.4681     0.0135     2.4676     0.1082
  155.0000   -44.3295     9.5863    11.0381    15.4304     7.7388    99.2626     0.0120     2.4623     0.1124
  155.5000   -44.4628     9.5922    10.9688    14.9164     7.7246    98.2460     0.0075     2.4525     0.1175
  156.0000   -44.4460     9.4665    10.9756    14.5194     7.7255    99.1554     0.0030     2.4428     0.1238
  156.5000   -44.5813     9.3423    10.9823    14.1329     7.7411    99.9128    -0.0015     2.4330     0.1301
  157.0000   -44.7113     9.2200    10.9890    14.0444     7.7717   100.6703    -0.0045     2.4247     0.1343
  157.5000   -44.6949     9.0995    10.9958    14.4463     7.7873   101.1287    -0.0043     2.4147     0.1388
  158.0000   -44.6786     9.0423    11.0025    14.0617     7.7881   100.9893    -0.0015     2.4029     0.1430
  158.5000   -44.6622     8.9858    11.0093    13.6874     7.7890   100.8498     0.0000     2.3961     0.1400
  159.0000   -44.6458     8.8681    11.0161    13.8862     7.7897   100.2645     0.0225     2.4367     0.1249
  159.5000   -44.6263     8.8736    11.0992    14.2835     7.8202    99.5271     0.0360     2.4629     0.1121
  160.0000   -44.6101     8.8791    11.8180    14.2923     7.8359    98.0424     0.0298     2.4749     0.1038
  160.5000   -44.5939     8.8910    12.4152    13.1649     7.8067    96.7070     0.0240     2.4817     0.0990
  161.0000   -44.5778     9.0224    12.5045    13.0824     7.7776    97.5307     0.0240     2.4824     0.0987
  161.5000   -44.5616     9.0817    12.3281    13.8333     7.7634    99.2708     0.0240     2.4809     0.1001
  162.0000   -44.5454     9.0885    12.1788    13.8419     7.7643   100.6261     0.0225     2.4786     0.1011
  162.5000   -44.5292     9.0941    12.4432    14.3365     7.7650   101.8319     0.0225     2.4771     0.1023
  163.0000   -44.5130     9.0997    12.8882    13.9549     7.7657   103.0378     0.0210     2.4740     0.1041
  163.5000   -44.4969     9.0413    13.2572    13.5835     7.7664   103.6477     0.0210     2.4696     0.1062
  164.0000   -44.4807     9.0482    13.3573    13.4984     7.7673   104.4056     0.0210     2.4650     0.1086
  164.5000   -44.6174     8.9915    13.1802    13.6944     7.7680   104.8641     0.0195     2.4613     0.1116
  165.0000   -44.7459     8.8738    12.9199    14.3808     7.7687   105.4720     0.0180     2.4583     0.1134
  165.5000   -44.8826     8.6376    12.5757    14.3897     7.7694   106.6779     0.0180     2.4567     0.1146
  166.0000   -45.0119     8.4063    11.9897    14.3007     7.7702   107.8837     0.0180     2.4560     0.1144
  166.5000   -45.1443     8.2392    11.1196    13.5424     7.7709   106.5087     0.0180     2.4575     0.1123
  167.0000   -45.2768     8.0211    10.6015    13.4101     7.7718   103.7209     0.0180     2.4590     0.1111
  167.5000   -45.5580     7.8076    10.4625    13.0984     7.7725   103.2800     0.0180     2.4604     0.1108
  168.0000   -45.6905     7.5997    10.3254    11.8223     7.7732   104.1894     0.0180     2.4612     0.1132
  168.5000   -45.8232     7.4486    10.3317    10.6259     7.7888   105.3953     0.0180     2.4525     0.1186
  169.0000   -45.9558     7.3511    10.2669    10.4505     7.7896   106.3021     0.0180     2.4379     0.1243
  169.5000   -46.0884     7.3556    10.1324    10.6405     7.8054   105.8361     0.0180     2.4288     0.1279
  170.0000   -46.0682     7.3601     9.9307    12.9596     7.8061   104.3815     0.0180     2.4251     0.1309
  170.5000   -45.9032     7.4157     9.9369    12.9676     7.8068   101.9999     0.0180     2.4296     0.1285
  171.0000   -45.7382     7.5233    10.0120    12.6224     7.8075    99.7678     0.0165     2.4341     0.1267
  171.5000   -45.5732     7.6325    10.4136    12.6302     7.8082    96.7883     0.0165     2.4318     0.1258
  172.0000   -45.5570     7.7433    11.4310    12.4649     7.8240    97.3962     0.0165     2.4243     0.1282
  172.5000   -45.3921     7.8558    11.5173    11.5610     7.8247   101.3727     0.0150     2.4197     0.1315
  173.0000   -45.3759     7.8606    11.1333    12.6537     7.8254   104.4442     0.0150     2.4175     0.1333
  173.5000   -45.3597     7.8655    10.7621    12.8374     7.8112   106.6964     0.0150     2.4182     0.1316
  174.0000   -45.3435     7.8704    10.5480    12.8453     7.7821   108.5001     0.0150     2.4276     0.1277
  174.5000   -45.3273     7.9369    10.4081    12.8532     7.7530   109.8554     0.0150     2.4309     0.1274
  175.0000   -45.3111     8.0450    10.6341    12.0038     7.7538   110.6129     0.0150     2.4279     0.1295
  175.5000   -45.2950     8.1067    11.0907    11.4449     7.7546   110.9243     0.0150     2.4302     0.1286
  176.0000   -45.2788     8.1117    11.2518    11.3732     7.7553   109.8880     0.0150     2.4354     0.1262
  176.5000   -45.2626     8.1729    11.1795    12.6211     7.7560   107.9549     0.0150     2.4407     0.1238
  177.0000   -45.2464     8.1779    11.3437    12.8930     7.7567   106.4701     0.0150     2.4466     0.1214
  177.5000   -45.2289     8.1829    11.7493    13.4462     7.7725   106.0317     0.0150     2.4511     0.1188
  178.0000   -45.2141     8.2446    12.0857    14.2180     7.7732   105.7250     0.0165     2.4571     0.1161
  178.5000   -45.1979     8.2497    12.4318    13.8395     7.7889   103.5132     0.0180     2.4616     0.1155
  179.0000   -45.1815     8.2548    12.5256    13.1044     7.7747   103.8222     0.0180     2.4571     0.1191
  179.5000   -45.1652     8.2599    12.0247    13.1125     7.7754   105.0280     0.0180     2.4476     0.1239
