~VERSION INFORMATION
 VERS.                2.0:   CWLS LOG ASCII STANDARD - VERSION 2.0
 WRAP.                 NO:   ONE LINE PER DEPTH STEP
~WELL INFORMATION
#MNEM.UNIT      DATA TYPE    INFORMATION
#----------   ------------   ------------------------------
 STRT.F            0.0000:   START DEPTH
 STOP.F          675.0000:   STOP DEPTH
 STEP.F            0.5000:   STEP LENGTH
 NULL.          -999.2500:   NO VALUE
 COMP.       F D SERV INC:   COMPANY
 WELL. NAVEL PETROLEUM RESERVE 3 SX-2 #18-1-2:   WELL
 FLD .             TEAPOT:   FIELD
 LOC .       S2 T38N R78W:   LOCATION
 CNTY.            NATRONA:   COUNTY
 STAT.            WYOMING:   STATE
 CTRY. UNITED STATES OF AMERICA:   COUNTRY
 SRVC.     Atlas Wireline:   SERVICE COMPANY
 DATE.        23-DEC-1991:   LOGDATE
 API .       490252247200:   API NUMBER
~CURVE INFORMATION
#MNEM.UNIT       API CODE    CURVE DESCRIPTION
#----------   ------------   ------------------------------
 DEPT.F                  :   
 GRR .GAPI   07 310 01 00:   GAMMA RAY FROM RES. LOG.
 SPR .MV     07 010 01 00:   SPONTANEOUS POTENTIAL
 SFL .OHMM   07 220 01 00:   SHALLOW FOCUSED LOG RESISTIVITY
 ILD .OHMM   07 120 46 00:   INDUCTION LOG DEEP
 ILM .OHMM   07 120 44 00:   INDUCTION LOG MEDIUM
~PARAMETER INFORMATION
#MNEM.UNIT          VALUE    DESCRIPTION
#----------   ------------   ------------------------------
 PD  .                 GL:   PERMANENT DATUM
 EPD .F              5148:   ELEVATION PERMANENT DATUM
 LMF .                 KB:   LOG MEASURED FROM
 DAPD.F                10:   FEET ABOVE PERMANENT DATUM
 DMF .                 KB:   DRILLING MEASURED FROM
 EKB .F              5158:   KELLING BUSHING
 EGL .F              5148:   GROUND LEVEL
 DATE.        23-DEC-1991:   RUN DATE
 RUN .                  1:   RUN NUMBER
 DD  .F               630:   DEPTH DRILLER
 DL  .F               678:   DEPTH LOGGER
 BLI .F               675:   BOTTOM LOG INTERVAL
 CS  .IN            9.625:   CASING SIZE
 CBD .F                44:   CASING BOTTOM DRILLER
 CBL .F                48:   CASING BOTTOM LOGGER
 BS  .IN             8.75:   BIT SIZE
 BSD .F               680:   BIT SIZE AT DEPTH
 DFT .           CHEM GEL:   DRILLING FLUID TYPE
 DFD .                9.7:   DRILLING FLUID DENSITY
 DFV .                 79:   DRILLING FLUID VISCOSITY
 DFPH.                  9:   DRILLING FLUID PH
 DFL .                 10:   DRILLING FLUID LOSS
 MSS .           MUD TANK:   MUD SAMPLE SOURCE
 RMS .OHMM            .82:   RESISTIVITY MUD SAMPLE
 MST .F                54:   MUD SAMPLE TEMPERATURE
 RMF .OHMM           1.02:   RESISTIVITY MUD FILTRATE SAMPLE
 MFST.F                54:   MUD FILTRATE SAMPLE TEMPERATURE
 RMC .OHMM            .51:   RESISTIVITY MUD CAKE
 MCST.F                54:   MUD CAKE SAMPLE TEMPERATURE
 MFSS.               CALC:   MUD FILTRATE SAMPLE SOURCE
 MCSS.               CALC:   MUD CAKE SAMPLE SOURCE
 RMB .OHMM            .43:   RESISTIVITY MUD AT BHT
 BHT .F               102:   BOTTOM HOLE TEMPERATURE
 TCS .HRS               2:   TIME CURCULATED STOPPED
 MRT .F               102:   MAXIMUM RECORDED TEMPERATURE
 LUN .            HL-6307:   LOGGING UNIT NUMBER
 LUL .             CASPER:   LOGGING UNIT LOCATION
 ENGI.            WADDELL:   RECORDING ENGINEER
 WITN.              FJVAS:   WITNESSED BY
 CLNT.            A2DTECH:   CLIENT CODE
 ORIG.      2" & 5" PRINT:   ORIGIN OF DATA
 UWI .       490252247200:   UNIQUE WELL ID
 DICO. A2D Technologies, Inc.:   DIGITIZING COMPANY
~OTHER INFORMATION
~A    DEPT      GRR       SPR        SFL        ILD        ILM   
# ...
  183.0000   104.1932   -23.0303     9.5511     8.9118     9.2685
  183.5000   103.2335   -23.1704     9.8271     8.9557     9.3553
  184.0000   104.2861   -23.2487    10.1110     8.9997     9.4939
  184.5000   105.5912   -23.3269    10.3111     9.0566     9.6623
  185.0000   104.4406   -23.4052     9.9497     8.9998     9.6102
  185.5000   102.4544   -23.4814     9.6360     8.9210     9.5632
  186.0000   101.4194   -23.4716     9.3119     8.8429     9.5159
  186.5000   102.5542   -23.2650     9.2990     8.7655     9.4690
  187.0000   104.8334   -23.0620     9.2852     8.6887     9.4223
  187.5000   105.4025   -22.8593     9.2714     8.6126     9.3758
  188.0000   105.5755   -22.6378     9.2576     8.5372     9.3296
  188.5000   106.1411   -22.3829     9.2438     8.4625     9.2836
  189.0000   109.1215   -22.1290     9.2301     8.3884     9.2378
  189.5000   113.0796   -21.9135     9.2164     8.3150     9.1923
  190.0000   114.7300   -21.9184     9.2027     8.2508     9.1469
  190.5000   111.8278   -21.9191     9.1890     8.2269     9.1018
  191.0000   110.2190   -21.9188     9.1753     8.2029     9.0566
  191.5000   108.6832   -21.9191     9.1617     8.1790     9.0281
  192.0000   107.3084   -21.9483     9.1481     8.1552     8.9995
  192.5000   106.1990   -22.1121     9.1345     8.1315     8.9709
  193.0000   107.1794   -22.2728     9.1209     8.1079     8.9424
  193.5000   108.3268   -22.4307     9.1073     8.0843     8.9141
  194.0000   109.1204   -22.4257     9.0938     8.0608     8.8858
  194.5000   109.4026   -22.1840     9.0803     8.0373     8.8576
  195.0000   109.6900   -21.9456     9.0668     8.0140     8.8295
  195.5000   110.0067   -21.7062     9.0527     7.9907     8.8034
  196.0000   110.6251   -21.4671     9.0351     7.9675     8.7828
  196.5000   112.6307   -21.2279     9.0180     7.9482     8.7624
  197.0000   113.8812   -20.9872     9.0009     7.9340     8.7420
  197.5000   114.2952   -20.8511     8.9838     7.9198     8.7216
  198.0000   114.2383   -20.7637     8.9667     7.9057     8.7013
  198.5000   113.2965   -20.6767     8.9496     7.8914     8.6811
  199.0000   113.7804   -20.5897     8.9326     7.8704     8.6609
  199.5000   114.9803   -20.5025     8.9156     7.8291     8.6073
  200.0000   114.3099   -20.4153     8.8910     7.7885     8.4739
  200.5000   114.2979   -20.3240     8.9028     7.7482     8.3433
  201.0000   114.8792   -20.3323     8.9272     7.6428     8.2143
  201.5000   115.4438   -20.3724     8.9518     7.5131     8.0872
  202.0000   115.0929   -20.4133     8.9731     7.3856     7.9548
  202.5000   112.9338   -20.4541     8.6690     7.2602     7.7611
  203.0000   110.6755   -20.4949     8.4109     7.1370     7.5604
  203.5000   111.1620   -20.5356     8.1589     7.0158     7.3648
  204.0000   113.3506   -20.5763     7.9016     6.8966     7.1743
  204.5000   116.1746   -20.6171     7.5927     6.7797     6.9870
  205.0000   117.0492   -20.6580     7.5952     6.7061     6.9870
  205.5000   118.4369   -20.7002     7.5945     6.6614     6.9870
  206.0000   119.9540   -20.6761     7.5928     6.6091     6.9870
  206.5000   120.6311   -20.6372     7.7164     6.6854     7.1868
  207.0000   117.8093   -20.5979     7.9335     6.8094     7.3883
  207.5000   114.2922   -20.5585     8.2276     6.9357     7.5954
  208.0000   110.5480   -20.5208     8.5325     7.0644     7.8084
  208.5000   106.8275   -20.3870     8.8903     7.1955     7.9392
  209.0000   104.5309   -20.2031     8.5788     7.3183     8.0271
  209.5000   105.4123   -20.0173     8.3320     7.4329     8.1159
  210.0000   102.9015   -19.8334     8.5788     7.5946     8.1790
  210.5000    97.8658   -19.7273     8.8903     7.5655     8.0931
  211.0000    95.8098   -19.8807     8.8216     7.5082     8.0276
  211.5000    98.7452   -20.0264     8.6825     7.4511     7.9626
  212.0000   100.5934   -20.1707     8.5184     7.3945     7.8975
  212.5000   101.3927   -20.3138     8.3453     7.3384     7.8526
  213.0000   101.2642   -20.5349     8.1036     7.2828     7.8140
  213.5000   100.1940   -20.7485     8.1572     7.2275     7.7757
  214.0000    96.8399   -20.9610     8.2532     7.1726     7.7369
  214.5000    94.3376   -21.1706     8.3503     7.1177     7.7782
  215.0000    96.0689   -21.3025     8.4486     7.1865     7.8214
  215.5000    99.5779   -21.2027     8.4878     7.3038     7.8647
  216.0000   103.2054   -21.1068     8.4878     7.4231     7.9875
  216.5000   106.5034   -21.0120     8.4878     7.5443     8.2487
  217.0000   105.9410   -20.8636     8.5668     7.6675     8.5180
  217.5000   103.5844   -20.6632     8.9075     7.7367     8.7265
  218.0000   102.0446   -20.5931     9.3119     7.7367     8.6004
  218.5000   103.0147   -20.5296     9.2099     7.7367     8.5012
  219.0000   105.7551   -20.4936     9.0582     7.6925     8.4271
  219.5000   107.1644   -20.4630     8.9091     7.6273     8.3587
  220.0000   108.1088   -20.4331     8.7624     7.5627     8.2906
  220.5000   109.0022   -20.4032     8.6181     7.4987     8.2230
  221.0000   109.2085   -20.3731     8.4095     7.4351     8.1559
  221.5000   107.0321   -20.3437     8.4283     7.3721     8.0894
  222.0000   104.9742   -20.3100     8.4643     7.3097     8.0234
  222.5000   105.2448   -20.4964     8.5003     7.2477     7.9548
  223.0000   105.8560   -20.7841     8.5366     7.1834     8.0041
  223.5000   106.4425   -21.0751     8.5666     7.2372     8.0562
  224.0000   107.8978   -21.3668     8.4427     7.3083     8.1088
  224.5000   109.0754   -21.5510     8.3378     7.3801     8.1616
  225.0000   108.8842   -21.6237     8.2551     7.4527     8.2149
  225.5000   103.9724   -21.7018     8.3198     7.5244     8.2684
  226.0000    98.6896   -21.5960     8.8020     7.5045     8.3317
  226.5000    94.0574   -21.4275     9.4788     7.4839     8.2939
  227.0000    94.6709   -21.2574     9.2170     7.4637     8.2479
  227.5000    99.2373   -21.0875     8.7877     7.4436     8.2020
  228.0000   104.7417   -20.9179     8.3862     7.4235     8.1565
  228.5000   106.0931   -20.7480     8.2551     7.4035     8.1112
  229.0000   103.7506   -20.5782     8.2783     7.3835     8.0661
  229.5000   104.0251   -20.4103     8.2941     7.3636     8.0211
  230.0000   105.1260   -20.3224     8.3099     7.3437     7.9770
  230.5000   106.4306   -20.3810     8.3258     7.3236     7.9542
  231.0000   107.7443   -20.4378     8.3418     7.3125     7.9548
  231.5000   109.0783   -20.4932     8.3577     7.3013     7.9548
  232.0000   109.5190   -20.6613     8.3737     7.2901     7.9549
  232.5000   107.3657   -20.9140     8.3898     7.2789     7.9547
  233.0000   105.3397   -21.1686     8.4090     7.2678     7.9552
  233.5000   106.6122   -21.4243     8.3721     7.2566     7.8732
  234.0000   108.1820   -21.6816     8.3233     7.2455     7.8032
  234.5000   107.1192   -21.6639     8.2748     7.2344     7.7340
  235.0000   106.1681   -21.6005     8.2265     7.2233     7.6653
  235.5000   109.1875   -21.5354     8.1790     7.2123     7.7713
  236.0000   113.7082   -21.5154     8.0258     7.2012     7.8233
  236.5000   113.5585   -21.5153     7.8814     7.1905     7.8783
  237.0000   108.4398   -21.5163     8.1195     7.1852     7.9335
  237.5000   103.4457   -21.5076     8.4153     7.2313     7.9889
  238.0000   101.5267   -21.3621     8.7219     7.2646     8.0448
  238.5000   101.9775   -21.2204     8.8903     7.2980     8.1011
  239.0000   104.8009   -21.0797     8.5320     7.3316     8.1578
  239.5000   107.7934   -20.9390     8.4095     7.3653     8.2149
  240.0000   107.2508   -20.8001     8.6066     7.3992     8.2553
  240.5000   103.4464   -20.7259     8.7271     7.4332     8.2552
  241.0000   101.1255   -20.8736     8.7271     7.4674     8.2552
  241.5000   100.7003   -21.0192     8.7271     7.5017     8.2551
  242.0000   102.7382   -21.1648     8.7269     7.5303     8.2551
  242.5000   104.4127   -21.3102     8.7266     7.5483     8.2551
  243.0000   105.1540   -21.4557     8.6839     7.5659     8.2553
  243.5000   106.5144   -21.6012     8.6390     7.5836     8.2551
