~VERSION INFORMATION
 VERS.                2.0:   CWLS LOG ASCII STANDARD - VERSION 2.0
 WRAP.                 NO:   ONE LINE PER DEPTH STEP
~WELL INFORMATION
#MNEM.UNIT      DATA TYPE    INFORMATION
#----------   ------------   ------------------------------
 STRT.F           16.0000:   START DEPTH
 STOP.F         1254.0000:   STOP DEPTH
 STEP.F            0.5000:   STEP LENGTH
 NULL.          -999.2500:   NO VALUE
 COMP. FENIX & SCISSON INC:   COMPANY
 WELL. NAVAL PET RESERVE 3   75-S-14 #75-14:   WELL
 FLD .             TEAPOT:   FIELD
 LOC .      S14 T38N R78W:   LOCATION
 CNTY.            NATRONA:   COUNTY
 STAT.            WYOMING:   STATE
 CTRY. UNITED STATES OF AMERICA:   COUNTRY
 SRVC.              Welex:   SERVICE COMPANY
 DATE.        17-FEB-1977:   LOGDATE
 API .       490251027400:   API NUMBER
~CURVE INFORMATION
#MNEM.UNIT       API CODE    CURVE DESCRIPTION
#----------   ------------   ------------------------------
 DEPT.F                  :   
 SGRD.OHMM   07 220 05 00:   SHALLOW RESISTIVITY
 ILM .OHMM   07 120 44 00:   INDUCTION LOG MEDIUM
 SPR .MV     07 010 01 00:   SPONTANEOUS POTENTIAL
 ILD .OHMM   07 120 46 00:   INDUCTION LOG DEEP
 CALD.IN     45 280 60 00:   CALIPER
 GRD .GAPI   45 310 01 00:   GAMMA RAY FROM DENSITY LOG
 DPHI.DEC    45 890 12 00:   DENSITY POROSITY SANDSTONE
 RHOB.G/C3   45 350 01 00:   BULK DENSITY
 CORR.G/C3   45 356 01 00:   DENSITY CORRECTION
~PARAMETER INFORMATION
#MNEM.UNIT          VALUE    DESCRIPTION
#----------   ------------   ------------------------------
 PD  .                 GL:   PERMANENT DATUM
 EPD .F              5336:   ELEVATION PERMANENT DATUM
 LMF .                 GL:   LOG MEASURED FROM
 DMF .                 GL:   DRILLING MEASURED FROM
 EKB .F              5341:   KELLING BUSHING
 EGL .F              5336:   GROUND LEVEL
 DATE.          2-17-1977:   RUN DATE
 RUN .                  1:   RUN NUMBER
 DD  .F              1260:   DEPTH DRILLER
 DL  .F              1258:   DEPTH LOGGER
 BLI .F              1256:   BOTTOM LOG INTERVAL
 TLI .F                30:   TOP LOG INTERVAL
 CS  .IN            8.625:   CASING SIZE
 CBD .F                42:   CASING BOTTOM DRILLER
 CBL .F                42:   CASING BOTTOM LOGGER
 BS  .IN            7.875:   BIT SIZE
 BSD .F              1260:   BIT SIZE AT DEPTH
 DFT .          KCL WATER:   DRILLING FLUID TYPE
 DFD .                9.5:   DRILLING FLUID DENSITY
 DFV .                 34:   DRILLING FLUID VISCOSITY
 MSS .          FLOW LINE:   MUD SAMPLE SOURCE
 RMS .OHMM            .30:   RESISTIVITY MUD SAMPLE
 MST .F                43:   MUD SAMPLE TEMPERATURE
 RMF .OHMM            .28:   RESISTIVITY MUD FILTRATE SAMPLE
 MFST.F                43:   MUD FILTRATE SAMPLE TEMPERATURE
 RMC .OHMM            .40:   RESISTIVITY MUD CAKE
 MCST.F                43:   MUD CAKE SAMPLE TEMPERATURE
 MFSS.           MEASURED:   MUD FILTRATE SAMPLE SOURCE
 MCSS.           MEASURED:   MUD CAKE SAMPLE SOURCE
 RMB .OHMM            .13:   RESISTIVITY MUD AT BHT
 BHT .F               101:   BOTTOM HOLE TEMPERATURE
 TCS .HRS               5:   TIME CURCULATED STOPPED
 MRT .F               101:   MAXIMUM RECORDED TEMPERATURE
 LUN .               8611:   LOGGING UNIT NUMBER
 LUL .           GILLETTE:   LOGGING UNIT LOCATION
 ENGI.             LAWSON:   RECORDING ENGINEER
 WITN.         STUEBINGER:   WITNESSED BY
 CLNT.            A2DTECH:   CLIENT CODE
 ORIG.       2", 5" PRINT:   ORIGIN OF DATA
 UWI .       490251027400:   UNIQUE WELL ID
 DICO. A2D Technologies, Inc.:   DIGITIZING COMPANY
~OTHER INFORMATION
~A   DEPT     SGRD        ILM        SPR        ILD       CALD         GRD      DPHI       RHOB       CORR   
# ...
  819.0000     9.7638     6.9419   -39.9987     6.2593     8.1244   129.1876     0.0962     2.4818     0.0465
  819.5000    10.0126     6.9409   -39.9392     6.3057     8.0964   131.7075     0.1010     2.4825     0.0462
  820.0000    10.2677     6.9421   -39.8797     6.3525     8.0816   134.2273     0.0950     2.4869     0.0486
  820.5000    10.5293     7.1026   -39.8201     6.3996     8.0825   136.8102     0.0897     2.4904     0.0510
  821.0000    10.7975     7.2578   -39.7606     6.4494     8.0890   137.2572     0.0936     2.4890     0.0516
  821.5000    11.0726     7.4163   -39.7011     6.5257     8.0955   136.6282     0.0994     2.4876     0.0508
  822.0000    11.3547     7.5784   -39.6415     6.6276     8.1020   135.9952     0.0961     2.4915     0.0502
  822.5000    11.6216     7.7440   -39.5820     6.7311     8.1084   133.3193     0.0920     2.4978     0.0509
  823.0000    11.5417     7.9133   -39.5224     6.8362     8.1150   130.0627     0.0879     2.5043     0.0516
  823.5000    11.4663     8.0871   -39.4629     6.9429     8.1215   126.7547     0.0838     2.5020     0.0519
  824.0000    11.4064     8.1938   -39.4034     7.0513     8.1208   123.4567     0.0852     2.4984     0.0505
  824.5000    11.9734     8.1555   -39.3438     7.2023     8.0987   121.4515     0.0876     2.4950     0.0491
  825.0000    12.3947     8.1248   -39.2840     7.2689     8.0760   125.9141     0.0900     2.4912     0.0486
  825.5000    11.9469     8.0943   -39.2239     7.2158     8.0535   129.6428     0.0923     2.4992     0.0511
  826.0000    13.4182     8.0638   -39.2078     7.1574     8.0309   126.5259     0.0893     2.5111     0.0553
  826.5000    13.9745     8.0335   -39.4229     7.0995     8.0220   123.2371     0.0773     2.5163     0.0609
  827.0000    12.7033     8.0033   -39.4242     7.0422     8.0221   121.8525     0.0867     2.4997     0.0628
  827.5000    11.8814     7.9732   -39.4365     6.9852     8.0281   123.3888     0.0979     2.4863     0.0600
  828.0000    11.3105     7.9432   -39.4465     6.9287     8.0341   124.6992     0.1098     2.4730     0.0584
  828.5000    11.7684     7.9134   -39.4568     6.8727     8.0400   122.8702     0.1092     2.4651     0.0568
  829.0000    11.9496     7.8965   -39.4671     6.8172     8.0459   122.5014     0.1034     2.4698     0.0553
  829.5000    11.3904     8.0226   -39.4774     6.7620     8.0519   127.1599     0.1034     2.4691     0.0537
  830.0000    11.0990     8.1123   -39.4878     6.7074     8.0577   129.3044     0.1068     2.4614     0.0521
  830.5000    11.7290     8.2027   -39.4981     6.6531     8.0617   127.8349     0.1102     2.4535     0.0506
  831.0000    11.6057     8.2942   -39.5084     6.5993     8.0562   129.4097     0.1135     2.4524     0.0490
  831.5000    11.4830     8.3447   -39.5187     6.5460     8.0428   131.7863     0.1142     2.4542     0.0489
  832.0000    11.3609     8.2768   -39.5290     6.5090     8.0603   132.7368     0.1082     2.4634     0.0511
  832.5000    11.3046     8.2138   -39.5393     6.5515     8.0787   129.9299     0.1023     2.4732     0.0532
  833.0000    11.8396     8.1513   -39.5496     6.5900     8.0976   127.7044     0.0963     2.4829     0.0554
  833.5000    11.8402     8.0892   -39.5600     6.6287     8.1016   126.7415     0.0904     2.4927     0.0575
  834.0000    11.4202     8.0276   -39.5703     6.6677     8.1017   125.6541     0.0845     2.5025     0.0597
  834.5000    11.0350     7.9665   -39.5806     6.7069     8.1015   124.5336     0.0838     2.5092     0.0619
  835.0000    10.7969     7.9059   -39.5909     6.7463     8.0983   125.2069     0.0852     2.4999     0.0590
  835.5000    11.6216     7.8456   -39.6012     6.7858     8.0914   126.3758     0.0923     2.4886     0.0553
  836.0000    11.3665     7.8049   -39.6139     6.8153     8.0845   127.5607     0.0994     2.4774     0.0516
  836.5000    10.9790     7.7750   -39.6077     6.7580     8.0775   128.7823     0.1067     2.4663     0.0481
  837.0000    10.6047     7.7452   -39.8347     6.7126     8.0705   130.4930     0.1106     2.4732     0.0483
  837.5000    10.3114     7.7155   -39.9733     6.6675     8.0639   133.5078     0.0986     2.4838     0.0532
  838.0000    10.9625     7.6859   -40.1800     6.6227     8.0768   136.5122     0.0903     2.4946     0.0581
  838.5000    11.5480     7.6564   -40.3230     6.5782     8.0927   139.4549     0.0837     2.5051     0.0619
  839.0000    11.7303     7.6271   -40.4136     6.5340     8.1111   139.4107     0.0858     2.5100     0.0596
  839.5000    11.5896     7.5978   -40.5077     6.4901     8.1300   138.6225     0.0898     2.5014     0.0574
  840.0000    11.4661     7.5687   -40.6024     6.4465     8.1483   136.1948     0.0945     2.4930     0.0553
  840.5000    11.3441     7.5396   -40.6972     6.4032     8.1484   133.8280     0.0992     2.4846     0.0531
  841.0000    11.2236     7.5107   -40.7919     6.3602     8.1064   131.4645     0.1040     2.4762     0.0509
  841.5000    11.1045     7.4819   -40.8866     6.3171     8.0822   129.1113     0.1086     2.4677     0.0509
  842.0000    10.9866     7.4532   -40.9813     6.2168     8.1050   127.7618     0.1082     2.4661     0.0522
  842.5000    10.8967     7.4247   -41.0760     6.1180     8.1276   128.4024     0.1037     2.4769     0.0535
  843.0000    11.0821     7.4039   -41.1707     6.0209     8.1535   129.1104     0.1001     2.4892     0.0548
  843.5000    11.2360     7.3044   -41.2655     5.9252     8.1157   129.9502     0.0964     2.5011     0.0560
  844.0000    11.3065     7.1940   -41.3602     5.8311     8.1092   132.5121     0.0928     2.4981     0.0544
  844.5000    10.8041     7.0852   -41.4549     5.7385     8.0992   135.1498     0.0922     2.4922     0.0525
  845.0000    10.4480     6.9782   -41.5497     5.6474     8.0898   135.6454     0.0950     2.4864     0.0507
  845.5000    10.1037     6.8727   -41.6448     5.5577     8.0812   135.2795     0.0986     2.4839     0.0489
  846.0000     9.7709     6.7687   -41.7395     5.4687     8.0938   134.8988     0.0959     2.4949     0.0507
  846.5000     9.4494     6.6660   -41.8082     5.3836     8.1100   134.5456     0.0909     2.5000     0.0554
  847.0000     9.1489     6.5680   -41.7441     5.3144     8.1262   134.1225     0.0902     2.4883     0.0545
  847.5000     9.0651     6.6128   -41.6826     5.4415     8.1424   131.8900     0.0996     2.4790     0.0525
  848.0000     9.5832     6.6803   -41.6212     5.5316     8.1585   124.9354     0.1062     2.4695     0.0505
  848.5000    10.0987     6.7484   -41.5599     5.6233     8.1749   120.4003     0.1078     2.4688     0.0485
  849.0000    10.6419     6.8173   -41.4987     5.7164     8.1812   119.8982     0.1055     2.4750     0.0481
  849.5000    11.4097     6.8868   -41.4364     5.8111     8.1802   120.5546     0.1031     2.4814     0.0480
  850.0000    11.0043     6.9571   -41.4394     5.9073     8.1748   123.9297     0.1007     2.4877     0.0505
  850.5000    10.4263     7.0281   -41.4712     5.9917     8.1697   126.7546     0.0978     2.4943     0.0533
  851.0000     9.8787     7.0998   -41.5039     6.0471     8.1639   125.7626     0.0985     2.4904     0.0560
  851.5000     9.6682     7.1723   -41.5365     6.0206     8.1462   126.5298     0.1016     2.4836     0.0546
  852.0000    10.4715     7.2687   -41.5684     5.9939     8.1387   127.1303     0.1010     2.4770     0.0531
  852.5000    10.8967     7.2375   -41.6023     5.9672     8.1295   125.0830     0.0956     2.4762     0.0538
  853.0000    10.5971     7.1900   -41.6245     5.9406     8.1203   123.1318     0.0901     2.4884     0.0591
  853.5000    10.3180     7.1434   -41.8299     5.9142     8.1111   121.1712     0.0866     2.5005     0.0644
  854.0000    10.0485     7.0970   -41.7618     5.8879     8.1019   119.4236     0.0871     2.5131     0.0661
  854.5000     9.7560     7.0511   -41.7007     5.8617     8.0926   119.7827     0.0886     2.5074     0.0662
  855.0000     9.7571     7.0054   -41.6434     5.8356     8.0833   122.5164     0.0899     2.4986     0.0630
