~VERSION INFORMATION
 VERS.                2.0:   CWLS LOG ASCII STANDARD - VERSION 2.0
 WRAP.                 NO:   ONE LINE PER DEPTH STEP
~WELL INFORMATION
#MNEM.UNIT      DATA TYPE    INFORMATION
#----------   ------------   ------------------------------
 STRT.F            0.0000:   START DEPTH
 STOP.F          860.0000:   STOP DEPTH
 STEP.F            0.5000:   STEP LENGTH
 NULL.          -999.2500:   NO VALUE
 COMP.          U.S. NAVY:   COMPANY
 WELL. NPR #3 TEAPOT DOME #28S-35:   WELL
 FLD .             TEAPOT:   FIELD
 LOC .      S35 T39N R78W:   LOCATION
 CNTY.            NATRONA:   COUNTY
 STAT.            WYOMING:   STATE
 CTRY. UNITED STATES OF AMERICA:   COUNTRY
 SRVC.       Schlumberger:   SERVICE COMPANY
 DATE.        10-NOV-1958:   LOGDATE
 API .       490250649800:   API NUMBER
~CURVE INFORMATION
#MNEM.UNIT       API CODE    CURVE DESCRIPTION
#----------   ------------   ------------------------------
 DEPT.F                  :   
 SPR .MV     01 010 01 00:   SPONTANEOUS POTENTIAL FROM RES.
 ASN .OHMM   01 041 16 00:   AMPLIFIED SHORT NORMAL 16"
 LT18.OHMM   01 070 18 00:   LATERAL 18'
 LN  .OHMM   01 060 64 00:   LONG NORMAL 64"
 GRN .CPS    35 310 30 00:   GAMMA RAY
 NEUT.CPS    35 330 30 00:   NEUTRON
 MCAL.IN     15 280 01 00:   CALIPER FROM MICRO LOG
~PARAMETER INFORMATION
#MNEM.UNIT          VALUE    DESCRIPTION
#----------   ------------   ------------------------------
 LMF .                 KB:   LOG MEASURED FROM
 DMF .                 KB:   DRILLING MEASURED FROM
 EKB .F              5113:   KELLING BUSHING
 EGL .F              5103:   GROUND LEVEL
 DATE.         11-10-1958:   RUN DATE
 RUN .                  1:   RUN NUMBER
 DD  .F               860:   DEPTH DRILLER
 DL  .F               861:   DEPTH LOGGER
 BLI .F               860:   BOTTOM LOG INTERVAL
 TLI .F                90:   TOP LOG INTERVAL
 CBD .F                34:   CASING BOTTOM DRILLER
 BS  .IN             6.75:   BIT SIZE
 BSD .F               860:   BIT SIZE AT DEPTH
 DFT .          OIL ADDED:   DRILLING FLUID TYPE
 DFD .                 10:   DRILLING FLUID DENSITY
 DFV .                 20:   DRILLING FLUID VISCOSITY
 DFPH.                7.5:   DRILLING FLUID PH
 DFL .                4.2:   DRILLING FLUID LOSS
 RMS .OHMM              2:   RESISTIVITY MUD SAMPLE
 MST .F                62:   MUD SAMPLE TEMPERATURE
 RMF .OHMM            1.4:   RESISTIVITY MUD FILTRATE SAMPLE
 MFST.F                72:   MUD FILTRATE SAMPLE TEMPERATURE
 RMC .OHMM            1.9:   RESISTIVITY MUD CAKE
 MCST.F                72:   MUD CAKE SAMPLE TEMPERATURE
 MFSS.                  M:   MUD FILTRATE SAMPLE SOURCE
 MCSS.                  M:   MUD CAKE SAMPLE SOURCE
 RMB .OHMM            1.7:   RESISTIVITY MUD AT BHT
 BHT .F                72:   BOTTOM HOLE TEMPERATURE
 TCS .HRS               1:   TIME CURCULATED STOPPED
 MRT .F                72:   MAXIMUM RECORDED TEMPERATURE
 LUN .               2754:   LOGGING UNIT NUMBER
 LUL .                 NC:   LOGGING UNIT LOCATION
 ENGI.             QUINBY:   RECORDING ENGINEER
 WITN.             MARTIN:   WITNESSED BY
 CLNT.            A2DTECH:   CLIENT CODE
 ORIG.     1", 2.5" PRINT:   ORIGIN OF DATA
 UWI .       490250649800:   UNIQUE WELL ID
 DICO. A2D Technologies, Inc.:   DIGITIZING COMPANY
~OTHER INFORMATION
~A    DEPT     SPR        ASN       LT18         LN          GRN     NEUT       MCAL   
# ...
   91.0000   -10.0788     5.2949     4.2757     6.5924     5.3020   406.5572     7.1112
   91.5000   -10.0774     5.2950     4.2006     6.6810     5.5080   416.4860     7.1168
   92.0000   -10.0761     5.2879     4.1459     6.6794     5.8991   423.6040     7.1378
   92.5000   -10.0747     5.2142     3.8789     6.6780     5.8168   437.3105     7.1373
   93.0000   -10.0731     5.2229     3.8815     6.6767     6.0227   441.9360     7.1369
   93.5000   -10.0718     5.3410     3.7491     6.8823     5.8817   443.9860     7.1365
   94.0000   -10.3422     5.4407     3.7518     6.9457     5.6520   442.4628     7.1360
   94.5000   -10.3408     5.5062     3.7544     7.0802     5.9751   439.2787     7.1083
   95.0000   -10.3395     5.5392     3.6217     7.2144     6.1527   419.8199     7.1007
   95.5000   -10.0664     5.4884     3.6246     7.2131     6.2297   409.6447     7.0801
   96.0000   -10.0651     5.3376     3.4922     7.2118     6.4285   397.7781     7.1072
   96.5000    -9.7920     5.3903     3.6300     7.0746     6.8670   389.8019     7.1692
   97.0000    -9.7906     5.6375     3.6326     7.0732     7.2582   395.4765     7.1962
   97.5000   -10.0611     6.0106     3.7704     7.2079     7.5465   396.6815     7.2233
   98.0000   -10.0290     6.2734     3.9082     8.0216     7.5523   397.8460     7.2421
   98.5000   -10.0585     6.3829     4.1812    11.5529     7.0729   400.9239     7.2143
   99.0000   -10.0570     6.5403     4.5893    13.9972     6.5552   398.2707     7.1866
   99.5000   -10.0557     6.6485     4.9973    14.6752     6.5993   390.5897     7.1499
  100.0000   -10.0543     6.7297     5.1351    15.0815     6.3522   386.4700     7.1038
  100.5000   -10.0530     6.1756     4.8675    15.3569     6.3110   380.4577     7.0942
  101.0000   -10.0517     5.8944     4.7217    15.6223     6.4685   383.9734     7.0757
  101.5000   -10.0502     5.6811     4.3122    15.7718     6.8825   387.8251     7.0479
  102.0000   -10.0489     5.4943     3.9296    16.0273     7.0816   392.8982     7.0475
  102.5000   -10.0475     5.3396     3.9494    16.0258     7.0726   385.2679     7.0471
  103.0000   -10.0462     5.3251     4.0905    16.0543     7.1830   380.6901     7.0467
  103.5000   -10.0449     5.3253     4.3669    16.1591     7.2225   381.5491     7.0737
  104.0000   -10.0435     5.3254     4.6432    16.1975     6.7640   400.7002     7.0732
  104.5000   -10.0421     5.2834     4.7845    16.3369     6.3933   411.7905     7.0728
  105.0000   -10.3127     5.2559     4.8919    16.4765     6.7022   404.9860     7.0724
  105.5000   -10.3111     5.3258     4.8946    16.5614     6.3110   404.9570     7.0720
  106.0000   -10.3098     5.5152     4.8973    16.3044     6.3110   404.4737     7.0716
  106.5000   -10.3084     5.7585     4.8561    14.5522     6.2492   400.5676     7.0712
  107.0000   -10.3071     6.0289     4.7671    12.8117     5.9197   402.0984     7.0708
  107.5000   -10.3057     6.2453     4.7703    11.4267     5.7756   394.4682     7.0703
  108.0000   -10.3044     6.4076     4.7730    10.1215     6.0021   390.6545     7.0699
  108.5000   -10.1721     6.5699     4.8331     9.6234     6.2286   392.3980     7.0695
  109.0000    -9.7581     6.7862     4.9135     9.3503     6.3110   405.1681     7.0691
  109.5000    -9.6105     7.0566     5.0514     9.2131     6.1462   414.3334     7.0687
  110.0000    -9.3297     7.2460     5.2568     8.8042     6.1051   421.2085     7.0683
  110.5000    -9.2103     7.3272     5.5331     8.5311     6.1490   414.3409     7.0679
  111.0000    -9.2090     7.3273     5.8095     8.5298     6.2144   408.2369     7.0675
  111.5000    -9.2076     7.3274     6.0081     8.3926     6.2961   413.5850     7.0944
  112.0000    -9.2063     7.2195     6.1465     7.9836     6.2325   411.2983     7.0940
  112.5000    -8.9332     7.0034     6.1491     7.9823     5.6434   405.1942     7.0936
  113.0000    -8.9319     6.7332     6.1518     7.9809     5.4884   408.6184     7.0932
  113.5000    -9.2023     6.4887     6.0189     7.9796     5.1372   416.6538     7.0928
  114.0000    -9.2009     6.2164     5.8869     7.8424     5.2402   406.5494     7.0924
  114.5000    -9.1996     6.0008     5.7544     7.8325     4.9098   405.2092     7.0919
  115.0000    -9.1983     5.8621     5.6220     7.6902     5.0514   405.9764     7.0769
  115.5000    -8.9252     5.7310     5.6246     7.4307     5.5258   397.6441     7.0638
  116.0000    -8.9239     5.8097     5.7624     7.4058     6.1051   386.8063     7.0361
  116.5000    -8.9225     6.0130     5.9002     7.2922     5.9798   382.3200     7.0357
  117.0000    -8.9212     6.1276     6.0380     7.1549     5.8991   391.2404     7.0079
  117.5000    -8.6481     6.4990     6.3110     6.9792     6.1607   405.3847     7.0230
  118.0000    -8.6468     7.0093     6.5839     6.8804     6.6215   402.2742     7.0774
  118.5000    -8.6454     7.1401     6.8569     6.6947     6.9385   398.3994     7.0887
  119.0000    -8.6649     6.9245     6.9947     6.6060     7.1141   401.7930     7.0883
  119.5000    -8.9145     6.5936     7.1325     6.5462     7.0373   398.7122     7.0879
  120.0000    -8.9130     6.7892     7.0000     6.5308     7.0111   411.3600     7.0873
  120.5000    -8.9117     6.6002     6.7290     6.6019     7.1025   414.4177     7.0869
  121.0000    -8.9104     6.4111     6.5932     6.6005     7.0717   417.4753     7.0865
  121.5000    -8.9089     6.1680     6.1872     6.6776     7.1037   420.5329     7.0861
  122.0000    -8.9076     5.9249     5.9162     6.8696     7.0490   422.0636     7.0857
  122.5000    -8.9810     5.7257     5.7971     7.0040     6.8989   413.6692     7.0853
  123.0000    -9.1768     5.5617     5.8000     7.0025     6.1462   409.8555     7.0576
  123.5000    -8.9036     5.4929     5.8027     6.8653     5.8991   405.2784     7.0572
  124.0000    -8.9021     5.5903     5.8054     6.7281     6.2698   402.2283     7.0568
  124.5000    -9.0063     5.7276     5.9432     6.4550     6.3110   411.3937     7.0838
  125.0000    -9.1712     5.8063     6.0810     6.4537     6.1668   417.5052     7.0833
  125.5000    -9.1698     5.8283     6.0838     6.4524     6.3110   416.4402     7.0829
  126.0000    -8.8968     5.4935     6.0865     6.5869     6.3933   404.8700     7.0824
  126.5000    -8.7590     5.3585     6.1331     6.4497     6.6405   397.4832     6.9728
  127.0000    -8.6223     5.3316     6.2271     6.4484     6.8670   394.6160     6.8357
  127.5000    -8.6209     5.2507     6.2804     6.3089     7.1758   396.6050     6.8190
  128.0000    -8.4601     5.2779     6.3676     6.1739     7.3818   394.3193     6.9715
  128.5000    -8.3462     5.4672     6.3703     6.1725     6.8876   382.2296     6.9985
  129.0000    -8.3449     5.4943     6.2378     6.1712     6.7203   374.7807     7.0254
  129.5000    -8.3435     5.5485     6.1054     6.1698     6.5321   385.5951     7.0249
  130.0000    -8.3422     5.5757     6.1081     6.3045     6.2533   387.0038     7.0245
  130.5000    -8.3409     5.5758     6.1108     6.3030     6.1874   380.1370     7.0515
  131.0000    -8.6114     5.5760     6.1135     6.3016     6.3386   373.5742     7.0510
  131.5000    -8.6099     5.5220     5.9810     6.3003     6.4556   384.0854     7.0506
  132.0000    -8.3368     5.3330     5.9843     6.1631     6.7261   391.3567     7.0502
  132.5000    -8.3355     5.0088     5.9870     6.1096     6.9046   388.5513     7.0498
  133.0000    -8.3342     4.8468     6.0365     5.8886     6.9287   384.9510     7.0494
  133.5000    -8.0611     4.7386     5.8572     5.9492     6.7498   393.1396     7.0490
  134.0000    -8.0597     4.6840     5.7247     5.9547     6.7022   393.5702     7.0486
  134.5000    -8.0584     4.6039     5.7274     5.8845     6.5790   390.0927     7.0482
  135.0000    -7.7853     4.5770     5.5949     5.8832     6.6426   393.9143     7.0205
  135.5000    -7.5122     4.6042     5.5976     5.7457     7.0199   386.2833     7.0200
  136.0000    -7.5109     4.6043     5.6003     5.6085     6.9435   387.0505     7.0196
