~VERSION INFORMATION
 VERS.                2.0:   CWLS LOG ASCII STANDARD - VERSION 2.0
 WRAP.                 NO:   ONE LINE PER DEPTH STEP
~WELL INFORMATION
#MNEM.UNIT      DATA TYPE    INFORMATION
#----------   ------------   ------------------------------
 STRT.F           84.0000:   START DEPTH
 STOP.F          849.5000:   STOP DEPTH
 STEP.F            0.5000:   STEP LENGTH
 NULL.          -999.2500:   NO VALUE
 COMP. U S NAVY/INTEX OIL CO:   COMPANY
 WELL.     NPR 3 #81-S-34:   WELL
 FLD .        TEAPOT DOME:   FIELD
 LOC .      S34 T39N R78W:   LOCATION
 CNTY.            NATRONA:   COUNTY
 STAT.            WYOMING:   STATE
 CTRY. UNITED STATES OF AMERICA:   COUNTRY
 SRVC.       Schlumberger:   SERVICE COMPANY
 DATE.        29-JUL-1963:   LOGDATE
 API .       490250656700:   API NUMBER
~CURVE INFORMATION
#MNEM.UNIT       API CODE    CURVE DESCRIPTION
#----------   ------------   ------------------------------
 DEPT.F                  :   
 CALS.IN     60 280 50 00:   CALIPER FROM SONIC LOG
 DT  .US/F   60 520 33 00:   INTERVAL TRANSIT TIME
 SPR .MV     05 010 01 00:   SPONTANEOUS POTENTIAL FROM RES.
 ILD .OHMM   05 120 46 00:   INDUCTION LOG DEEP
 ASN .OHMM   05 041 16 00:   AMPLIFIED SHORT NORMAL 16"
 CILD.MMHO   05 110 46 00:   CONDUCTIVITY INDUCTION LOG DEEP
 GR  .GAPI   30 310 01 00:   GAMMA RAY FROM RES.
~PARAMETER INFORMATION
#MNEM.UNIT          VALUE    DESCRIPTION
#----------   ------------   ------------------------------
 PD  .                 GL:   PERMANENT DATUM
 EPD .F              5067:   ELEVATION PERMANENT DATUM
 LMF .                 KB:   LOG MEASURED FROM
 DAPD.F                 5:   FEET ABOVE PERMANENT DATUM
 DMF .                 KB:   DRILLING MEASURED FROM
 EKB .F              5072:   KELLING BUSHING
 EGL .F              5067:   GROUND LEVEL
 DATE.          7-29-1963:   RUN DATE
 RUN .                  1:   RUN NUMBER
 DD  .F               850:   DEPTH DRILLER
 DL  .F               850:   DEPTH LOGGER
 BLI .F               849:   BOTTOM LOG INTERVAL
 TLI .F                90:   TOP LOG INTERVAL
 CS  .IN            8.625:   CASING SIZE
 CBD .F                10:   CASING BOTTOM DRILLER
 BS  .IN            7.875:   BIT SIZE
 BSD .F               850:   BIT SIZE AT DEPTH
 DFT .            GEL-OIL:   DRILLING FLUID TYPE
 DFD .                9.4:   DRILLING FLUID DENSITY
 DFV .                 40:   DRILLING FLUID VISCOSITY
 DFPH.                  9:   DRILLING FLUID PH
 DFL .                8.4:   DRILLING FLUID LOSS
 MSS .           FLOWLINE:   MUD SAMPLE SOURCE
 RMS .OHMM           3.08:   RESISTIVITY MUD SAMPLE
 MST .F                79:   MUD SAMPLE TEMPERATURE
 RMF .OHMM           2.39:   RESISTIVITY MUD FILTRATE SAMPLE
 MFST.F                79:   MUD FILTRATE SAMPLE TEMPERATURE
 RMC .OHMM           3.29:   RESISTIVITY MUD CAKE
 MCST.F                79:   MUD CAKE SAMPLE TEMPERATURE
 MFSS.                 MP:   MUD FILTRATE SAMPLE SOURCE
 MCSS.                 MP:   MUD CAKE SAMPLE SOURCE
 TCS .HRS               1:   TIME CURCULATED STOPPED
 LUN .               4507:   LOGGING UNIT NUMBER
 LUL .              CSPR.:   LOGGING UNIT LOCATION
 ENGI.             KNOBEL:   RECORDING ENGINEER
 WITN.          JORGENSON:   WITNESSED BY
 CLNT.            A2DTECH:   CLIENT CODE
 ORIG.           5" PRINT:   ORIGIN OF DATA
 UWI .       490250656700:   UNIQUE WELL ID
 DICO. A2D Technologies, Inc.:   DIGITIZING COMPANY
~OTHER INFORMATION
~A   DEPT     CALS         DT        SPR        ILD        ASN       CILD         GR   
# ...
  129.5000  -999.2500  -999.2500   -43.0733     4.8660     5.8997   206.5900  -999.2500
  130.0000  -999.2500  -999.2500   -42.9857     4.8938     5.9140   205.4964  -999.2500
  130.5000  -999.2500  -999.2500   -42.9092     4.9229     5.9693   203.1048  -999.2500
  131.0000  -999.2500  -999.2500   -43.0530     4.9517     6.0240   200.7132  -999.2500
  131.5000  -999.2500  -999.2500   -43.2037     4.9804     6.0794   198.3216  -999.2500
  132.0000  -999.2500  -999.2500   -43.3535     5.0090     6.1355   196.1297  -999.2500
  132.5000  -999.2500  -999.2500   -43.5030     5.0377     6.0613   195.4171  -999.2500
  133.0000  -999.2500  -999.2500   -43.6513     5.0665     6.0678   194.7594  -999.2500
  133.5000  -999.2500  -999.2500   -43.7398     5.0952     6.2962   194.0377  -999.2500
  134.0000  -999.2500  -999.2500   -43.5997     5.1240     6.3285   191.4805  -999.2500
  134.5000  -999.2500  -999.2500   -43.5745     5.1527     6.2882   188.6474  -999.2500
  135.0000  -999.2500  -999.2500   -43.6422     5.1735     6.3437   186.4764  -999.2500
  135.5000  -999.2500  -999.2500   -43.7123     5.1304     6.4587   185.6695  -999.2500
  136.0000  -999.2500  -999.2500   -43.7381     5.0874     6.5759   188.0622  -999.2500
  136.5000  -999.2500  -999.2500   -43.6393     5.0448     6.5025   191.3507  -999.2500
  137.0000  -999.2500  -999.2500   -43.4914     5.0021     6.3258   194.6391  -999.2500
  137.5000  -999.2500  -999.2500   -43.3419     4.9596     6.1245   197.9276  -999.2500
  138.0000  -999.2500  -999.2500   -43.1924     4.9175     5.9314   201.3598  -999.2500
  138.5000  -999.2500  -999.2500   -43.0429     4.8689     5.9317   206.3912  -999.2500
  139.0000  -999.2500  -999.2500   -42.8935     4.7824     5.9029   211.6527  -999.2500
  139.5000  -999.2500  -999.2500   -42.7438     4.6336     5.7658   216.9142  -999.2500
  140.0000  -999.2500  -999.2500   -42.5947     4.5609     5.6822   219.1423  -999.2500
  140.5000  -999.2500  -999.2500   -42.4808     4.6147     5.6902   216.8703  -999.2500
  141.0000  -999.2500  -999.2500   -42.4909     4.6963     5.7043   214.7657  -999.2500
  141.5000  -999.2500  -999.2500   -42.6418     4.7788     5.7190   212.2660  -999.2500
  142.0000  -999.2500  -999.2500   -42.7926     4.8611     5.8099   209.4968  -999.2500
  142.5000  -999.2500  -999.2500   -42.9448     4.9433     5.9861   206.7276  -999.2500
  143.0000  -999.2500  -999.2500   -43.1243     5.0251     5.9491   203.9584  -999.2500
  143.5000  -999.2500  -999.2500   -43.3000     5.0737     5.8442   202.1874  -999.2500
  144.0000  -999.2500  -999.2500   -43.3062     5.0732     5.8397   200.6399  -999.2500
  144.5000  -999.2500  -999.2500   -43.0216     5.0733     5.9419   199.0924  -999.2500
  145.0000  -999.2500  -999.2500   -42.7388     5.0732     6.0549   198.7332  -999.2500
  145.5000  -999.2500  -999.2500   -42.4792     5.0735     6.1019   199.9024  -999.2500
  146.0000  -999.2500  -999.2500   -42.7437     5.0571     6.0602   201.0716  -999.2500
  146.5000  -999.2500  -999.2500   -42.8000     5.0329     6.0175   202.2408  -999.2500
  147.0000  -999.2500  -999.2500   -42.5922     5.0084     6.1153   201.2692  -999.2500
  147.5000  -999.2500  -999.2500   -42.5578     4.9839     6.2081   199.9438  -999.2500
  148.0000  -999.2500  -999.2500   -42.6934     4.9595     6.1885   200.1670  -999.2500
  148.5000  -999.2500  -999.2500   -42.6984     4.9350     6.1388   202.0338  -999.2500
  149.0000  -999.2500  -999.2500   -42.5306     4.9105     6.0878   203.9115  -999.2500
  149.5000  -999.2500  -999.2500   -42.3479     4.8860     6.0367   205.7891  -999.2500
  150.0000  -999.2500  -999.2500   -42.1648     4.8641     5.9857   207.6668  -999.2500
  150.5000  -999.2500  -999.2500   -41.9851     4.8808     5.9340   209.7280  -999.2500
  151.0000  -999.2500  -999.2500   -41.8840     4.9148     5.8721   208.1520  -999.2500
  151.5000  -999.2500  -999.2500   -41.9808     4.9486     5.8669   206.4052  -999.2500
  152.0000  -999.2500  -999.2500   -42.0735     4.9824     5.9060   204.6583  -999.2500
  152.5000  -999.2500  -999.2500   -42.1666     5.0163     5.9422   202.9114  -999.2500
  153.0000  -999.2500  -999.2500   -42.2597     5.0495     6.0049   202.6448  -999.2500
  153.5000  -999.2500  -999.2500   -42.3528     5.0649     6.0680   202.9665  -999.2500
  154.0000  -999.2500  -999.2500   -42.4463     5.0349     6.1523   203.2966  -999.2500
  154.5000  -999.2500  -999.2500   -42.4612     5.0056     6.2618   203.4519  -999.2500
  155.0000  -999.2500  -999.2500   -42.3279     4.9724     6.2789   201.1875  -999.2500
  155.5000  -999.2500  -999.2500   -42.1949     5.1219     6.2636   198.7214  -999.2500
  156.0000  -999.2500  -999.2500   -42.0723     5.3327     6.2485   196.2552  -999.2500
  156.5000  -999.2500  -999.2500   -42.1328     5.5449     6.2889   191.1536  -999.2500
  157.0000  -999.2500  -999.2500   -42.1999     5.7568     6.4654   183.6671  -999.2500
  157.5000  -999.2500  -999.2500   -42.2671     5.9687     6.6763   176.1805  -999.2500
  158.0000  -999.2500  -999.2500   -42.2808     6.1805     7.0715   168.6940  -999.2500
  158.5000  -999.2500  -999.2500   -42.0945     6.3926     7.4699   162.4413  -999.2500
  159.0000  -999.2500  -999.2500   -41.8837     6.6047     7.8322   158.6362  -999.2500
  159.5000  -999.2500  -999.2500   -41.6723     6.8133     7.8896   154.8668  -999.2500
  160.0000  -999.2500  -999.2500   -41.4610     6.9093     8.0732   151.0433  -999.2500
  160.5000  -999.2500  -999.2500   -41.2476     6.7554     8.3143   151.5239  -999.2500
  161.0000  -999.2500  -999.2500   -41.0356     6.6062     8.1235   155.1389  -999.2500
  161.5000  -999.2500  -999.2500   -41.2249     6.4201     7.7625   160.7471  -999.2500
  162.0000  -999.2500  -999.2500   -41.4486     6.2027     7.5045   166.3401  -999.2500
  162.5000  -999.2500  -999.2500   -41.6712     5.9858     7.2456   171.9317  -999.2500
  163.0000  -999.2500  -999.2500   -41.8932     5.7689     6.9869   177.5216  -999.2500
  163.5000  -999.2500  -999.2500   -42.1158     5.5516     6.7615   183.1116  -999.2500
  164.0000  -999.2500  -999.2500   -42.3365     5.3275     6.7537   187.7615  -999.2500
  164.5000     7.8389  -999.2500   -42.5512     5.3223     6.7407   190.3400  -999.2500
  165.0000     7.8420  -999.2500   -42.3937     5.3729     6.7254   190.2350  -999.2500
  165.5000     7.8451  -999.2500   -41.9537     5.4957     6.6753   188.3957  -999.2500
  166.0000     7.8483  -999.2500   -41.5112     5.6386     6.6231   186.5469  -999.2500
  166.5000     7.8514  -999.2500   -41.4979     5.7809     6.6013   184.6266  -999.2500
  167.0000     7.8545  -999.2500   -41.5676     5.9212     6.7533   179.4274  -999.2500
  167.5000     7.8566  -999.2500   -41.6400     6.0433     6.9037   174.0489  -999.2500
  168.0000     7.8540  -999.2500   -41.6545     6.2024     7.0833   168.6705  -999.2500
  168.5000     7.8494  -999.2500   -41.4466     6.4467     7.3161   163.2919  -999.2500
  169.0000     7.8448  -999.2500   -41.2384     6.6700     7.5482   157.9135  -999.2500
  169.5000     7.8402  -999.2500   -41.3111     6.8067     7.7803   152.5350  -999.2500
  170.0000     7.8355  -999.2500   -41.3877     6.9501     8.0130   147.1565  -999.2500
  170.5000     7.8309  -999.2500   -41.4954     7.1466     8.2499   144.5550  -999.2500
  171.0000     7.8263  -999.2500   -41.6799     6.9852     8.3342   146.4606  -999.2500
  171.5000     7.8216  -999.2500   -41.8634     6.7512     8.3062   149.3595  -999.2500
  172.0000     7.8173  -999.2500   -42.0473     6.5173     8.1718   156.6157  -999.2500
  172.5000     7.8207  -999.2500   -42.2371     6.2843     7.9590   163.8719  -999.2500
  173.0000     7.8260  -999.2500   -42.2757     6.0512     7.6642   171.1281  -999.2500
  173.5000     7.8313  -999.2500   -42.2028     5.8189     7.3780   178.3843  -999.2500
  174.0000     7.8365  -999.2500   -41.7302     5.5829     7.0999   185.6695  -999.2500
  174.5000     7.8418  -999.2500   -41.2957     5.5878     6.8171   184.0404  -999.2500
