~VERSION INFORMATION
 VERS.                2.0:   CWLS LOG ASCII STANDARD - VERSION 2.0
 WRAP.                 NO:   ONE LINE PER DEPTH STEP
~WELL INFORMATION
#MNEM.UNIT      DATA TYPE    INFORMATION
#----------   ------------   ------------------------------
 STRT.F           32.0000:   START DEPTH
 STOP.F          757.0000:   STOP DEPTH
 STEP.F            0.5000:   STEP LENGTH
 NULL.          -999.2500:   NO VALUE
 COMP. FENIX & SCISSON INC:   COMPANY
 WELL.     88 S 34 #88-34:   WELL
 FLD .             NPR #3:   FIELD
 LOC .      S34 T39N R78W:   LOCATION
 CNTY.            NATRONA:   COUNTY
 STAT.            WYOMING:   STATE
 CTRY. UNITED STATES OF AMERICA:   COUNTRY
 SRVC.              Welex:   SERVICE COMPANY
 DATE.        10-MAY-1977:   LOGDATE
 API .       490251035800:   API NUMBER
~CURVE INFORMATION
#MNEM.UNIT       API CODE    CURVE DESCRIPTION
#----------   ------------   ------------------------------
 DEPT.F                  :   
 GURD.OHMM   07 220 05 00:   SHALLOW GUARD RESISTIVITY
 ILD .OHMM   07 120 46 00:   INDUCTION LOG DEEP
 ILM .OHMM   07 120 44 00:   INDUCTION LOG MEDIUM
 SPR .MV     07 010 01 00:   SPONTANEOUS POTENTIAL FROM RES.
 CALD.IN     45 280 60 00:   CALIPER FROM DENSITY LOG
 CORR.G/C3   45 356 01 00:   DENSITY CORRECTION
 DPHI.DEC    45 890 12 00:   DENSITY POROSITY SANDSTONE
 GRD .GAPI   45 310 01 00:   GAMMA RAY FROM DENSITY LOG
 RHOB.G/C3   45 350 01 00:   BULK DENSITY
~PARAMETER INFORMATION
#MNEM.UNIT          VALUE    DESCRIPTION
#----------   ------------   ------------------------------
 PD  .                 GL:   PERMANENT DATUM
 EPD .F              5094:   ELEVATION PERMANENT DATUM
 LMF .                 GL:   LOG MEASURED FROM
 DMF .                 GL:   DRILLING MEASURED FROM
 EGL .F              5094:   GROUND LEVEL
 DATE.        10-MAY-1977:   RUN DATE
 RUN .                  1:   RUN NUMBER
 DD  .F               760:   DEPTH DRILLER
 DL  .F               759:   DEPTH LOGGER
 BLI .F               757:   BOTTOM LOG INTERVAL
 TLI .F                30:   TOP LOG INTERVAL
 CS  .IN            8.625:   CASING SIZE
 CBD .F                40:   CASING BOTTOM DRILLER
 CBL .F                45:   CASING BOTTOM LOGGER
 BS  .IN            7.875:   BIT SIZE
 BSD .F               760:   BIT SIZE AT DEPTH
 DFT .            KCL MUD:   DRILLING FLUID TYPE
 DFD .                9.0:   DRILLING FLUID DENSITY
 DFV .                 33:   DRILLING FLUID VISCOSITY
 DFPH.                7.5:   DRILLING FLUID PH
 DFL .                7.4:   DRILLING FLUID LOSS
 MSS .           FLOWLINE:   MUD SAMPLE SOURCE
 RMS .OHMM           0.33:   RESISTIVITY MUD SAMPLE
 MST .F                70:   MUD SAMPLE TEMPERATURE
 RMF .OHMM           0.28:   RESISTIVITY MUD FILTRATE SAMPLE
 MFST.F                70:   MUD FILTRATE SAMPLE TEMPERATURE
 RMC .OHMM           0.40:   RESISTIVITY MUD CAKE
 MCST.F                70:   MUD CAKE SAMPLE TEMPERATURE
 MFSS.           FANN KIT:   MUD FILTRATE SAMPLE SOURCE
 MCSS.           FANN KIT:   MUD CAKE SAMPLE SOURCE
 RMB .OHMM           0.26:   RESISTIVITY MUD AT BHT
 BHT .F                86:   BOTTOM HOLE TEMPERATURE
 TCS .HRS             1.5:   TIME CURCULATED STOPPED
 MRT .F                86:   MAXIMUM RECORDED TEMPERATURE
 LUN .               8611:   LOGGING UNIT NUMBER
 LUL .             CASPER:   LOGGING UNIT LOCATION
 ENGI.            C. DOAK:   RECORDING ENGINEER
 WITN.         D. RHOADES:   WITNESSED BY
 CLNT.            A2DTECH:   CLIENT CODE
 ORIG.           5" PRINT:   ORIGIN OF DATA
 UWI .       490251035800:   UNIQUE WELL ID
 DICO. A2D Technologies, Inc.:   DIGITIZING COMPANY
~OTHER INFORMATION
~A   DEPT     GURD        ILD        ILM        SPR         CALD      CORR      DPHI         GRD        RHOB 
# ...
  579.5000    26.3635    15.1926    23.6021   -22.7138     7.8564     0.0226     0.2096    65.9774     2.3341
  580.0000    28.4563    15.0908    22.6706   -22.4143     7.8410     0.0286     0.2021    66.8769     2.3408
  580.5000    26.3830    15.5181    21.5889   -21.8164     7.8257     0.0302     0.1988    67.7902     2.3401
  581.0000    26.2076    15.9568    21.0069   -21.3679     7.8105     0.0317     0.2009    68.9757     2.3393
  581.5000    26.9537    16.2947    20.5822   -21.2175     7.7802     0.0287     0.2045    70.3256     2.3273
  582.0000    24.6446    16.6399    21.4630   -20.9180     7.7799     0.0193     0.2172    71.6755     2.3069
  582.5000    22.3799    16.4151    22.2253   -20.7672     7.7796     0.0182     0.2240    73.1756     2.3018
  583.0000    21.3294    15.6420    22.6986   -20.7658     7.7793     0.0227     0.2138    74.9759     2.3236
  583.5000    23.3432    15.2180    22.2398   -20.6154     7.7940     0.0272     0.2078    76.5000     2.3341
  584.0000    24.8482    14.9083    21.4676   -20.4219     7.8087     0.0288     0.2015    77.9757     2.3408
  584.5000    21.3504    14.9119    20.4840   -20.1654     7.7934     0.0288     0.2027    78.1248     2.3371
  585.0000    23.0453    14.9149    19.8586   -20.1637     7.7931     0.0242     0.2077    77.8227     2.3273
  585.5000    21.6637    15.0214    19.3432   -20.1624     7.7928     0.0198     0.2222    78.4218     2.3103
  586.0000    20.5046    15.1287    18.7414   -20.1013     7.7924     0.0198     0.2149    79.7717     2.2980
  586.5000    19.5422    15.3490    17.9871   -20.0104     7.8072     0.0198     0.2158    80.9754     2.3138
  587.0000    19.5979    15.6682    17.5022   -20.0087     7.8069     0.0183     0.2221    78.1168     2.3086
  587.5000    22.9278    16.0000    16.7964   -20.0073     7.8066     0.0154     0.2305    75.2625     2.2980
  588.0000    19.8355    16.2262    16.1191   -20.0059     7.8063     0.0139     0.2368    72.8587     2.2830
  588.5000    19.4330    16.4556    15.5637   -20.0045     7.8060     0.0124     0.2320    71.6560     2.2823
  589.0000    19.4410    16.5731    15.0532   -19.8537     7.8056     0.0139     0.2239    74.0570     2.2988
  589.5000    18.5300    16.2358    14.6474   -19.5542     7.8054     0.0109     0.2119    77.0585     2.3281
  590.0000    17.4177    15.9061    14.3514   -19.5528     7.7901     0.0109     0.1867    79.5394     2.3649
  590.5000    16.2594    15.5824    13.9619   -19.5514     7.7898     0.0125     0.1747    82.7614     2.3769
  591.0000    15.7107    15.3712    13.6822   -19.4009     7.8045     0.0155     0.1707    80.3572     2.3859
  591.5000    15.6089    15.2683    13.5924   -19.2502     7.8042     0.0186     0.1660    78.5539     2.3942
  592.0000    15.6153    14.7526    13.4112   -19.2487     7.7889     0.0260     0.1621    76.3002     2.4019
  592.5000    15.2997    13.8646    12.6061   -18.9493     7.8036     0.0350     0.1579    76.1486     2.4092
  593.0000    14.8872    13.3034    10.8316   -18.9478     7.8033     0.0425     0.1554    76.7618     2.4144
  593.5000    14.7893    13.1231     9.9037   -18.7974     7.8030     0.0500     0.1539    77.9472     2.4189
  594.0000    14.9081    13.2175    10.6899   -19.2428     7.8027     0.0515     0.1543    79.4472     2.4204
  594.5000    15.3210    13.2201    11.2237   -19.3904     7.8024     0.0501     0.1763    80.7971     2.3956
  595.0000    15.4324    13.1315    10.7613   -19.4883     7.8020     0.0409     0.1803    82.1470     2.3789
  595.5000    15.6525    12.9536     9.7813   -19.5365     7.7868     0.0336     0.1824    83.0465     2.3724
  596.0000    15.5497    12.9568     9.2571   -19.8333     7.7865     0.0411     0.1743    83.9620     2.3911
  596.5000    15.4476    13.0493     9.8556   -19.9809     7.8013     0.0441     0.1729    85.4457     2.3859
  597.0000    15.6692    13.1425    10.8609   -20.1282     7.8009     0.0396     0.1809    86.9457     2.3664
  597.5000    16.0029    13.3283    12.3054   -20.2881     7.8006     0.0352     0.1968    87.9953     2.3566
  598.0000    16.2310    13.6106    12.2247   -20.5721     7.7853     0.0275     0.1929    88.4447     2.3521
  598.5000    16.3551    13.7084    11.8951   -20.7200     7.8000     0.0157     0.1854    85.2897     2.3619
  599.0000    17.5267    13.7111    11.9815   -20.8673     7.7997     0.0097     0.1788    86.1912     2.3769
  599.5000    19.1814    13.4320    12.9423   -21.0932     7.7994     0.0067     0.1725    86.3379     2.3934
  600.0000    21.8817    13.1587    13.3008   -21.3116     7.7991     0.0111     0.1554    85.0263     2.4169
  600.5000    22.5401    13.2533    13.3974   -21.0769     7.8028     0.0203     0.1458    83.9325     2.4339
  601.0000    17.3204    13.3839    14.3613   -20.8730     7.8065     0.0339     0.1433    85.8826     2.4377
  601.5000    19.8795    13.5402    15.6118   -20.8785     7.8101     0.0399     0.1487    84.5299     2.4325
  602.0000    22.2112    13.5439    15.4008   -20.8828     7.8138     0.0324     0.1775    81.2251     2.3777
  602.5000    19.8902    13.6418    14.5768   -21.1852     7.7849     0.0206     0.1859    84.5270     2.3717
  603.0000    17.4461    13.7403    14.0860   -21.4876     7.7850     0.0116     0.1730    86.9340     2.3845
  603.5000    16.5117    13.6493    13.7062   -21.4919     7.7852     0.0102     0.1688    88.1273     2.3973
  604.0000    16.1771    13.4664    13.3367   -21.4963     7.7853     0.0102     0.1601    86.4742     2.4093
  604.5000    16.0699    13.1925    13.5271   -21.7988     7.8155     0.0118     0.1644    89.1755     2.3988
  605.0000    16.1859    12.9259    13.2550   -21.9531     7.8156     0.0148     0.1679    90.8257     2.3973
  605.5000    16.3035    12.7518    12.9872   -22.1064     7.8157     0.0134     0.1673    90.5240     2.4041
  606.0000    16.1956    12.5799    12.5501   -22.1108     7.8309     0.0120     0.1628    89.4595     2.4101
  606.5000    16.0872    12.2400    11.7968   -22.4132     7.8460     0.0090     0.1660    87.5177     2.4026
  607.0000    15.8705    11.9099    10.6381   -22.4175     7.8462     0.0046     0.1705    86.0148     2.3981
  607.5000    15.5489    11.7487     9.9307   -22.5708     7.8463     0.0031     0.1711    85.2626     2.3936
  608.0000    15.1298    11.5912    10.5683   -22.7362     7.8615     0.0064     0.1726    83.9098     2.3929
  608.5000    14.8231    11.5145    11.3142   -23.1767     7.8616     0.0123     0.1681    81.3558     2.3982
  609.0000    14.6235    11.5177    12.1490   -23.3301     7.8768     0.0138     0.1642    81.0541     2.4042
  609.5000    14.9350    11.5209    12.7558   -23.4834     7.8769     0.0124     0.1627    82.4040     2.4079
  610.0000    15.4646    11.6042    13.1180   -23.6368     7.8826     0.0094     0.1690    81.8016     2.3967
  610.5000    15.9025    11.6081    13.3051   -23.7902     7.8922     0.0065     0.1765    81.5002     2.3844
  611.0000    16.0172    11.6113    13.4019   -23.7945     7.8773     0.0051     0.1768    82.3993     2.3832
  611.5000    15.6926    11.6146    13.4994   -23.9478     7.8775     0.0051     0.1750    82.6982     2.3862
  612.0000    15.2686    11.6178    13.5977   -24.1013     7.8477     0.0097     0.1762    83.8979     2.3817
  612.5000    15.0628    11.6210    13.3154   -24.2557     7.8479     0.0157     0.1755    82.5448     2.3870
  613.0000    15.1751    11.5441    12.6988   -24.4090     7.8480     0.0188     0.1710    82.3932     2.3945
  613.5000    15.2809    11.5481    12.2713   -24.7114     7.8481     0.0099     0.1683    82.8422     2.3968
  614.0000    14.8680    11.5513    12.0234   -25.0138     7.8333     0.0009     0.1684    85.0930     2.3938
  614.5000    14.5677    11.6347    12.0592   -25.4652     7.8184     0.0085     0.1713    90.4970     2.3938
  615.0000    14.6727    11.8001    12.2837   -25.7676     7.8186     0.0131     0.1683    90.1502     2.3976
  615.5000    14.5745    11.9679    12.4589   -26.3681     7.7887     0.0116     0.1614    88.0913     2.4089
