~VERSION INFORMATION
 VERS.                2.0:   CWLS LOG ASCII STANDARD - VERSION 2.0
 WRAP.                 NO:   ONE LINE PER DEPTH STEP
~WELL INFORMATION
#MNEM.UNIT      DATA TYPE    INFORMATION
#----------   ------------   ------------------------------
 STRT.F            0.0000:   START DEPTH
 STOP.F          547.0000:   STOP DEPTH
 STEP.F            0.1000:   STEP LENGTH
 NULL.          -999.2500:   NO VALUE
 COMP.       F D SERV INC:   COMPANY
 WELL.    87-5 SX 3 #87-3:   WELL
 FLD .             TEAPOT:   FIELD
 LOC .       S3 T38N R78W:   LOCATION
 CNTY.            NATRONA:   COUNTY
 STAT.            WYOMING:   STATE
 CTRY. UNITED STATES OF AMERICA:   COUNTRY
 SRVC.     Atlas Wireline:   SERVICE COMPANY
 DATE.        31-OCT-1992:   LOGDATE
 API .       490252254800:   API NUMBER
~CURVE INFORMATION
#MNEM.UNIT       API CODE    CURVE DESCRIPTION
#----------   ------------   ------------------------------
 DEPT.F                  :   
 GRR .GAPI   07 310 01 00:   GAMMA RAY
 RILD.OHMM   07 120 46 00:   INDUCTION LOG DEEP RESISTIVITY
 RILM.OHMM   07 120 44 00:   INDUCTION LOG MEDIUM RESISTIVITY
~PARAMETER INFORMATION
#MNEM.UNIT          VALUE    DESCRIPTION
#----------   ------------   ------------------------------
 PD  .                 GL:   PERMANENT DATUM
 EPD .F              5119:   ELEVATION PERMANENT DATUM
 LMF .                 KB:   LOG MEASURED FROM
 DAPD.F                10:   FEET ABOVE PERMANENT DATUM
 DMF .                 KB:   DRILLING MEASURED FROM
 EKB .F              5129:   KELLING BUSHING
 EDF .F              5128:   DRILLING FLOOR
 EGL .F              5119:   GROUND LEVEL
 DATE.        31-OCT-1992:   RUN DATE
 RUN .                  1:   RUN NUMBER
 DD  .F               568:   DEPTH DRILLER
 DL  .F               555:   DEPTH LOGGER
 BLI .F               547:   BOTTOM LOG INTERVAL
 TLI .F                71:   TOP LOG INTERVAL
 CS  .IN            8.625:   CASING SIZE
 CBD .F                70:   CASING BOTTOM DRILLER
 CBL .F                71:   CASING BOTTOM LOGGER
 BS  .IN            7.875:   BIT SIZE
 BSD .F               568:   BIT SIZE AT DEPTH
 DFT .           AIR FOAM:   DRILLING FLUID TYPE
 TCS .HRS               2:   TIME CURCULATED STOPPED
 MRT .F                64:   MAXIMUM RECORDED TEMPERATURE
 LUN .            HL-6274:   LOGGING UNIT NUMBER
 LUL .             CASPER:   LOGGING UNIT LOCATION
 ENGI.        P.RASHUSSEN:   RECORDING ENGINEER
 WITN.     BRUCE ANDERSON:   WITNESSED BY
 CLNT.            A2DTECH:   CLIENT CODE
 ORIG.           5" PRINT:   ORIGIN OF DATA
 UWI .       490252254800:   UNIQUE WELL ID
 DICO. A2D Technologies, Inc.:   DIGITIZING COMPANY
~OTHER INFORMATION
~A    DEPT      GRR      RILD       RILM   
# ...
  382.2000   102.1015    21.4022    21.7469
  382.3000   103.1105    21.4017    21.7448
  382.4000   103.7151    21.3193    21.7426
  382.5000   104.2185    21.2517    21.7405
  382.6000   104.6208    21.2511    21.7384
  382.7000   104.9218    21.2505    21.7361
  382.8000   105.4252    21.2498    21.7341
  382.9000   105.4223    21.2493    21.7320
  383.0000   105.2180    21.2487    21.7299
  383.1000   105.1144    21.2481    21.7278
  383.2000   105.0108    21.2475    21.7087
  383.3000   104.7555    21.2552    21.5722
  383.4000   104.5001    21.3950    21.4536
  383.5000   103.8903    21.3945    21.4180
  383.6000   102.6741    21.3110    21.3500
  383.7000   101.6096    21.2446    21.2241
  383.8000   101.0508    21.2107    21.0990
  383.9000   100.7955    21.0870    20.9657
  384.0000   100.5402    20.9483    20.8510
  384.1000   100.8408    20.9478    20.8159
  384.2000   100.8388    20.8655    20.7503
  384.3000   101.1400    20.7439    20.6280
  384.4000   101.5422    20.6229    20.5063
  384.5000   101.7926    20.5116    20.3762
  384.6000   102.0431    20.5110    20.2653
  384.7000   102.0407    20.5105    20.2306
  384.8000   101.8360    20.5099    20.2287
  384.9000   101.4290    20.4524    20.2267
  385.0000   101.0218    20.3661    20.2247
  385.1000   100.7159    20.3656    20.2226
  385.2000   100.2076    20.3649    20.2207
  385.3000    99.6994    20.3644    20.2188
  385.4000    99.5957    20.3639    20.2168
  385.5000    99.4416    20.3633    20.2148
  385.6000    99.2874    20.3292    20.2128
  385.7000    99.2345    20.2206    20.2107
  385.8000    98.9791    20.2200    20.2089
  385.9000    98.9766    20.2195    20.2069
  386.0000    98.9742    20.2189    20.2049
  386.1000    99.1235    20.2183    20.2030
  386.2000    99.3740    20.2178    20.2010
  386.3000    99.5739    20.2172    20.1988
  386.4000    99.5715    20.2166    20.1970
  386.5000    99.5690    20.2161    20.1122
  386.6000    99.7689    20.1344    20.0526
  386.7000   100.0194    20.0744    20.0506
  386.8000   100.2699    20.0055    20.0487
  386.9000   100.5204    19.7951    20.0465
  387.0000   100.7709    19.7945    19.9396
  387.1000   100.7680    19.7940    19.9033
  387.2000   100.9684    19.7134    19.8434
  387.3000   101.2188    19.5985    19.7264
  387.4000   101.4693    19.5180    19.6215
  387.5000   101.7197    19.5062    19.6194
  387.6000   101.9703    19.3812    19.5154
  387.7000   101.9678    19.3807    19.4004
  387.8000   102.3701    19.3802    19.2860
  387.9000   102.8735    19.3796    19.1723
  388.0000   103.1745    19.3449    19.0699
  388.1000   103.2733    19.2438    19.0678
  388.2000   103.7766    19.2432    19.0661
  388.3000   104.0271    19.2427    19.0643
  388.4000   104.2776    19.2422    19.0624
  388.5000   104.6798    19.2416    19.0605
  388.6000   105.0821    19.2411    19.0587
  388.7000   105.3831    19.2406    19.0566
  388.8000   105.8865    19.2400    19.0550
  388.9000   105.8836    19.1379    19.0531
  389.0000   105.6793    19.1052    19.0512
  389.1000   105.2723    19.0479    19.0494
  389.2000   104.7640    18.9368    19.0571
  389.3000   104.3063    18.8264    19.1789
  389.4000   104.0509    18.7073    19.1772
  389.5000   103.1376    18.7068    19.2519
  389.6000   102.9333    18.7063    19.3623
  389.7000   102.5262    18.7058    19.4733
  389.8000   102.1191    18.7052    19.5757
  389.9000   101.7627    18.7047    19.5734
  390.0000   101.0015    18.7042    19.7736
  390.1000   100.6951    18.8042    19.9237
  390.2000   100.4908    18.8341    20.0379
  390.3000   100.5390    18.8910    20.1528
  390.4000   100.9919    18.9649    20.2774
  390.5000   101.6976    18.9781    20.5419
  390.6000   102.2011    19.0966    20.5401
  390.7000   102.9572    19.0961    20.6190
  390.8000   103.7135    19.0956    20.6800
  390.9000   104.3181    19.1538    20.6780
  391.0000   104.9227    19.2282    20.6759
  391.1000   105.6284    19.2277    20.6737
  391.2000   106.1318    19.2271    20.6719
  391.3000   106.4323    19.2266    20.6699
  391.4000   106.6327    19.2261    20.6679
  391.5000   106.7314    19.2255    20.6658
  391.6000   106.5266    19.2250    20.6638
  391.7000   105.9172    19.2395    20.6615
  391.8000   104.9032    19.3585    20.5561
  391.9000   104.1421    19.3580    20.4349
  392.0000   103.5833    19.3575    20.3693
  392.1000   103.2267    19.4175    20.3362
  392.2000   103.0725    19.4919    20.2163
  392.3000   103.0195    19.5071    20.0806
  392.4000   102.7642    19.6273    20.0789
  392.5000   102.5089    19.6267    20.0770
  392.6000   102.2536    19.6262    20.0750
  392.7000   102.1499    19.6256    20.0730
  392.8000   102.0464    19.6251    20.0644
  392.9000   101.8416    19.6245    19.9292
  393.0000   101.8391    19.6240    19.9275
  393.1000   101.8362    19.6235    19.8499
  393.2000   101.6320    19.6229    19.7850
  393.3000   101.5284    19.6224    19.7830
  393.4000   101.4248    19.6616    19.7751
  393.5000   101.1695    19.7587    19.6413
  393.6000   100.9141    19.7581    19.6396
  393.7000   100.6588    19.7575    19.6377
  393.8000   100.6058    19.6711    19.5846
  393.9000   100.4516    19.6191    19.4972
  394.0000   100.2974    19.5388    19.4953
  394.1000   100.2950    19.3290    19.4931
  394.2000   100.2926    19.2110    19.3959
  394.3000   100.0372    19.1043    19.2096
  394.4000    99.9842    18.9929    19.0345
  394.5000    99.8300    18.8822    18.9491
  394.6000    99.6759    18.7721    18.9472
  394.7000    99.6734    18.6797    18.9451
  394.8000    99.6710    18.6791    18.8510
  394.9000    99.6686    18.6786    18.8099
  395.0000    99.4639    18.6781    18.8080
  395.1000    99.3602    18.6169    18.8325
  395.2000    99.3578    18.5472    18.9362
  395.3000    99.3554    18.5467    18.9340
  395.4000    99.3530    18.5462    18.9324
  395.5000    99.3501    18.6500    18.9306
  395.6000    99.3481    18.6750    18.9287
  395.7000    99.3457    18.6745    18.9269
  395.8000    99.3433    18.7139    18.9287
  395.9000    99.3914    18.8043    19.0554
  396.0000    99.6419    18.8036    19.0539
  396.1000   100.5494    18.9094    19.0520
  396.2000   101.3569    18.9343    19.0980
  396.3000   102.2144    18.9967    19.1818
  396.4000   103.0719    19.0658    19.1799
  396.5000   104.0305    19.0652    19.1777
  396.6000   104.7867    19.0647    19.1762
  396.7000   105.2900    19.1725    19.1743
  396.8000   105.5911    19.1971    19.1724
  396.9000   105.8416    19.1966    19.1705
  397.0000   106.1933    19.1960    19.1660
  397.1000   106.5954    19.1955    19.0331
  397.2000   106.5930    19.1950    19.0316
  397.3000   106.8936    19.0856    18.9611
  397.4000   106.6893    18.8889    18.8954
  397.5000   106.4340    18.7326    18.8936
  397.6000   105.9763    18.6646    18.8896
  397.7000   105.3163    18.6444    18.7581
  397.8000   105.0609    18.5337    18.7566
  397.9000   104.1476    18.4276    18.6877
  398.0000   103.3362    18.3202    18.5329
  398.1000   102.3221    18.2134    18.3624
  398.2000   101.3081    18.1478    18.3575
  398.3000   100.2942    18.1277    18.1039
  398.4000    99.2800    18.0206    18.0171
  398.5000    97.4563    17.9169    17.9109
  398.6000    96.8472    17.8125    17.8479
  398.7000    96.0861    17.7694    17.8461
  398.8000    95.6285    17.7287    17.8434
  398.9000    95.6261    17.6253    17.7181
  399.0000    95.6237    17.5217    17.6337
  399.1000    95.6212    17.4204    17.5917
  399.2000    95.6188    17.3189    17.5486
  399.3000    95.6164    17.2179    17.4659
  399.4000    95.6140    17.1568    17.4637
  399.5000    95.6115    17.1368    17.3407
  399.6000    95.6091    17.0365    17.3393
  399.7000    95.6067    17.0361    17.3376
  399.8000    96.2112    16.9568    17.3359
  399.9000    96.6640    16.8579    17.3140
  400.0000    97.0156    16.7986    17.2119
  400.1000    97.4684    16.7786    17.1105
  400.2000    97.7190    16.6808    17.0097
  400.3000    98.2223    16.6803    16.9094
