~VERSION INFORMATION
 VERS.                2.0:   CWLS LOG ASCII STANDARD - VERSION 2.0
 WRAP.                 NO:   ONE LINE PER DEPTH STEP
~WELL INFORMATION
#MNEM.UNIT      DATA TYPE    INFORMATION
#----------   ------------   ------------------------------
 STRT.F            0.0000:   START DEPTH
 STOP.F          984.0000:   STOP DEPTH
 STEP.F            0.5000:   STEP LENGTH
 NULL.          -999.2500:   NO VALUE
 COMP. LAWRENCE/ALLISON INC:   COMPANY
 WELL.     NPR 3 #51-X-11:   WELL
 FLD .             TEAPOT:   FIELD
 LOC .      S11 T38N R78W:   LOCATION
 CNTY.            NATRONA:   COUNTY
 STAT.            WYOMING:   STATE
 CTRY. UNITED STATES OF AMERICA:   COUNTRY
 SRVC.           Gearhart:   SERVICE COMPANY
 DATE.        22-AUG-1988:   LOGDATE
 API .       490251125400:   API NUMBER
~CURVE INFORMATION
#MNEM.UNIT       API CODE    CURVE DESCRIPTION
#----------   ------------   ------------------------------
 DEPT.F                  :   
 GRR .GAPI   07 310 01 00:   GAMMA RAY FROM RES. LOG.
 ILM .OHMM   07 120 44 00:   INDUCTION LOG MEDIUM
 ILD .OHMM   07 120 46 00:   INDUCTION LOG DEEP
~PARAMETER INFORMATION
#MNEM.UNIT          VALUE    DESCRIPTION
#----------   ------------   ------------------------------
 PD  .                 GL:   PERMANENT DATUM
 EPD .F              5187:   ELEVATION PERMANENT DATUM
 LMF .                 KB:   LOG MEASURED FROM
 DAPD.F                10:   FEET ABOVE PERMANENT DATUM
 DMF .                 KB:   DRILLING MEASURED FROM
 EKB .F              5197:   KELLING BUSHING
 EGL .F              5187:   GROUND LEVEL
 DATE.            8-22-88:   RUN DATE
 RUN .                  1:   RUN NUMBER
 DD  .F              1000:   DEPTH DRILLER
 DL  .F               992:   DEPTH LOGGER
 BLI .F             983.5:   BOTTOM LOG INTERVAL
 CS  .IN            9.625:   CASING SIZE
 CBD .F                49:   CASING BOTTOM DRILLER
 CBL .F                49:   CASING BOTTOM LOGGER
 BS  .IN             8.75:   BIT SIZE
 BSD .F              1000:   BIT SIZE AT DEPTH
 DFT .                AIR:   DRILLING FLUID TYPE
 BHT .F                70:   BOTTOM HOLE TEMPERATURE
 TLAB.HRS            0300:   TIME LOGGER AT BOTTOM
 MRT .F                70:   MAXIMUM RECORDED TEMPERATURE
 LUN .               7609:   LOGGING UNIT NUMBER
 LUL .           GILLETTE:   LOGGING UNIT LOCATION
 ENGI.          HUCKFELDT:   RECORDING ENGINEER
 WITN.             STRONG:   WITNESSED BY
 CLNT.            A2DTECH:   CLIENT CODE
 ORIG.      1" 2.5" PRINT:   ORIGIN OF DATA
 UWI .       490251125400:   UNIQUE WELL ID
 DICO. A2D Technologies, Inc.:   DIGITIZING COMPANY
~OTHER INFORMATION
~A    DEPT      GRR       ILM        ILD   
# ...
  819.0000   111.3614     6.5195     6.5810
  819.5000   109.4730     6.5195     6.6220
  820.0000   109.2489     6.5195     6.6632
  820.5000   111.0995     6.5195     6.7046
  821.0000   115.5121     6.5195     6.7463
  821.5000   117.9002     6.5195     6.7883
  822.0000   117.1540     6.5195     6.8306
  822.5000   114.6587     6.5192     6.8731
  823.0000   112.3661     6.5191     6.9158
  823.5000   110.0619     6.5194     6.9589
  824.0000   108.3415     6.5485     7.0022
  824.5000   106.9521     6.6406     7.0458
  825.0000   105.5295     6.7344     7.0896
  825.5000   103.9206     6.8299     7.1578
  826.0000   101.4112     6.9267     6.9864
  826.5000    99.0745     7.0254     6.6242
  827.0000    98.0806     6.6397     6.2809
  827.5000    99.2756     5.9628     5.9553
  828.0000   106.2436     5.3549     5.8282
  828.5000   117.0648     4.8350     5.8506
  829.0000   130.8032     4.7455     5.9023
  829.5000   128.9684     4.7455     5.9545
  830.0000   121.3422     4.9078     6.0071
  830.5000   113.5024     5.4065     6.0501
  831.0000   107.2903     5.9559     6.5782
  831.5000   104.0113     6.5610     7.0579
  832.0000   101.9804     7.4258     7.5725
  832.5000   102.1927     7.4153     8.1579
  833.0000   103.7646     7.3942     8.1865
  833.5000   105.0818     7.3732     8.2171
  834.0000   102.4331     7.3522     8.2477
  834.5000   101.0317     7.3313     8.2785
  835.0000   100.7884     7.3105     8.3117
  835.5000   100.4828     7.2928     8.8216
  836.0000   100.0112     7.5676     8.9566
  836.5000    99.3919     7.9428     9.0767
  837.0000    98.8049     8.3366     9.6426
  837.5000    98.4788     8.7499     9.9724
  838.0000    95.3238     9.1833    10.1813
  838.5000    89.8709     9.6389    10.4005
  839.0000    83.6251    10.1172    10.9590
  839.5000    79.7902    10.6192    11.5644
  840.0000    74.5871    11.1458    12.2031
  840.5000    72.4419    11.6985    12.6380
  841.0000    70.9175    12.2786    12.8435
  841.5000    70.3342    12.7746    13.0524
  842.0000    69.4481    12.8956    13.2646
  842.5000    67.1752    13.0000    13.4803
  843.0000    66.4279    13.1053    13.6994
  843.5000    67.1162    13.2114    13.9222
  844.0000    67.6659    13.3184    14.0568
  844.5000    68.2243    13.4262    14.1169
  845.0000    69.3386    13.5349    14.1773
  845.5000    72.0318    13.6445    14.2385
  846.0000    74.8214    13.7550    14.2991
  846.5000    76.1759    13.8665    14.3601
  847.0000    76.1773    13.9786    14.4214
  847.5000    76.2887    14.0916    14.4832
  848.0000    76.4202    14.2053    14.5453
  848.5000    76.5250    14.3199    14.6078
  849.0000    76.6090    14.4355    14.6706
  849.5000    76.7633    14.5564    14.7335
  850.0000    76.9433    14.4673    14.8291
  850.5000    78.4450    14.3758    14.7980
  851.0000    79.7171    14.2850    14.7093
  851.5000    81.0503    14.1948    14.6210
  852.0000    82.4113    14.1052    14.5337
  852.5000    82.3885    14.0248    14.4476
  853.0000    80.6959    14.0252    14.3621
  853.5000    79.0538    14.0254    14.2885
  854.0000    77.3679    14.0255    14.2495
  854.5000    76.0529    14.2243    14.1974
  855.0000    76.0072    14.4341    14.1454
  855.5000    76.4344    14.6470    14.0937
  856.0000    78.6625    14.8633    14.0421
  856.5000    78.2610    15.1132    13.8974
  857.0000    76.2909    14.9338    13.7041
  857.5000    74.2736    14.5591    13.5134
  858.0000    74.5944    14.1936    13.3253
  858.5000    77.0410    13.8371    13.1399
  859.0000    79.2904    13.4895    12.9571
  859.5000    81.6452    13.1507    12.7768
  860.0000    82.3465    12.9370    12.5990
  860.5000    81.7427    12.8077    12.4237
  861.0000    81.2752    12.6801    12.2509
  861.5000    80.8336    12.5538    12.0804
  862.0000    80.2791    12.4288    11.9123
  862.5000    80.0783    12.3050    11.7466
  863.0000    80.1878    12.1825    11.6342
  863.5000    81.9440    12.0776    11.6342
  864.0000    84.0441    12.1074    11.6342
  864.5000    83.7196    12.1336    11.6342
  865.0000    82.7757    12.1598    11.6337
  865.5000    83.2000    12.1856    11.6336
  866.0000    84.6597    12.2120    11.6340
  866.5000    85.9704    12.2389    11.6342
  867.0000    87.2693    12.2661    11.6343
  867.5000    88.5502    12.3024    11.6346
  868.0000    89.5176    12.2674    11.6348
  868.5000    90.5766    12.1908    11.6333
  869.0000    90.0256    12.1145    11.6329
  869.5000    90.4494    12.0394    11.6330
  870.0000    91.3766    11.9648    11.5563
  870.5000    91.0075    11.8907    11.4784
  871.0000    90.4032    11.8170    11.3999
  871.5000    89.7795    11.7438    11.3211
  872.0000    88.4300    11.6342    11.2132
  872.5000    87.1309    11.6644    11.2951
  873.0000    85.8094    11.7253    11.4759
  873.5000    84.4774    11.7880    11.6596
  874.0000    84.1310    11.8532    11.8462
  874.5000    84.1439    12.0239    12.0358
  875.0000    83.4517    12.2037    12.2285
  875.5000    81.0655    12.3854    12.4242
  876.0000    80.7930    12.5695    12.6231
  876.5000    82.2736    12.7564    12.8251
  877.0000    84.7549    12.9469    13.0142
  877.5000    87.3634    13.3034    13.5602
  878.0000    86.1623    13.7481    14.0870
  878.5000    83.5682    14.2085    14.6343
  879.0000    80.9732    14.6845    15.2028
  879.5000    78.4747    15.1756    15.7934
  880.0000    75.7854    15.6816    16.2847
  880.5000    74.0949    16.0910    16.5599
  881.0000    75.7955    16.3457    16.9020
  881.5000    78.4233    16.5918    16.7793
  882.0000    78.9146    16.2730    16.4883
  882.5000    75.2795    15.9776    16.2020
  883.0000    75.3987    15.6875    15.9211
  883.5000    77.4320    15.4027    15.6834
  884.0000    79.9434    15.1122    15.1310
  884.5000    80.2903    14.5155    14.6580
  885.0000    80.5538    13.9196    14.1997
  885.5000    80.8368    13.3481    13.7559
  886.0000    80.0702    12.8001    13.3258
  886.5000    77.9349    12.2746    12.9093
  887.0000    75.8307    11.7706    12.5057
  887.5000    75.3062    11.2873    12.1148
  888.0000    75.8640    10.8239    11.7361
  888.5000    75.1709    10.3795    11.3692
  889.0000    74.0027    10.0191    11.1102
  889.5000    72.7058    10.0395    10.9352
  890.0000    73.8616    10.0573    10.7629
  890.5000    76.0766    10.0750    10.5966
  891.0000    77.0257    10.0928    10.5966
  891.5000    77.3518    10.1106    10.5966
  892.0000    77.7103    10.1285    10.5966
  892.5000    79.9294    10.1464    10.5966
  893.0000    80.9563    10.1643    10.5966
  893.5000    84.2566    10.1823    10.5966
  894.0000    84.6423    10.2080    10.5966
  894.5000    83.5551    10.1773    10.5966
  895.0000    82.3996    10.1236    10.4947
  895.5000    81.2291    10.0702    10.4089
  896.0000    80.1331    10.0171    10.3232
  896.5000    80.1084     9.9640    10.2390
  897.0000    80.0103     9.9115    10.1554
  897.5000    80.1466     9.8594    10.0725
  898.0000    80.2234     9.8075     9.9903
  898.5000    83.2316     9.7558     9.9089
  899.0000    83.4891     9.7044     9.8281
  899.5000    83.8943     9.6532     9.7469
  900.0000    84.1370     9.6021     9.6516
  900.5000    85.6550     9.5514     9.6721
  901.0000    87.5440     9.4730     9.6976
  901.5000    89.4194     9.4785     9.7232
  902.0000    91.4532     9.4910     9.7489
  902.5000    91.6683     9.5035     9.7746
  903.0000    89.9521     9.5160     9.8004
  903.5000    88.3062     9.5286     9.8264
  904.0000    87.2965     9.5410     9.8521
  904.5000    87.9236     9.5537     9.8781
  905.0000    89.0109     9.5665     9.9042
  905.5000    88.9936     9.5792     9.9303
  906.0000    88.8828     9.5918     9.9560
  906.5000    86.8464     9.6049     9.9826
  907.0000    85.0848     9.6170    10.0176
  907.5000    85.6138     9.6303    10.0010
  908.0000    86.1940     9.6489     9.9711
  908.5000    86.7156     9.6248     9.9411
  909.0000    87.0553     9.5237     9.9114
  909.5000    87.4778     9.4236     9.8819
