~VERSION INFORMATION
 VERS.                2.0:   CWLS LOG ASCII STANDARD - VERSION 2.0
 WRAP.                 NO:   ONE LINE PER DEPTH STEP
~WELL INFORMATION
#MNEM.UNIT      DATA TYPE    INFORMATION
#----------   ------------   ------------------------------
 STRT.F           30.0000:   START DEPTH
 STOP.F          655.5000:   STOP DEPTH
 STEP.F            0.5000:   STEP LENGTH
 NULL.          -999.2500:   NO VALUE
 COMP. FENIX & SCISSON INC:   COMPANY
 WELL.    NPR-3 SX #52-15:   WELL
 FLD .             TEAPOT:   FIELD
 LOC .      S15 T38N R78W:   LOCATION
 CNTY.            NATRONA:   COUNTY
 STAT.            WYOMING:   STATE
 CTRY. UNITED STATES OF AMERICA:   COUNTRY
 SRVC.            Unknown:   SERVICE COMPANY
 DATE.        27-MAY-1978:   LOGDATE
 API .       490251062200:   API NUMBER
~CURVE INFORMATION
#MNEM.UNIT       API CODE    CURVE DESCRIPTION
#----------   ------------   ------------------------------
 DEPT.F                  :   
 GRD .GAPI   45 310 01 00:   GAMMA RAY FROM DENSITY LOG
 CALD.IN     45 280 60 00:   CALIPER
 RHOB.G/C3   45 350 01 00:   BULK DENSITY
 DPHI.DEC    45 890 12 00:   DENSITY POROSITY SANDSTONE
 CORR.G/C3   45 356 01 00:   DENSITY CORRECTION
 SN  .OHMM   05 040 16 00:   SHORT NORMAL 16"
 IL  .OHMM   05 120 00 00:   INDUCTION LOG
 SPR .MV     05 010 01 00:   SPONTANEOUS POTENTIAL FROM RES.
~PARAMETER INFORMATION
#MNEM.UNIT          VALUE    DESCRIPTION
#----------   ------------   ------------------------------
 PD  .                 GL:   PERMANENT DATUM
 EPD .F              5240:   ELEVATION PERMANENT DATUM
 LMF .                 KB:   LOG MEASURED FROM
 DAPD.F                 4:   FEET ABOVE PERMANENT DATUM
 DMF .                 GL:   DRILLING MEASURED FROM
 EKB .F              5244:   KELLING BUSHING
 EGL .F              5240:   GROUND LEVEL
 DATE.          5-27-1978:   RUN DATE
 RUN .                  1:   RUN NUMBER
 DD  .F               645:   DEPTH DRILLER
 DL  .F               655:   DEPTH LOGGER
 BLI .F               650:   BOTTOM LOG INTERVAL
 TLI .F                50:   TOP LOG INTERVAL
 CS  .IN            8.625:   CASING SIZE
 CBD .F                40:   CASING BOTTOM DRILLER
 CBL .F                40:   CASING BOTTOM LOGGER
 BS  .IN            7.875:   BIT SIZE
 BSD .F               645:   BIT SIZE AT DEPTH
 DFT .                KCL:   DRILLING FLUID TYPE
 DFD .                8.6:   DRILLING FLUID DENSITY
 DFV .                 32:   DRILLING FLUID VISCOSITY
 DFPH.               10.5:   DRILLING FLUID PH
 DFL .                7.4:   DRILLING FLUID LOSS
 MSS .           FLOWLINE:   MUD SAMPLE SOURCE
 RMS .OHMM            .30:   RESISTIVITY MUD SAMPLE
 MST .F                66:   MUD SAMPLE TEMPERATURE
 RMF .OHMM            .32:   RESISTIVITY MUD FILTRATE SAMPLE
 MFST.F                64:   MUD FILTRATE SAMPLE TEMPERATURE
 RMC .OHMM            .50:   RESISTIVITY MUD CAKE
 MCST.F                64:   MUD CAKE SAMPLE TEMPERATURE
 MFSS.           MEASURED:   MUD FILTRATE SAMPLE SOURCE
 BHT .F                68:   BOTTOM HOLE TEMPERATURE
 TCS .HRS               2:   TIME CURCULATED STOPPED
 MRT .F                68:   MAXIMUM RECORDED TEMPERATURE
 LUN .               2958:   LOGGING UNIT NUMBER
 LUL .              CASP.:   LOGGING UNIT LOCATION
 ENGI.            POINTER:   RECORDING ENGINEER
 WITN.           MCGINLEY:   WITNESSED BY
 CLNT.            A2DTECH:   CLIENT CODE
 ORIG.      2" , 5" PRINT:   ORIGIN OF DATA
 UWI .       490251062200:   UNIQUE WELL ID
 DICO. A2D Technologies, Inc.:   DIGITIZING COMPANY
~OTHER INFORMATION
~A   DEPT       GRD      CALD       RHOB       DPHI       CORR         SN         IL        SPR   
# ...
  354.0000    93.0110     7.6004     2.4997     0.1068     0.1444     7.4339     7.9470   -20.9923
  354.5000    93.0915     7.5935     2.5062     0.1016     0.1416     7.3071     7.7799   -21.4897
  355.0000    93.2328     7.5865     2.5159     0.0990     0.1373     7.1824     7.6162   -21.6265
  355.5000    95.5669     7.5796     2.5283     0.1327     0.1112     7.0598     7.4561   -21.7948
  356.0000    98.0550     7.5727     2.5013     0.1346     0.0659     6.9393     7.2992   -21.9585
  356.5000    98.4043     7.5658     2.4572     0.1400     0.0576     6.8208     7.1455   -22.1195
  357.0000    95.6603     7.5589     2.4544     0.1454     0.0580     6.7044     7.0958   -22.1097
  357.5000    92.2350     7.5524     2.4503     0.1389     0.0583     6.5900     7.0961   -21.8811
  358.0000    88.7831     7.5429     2.4464     0.1279     0.0638     6.4719     7.0963   -21.6542
  358.5000    85.4890     7.4603     2.4592     0.1229     0.0673     6.5371     7.0963   -21.4200
  359.0000    85.8032     7.3740     2.4735     0.1181     0.0627     6.5681     7.1110   -21.1624
  359.5000    89.1732     7.3268     2.4759     0.1146     0.0620     6.6562     7.1499   -20.8961
  360.0000    92.5238     7.3746     2.4772     0.1126     0.0651     6.9475     7.4155   -20.6294
  360.5000    93.2649     7.4226     2.4904     0.1117     0.0681     7.2516     7.8367   -20.3636
  361.0000    91.9562     7.4625     2.5019     0.1108     0.0669     7.5689     8.2780   -20.2183
  361.5000    91.0435     7.4157     2.5022     0.1152     0.0658     7.9256     8.7706   -20.2191
  362.0000    91.4362     7.3692     2.5020     0.1189     0.0647     7.9941     8.7706   -20.2187
  362.5000    92.0365     7.3232     2.4957     0.1181     0.0636     8.0674     8.7706   -20.2186
  363.0000    95.7290     7.2873     2.4887     0.1174     0.0625     8.1410     8.7706   -20.2208
  363.5000    98.8897     7.3282     2.4895     0.1166     0.0631     8.2154     8.7706   -20.3403
  364.0000    99.3698     7.4656     2.4905     0.1158     0.0645     8.2906     8.8277   -20.6586
  364.5000    99.1100     7.6016     2.4915     0.1100     0.0660     8.3664     8.9141   -20.9771
  365.0000    98.8582     7.6430     2.4927     0.1050     0.0674     8.4429     9.0014   -20.8717
  365.5000    96.9810     7.6378     2.4979     0.1058     0.0687     8.5201     9.0896   -20.7004
  366.0000    94.2452     7.6327     2.5078     0.1094     0.0699     8.5980     9.1787   -20.7075
  366.5000    93.1764     7.6277     2.5076     0.1123     0.0711     8.6767     9.2688   -20.8762
  367.0000    93.5787     7.6227     2.5050     0.1103     0.0723     8.6964     9.3547   -21.0483
  367.5000    94.9515     7.6178     2.5016     0.1082     0.0734     8.7040     9.3547   -21.2062
  368.0000    98.7570     7.6128     2.5028     0.1103     0.0728     8.7114     9.3547   -21.0686
  368.5000    96.1272     7.6079     2.5033     0.1097     0.0703     8.7189     9.3547   -20.9224
  369.0000    91.2404     7.6067     2.5028     0.1068     0.0715     8.7264     9.3547   -20.8827
  369.5000    93.0988     7.6122     2.5033     0.1044     0.0727     8.7339     9.3547   -21.1801
  370.0000    96.3062     7.6175     2.5067     0.1024     0.0739     8.7414     9.3547   -21.4645
  370.5000    99.0823     7.6228     2.5101     0.1004     0.0739     8.7490     9.3547   -21.7559
  371.0000   100.2393     7.6282     2.5134     0.1028     0.0736     8.7566     9.3547   -21.8130
  371.5000   100.3974     7.6336     2.5163     0.1079     0.0733     8.7642     9.3553   -21.8136
  372.0000    99.0939     7.6390     2.5140     0.1056     0.0729     8.7702     9.3247   -21.8128
  372.5000    95.3552     7.6444     2.5084     0.1033     0.0726     8.7404     9.2828   -21.8127
  373.0000    91.7932     7.6375     2.5109     0.1010     0.0723     8.7137     9.2410   -21.8127
  373.5000    89.6531     7.6294     2.5132     0.0987     0.0719     8.6872     9.1994   -21.8127
  374.0000    92.7931     7.6214     2.5159     0.0966     0.0716     8.6607     9.1581   -21.8127
  374.5000    96.9776     7.6133     2.5239     0.1031     0.0713     8.6343     9.1169   -21.8127
  375.0000    99.5898     7.6053     2.5226     0.1055     0.0709     8.6105     9.0758   -21.8127
  375.5000    96.1730     7.5973     2.5119     0.1062     0.0706     8.5019     9.0350   -21.8121
  376.0000    93.3202     7.5893     2.5086     0.1072     0.0703     8.4041     8.9418   -21.8128
  376.5000    91.4462     7.5847     2.5066     0.1134     0.0710     8.3074     8.8057   -21.8603
  377.0000    93.6239     7.5846     2.5010     0.1054     0.0726     8.2118     8.6714   -22.0724
  377.5000    99.7535     7.5864     2.4977     0.1046     0.0741     8.1173     8.5392   -22.2769
  378.0000   105.9148     7.6177     2.5052     0.1122     0.0746     8.0239     8.4091   -22.4813
  378.5000   107.3783     7.6485     2.5063     0.1145     0.0750     7.9316     8.2810   -22.6857
  379.0000    99.1528     7.6790     2.4985     0.1149     0.0755     7.8403     8.1548   -22.8900
  379.5000    92.8565     7.7095     2.4939     0.1166     0.0759     7.6657     7.9541   -23.0944
  380.0000    91.0606     7.7400     2.4928     0.1158     0.0764     7.3390     7.6147   -23.2988
  380.5000    93.2045     7.7651     2.4915     0.1250     0.0768     7.0262     7.2902   -23.5032
  381.0000    96.2778     7.7647     2.4868     0.1411     0.0773     6.7273     6.9792   -23.6948
  381.5000    97.0049     7.7653     2.4795     0.1442     0.0777     6.4373     6.6818   -23.8737
  382.0000    96.4216     7.7342     2.4617     0.1520     0.0780     6.1460     6.3707   -24.0525
  382.5000    95.6243     7.6979     2.4404     0.1672     0.0735     5.6234     5.8345   -24.2313
  383.0000    94.9653     7.6615     2.4314     0.1818     0.0686     5.1501     5.3434   -24.4102
  383.5000    94.4069     7.6252     2.4070     0.1962     0.0638     4.7167     4.8937   -24.5892
  384.0000    96.1117     7.5894     2.3781     0.2105     0.0627     4.3197     4.4818   -24.7681
  384.5000    99.0844     7.5680     2.3490     0.2248     0.0634     3.9561     4.1046   -24.9512
  385.0000    99.9365     7.5795     2.3202     0.2392     0.0644     3.6232     3.7591   -24.8969
  385.5000    98.0025     7.5903     2.2942     0.2489     0.0706     3.3828     3.5185   -24.7526
  386.0000    94.1433     7.6012     2.2747     0.2490     0.0765     3.2139     3.3329   -24.6054
  386.5000    90.4716     7.6121     2.2586     0.2356     0.0824     3.2139     3.3331   -24.4625
  387.0000    89.3506     7.6230     2.2630     0.2135     0.0884     3.3413     3.4553   -24.0579
  387.5000    87.8520     7.6338     2.2827     0.1914     0.0939     3.4401     3.5692   -23.4992
  388.0000    84.5669     7.6447     2.3384     0.1726     0.0901     3.6178     3.8471   -22.9366
  388.5000    83.8669     7.6556     2.3946     0.1479     0.0865     3.8924     4.3179   -22.3494
  389.0000    86.4072     7.6666     2.4312     0.1283     0.0923     4.3473     4.8428   -22.2531
  389.5000    89.7527     7.6772     2.4579     0.1240     0.0903     5.0637     5.4315   -22.3089
  390.0000    90.2547     7.6754     2.4851     0.1118     0.0846     5.5557     6.0917   -22.3691
  390.5000    90.3189     7.6459     2.4917     0.1146     0.0789     5.9554     6.5108   -22.4278
  391.0000    90.4691     7.6167     2.4974     0.1161     0.0770     6.3880     6.6825   -22.4862
  391.5000    93.2984     7.6106     2.4958     0.1145     0.0786     6.5315     6.7771   -22.5446
  392.0000    96.2926     7.6198     2.4936     0.1144     0.0800     6.5922     6.8402   -22.6030
  392.5000    99.2814     7.6294     2.4941     0.1187     0.0758     6.4754     6.7182   -22.6614
  393.0000   100.0635     7.6389     2.4945     0.1292     0.0713     6.3415     6.5798   -22.7197
  393.5000    99.5620     7.6486     2.4885     0.1396     0.0668     6.2105     6.4436   -22.7781
  394.0000   102.3378     7.6579     2.4690     0.1491     0.0661     6.0821     6.3103   -22.8365
