~VERSION INFORMATION
 VERS.                2.0:   CWLS LOG ASCII STANDARD - VERSION 2.0
 WRAP.                 NO:   ONE LINE PER DEPTH STEP
~WELL INFORMATION
#MNEM.UNIT      DATA TYPE    INFORMATION
#----------   ------------   ------------------------------
 STRT.F           35.0000:   START DEPTH
 STOP.F          484.0000:   STOP DEPTH
 STEP.F            0.5000:   STEP LENGTH
 NULL.          -999.2500:   NO VALUE
 COMP. LAWRENCE/ALLISON INC:   COMPANY
 WELL.     73-1 STX #1-10:   WELL
 FLD .              NPR-3:   FIELD
 LOC .      S10 T38N R78W:   LOCATION
 CNTY.            NATRONA:   COUNTY
 STAT.            WYOMING:   STATE
 CTRY. UNITED STATES OF AMERICA:   COUNTRY
 SRVC.              Welex:   SERVICE COMPANY
 DATE.        04-APR-1977:   LOGDATE
 API .       490251032400:   API NUMBER
~CURVE INFORMATION
#MNEM.UNIT       API CODE    CURVE DESCRIPTION
#----------   ------------   ------------------------------
 DEPT.F                  :   
 CALD.IN     45 280 60 00:   CALIPER
 GRD .GAPI   45 310 01 00:   GAMMA RAY FROM DENSITY LOG
 RHOB.G/C3   45 350 01 00:   BULK DENSITY
 DPHI.DEC    45 890 12 00:   DENSITY POROSITY SANDSTONE
 CORR.G/C3   45 356 01 00:   DENSITY CORRECTION
 SPR .MV     07 010 01 00:   SPONTANEOUS POTENTIAL
 SGRD.OHMM   07 220 05 00:   SHALLOW RESISTIVITY
 ILD .OHMM   07 120 46 00:   INDUCTION LOG DEEP
 ILM .OHMM   07 120 44 00:   INDUCTION LOG MEDIUM
~PARAMETER INFORMATION
#MNEM.UNIT          VALUE    DESCRIPTION
#----------   ------------   ------------------------------
 PD  .                 GL:   PERMANENT DATUM
 EPD .F              5170:   ELEVATION PERMANENT DATUM
 LMF .                 GL:   LOG MEASURED FROM
 DMF .                 GL:   DRILLING MEASURED FROM
 EGL .F              5170:   GROUND LEVEL
 DATE.             4-4-77:   RUN DATE
 RUN .                  1:   RUN NUMBER
 DD  .F               490:   DEPTH DRILLER
 DL  .F               487:   DEPTH LOGGER
 BLI .F               485:   BOTTOM LOG INTERVAL
 TLI .F                35:   TOP LOG INTERVAL
 CS  .IN            8.625:   CASING SIZE
 CBD .F                42:   CASING BOTTOM DRILLER
 CBL .F                42:   CASING BOTTOM LOGGER
 BS  .IN            7.875:   BIT SIZE
 BSD .F               490:   BIT SIZE AT DEPTH
 DFT .            KCL MUD:   DRILLING FLUID TYPE
 DFD .                8.4:   DRILLING FLUID DENSITY
 DFV .                 32:   DRILLING FLUID VISCOSITY
 DFPH.                8.5:   DRILLING FLUID PH
 DFL .                 17:   DRILLING FLUID LOSS
 RMS .OHMM            .48:   RESISTIVITY MUD SAMPLE
 MST .F                48:   MUD SAMPLE TEMPERATURE
 RMF .OHMM            .44:   RESISTIVITY MUD FILTRATE SAMPLE
 MFST.F                48:   MUD FILTRATE SAMPLE TEMPERATURE
 RMC .OHMM            .62:   RESISTIVITY MUD CAKE
 MCST.F                48:   MUD CAKE SAMPLE TEMPERATURE
 MFSS.          FANN TEST:   MUD FILTRATE SAMPLE SOURCE
 MCSS.          FANN TEST:   MUD CAKE SAMPLE SOURCE
 BHT .F                58:   BOTTOM HOLE TEMPERATURE
 TCS .HRS               2:   TIME CURCULATED STOPPED
 MRT .F                58:   MAXIMUM RECORDED TEMPERATURE
 LUN .               8611:   LOGGING UNIT NUMBER
 LUL .           GILLETTE:   LOGGING UNIT LOCATION
 ENGI.               DOAK:   RECORDING ENGINEER
 WITN.      B. HARRINGTON:   WITNESSED BY
 CLNT.            A2DTECH:   CLIENT CODE
 ORIG.        2" 5" PRINT:   ORIGIN OF DATA
 UWI .       490251032400:   UNIQUE WELL ID
 DICO. A2D Technologies, Inc.:   DIGITIZING COMPANY
~OTHER INFORMATION
~A   DEPT     CALD        GRD       RHOB       DPHI       CORR        SPR       SGRD        ILD        ILM   
   35.0000  -999.2500  -999.2500  -999.2500  -999.2500  -999.2500  -999.2500  -999.2500  -999.2500  -999.2500
   35.5000     8.1229    97.7658  -999.2500  -999.2500  -999.2500  -999.2500  -999.2500  -999.2500  -999.2500
   36.0000     8.1353    99.7161  -999.2500  -999.2500    -0.0354  -999.2500  -999.2500  -999.2500  -999.2500
   36.5000     8.1516   101.6665  -999.2500  -999.2500    -0.1963  -999.2500  -999.2500  -999.2500  -999.2500
   37.0000     8.1679   103.6671  -999.2500  -999.2500    -0.1368  -999.2500  -999.2500  -999.2500  -999.2500
   37.5000     8.1705   106.1665  -999.2500  -999.2500    -0.0766  -999.2500  -999.2500  -999.2500  -999.2500
   38.0000     8.1567   109.7792     2.0049  -999.2500    -0.0131  -999.2500  -999.2500  -999.2500  -999.2500
   38.5000     8.1429   114.9175     2.0858     0.2383     0.0145  -999.2500  -999.2500  -999.2500  -999.2500
   39.0000     8.1291   121.4788     2.1937     0.2484     0.0438  -999.2500  -999.2500  -999.2500  -999.2500
   39.5000     8.1153   128.0830     2.2798     0.2183     0.0695  -999.2500  -999.2500  -999.2500  -999.2500
   40.0000     8.1015   131.8159     2.3284     0.1922     0.0812  -999.2500  -999.2500  -999.2500  -999.2500
   40.5000     8.0876   129.9161     2.3579     0.1767     0.0925  -999.2500  -999.2500  -999.2500  -999.2500
   41.0000     8.0738   129.2605     2.3425     0.1838     0.0993  -999.2500  -999.2500  -999.2500  -999.2500
   41.5000     8.0600   132.2157     2.3165     0.1992     0.0906  -999.2500  -999.2500  -999.2500  -999.2500
   42.0000     8.0462   134.4955     2.3096     0.2004     0.0817  -999.2500   694.2079  -999.2500  -999.2500
   42.5000     8.0321   136.7636     2.3356     0.1886     0.0728  -999.2500  1990.8199     0.2984     3.9989
   43.0000     8.0187   137.8499     2.3676     0.1705     0.0681  -999.2500   519.5357     0.4015     3.9609
   43.5000     8.0361   137.0958     2.4070     0.1420     0.0697  -999.2500   222.8348     0.5584     4.1265
   44.0000     8.0557   140.8222     2.3985     0.1495     0.0720   -19.2392   159.1692     0.9755     4.3764
   44.5000     8.0752   143.8650     2.3666     0.1675     0.0487   -12.1684   134.8486     2.1416     4.6418
   45.0000     8.0946   146.6647     2.3409     0.1847     0.0211    -7.0807  1977.9447     3.7649     4.8942
   45.5000     8.1140   142.0763     2.3596     0.1684     0.0167    -1.9930  -999.2500     3.8741     4.9494
   46.0000     8.1334   143.1140     2.4012     0.1528     0.0243     0.0000  -999.2500     3.9420     4.9999
   46.5000     8.1528   144.7605     2.4129     0.1380     0.0321    -8.3291  -999.2500     3.9982     5.0513
   47.0000     8.1726   145.9281     2.4032     0.1452     0.0393   -23.4086  -999.2500     4.4099     5.1286
   47.5000     8.1769   145.6645     2.3890     0.1536     0.0380   -15.9136  -999.2500     4.9143     5.2328
   48.0000     8.1770   142.3722     2.3742     0.1641     0.0348   -10.6361  -999.2500     5.2193     5.3392
   48.5000     8.1770   138.9404     2.3743     0.1622     0.0316   -28.8651  -999.2500     5.1821     5.4150
   49.0000     8.1769   135.7846     2.3805     0.1584     0.0284   -30.3210  -999.2500     5.1294     5.4052
   49.5000     8.1769   137.6226     2.3822     0.1585     0.0253   -11.7160  -999.2500     5.0780     5.3976
   50.0000     8.1769   141.9664     2.3823     0.1587     0.0206   -21.9997  -999.2500     5.0314     5.3901
   50.5000     8.1769   142.3181     2.3876     0.1552     0.0237   -31.3237  -999.2500     5.1594     5.3826
   51.0000     8.1769   140.9705     2.3935     0.1520     0.0298   -10.8403  -999.2500     5.2665     5.3751
   51.5000     8.1769   139.5349     2.4009     0.1491     0.0333     0.0000  -999.2500     5.0664     5.3654
   52.0000     8.1769   140.7983     2.3904     0.1535     0.0359     0.0000  -999.2500     4.8045     5.4208
   52.5000     8.1769   141.6797     2.3762     0.1604     0.0386     0.0000  -999.2500     4.8337     5.5010
   53.0000     8.1769   138.2997     2.3702     0.1673     0.0411     0.0000  -999.2500     4.8926     5.5824
   53.5000     8.1769   134.4283     2.3607     0.1742     0.0343    -4.7761  -999.2500     4.9521     5.6649
   54.0000     8.1769   131.7299     2.3440     0.1811     0.0238   -26.9807  -999.2500     5.0124     5.7487
   54.5000     8.1770   133.1882     2.3556     0.1819     0.0132   -31.0912  -999.2500     5.0735     5.8337
   55.0000     8.1770   135.1778     2.3741     0.1640     0.0028   -29.2469  -999.2500     5.1352     5.9200
   55.5000     8.1855   137.1673     2.3775     0.1596     0.0015   -30.7253  -999.2500     5.1975     6.0076
   56.0000     8.2054   139.1540     2.3671     0.1742     0.0030   -34.7327  -999.2500     5.2671     6.0965
   56.5000     8.2251   141.1423     2.3604     0.1722     0.0094   -37.7992  -999.2500     5.3282     6.1594
   57.0000     8.2448   142.0940     2.3660     0.1679     0.0156   -38.4674  -999.2500     5.3970     6.1453
   57.5000     8.2644   142.1103     2.3714     0.1635     0.0218   -39.2114  -999.2500     5.4666     6.1840
   58.0000     8.2790   140.4374     2.3752     0.1603     0.0274   -39.9621  -999.2500     5.5191     6.2229
   58.5000     8.2933   136.2602     2.3700     0.1656     0.0222   -41.6833  -999.2500     5.5301     6.2620
   59.0000     8.3075   132.0701     2.3639     0.1705     0.0161   -45.2893  -999.2500     5.5410     6.3014
   59.5000     8.3217   127.8800     2.3598     0.1731     0.0100   -45.7717  -999.2500     5.5521     6.3411
   60.0000     8.3360   123.6912     2.3812     0.1638     0.0040   -44.2798  -999.2500     5.5632     6.3810
   60.5000     8.3499   119.5090     2.3859     0.1573    -0.0021   -42.7079  -999.2500     5.5743     6.4212
   61.0000     8.3282   115.3055     2.3763     0.1618    -0.0082   -41.5671  -999.2500     5.5855     6.5090
   61.5000     8.1550   113.1446     2.3641     0.1677    -0.0143   -42.7167  -999.2500     5.5967     6.4528
   62.0000     8.1149   112.4907     2.3520     0.1736    -0.0206   -43.7932  -999.2500     5.6077     6.4046
   62.5000     8.1101   111.8342     2.3452     0.1809    -0.0230   -44.1228   656.3465     5.6177     6.3563
   63.0000     8.1065   111.1840     2.3506     0.1789    -0.0245   -44.3884   205.1252     5.5744     6.3076
   63.5000     8.1028   109.7561     2.3640     0.1678    -0.0205   -43.6828  1008.6194     5.5351     6.2594
   64.0000     8.0990   107.6853     2.3945     0.1555    -0.0160   -44.4450  1977.6343     5.4961     6.2164
   64.5000     8.0951   106.7171     2.4042     0.1501    -0.0131   -46.1125  1987.7694     5.4573     5.8501
   65.0000     8.0913   107.6960     2.4024     0.1460    -0.0162   -46.6019  2000.0000     5.4150     5.5676
   65.5000     8.0874   109.5861     2.4103     0.1419    -0.0179   -46.5772  2000.0000     5.5195     5.8273
   66.0000     8.0836   111.2615     2.4211     0.1343    -0.0148   -47.1427   185.3800     5.6379     6.0474
   66.5000     8.0797   112.9081     2.4362     0.1222    -0.0106   -45.6758   327.9557     5.7589     6.2880
   67.0000     8.0759   114.5357     2.4675     0.1101    -0.0020   -43.7403   405.7833     5.8825     6.5675
   67.5000     8.0720   115.7459     2.4780     0.1008     0.0065   -45.7442   456.7424     6.0087     6.8592
   68.0000     8.0683   115.0656     2.4770     0.0951     0.0149   -46.0769   440.2378     6.0756     7.1298
   68.5000     8.0648   114.1806     2.4960     0.0896     0.0215   -43.8316   505.3909     6.1329     7.2689
   69.0000     8.0597   113.2908     2.4987     0.0896     0.0205   -43.1195   507.0905     6.1908     7.2500
   69.5000     8.0156   112.3833     2.4979     0.0887     0.0198   -45.1924   439.5273     6.2491     7.2355
   70.0000     7.8376   111.1628     2.4997     0.0867     0.0190   -45.7423   249.6358     6.3081     7.2211
   70.5000     7.6648   109.7478     2.5008     0.0956     0.0182   -46.3264    71.6988     6.3676     7.2023
   71.0000     7.7320   108.3329     2.4918     0.0940     0.0175   -46.5103    85.3395     6.4277     7.3600
