~VERSION INFORMATION
 VERS.                2.0:   CWLS LOG ASCII STANDARD - VERSION 2.0
 WRAP.                 NO:   ONE LINE PER DEPTH STEP
~WELL INFORMATION
#MNEM.UNIT      DATA TYPE    INFORMATION
#----------   ------------   ------------------------------
 STRT.F           90.0000:   START DEPTH
 STOP.F         1312.0000:   STOP DEPTH
 STEP.F            0.5000:   STEP LENGTH
 NULL.          -999.2500:   NO VALUE
 COMP. US NAVY/ INTEX OIL CO:   COMPANY
 WELL. RES 3 TEAPOT DOME NPR "S' #42-2:   WELL
 FLD .             TEAPOT:   FIELD
 LOC .       S2 T38N R78W:   LOCATION
 CNTY.            NATRONA:   COUNTY
 STAT.            WYOMING:   STATE
 CTRY. UNITED STATES OF AMERICA:   COUNTRY
 SRVC. Schlumberger Well Surveying Corp:   SERVICE COMPANY
 DATE.        17-JUL-1964:   LOGDATE
 API .       490250646400:   API NUMBER
~CURVE INFORMATION
#MNEM.UNIT       API CODE    CURVE DESCRIPTION
#----------   ------------   ------------------------------
 DEPT.F                  :   
 GR  .GAPI   30 310 01 00:   GAMMA RAY
 CALS.IN     60 280 50 00:   CALIPER FROM SONIC LOG
 DT  .US/F   60 520 32 00:   INTERVAL TRANSIT TIME
 SPR .MV     05 010 01 00:   SPONTANEOUS POTENTIAL FROM RES.
 CILD.MMHO   05 110 46 00:   CONDUCTIVITY INDUCTION LOG DEEP
 ILD .OHMM   05 120 46 00:   INDUCTION LOG DEEP
 ASN .OHMM   05 040 16 00:   AMPLIFIED SHORT NORMAL 16"
~PARAMETER INFORMATION
#MNEM.UNIT          VALUE    DESCRIPTION
#----------   ------------   ------------------------------
 PD  .                 GL:   PERMANENT DATUM
 EPD .F              5142:   ELEVATION PERMANENT DATUM
 LMF .                 KB:   LOG MEASURED FROM
 DAPD.F                 8:   FEET ABOVE PERMANENT DATUM
 DMF .                 KB:   DRILLING MEASURED FROM
 EKB .F              5150:   KELLING BUSHING
 EGL .F              5142:   GROUND LEVEL
 DATE.          7-17-1964:   RUN DATE
 RUN .                  1:   RUN NUMBER
 DD  .F              1300:   DEPTH DRILLER
 DL  .F              1310:   DEPTH LOGGER
 BLI .F              1309:   BOTTOM LOG INTERVAL
 TLI .F               107:   TOP LOG INTERVAL
 CS  .IN            12.25:   CASING SIZE
 CBD .F                10:   CASING BOTTOM DRILLER
 BS  .IN               11:   BIT SIZE
 BSD .F              1300:   BIT SIZE AT DEPTH
 DFT .            GEL-OIL:   DRILLING FLUID TYPE
 DFD .                9.6:   DRILLING FLUID DENSITY
 DFV .                 63:   DRILLING FLUID VISCOSITY
 DFPH.                  8:   DRILLING FLUID PH
 DFL .                9.6:   DRILLING FLUID LOSS
 MSS .           FLOWLINE:   MUD SAMPLE SOURCE
 RMS .OHMM           2.07:   RESISTIVITY MUD SAMPLE
 MST .F                92:   MUD SAMPLE TEMPERATURE
 RMF .OHMM           1.42:   RESISTIVITY MUD FILTRATE SAMPLE
 MFST.F                92:   MUD FILTRATE SAMPLE TEMPERATURE
 RMC .OHMM           2.33:   RESISTIVITY MUD CAKE
 MCST.F                92:   MUD CAKE SAMPLE TEMPERATURE
 MFSS.                 FP:   MUD FILTRATE SAMPLE SOURCE
 MCSS.                 FP:   MUD CAKE SAMPLE SOURCE
 TCS .HRS               1:   TIME CURCULATED STOPPED
 LUN .               4507:   LOGGING UNIT NUMBER
 LUL .              CSPR.:   LOGGING UNIT LOCATION
 ENGI.             DANNER:   RECORDING ENGINEER
 WITN.          JORGENSEN:   WITNESSED BY
 CLNT.            A2DTECH:   CLIENT CODE
 ORIG.        2" 5" PRINT:   ORIGIN OF DATA
 UWI .       490250646400:   UNIQUE WELL ID
 DICO. A2D Technologies, Inc.:   DIGITIZING COMPANY
~OTHER INFORMATION
~A   DEPT       GR       CALS         DT        SPR        CILD         ILD        ASN 
# ...
 1273.0000  -999.2500  -999.2500  -999.2500   -26.1891   134.1971     7.6248     9.5280
 1273.5000  -999.2500  -999.2500  -999.2500   -26.0042   134.6346     7.5891     9.4094
 1274.0000  -999.2500  -999.2500  -999.2500   -25.7316   135.0310     7.5672     9.2822
 1274.5000  -999.2500  -999.2500  -999.2500   -25.5904   135.4334     7.6547     9.1904
 1275.0000  -999.2500  -999.2500  -999.2500   -25.6072   134.8015     7.7577     9.0288
 1275.5000  -999.2500  -999.2500  -999.2500   -25.5990   133.1248     7.8575     9.5202
 1276.0000  -999.2500  -999.2500  -999.2500   -25.6035   131.4481     7.9587     9.8195
 1276.5000  -999.2500  -999.2500  -999.2500   -25.6010   129.7714     8.0591     9.9394
 1277.0000  -999.2500  -999.2500  -999.2500   -25.6023   128.0948     8.1600    10.1342
 1277.5000  -999.2500  -999.2500  -999.2500   -25.6018   126.4181     8.2607    10.2937
 1278.0000  -999.2500  -999.2500  -999.2500   -25.6023   124.7414     8.3614    10.4515
 1278.5000  -999.2500  -999.2500  -999.2500   -25.6022   123.0647     8.4622    10.4622
 1279.0000  -999.2500  -999.2500  -999.2500   -25.6023   121.3880     8.5627    10.4615
 1279.5000  -999.2500  -999.2500  -999.2500   -25.6021   120.1612     8.6637    10.4615
 1280.0000  -999.2500  -999.2500  -999.2500   -25.6043   119.3140     8.7637    10.4601
 1280.5000  -999.2500  -999.2500  -999.2500   -25.6388   118.4669     8.8659    10.4614
 1281.0000  -999.2500  -999.2500  -999.2500   -25.6858   117.6197     8.9557    10.4584
 1281.5000  -999.2500  -999.2500  -999.2500   -25.7278   116.7726     8.9919    10.4636
 1282.0000  -999.2500  -999.2500  -999.2500   -25.7778   115.9254     9.0213    10.4536
 1282.5000  -999.2500  -999.2500  -999.2500   -25.8060   115.0782     9.0518    10.4718
 1283.0000  -999.2500  -999.2500  -999.2500   -25.8022   114.2311     9.0817    10.4359
 1283.5000  -999.2500  -999.2500  -999.2500   -25.8047   113.3839     9.1122    10.6737
 1284.0000  -999.2500  -999.2500  -999.2500   -25.8025   112.6126     9.1420    10.9238
 1284.5000  -999.2500  -999.2500  -999.2500   -25.8056   112.2994     9.1728    10.9546
 1285.0000  -999.2500  -999.2500  -999.2500   -25.7862   112.0120     9.2020    11.0458
 1285.5000  -999.2500  -999.2500  -999.2500   -25.7323   111.7246     9.2346    11.0272
 1286.0000  -999.2500  -999.2500  -999.2500   -25.6796   112.0557     9.2521    10.9581
 1286.5000  -999.2500  -999.2500  -999.2500   -25.6256   112.7873     9.1964    10.8961
 1287.0000  -999.2500  -999.2500  -999.2500   -25.5725   113.5190     9.1383    10.8306
 1287.5000  -999.2500  -999.2500  -999.2500   -25.5189   114.2433     9.0809    10.7673
 1288.0000  -999.2500  -999.2500  -999.2500   -25.4654   114.9789     9.0233    10.7024
 1288.5000  -999.2500  -999.2500  -999.2500   -25.4063   115.7124     8.9658    10.6389
 1289.0000  -999.2500  -999.2500  -999.2500   -25.3479   116.4449     8.9082    10.5740
 1289.5000  -999.2500  -999.2500  -999.2500   -25.2805   117.1773     8.8546    10.5112
 1290.0000  -999.2500  -999.2500  -999.2500   -25.2141   117.9088     8.7911    10.4450
 1290.5000  -999.2500  -999.2500  -999.2500   -25.1467   118.6411     8.7318    10.3864
 1291.0000  -999.2500  -999.2500  -999.2500   -25.0803   119.3721     8.6727    10.3122
 1291.5000  -999.2500  -999.2500  -999.2500   -25.0092   120.1037     8.6130    10.2254
 1292.0000  -999.2500  -999.2500  -999.2500   -25.0214   120.8354     8.5546    10.1474
 1292.5000  -999.2500  -999.2500  -999.2500   -25.0563   121.5670     8.4937    10.0647
 1293.0000  -999.2500  -999.2500  -999.2500   -25.0848   122.2987     8.4373     9.9881
 1293.5000  -999.2500  -999.2500  -999.2500   -25.1181   123.0303     8.3736     9.9270
 1294.0000  -999.2500  -999.2500  -999.2500   -25.1460   123.6236     8.3846     9.8739
 1294.5000  -999.2500  -999.2500  -999.2500   -25.1833   123.6236     8.4419     9.8249
 1295.0000  -999.2500  -999.2500  -999.2500   -25.1897   123.6513     8.4867     9.7738
 1295.5000  -999.2500  -999.2500  -999.2500   -25.1411   122.9927     8.5373     9.7571
 1296.0000  -999.2500  -999.2500  -999.2500   -25.0966   122.0489     8.5847     9.7880
 1296.5000  -999.2500  -999.2500  -999.2500   -25.0492   121.1020     8.6338     9.9246
 1297.0000  -999.2500  -999.2500  -999.2500   -25.0035   120.1542     8.6821    10.0649
 1297.5000  -999.2500  -999.2500  -999.2500   -24.9569   119.2073     8.7308    10.1227
 1298.0000  -999.2500  -999.2500  -999.2500   -24.9105   118.2626     8.7792    10.2624
 1298.5000  -999.2500  -999.2500  -999.2500   -24.8642   117.3204     8.8278    10.3876
 1299.0000  -999.2500  -999.2500  -999.2500   -24.8173   116.6166     8.8760    10.3989
 1299.5000  -999.2500  -999.2500  -999.2500   -24.7720   116.1566     8.9250    10.4309
 1300.0000  -999.2500  -999.2500  -999.2500   -24.7241   115.7852     8.9725    10.4515
 1300.5000  -999.2500  -999.2500  -999.2500   -24.6809   115.4138     9.0231    10.4783
 1301.0000  -999.2500  -999.2500  -999.2500   -24.6284   115.0424     9.0573    10.5019
 1301.5000  -999.2500  -999.2500  -999.2500   -24.6293   114.6711     9.0515    10.5270
 1302.0000  -999.2500  -999.2500  -999.2500   -24.7432   114.2997     9.0454    10.5514
 1302.5000  -999.2500  -999.2500  -999.2500   -24.8553   113.9283     9.0387    10.5761
 1303.0000  -999.2500  -999.2500  -999.2500   -24.9680   113.6080     9.0325    10.6008
 1303.5000  -999.2500  -999.2500  -999.2500   -24.9312   113.2308     9.0260    10.6255
 1304.0000  -999.2500  -999.2500  -999.2500   -24.8213   112.9044     9.0196    10.6502
 1304.5000  -999.2500  -999.2500  -999.2500   -24.7258   112.6112     9.0132    10.6749
 1305.0000  -999.2500  -999.2500  -999.2500   -24.6246  -999.2500     9.0069    10.6996
 1305.5000  -999.2500  -999.2500  -999.2500   -24.6196  -999.2500     9.0005    10.7243
 1306.0000  -999.2500  -999.2500  -999.2500   -24.6574  -999.2500     8.9942    10.7491
 1306.5000  -999.2500  -999.2500  -999.2500   -24.6890  -999.2500     8.9878    10.7737
 1307.0000  -999.2500  -999.2500  -999.2500   -24.7225  -999.2500     8.9815    10.7986
 1307.5000  -999.2500  -999.2500  -999.2500   -24.7573  -999.2500     8.9750    10.8230
 1308.0000  -999.2500  -999.2500  -999.2500   -24.7921  -999.2500     8.9689    10.8485
 1308.5000  -999.2500  -999.2500  -999.2500   -24.9460  -999.2500     8.9620    10.8692
 1309.0000  -999.2500  -999.2500  -999.2500   -25.1515  -999.2500     8.9586    10.8850
 1309.5000  -999.2500  -999.2500  -999.2500   -25.4040  -999.2500     8.9591    10.9015
 1310.0000  -999.2500  -999.2500  -999.2500   -25.6216  -999.2500     8.9588    10.9181
 1310.5000  -999.2500  -999.2500  -999.2500   -25.7016  -999.2500     8.9590    10.9339
 1311.0000  -999.2500  -999.2500  -999.2500   -25.7836  -999.2500     8.9589    10.9520
 1311.5000  -999.2500  -999.2500  -999.2500   -25.8058  -999.2500  -999.2500    10.9620
 1312.0000  -999.2500  -999.2500  -999.2500   -25.8033  -999.2500  -999.2500  -999.2500
