~VERSION INFORMATION
 VERS.                2.0:   CWLS LOG ASCII STANDARD - VERSION 2.0
 WRAP.                 NO:   ONE LINE PER DEPTH STEP
~WELL INFORMATION
#MNEM.UNIT      DATA TYPE    INFORMATION
#----------   ------------   ------------------------------
 STRT.F           30.0000:   START DEPTH
 STOP.F          697.0000:   STOP DEPTH
 STEP.F            0.5000:   STEP LENGTH
 NULL.          -999.2500:   NO VALUE
 COMP. LAWRENCE/ALLISON INC:   COMPANY
 WELL.    81-66 SX #15-15:   WELL
 FLD .             TEAPOT:   FIELD
 LOC .      S15 T38N R78W:   LOCATION
 CNTY.            NATRONA:   COUNTY
 STAT.            WYOMING:   STATE
 CTRY. UNITED STATES OF AMERICA:   COUNTRY
 SRVC.           Gearhart:   SERVICE COMPANY
 DATE.        15-JUL-1987:   LOGDATE
 API .       490251117000:   API NUMBER
~CURVE INFORMATION
#MNEM.UNIT       API CODE    CURVE DESCRIPTION
#----------   ------------   ------------------------------
 DEPT.F                  :   
 GRR .GAPI   07 310 01 00:   GAMMA RAY
 ILD .OHMM   07 120 46 00:   INDUCTION LOG DEEP
 ILM .OHMM   07 120 44 00:   INDUCTION LOG MEDIUM
~PARAMETER INFORMATION
#MNEM.UNIT          VALUE    DESCRIPTION
#----------   ------------   ------------------------------
 PD  .                 GL:   PERMANENT DATUM
 EPD .F              5232:   ELEVATION PERMANENT DATUM
 LMF .                 KB:   LOG MEASURED FROM
 DAPD.F                 8:   FEET ABOVE PERMANENT DATUM
 DMF .                 KB:   DRILLING MEASURED FROM
 EKB .F              5240:   KELLING BUSHING
 EDF .F              5238:   DRILLING FLOOR
 EGL .F              5232:   GROUND LEVEL
 DATE.        28-AUG-1987:   RUN DATE
 RUN .                  1:   RUN NUMBER
 DD  .F               700:   DEPTH DRILLER
 DL  .F               706:   DEPTH LOGGER
 BLI .F               700:   BOTTOM LOG INTERVAL
 TLI .F                30:   TOP LOG INTERVAL
 CS  .IN            8.625:   CASING SIZE
 CBD .F                48:   CASING BOTTOM DRILLER
 CBL .F                48:   CASING BOTTOM LOGGER
 BS  .IN            7.875:   BIT SIZE
 BSD .F               700:   BIT SIZE AT DEPTH
 DFT .                AIR:   DRILLING FLUID TYPE
 TCS .HRS            0200:   TIME CURCULATED STOPPED
 TLAB.HRS            0449:   TIME LOGGER AT BOTTOM
 MRT .F                80:   MAXIMUM RECORDED TEMPERATURE
 LUN .               7597:   LOGGING UNIT NUMBER
 LUL .           GILLETTE:   LOGGING UNIT LOCATION
 ENGI.         WEATHERMON:   RECORDING ENGINEER
 WITN.             STRONG:   WITNESSED BY
 CLNT.            A2DTECH:   CLIENT CODE
 ORIG.       2", 5" PRINT:   ORIGIN OF DATA
 UWI .       490251117000:   UNIQUE WELL ID
 DICO. A2D Technologies, Inc.:   DIGITIZING COMPANY
~OTHER INFORMATION
~A   DEPT       GRR       ILD        ILM   
# ...
  576.0000    96.6001    12.7751    13.6909
  576.5000    97.5433    12.7816    13.7923
  577.0000    97.2673    12.7863    13.7970
  577.5000    97.6141    12.7019    13.6107
  578.0000    99.1624    12.7084    13.4257
  578.5000   101.0133    12.7135    13.2455
  579.0000   102.5615    12.7188    13.1569
  579.5000   103.5047    12.7241    13.1625
  580.0000   103.5401    12.7294    13.0755
  580.5000   102.6385    12.7355    12.9893
  581.0000   100.8966    12.6268    12.8148
  581.5000   100.0244    12.4824    12.8191
  582.0000    99.1521    12.4006    12.8235
  582.5000    98.2798    12.3194    12.7377
  583.0000    96.4998    12.3256    12.7428
  583.5000    95.6275    12.2438    12.7061
  584.0000    95.0489    12.1602    12.5752
  584.5000    95.0932    12.0009    12.4921
  585.0000    95.1286    11.9647    12.3970
  585.5000    95.4978    11.8458    12.1580
  586.0000    97.6289    11.8506    12.0767
  586.5000    99.2618    11.7383    11.9146
  587.0000   100.7254    11.6570    11.8349
  587.5000   101.0634    11.5326    11.5950
  588.0000   100.4937    11.3064    11.5152
  588.5000    98.4111    11.1535    11.3501
  589.0000    97.2274    11.0037    11.1325
  589.5000    97.8768    10.7818    11.1199
  590.0000    99.4251    10.5632    10.9096
  590.5000    98.8260    10.3491    10.6876
  591.0000    96.4791     9.9991    10.4701
  591.5000    96.2031     9.7273    10.2570
  592.0000    99.5757     9.4565    10.0464
  592.5000   102.6368     8.8948     9.7653
  593.0000   104.1851     8.4164     9.2493
  593.5000   104.8257     7.9084     8.6901
  594.0000   110.0048     6.9314     7.1027
  594.5000   113.3685     6.3785     6.3115
  595.0000   114.3117     6.1628     5.8479
  595.5000   118.0999     5.9959     5.4562
  596.0000   125.2839     5.9568     4.9160
  596.5000   130.4631     6.0433     4.9228
  597.0000   131.7088     6.2165     5.4243
  597.5000   128.1134     6.6212     6.5491
  598.0000   107.8765     7.3020     7.3751
  598.5000    99.7424     8.1090     8.0769
  599.0000    99.4664     8.9428     8.7842
  599.5000   101.6287     9.5914     9.3558
  600.0000   105.5976     9.9352     9.7585
  600.5000   108.6587    10.0169    10.0464
  601.0000   105.6773    10.1541    10.1828
  601.5000   104.1998    10.2981    10.2574
  602.0000   103.9238    10.5144    10.3326
  602.5000   106.6913    10.6737    10.4084
  603.0000   108.5421    10.7537    10.6452
  603.5000   108.8713    10.9089    10.8760
  604.0000   106.4950    11.0664    11.0346
  604.5000   107.1355    11.1483    11.3569
  605.0000   109.2890    11.3882    11.6098
  605.5000   109.9295    11.5772    11.9347
  606.0000   106.6455    11.8012    12.1934
  606.5000   103.4042    11.9716    12.4026
  607.0000   100.0181    12.1974    12.6394
  607.5000    99.4374    12.4058    12.9135
  608.0000    99.7807    12.5849    13.1018
  608.5000    99.8132    12.7286    13.2321
  609.0000    99.8458    12.9521    13.4868
  609.5000    99.8783    12.9707    13.6835
  610.0000    99.9109    13.2363    13.6910
  610.5000    99.9434    13.3342    13.7943
  611.0000    99.9760    13.4329    13.8020
  611.5000   100.0091    13.5323    13.8097
  612.0000   100.0424    13.4439    13.8188
  612.5000    97.9637    13.4494    13.8263
  613.0000    92.2474    13.4553    13.8339
  613.5000    89.8594    13.4604    13.8414
  614.0000    90.1945    13.4660    13.8482
  614.5000    92.9502    13.3782    13.8566
  615.0000    95.7059    13.3714    13.8641
  615.5000    98.1590    13.2965    13.7751
  616.0000   100.0070    13.3020    13.6873
  616.5000   100.9473    13.3076    13.5997
  617.0000   101.2829    13.3137    13.5077
  617.5000   101.3162    13.1486    13.3208
  618.0000   100.7505    12.9586    12.9736
  618.5000   100.4724    12.8738    12.8028
  619.0000   100.8156    12.7898    12.7191
  619.5000   102.3610    12.6142    12.5517
  620.0000   104.2090    12.2767    12.3848
  620.5000   105.7544    11.9456    12.3038
  621.0000   106.9973    11.7853    12.2251
  621.5000   107.3324    11.6259    12.0642
  622.0000   107.3649    11.3914    11.9867
  622.5000   107.3979    11.2943    11.7454
  623.0000   107.4300    11.1554    11.6692
  623.5000   106.5630    11.0152    11.4351
  624.0000   106.5956    10.8586    11.2697
  624.5000   107.5358    10.7214    10.9805
  625.0000   109.6864    10.5042    10.8330
  625.5000   111.5344    10.4325    10.6889
  626.0000   110.9618    10.2833    10.6205
  626.5000   108.8763    10.1573    10.5525
  627.0000   110.1191    10.0910    10.4850
  627.5000   114.3877    10.0255    10.4921
  628.0000   117.7851    10.0302    10.4979
  628.5000   119.8991    10.0339    10.5036
  629.0000   116.9141    10.0381    10.5094
  629.5000   113.9209    10.0425    10.4421
  630.0000   112.1380     9.9769    10.4478
  630.5000   109.7500     9.9117    10.3089
  631.0000   107.9590     9.8470    10.2429
  631.5000   107.3864     9.7827    10.1081
  632.0000   110.1502     9.6523     9.9723
  632.5000   114.1162     9.5228     9.8397
  633.0000   115.0565     9.3298     9.6427
  633.5000   116.6203     9.1407     9.5132
  634.0000   117.8820     8.9545     9.3228
  634.5000   117.5828     8.8352     9.1986
  635.0000   117.0102     8.6561     9.0135
  635.5000   116.1351     8.4810     8.8936
  636.0000   114.6548     8.3668     8.7144
  636.5000   112.5693     8.2545     8.5388
  637.0000   110.4839     8.1133     8.3679
  637.5000   109.9031     7.9787     8.1993
  638.0000   110.2464     7.8716     7.9783
  638.5000   110.8841     7.7659     7.7094
  639.0000   112.1392     7.6624     7.5530
  639.5000   114.3451     7.5071     7.5047
  640.0000   116.4362     7.4063     7.5098
  640.5000   116.7713     7.4094     7.6194
  641.0000   113.7781     7.5163     7.7305
  641.5000   110.7850     7.7858     7.9533
  642.0000   109.9016     8.2350     8.3036
  642.5000   111.7578     8.6539     8.8026
  643.0000   113.3032     9.1009     9.5496
  643.5000   114.5460     9.5441     9.9627
  644.0000   115.4863     9.8176    10.3216
  644.5000   116.1240    10.0289    10.4721
  645.0000   113.9789    10.1031    10.5511
  645.5000   111.9612    10.1072    10.5568
  646.0000   111.3805    10.1114    10.6365
  646.5000   111.4212    10.1862    10.6423
  647.0000   111.4537    10.2613    10.6481
  647.5000   112.3940    10.2656    10.6539
  648.0000   113.9394    10.2699    10.5857
  648.5000   115.1822    10.2742    10.6657
  649.0000   115.2148    10.2785    10.5973
  649.5000   114.9448    10.2828    10.6045
  650.0000   114.6747    10.2878    10.5367
  650.5000   114.0757    10.2920    10.5424
  651.0000   113.5295    10.2962    10.5482
  651.5000   112.9570    10.3004    10.5540
  652.0000   112.3925    10.3046    10.5056
  652.5000   113.0219    10.2768    10.4004
  653.0000   111.2472    10.2466    10.1879
  653.5000   109.1617    10.2406    10.0489
  654.0000   108.5809    10.1731     9.8431
  654.5000   108.0151    10.0902     9.7013
  655.0000   108.3515     9.7644     9.4445
  655.5000   109.9212     9.5659     9.1868
  656.0000   112.6898     9.1776     8.8741
  656.5000   113.2984     8.6834     8.4534
  657.0000   112.4232     8.1588     7.8861
  657.5000   112.4557     7.4037     7.1051
  658.0000   113.0934     6.6255     6.3569
  658.5000   116.4461     5.7263     5.4928
  659.0000   114.0661     4.9148     4.7132
  659.5000   113.4854     3.8803     3.9331
  660.0000   115.3415     3.2541     3.2264
  660.5000   119.0049     3.0158     2.7292
  661.0000   120.2481     2.9404     2.4166
  661.5000   119.9776     2.9414     2.3507
  662.0000   118.8080     2.9836     2.3855
  662.5000   115.5122     3.0904     2.5627
  663.0000   112.2165     3.2685     2.8991
  663.5000   105.5924     3.4810     3.2642
  664.0000   101.0863     3.8387     3.8861
  664.5000   100.5056     4.5383     4.8916
  665.0000   104.4797     5.2181     5.9465
  665.5000   108.4456     5.8807     6.7424
  666.0000   111.5039     6.7710     7.0808
  666.5000   112.4690     7.5026     7.4882
