~VERSION INFORMATION
 VERS.                2.0:   CWLS LOG ASCII STANDARD - VERSION 2.0
 WRAP.                 NO:   ONE LINE PER DEPTH STEP
~WELL INFORMATION
#MNEM.UNIT      DATA TYPE    INFORMATION
#----------   ------------   ------------------------------
 STRT.F           15.0000:   START DEPTH
 STOP.F          531.0000:   STOP DEPTH
 STEP.F            0.1000:   STEP LENGTH
 NULL.          -999.2500:   NO VALUE
 COMP. LAWRENCE/ALLISON INC:   COMPANY
 WELL.   NPR 3 #42-61SX10:   WELL
 FLD .          N.P.R. #3:   FIELD
 LOC .      S10 T38N R78W:   LOCATION
 CNTY.            NATRONA:   COUNTY
 STAT.            WYOMING:   STATE
 CTRY. UNITED STATES OF AMERICA:   COUNTRY
 SRVC.           Gearhart:   SERVICE COMPANY
 DATE.        06-JUL-1986:   LOGDATE
 API .       490251109500:   API NUMBER
~CURVE INFORMATION
#MNEM.UNIT       API CODE    CURVE DESCRIPTION
#----------   ------------   ------------------------------
 DEPT.F                  :   
 GRR .GAPI   07 310 01 00:   GAMMA RAY
 RILD.OHMM   07 120 46 00:   INDUCTION LOG DEEP
 RILM.OHMM   07 120 44 00:   INDUCTION LOG MEDIUM
~PARAMETER INFORMATION
#MNEM.UNIT          VALUE    DESCRIPTION
#----------   ------------   ------------------------------
 PD  .                 GL:   PERMANENT DATUM
 EPD .F              5196:   ELEVATION PERMANENT DATUM
 LMF .                 KB:   LOG MEASURED FROM
 DAPD.F                 5:   FEET ABOVE PERMANENT DATUM
 DMF .                 KB:   DRILLING MEASURED FROM
 EKB .F              5201:   KELLING BUSHING
 EGL .F              5196:   GROUND LEVEL
 DATE.        06-JUL-1986:   RUN DATE
 RUN .                  1:   RUN NUMBER
 DD  .F               548:   DEPTH DRILLER
 DL  .F               541:   DEPTH LOGGER
 BLI .F               531:   BOTTOM LOG INTERVAL
 TLI .F                15:   TOP LOG INTERVAL
 CS  .IN            8.625:   CASING SIZE
 CBD .F                47:   CASING BOTTOM DRILLER
 CBL .F                47:   CASING BOTTOM LOGGER
 BS  .IN            7.875:   BIT SIZE
 BSD .F               548:   BIT SIZE AT DEPTH
 DFT .                AIR:   DRILLING FLUID TYPE
 BHT .F                82:   BOTTOM HOLE TEMPERATURE
 TCS .HRS            2000:   TIME CURCULATED STOPPED
 TLAB.HRS            2130:   TIME LOGGER AT BOTTOM
 MRT .F                82:   MAXIMUM RECORDED TEMPERATURE
 LUN .               7609:   LOGGING UNIT NUMBER
 LUL .           GILLETTE:   LOGGING UNIT LOCATION
 ENGI.              BAUER:   RECORDING ENGINEER
 WITN.           JENNINGS:   WITNESSED BY
 CLNT.            A2DTECH:   CLIENT CODE
 ORIG.           5" PRINT:   ORIGIN OF DATA
 UWI .       490251109500:   UNIQUE WELL ID
 DICO. A2D Technologies, Inc.:   DIGITIZING COMPANY
~OTHER INFORMATION
~A   DEPT      GRR       RILD       RILM   
# ...
  106.0000   103.2428    11.4838    11.2954
  106.1000   103.0634    11.4534    11.2565
  106.2000   102.6830    11.4034    11.2434
  106.3000   102.1771    11.4035    11.1780
  106.4000   101.6477    11.4035    11.1782
  106.5000   100.8031    11.3474    11.1783
  106.6000    99.9048    11.3238    11.1401
  106.7000    99.0651    11.2948    11.1005
  106.8000    98.3060    11.2446    11.0888
  106.9000    97.5468    11.2424    11.0231
  107.0000    96.8041    11.1659    11.0233
  107.1000    96.2266    11.1660    11.0234
  107.2000    96.0098    11.1660    10.9870
  107.3000    95.5918    11.1384    10.9466
  107.4000    95.1992    11.0879    10.9364
  107.5000    95.0076    11.0867    10.8704
  107.6000    95.0172    11.0104    10.8705
  107.7000    95.3143    11.0104    10.8707
  107.8000    95.7350    10.9711    10.8359
  107.9000    96.4000    10.9072    10.7949
  108.0000    97.0545    10.8569    10.7951
  108.1000    97.6152    10.8569    10.7952
  108.2000    98.3739    10.8570    10.7954
  108.3000    98.9821    10.8063    10.7493
  108.4000    99.3881    10.7434    10.7201
  108.5000    99.8952    10.7056    10.6998
  108.6000   100.2052    10.6936    10.6454
  108.7000   100.1130    10.6307    10.6456
  108.8000    99.5957    10.6308    10.6458
  108.9000    98.8537    10.5820    10.6015
  109.0000    98.2901    10.5564    10.5716
  109.1000    97.6409    10.5330    10.5717
  109.2000    96.7906    10.4826    10.5654
  109.3000    95.8174    10.4826    10.4981
  109.4000    95.0193    10.4231    10.4982
  109.5000    94.7796    10.4093    10.4984
  109.6000    94.3390    10.4093    10.4985
  109.7000    93.9691    10.3871    10.4809
  109.8000    93.7164    10.3365    10.4253
  109.9000    93.4321    10.3366    10.4255
  110.0000    92.8855    10.3366    10.4257
  110.1000    92.6532    10.3024    10.3847
  110.2000    92.5814    10.2643    10.3530
  110.3000    92.4533    10.2644    10.3532
  110.4000    92.2772    10.2644    10.3492
  110.5000    92.2779    10.2644    10.2810
  110.6000    92.2785    10.2078    10.2812
  110.7000    92.2791    10.1926    10.2813
  110.8000    92.2797    10.1927    10.2815
  110.9000    92.2803    10.1927    10.2665
  111.0000    92.2809    10.1847    10.2098
  111.1000    92.2815    10.1214    10.2100
  111.2000    92.2822    10.1215    10.2101
  111.3000    92.2827    10.1215    10.2102
  111.4000    92.2834    10.0905    10.1845
  111.5000    92.2840    10.0507    10.1391
  111.6000    92.2846    10.0508    10.1392
  111.7000    92.2852    10.0508    10.1394
  111.8000    92.2859    10.0508    10.1395
  111.9000    92.2864    10.0509    10.1031
  112.0000    92.1282    10.0509    10.0689
  112.1000    91.9823    10.0509    10.0690
  112.2000    91.9829    10.0510    10.0692
  112.3000    91.9835    10.0510    10.0693
  112.4000    91.9842    10.0510    10.0694
  112.5000    91.9847    10.0511    10.0344
  112.6000    91.8339    10.0511     9.9993
  112.7000    91.6806    10.0338     9.9994
  112.8000    91.6340     9.9808     9.9996
  112.9000    91.3765     9.9808     9.9997
  113.0000    91.3771     9.9809     9.9541
  113.1000    91.3777     9.9809     9.9300
  113.2000    91.2342     9.9810     9.9302
  113.3000    91.0736     9.9810     9.9303
  113.4000    91.0742     9.9810     9.9305
  113.5000    91.0748     9.9811     9.8746
  113.6000    90.8344     9.9811     9.8613
  113.7000    90.7707     9.9811     9.8614
  113.8000    90.7713     9.9812     9.8615
  113.9000    90.7719     9.9812     9.8617
  114.0000    90.8377     9.9812     9.8618
  114.1000    91.3839     9.9813     9.8074
  114.2000    92.0854     9.9813     9.7931
  114.3000    92.6642     9.9813     9.7932
  114.4000    93.1713     9.9814     9.7934
  114.5000    93.6784     9.9667     9.7935
  114.6000    94.1602     9.9116     9.7937
  114.7000    94.4410     9.9116     9.7407
  114.8000    94.8942     9.9116     9.7234
  114.9000    95.5756     9.9117     9.7208
  115.0000    96.2137     9.9117     9.7182
  115.1000    96.7208     9.9117     9.7156
  115.2000    97.2100     9.9118     9.7130
  115.3000    97.4981     9.9118     9.7104
  115.4000    97.9367     9.8638     9.7078
  115.5000    98.2768     9.8425     9.7052
  115.6000    98.6455     9.8425     9.7026
  115.7000    99.1525     9.8426     9.7000
  115.8000    99.6491     9.8426     9.6974
  115.9000    99.9445     9.8426     9.6948
  116.0000    99.7333     9.8427     9.6922
  116.1000    98.8423     9.8427     9.6896
  116.2000    97.6843     9.8427     9.6870
  116.3000    96.7827     9.8428     9.6844
  116.4000    96.2736     9.8428     9.6818
  116.5000    95.3681     9.8428     9.6792
  116.6000    94.9598     9.8429     9.6766
  116.7000    94.6062     9.8429     9.6740
  116.8000    94.5539     9.8429     9.6714
  116.9000    94.7597     9.8430     9.6688
  117.0000    94.7603     9.8430     9.6662
  117.1000    95.0101     9.8430     9.6636
  117.2000    95.2639     9.8431     9.6607
  117.3000    95.6627     9.8431     9.6608
  117.4000    96.0770     9.8212     9.6609
  117.5000    96.3308     9.7743     9.6610
  117.6000    96.5961     9.7743     9.6612
  117.7000    96.8385     9.7743     9.6594
  117.8000    97.0923     9.7744     9.5939
  117.9000    97.3462     9.7744     9.5940
  118.0000    97.5145     9.7744     9.5941
  118.1000    97.4817     9.7745     9.5943
  118.2000    97.2104     9.7745     9.5944
  118.3000    96.5075     9.7745     9.5937
  118.4000    96.1132     9.7313     9.5276
  118.5000    95.7303     9.7062     9.5277
  118.6000    95.3808     9.7062     9.4942
  118.7000    95.3814     9.7062     9.4613
  118.8000    95.3820     9.7063     9.4614
  118.9000    95.8370     9.6527     9.4616
  119.0000    96.1690     9.6384     9.4617
  119.1000    96.5458     9.6384     9.4183
  119.2000    96.9820     9.6385     9.3958
  119.3000    97.2546     9.6308     9.3750
  119.4000    97.8285     9.5711     9.3206
  119.5000    98.4886     9.5190     9.2652
  119.6000    99.0811     9.4637     9.2653
  119.7000    99.7038     9.4376     9.2239
  119.8000   100.2736     9.4198     9.1704
  119.9000   100.2628     9.3649     9.1365
  120.0000    99.9696     9.3060     9.1281
  120.1000    99.5451     9.2562     9.0728
  120.2000    98.8788     9.2024     9.0225
  120.3000    98.0114     9.1488     8.9702
  120.4000    97.0553     9.0956     8.9467
  120.5000    96.3002     9.0370     8.9289
  120.6000    95.6984     8.9221     8.8771
  120.7000    95.4937     8.8751     8.8224
  120.8000    95.3942     8.8235     8.7744
  120.9000    95.2938     8.7721     8.7609
  121.0000    95.0900     8.7211     8.7340
  121.1000    95.3960     8.6703     8.6834
  121.2000    95.3966     8.6143     8.6391
  121.3000    95.5951     8.6143     8.6392
  121.4000    95.8489     8.5799     8.5933
  121.5000    96.1028     8.5299     8.5434
  121.6000    96.3151     8.4803     8.4939
  121.7000    96.3158     8.4309     8.4597
  121.8000    96.5590     8.3758     8.4547
  121.9000    96.6223     8.3331     8.4007
  122.0000    96.6229     8.3172     8.4008
  122.1000    96.6235     8.2944     8.3670
  122.2000    96.6241     8.2462     8.3423
  122.3000    96.6248     8.2012     8.3285
  122.4000    96.6253     8.2013     8.2802
  122.5000    96.4427     8.1602     8.2264
  122.6000    96.1901     8.1439     8.2265
  122.7000    95.8585     8.1439     8.2266
  122.8000    95.3795     8.1440     8.2041
  122.9000    95.1017     8.1440     8.1693
  123.0000    95.1023     8.1440     8.1694
  123.1000    94.9270     8.1441     8.1695
  123.2000    94.7982     8.1441     8.1288
  123.3000    94.7988     8.1652     8.1126
  123.4000    94.8189     8.2016     8.1127
  123.5000    95.1054     8.2016     8.1128
  123.6000    95.1059     8.2016     8.1215
  123.7000    95.1066     8.2016     8.3441
  123.8000    95.2236     8.2017     8.4683
  123.9000    95.4131     8.2223     8.6830
  124.0000    95.4259     8.2596     8.9631
  124.1000    95.7198     8.2596     9.2690
