~VERSION INFORMATION
 VERS.                2.0:   CWLS LOG ASCII STANDARD - VERSION 2.0
 WRAP.                 NO:   ONE LINE PER DEPTH STEP
~WELL INFORMATION
#MNEM.UNIT      DATA TYPE    INFORMATION
#----------   ------------   ------------------------------
 STRT.F           80.0000:   START DEPTH
 STOP.F          660.0000:   STOP DEPTH
 STEP.F            0.5000:   STEP LENGTH
 NULL.          -999.2500:   NO VALUE
 COMP. U S NAVY-INTEX OIL:   COMPANY
 WELL.    NPR #3 #34 S-11:   WELL
 FLD .             TEAPOT:   FIELD
 LOC .      S11 T38N R78W:   LOCATION
 CNTY.            NATRONA:   COUNTY
 STAT.            WYOMING:   STATE
 CTRY. UNITED STATES OF AMERICA:   COUNTRY
 SRVC.       Schlumberger:   SERVICE COMPANY
 DATE.        10-JUL-1962:   LOGDATE
 API .       490250635000:   API NUMBER
~CURVE INFORMATION
#MNEM.UNIT       API CODE    CURVE DESCRIPTION
#----------   ------------   ------------------------------
 DEPT.F                  :   
 SPR .MV     05 010 01 00:   SPONTANEOUS POTENTIAL FROM RES.
 ASN .OHMM   05 041 16 00:   AMPLIFIED SHORT NORMAL 16"
 ILD .OHMM   05 120 46 00:   INDUCTION LOG DEEP
 GR  .GAPI   30 310 01 00:   GAMMA RAY
 CALM.IN     15 280 01 00:   CALIPER FROM MICRO LOG
 CILD.MMHO   05 110 46 00:   CONDUCTIVITY INDUCTION LOG DEEP
~PARAMETER INFORMATION
#MNEM.UNIT          VALUE    DESCRIPTION
#----------   ------------   ------------------------------
 CLNT.            A2DTECH:   CLIENT CODE
 UWI .       490250635000:   UNIQUE WELL ID
 DICO. A2D Technologies, Inc.:   DIGITIZING COMPANY
~OTHER INFORMATION
~A   DEPT      SPR        ASN        ILD         GR       CALM        CILD  
# ...
  392.0000   -68.2203     7.5841     6.8701  -999.2500     7.7419   128.0422
  392.5000   -68.0655     7.5530     6.7136  -999.2500     7.7405   131.2248
  393.0000   -67.6053     7.5067     6.5581  -999.2500     7.7388   139.0510
  393.5000   -67.1451     7.3846     6.4782  -999.2500     7.7375   147.7643
  394.0000   -66.9907     7.1866     6.1716  -999.2500     7.7361   158.3508
  394.5000   -66.5304     6.9278     5.8650  -999.2500     7.7348   166.6781
  395.0000   -66.3760     6.5477     5.6340  -999.2500     7.7334   168.2284
  395.5000   -66.3745     6.4104     5.5540  -999.2500     7.7321   167.5086
  396.0000   -66.3730     6.4704     5.5496  -999.2500     7.7307   166.0468
  396.5000   -66.3715     6.4896     5.5451  -999.2500     7.7449   163.8431
  397.0000   -66.2171     6.5296     5.6917  -999.2500     7.7432   161.6283
  397.5000   -66.2156     6.7564     5.8384  -999.2500     7.7571   158.6606
  398.0000   -66.6973     7.1575     5.9879  -999.2500     7.7557   154.1868
  398.5000   -67.4358     7.4112     6.1400  -999.2500     7.7543   146.5137
  399.0000   -67.4340     7.4522     6.5036  -999.2500     7.7530   135.8285
  399.5000   -67.1266     7.4665     6.8013  -999.2500     7.7516   128.7282
  400.0000   -66.9564     7.5015     7.0696  -999.2500     7.7350   127.2318
  400.5000   -66.7595     7.5660     7.2489  -999.2500     7.7337   126.9429
  401.0000   -66.8308     7.6170     7.3216  -999.2500     7.7323   126.6540
  401.5000   -67.1208     7.6622     7.3194  -999.2500     7.7310   126.3651
  402.0000   -66.9379     7.6771     7.2417  -999.2500     7.7296   126.0761
  402.5000   -66.2000     7.6768     7.0884  -999.2500     7.7283   126.7393
  403.0000   -66.3514     7.6613     7.0106  -999.2500     7.7269   127.5368
  403.5000   -66.5032     7.6590     6.9328  -999.2500     7.7255   129.8403
  404.0000   -66.3484     7.5241     6.9301  -999.2500     7.7242   132.1437
  404.5000   -66.3469     7.3568     6.9278  -999.2500     7.7228   133.6942
  405.0000   -66.4983     7.1896     7.0017  -999.2500     7.7215   135.9977
  405.5000   -66.4968     7.0679     6.9234  -999.2500     7.7353   137.5481
  406.0000   -66.4952     7.0069     6.9212  -999.2500     7.7339   141.3576
  406.5000   -66.4937     6.8852     6.6923  -999.2500     7.7326   148.1792
  407.0000   -66.4922     6.6725     6.1614  -999.2500     7.7465   158.0128
  407.5000   -66.4907     6.4142     5.7060  -999.2500     7.7451   170.1054
  408.0000   -66.4892     6.1408     5.1751  -999.2500     7.7434   185.9144
  408.5000   -66.3348     5.8522     4.7952  -999.2500     7.7421   207.3946
  409.0000   -66.3333     5.5484     4.6419  -999.2500     7.7407   212.4185
  409.5000   -66.1789     5.3812     4.5642  -999.2500     7.7393   212.4630
  410.0000   -66.3303     5.4871     4.5619  -999.2500     7.7380   211.0014
  410.5000   -66.1758     5.4372     4.5597  -999.2500     7.7366   209.5398
  411.0000   -65.5627     5.3651     4.7185  -999.2500     7.7353   206.5722
  411.5000   -65.2553     5.7744     4.9323  -999.2500     7.7339   203.6046
  412.0000   -65.5780     6.3660     5.3077  -999.2500     7.7325   195.3659
  412.5000   -66.3481     6.6995     5.7587  -999.2500     7.7467   170.5609
  413.0000   -67.3911     6.7751     6.0591  -999.2500     7.7450   155.5451
  413.5000   -67.3896     6.7748     6.5851  -999.2500     7.7437   147.3064
  414.0000   -67.3881     6.9110     6.6589  -999.2500     7.7423   141.3268
  414.5000   -67.3866     7.1839     6.8072  -999.2500     7.7410   137.6062
  415.0000   -67.3851     7.4264     6.8810  -999.2500     7.7396   135.3916
  415.5000   -67.3836     7.5475     6.8783  -999.2500     7.7383   134.6830
  416.0000   -66.4646     7.5927     6.9521  -999.2500     7.7369   133.9744
  416.5000   -65.8515     7.6228     6.9493  -999.2500     7.7355   132.5128
  417.0000   -66.9203     7.6832     6.9471  -999.2500     7.7342   131.0513
  417.5000   -66.7659     7.7891     7.0204  -999.2500     7.7480   128.8478
  418.0000   -66.9177     7.9567     7.1692  -999.2500     7.7467   127.3751
  418.5000   -66.9158     8.0505     7.1770   128.1897     7.7453   125.9135
  419.0000   -67.0676     8.1219     7.2403   133.7952     7.7440   123.7100
  419.5000   -67.3716     8.1975     7.2375   138.3386     7.7274   122.9903
  420.0000   -67.5229     8.3034     7.3114   135.9017     7.7260   122.2817
  420.5000   -67.3685     8.3943     7.4596   135.2857     7.7247   120.8313
  421.0000   -67.3670     8.4091     7.4574   132.2418     7.7233   120.1227
  421.5000   -67.3654     8.4391     7.5313   136.9370     7.7219   119.4141
  422.0000   -67.3558     8.4692     7.5285   141.7861     7.7205   118.7049
  422.5000   -66.9037     8.5296     7.5262   134.6428     7.7192   117.9970
  423.0000   -66.4434     8.5597     7.5240   134.4821     7.7175   118.0421
  423.5000   -66.2887     8.5593     7.5979   122.7887     7.7162   118.0874
  424.0000   -66.1343     8.5894     7.5951   123.3867     7.7148   118.8944
  424.5000   -66.2860     8.6498     7.5929   120.1911     7.7135   121.1979
  425.0000   -66.2841     8.5888     7.5906   110.1669     7.7121   122.7484
  425.5000   -66.2826     8.4337     7.5128   120.5819     7.7107   123.5458
  426.0000   -66.2811     8.2483     7.5106   126.0822     7.7094   123.5903
  426.5000   -66.4329     8.0719     7.5079   112.4764     7.7080   122.8817
  427.0000   -66.5839     7.9805     7.5056   109.6735     7.7067   121.4090
  427.5000   -66.7357     7.9195     7.5034   114.3686     7.7053   120.7004
  428.0000   -66.8867     7.8434     7.5012   123.7678     7.7040   121.5090
  428.5000   -66.8852     7.6913     7.4234   118.7512     7.7026   123.0594
  429.0000   -67.0366     7.4937     7.3457   121.6254     7.7012   126.1159
  429.5000   -67.0351     7.3417     7.1924   113.4244     7.6999   130.6785
  430.0000   -67.0336     7.1593     6.9636   116.4504     7.7141   136.7470
  430.5000   -66.8792     6.9314     6.8103   124.7851     7.7124   142.9167
  431.0000   -66.8776     6.5669     6.5059   122.8057     7.7266   151.6467
  431.5000   -66.7232     6.1872     6.2016   125.9834     7.7249   171.5300
  432.0000   -66.4159     5.8986     5.7462   130.8280     7.7391   187.3877
  432.5000   -66.2615     5.4886     5.2153   121.8660     7.7374   213.0345
  433.0000   -66.1070     4.9805     4.4527   128.4310     7.7513   252.9886
  433.5000   -65.6468     4.5958     3.8411   118.6606     7.7651   295.2017
  434.0000   -65.4658     4.0916     3.0932   104.6911     7.7790   349.4630
  434.5000   -64.8789     3.7119     2.5623   101.0425     7.7776   410.5014
  435.0000   -64.4187     3.4537     2.1824   109.5290     7.7915   449.7025
  435.5000   -63.8055     3.2561     1.9536   113.0124     7.9768   469.3253
  436.0000   -63.0395     3.1041     1.8003   102.2273     8.5985   489.7010
  436.5000   -62.5793     2.9672     1.8736   112.5369     8.7159   490.5974
  437.0000   -62.4249     2.8607     2.0224   131.1926     8.4983   480.0007
  437.5000   -62.5766     2.9969     2.2474   134.6738     7.9546   446.9127
  438.0000   -63.0335     3.2091     2.7733   145.4710     7.7221   404.9370
  438.5000   -63.4907     3.6488     3.2242   142.5465     7.6599   335.7091
  439.0000   -64.2537     4.1493     3.8262   145.2690     7.6737   251.2740
  439.5000   -64.7109     4.6498     4.2772   128.8715     7.6724   208.3967
  440.0000   -65.1681     5.1047     4.6526   151.3185     7.6710   187.3568
  440.5000   -65.4728     5.4898     5.0280   157.9863     7.6696   174.6000
  441.0000   -65.6239     5.7627     5.2623   161.1640     7.6683   163.3493
  441.5000   -65.6223     5.9080     5.6272   154.9335     7.6669   155.1106
  442.0000   -65.6208     5.9532     5.7011   135.3494     7.6656   151.3900
  442.5000   -65.7722     5.9833     5.8499   132.4572     7.6642   155.9525
  443.0000   -65.7706     6.0285     5.8471   135.7866     7.6629   163.5271
  443.5000   -65.7691     6.0738     5.8449   133.6532     7.6615   171.8546
