~VERSION INFORMATION
 VERS.                2.0:   CWLS LOG ASCII STANDARD - VERSION 2.0
 WRAP.                 NO:   ONE LINE PER DEPTH STEP
~WELL INFORMATION
#MNEM.UNIT      DATA TYPE    INFORMATION
#----------   ------------   ------------------------------
 STRT.F           61.0000:   START DEPTH
 STOP.F          527.0000:   STOP DEPTH
 STEP.F            0.5000:   STEP LENGTH
 NULL.          -999.2500:   NO VALUE
 COMP.       F D SERV INC:   COMPANY
 WELL.  82-5 SX 10 #82-10:   WELL
 FLD .             TEAPOT:   FIELD
 LOC .      S10 T38N R78W:   LOCATION
 CNTY.            NATRONA:   COUNTY
 STAT.            WYOMING:   STATE
 CTRY. UNITED STATES OF AMERICA:   COUNTRY
 SRVC.     Atlas Wireline:   SERVICE COMPANY
 DATE.        08-FEB-1993:   LOGDATE
 API .       490252258800:   API NUMBER
~CURVE INFORMATION
#MNEM.UNIT       API CODE    CURVE DESCRIPTION
#----------   ------------   ------------------------------
 DEPT.F                  :   
 C13 .IN     45 280 13 00:   CALIPER
 GRD .GAPI   45 310 01 00:   GAMMA RAY FROM DENSITY LOG
 NPHI.DEC    42 890 03 00:   NEUTRON POROSITY SANDSTONE
 PORZ.DEC    45 890 12 00:   DENSITY POROSITY SANDSTONE
 ZCOR.G/C3   45 356 01 00:   DENSITY CORRECTION
 ZDEN.G/C3   45 350 01 00:   BULK DENSITY
 RILD.OHMM   07 120 46 00:   INDUCTION LOG DEEP RESISTIVITY
 RILM.OHMM   07 120 44 00:   RESITIVITY LONG MEDIUM
~PARAMETER INFORMATION
#MNEM.UNIT          VALUE    DESCRIPTION
#----------   ------------   ------------------------------
 PD  .                 GL:   PERMANENT DATUM
 EPD .F              5166:   ELEVATION PERMANENT DATUM
 LMF .                 KB:   LOG MEASURED FROM
 DAPD.F                10:   FEET ABOVE PERMANENT DATUM
 DMF .                 KB:   DRILLING MEASURED FROM
 EKB .F              5176:   KELLING BUSHING
 EDF .F              5175:   DRILLING FLOOR
 EGL .F              5166:   GROUND LEVEL
 DATE.        08-FEB-1993:   RUN DATE
 RUN .                  1:   RUN NUMBER
 DD  .F               530:   DEPTH DRILLER
 DL  .F               532:   DEPTH LOGGER
 BLI .F               529:   BOTTOM LOG INTERVAL
 TLI .F                96:   TOP LOG INTERVAL
 CS  .IN            8.625:   CASING SIZE
 CBD .F                90:   CASING BOTTOM DRILLER
 CBL .F                96:   CASING BOTTOM LOGGER
 BS  .IN            7.875:   BIT SIZE
 BSD .F               530:   BIT SIZE AT DEPTH
 DFT .                AIR:   DRILLING FLUID TYPE
 MRT .F                60:   MAXIMUM RECORDED TEMPERATURE
 LUN .            HL 6274:   LOGGING UNIT NUMBER
 LUL .             CASPER:   LOGGING UNIT LOCATION
 ENGI.          V. RAUTIO:   RECORDING ENGINEER
 WITN.          G. STRONG:   WITNESSED BY
 CLNT.            A2DTECH:   CLIENT CODE
 ORIG.           5" PRINT:   ORIGIN OF DATA
 UWI .       490252258800:   UNIQUE WELL ID
 DICO. A2D Technologies, Inc.:   DIGITIZING COMPANY
~OTHER INFORMATION
~A   DEPT      C13        GRD       NPHI       PORZ       ZCOR       ZDEN       RILD       RILM   
# ...
  425.5000     7.9773   147.5099     0.2613     0.1674     0.0082     2.3748    19.5234    18.5992
  426.0000     7.9771   145.7717     0.2610     0.1641     0.0083     2.3713    18.9922    18.2188
  426.5000     8.0071   148.4755     0.2625     0.1556     0.0098     2.3788    18.7332    17.9589
  427.0000     8.0069   148.7711     0.2640     0.1490     0.0113     2.3945    18.6062    17.6029
  427.5000     7.9917   144.8484     0.2649     0.1448     0.0053     2.4088    18.4807    17.6058
  428.0000     7.9765   142.4331     0.2646     0.1445    -0.0007     2.4126    18.4838    17.6081
  428.5000     7.9914   142.7287     0.2637     0.1484    -0.0021     2.4096    18.2311    17.6104
  429.0000     8.0063   143.0243     0.2622     0.1553     0.0024     2.3982    17.9831    17.6133
  429.5000     8.0062   142.7161     0.2604     0.1605     0.0084     2.3848    17.9854    17.3731
  430.0000     8.0060   143.0117     0.2589     0.1626     0.0144     2.3796    17.9884    17.1362
  430.5000     8.0058   142.7048     0.2592     0.1617     0.0204     2.3788    17.9907    17.1243
  431.0000     8.0057   142.0954     0.2616     0.1595     0.0234     2.3849    17.8688    16.9047
  431.5000     8.0206   140.5838     0.2637     0.1550     0.0174     2.3924    17.7477    16.7901
  432.0000     8.0204   139.3733     0.2640     0.1490     0.0069     2.4014    17.6274    16.5617
  432.5000     8.0203   139.9687     0.2628     0.1478     0.0040     2.4075    17.5080    16.5640
  433.0000     8.0051   141.1679     0.2604     0.1463     0.0025     2.4104    16.7976    16.6818
  433.5000     8.0200   141.7661     0.2592     0.1451     0.0085     2.4119    16.5685    16.6840
  434.0000     8.0950   141.7430     0.2580     0.1424     0.0100     2.4134    16.2298    16.0065
  434.5000     8.0648   140.5473     0.2598     0.1406     0.0054     2.4157    15.8979    15.4478
  435.0000     8.0195   139.6380     0.2610     0.1400     0.0025     2.4187    15.6811    15.0431
  435.5000     8.0043   138.7288     0.2616     0.1430     0.0026     2.4119    15.2548    14.7355
  436.0000     7.9892   135.1073     0.2610     0.1454     0.0011     2.4097    14.9434    14.7374
  436.5000     7.9740   134.8005     0.2594     0.1388    -0.0004     2.4210    14.8416    14.5364
  437.0000     7.9757   135.3973     0.2570     0.1310    -0.0004     2.4292    14.6397    14.4384
  437.5000     8.0037   136.9479     0.2561     0.1292     0.0026     2.4360    14.4401    14.1431
  438.0000     8.0036   139.9027     0.2558     0.1286     0.0026     2.4375    14.4425    14.1450
  438.5000     8.0035   141.4032     0.2567     0.1274     0.0027     2.4390    14.2450    13.9521
  439.0000     7.9882   142.3012     0.2555     0.1256     0.0027     2.4405    14.1485    13.8575
  439.5000     8.0032   141.0893     0.2552     0.1241     0.0042     2.4436    14.0531    13.8598
  440.0000     7.9880   137.4692     0.2555     0.1217     0.0104     2.4480    14.0554    13.8616
  440.5000     8.0029   138.9696     0.2567     0.1205     0.0162     2.4496    13.9601    13.8639
  441.0000     8.0027   140.1688     0.2561     0.1220     0.0177     2.4511    13.8651    13.8657
  441.5000     7.9875   141.0654     0.2549     0.1219     0.0132     2.4496    13.8182    13.8675
  442.0000     7.9874   141.9634     0.2546     0.1198     0.0087     2.4511    13.7733    13.7735
  442.5000     7.9872   144.6687     0.2561     0.1177     0.0058     2.4556    13.8714    13.6806
  443.0000     7.9871   150.0833     0.2576     0.1144     0.0058     2.4601    13.7769    13.5875
  443.5000     7.9869   151.8849     0.2585     0.1120     0.0028     2.4646    13.8750    13.4954
  444.0000     7.9867   152.7843     0.2591     0.1096    -0.0032     2.4676    13.8773    13.4043
  444.5000     8.0017   150.6675     0.2591     0.1105    -0.0076     2.4676    13.8791    13.2216
  445.0000     7.9865   146.7462     0.2591     0.1105    -0.0091     2.4676    13.7846    13.1324
  445.5000     7.9713   147.6442     0.2588     0.1111    -0.0031     2.4669    13.6816    13.1341
  446.0000     7.9711   150.6506     0.2582     0.1123     0.0029     2.4662    13.4907    13.2272
  446.5000     7.9559   148.5352     0.2588     0.1129     0.0029     2.4639    13.4134    13.2293
  447.0000     7.9558   146.4211     0.2615     0.1135     0.0029     2.4617    13.3228    13.2310
  447.5000     7.9406   145.2107     0.2639     0.1117     0.0059     2.4669    13.2756    13.0506
  448.0000     7.9404   146.1084     0.2651     0.1060     0.0089     2.4737    13.1430    12.6955
  448.5000     7.9403   145.8004     0.2651     0.1039     0.0059     2.4767    12.9642    12.6975
  449.0000     7.9552   145.7948     0.2651     0.1039     0.0060     2.4767    12.8763    12.6992
  449.5000     7.9550   146.7059     0.2645     0.1045     0.0120     2.4767    12.7890    12.7008
  450.0000     7.9563   149.8395     0.2648     0.1036     0.0178     2.4782    12.7779    12.5277
  450.5000     7.9655   154.5181     0.2666     0.0997     0.0225     2.4829    12.6147    12.4970
  451.0000     7.9846   156.6265     0.2685     0.0976     0.0165     2.4877    12.4447    12.4664
  451.5000     7.9996   156.0241     0.2703     0.0985     0.0120     2.4888    12.5329    12.4437
  452.0000     7.9543   155.1205     0.2720     0.1024     0.0105     2.4798    12.4479    12.3588
  452.5000     7.9391   154.5181     0.2708     0.1072     0.0091     2.4738    12.5365    12.3596
  453.0000     7.9239   153.3132     0.2690     0.1081     0.0031     2.4715    12.5382    12.3604
  453.5000     7.9087   151.2048     0.2662     0.1027    -0.0014     2.4805    12.5398    12.3612
  454.0000     7.8935   152.4096     0.2638     0.0987    -0.0014     2.4865    12.6287    12.3622
  454.5000     7.8934   151.5060     0.2641     0.1002    -0.0029     2.4828    12.5431    12.3630
  455.0000     7.8932   149.6988     0.2660     0.1036    -0.0028     2.4776    12.6324    12.3638
  455.5000     7.8931   150.6024     0.2674     0.1038    -0.0013     2.4768    12.6340    12.2792
  456.0000     7.8929   151.2048     0.2674     0.1050    -0.0013     2.4753    12.5488    12.1110
  456.5000     7.8928   152.1084     0.2668     0.1059    -0.0028     2.4746    12.5505    12.0281
  457.0000     7.8926   153.3132     0.2662     0.1050    -0.0013     2.4746    12.4650    12.0291
  457.5000     7.8925   153.6145     0.2659     0.1026     0.0002     2.4783    12.4670    11.9468
  458.0000     7.9074   150.6024     0.2659     0.1002     0.0017     2.4829    12.2125    11.8651
  458.5000     7.9072   149.0964     0.2656     0.0993    -0.0027     2.4837    12.1293    11.7839
  459.0000     7.9221   148.7952     0.2650     0.1011    -0.0057     2.4806    11.9643    11.6227
  459.5000     7.9220   150.0000     0.2650     0.1038     0.0003     2.4776    11.8012    11.4618
  460.0000     7.9218   152.1084     0.2656     0.1056     0.0033     2.4761    11.5603    11.3066
  460.5000     7.9216   150.6024     0.2662     0.1065     0.0002     2.4754    11.4815    11.1516
  461.0000     7.9365   150.6024     0.2668     0.1059    -0.0027     2.4769    11.3691    11.0752
  461.5000     7.9514   150.6024     0.2665     0.1050    -0.0026     2.4777    11.2828    10.9991
  462.0000     7.9362   150.3012     0.2661     0.1047    -0.0026     2.4784    11.1965    10.9243
  462.5000     7.9210   150.6024     0.2649     0.1044    -0.0026     2.4777    11.0138    10.7748
  463.0000     7.9058   153.6145     0.2646     0.1047    -0.0026     2.4769    10.7206    10.5538
  463.5000     7.9057   156.6265     0.2658     0.1037    -0.0026     2.4784    10.5744    10.4816
  464.0000     7.9206   156.9277     0.2661     0.1025     0.0019     2.4799    10.3582    10.2666
  464.5000     7.9054   152.7108     0.2649     0.1013     0.0064     2.4830    10.2130    10.0562
  465.0000     7.9052   149.3976     0.2631     0.1001     0.0081     2.4860    10.0080     9.9184
  465.5000     7.9051   149.6988     0.2628     0.0989     0.0065     2.4867     9.8037     9.7825
