~VERSION INFORMATION
 VERS.                2.0:   CWLS LOG ASCII STANDARD - VERSION 2.0
 WRAP.                 NO:   ONE LINE PER DEPTH STEP
~WELL INFORMATION
#MNEM.UNIT      DATA TYPE    INFORMATION
#----------   ------------   ------------------------------
 STRT.F           75.0000:   START DEPTH
 STOP.F          859.0000:   STOP DEPTH
 STEP.F            0.5000:   STEP LENGTH
 NULL.          -999.2500:   NO VALUE
 COMP. U S NAVY/INTEX OIL CO:   COMPANY
 WELL.     NPR ##3 14S-35:   WELL
 FLD .             TEAPOT:   FIELD
 LOC .      S35 T39N R78W:   LOCATION
 CNTY.            NATRONA:   COUNTY
 STAT.            WYOMING:   STATE
 CTRY. UNITED STATES OF AMERICA:   COUNTRY
 SRVC. Schlumberger Well Surveying Corp:   SERVICE COMPANY
 DATE.        27-FEB-1961:   LOGDATE
 API .       490251023000:   API NUMBER
~CURVE INFORMATION
#MNEM.UNIT       API CODE    CURVE DESCRIPTION
#----------   ------------   ------------------------------
 DEPT.F                  :   
 GRN .CPS    35 310 30 00:   GAMMA RAY
 SPR .MV     05 010 01 00:   SPONTANEOUS POTENTIAL FROM RES.
 ILD .OHMM   05 120 46 00:   INDUCTION LOG DEEP
 ASN .OHMM   05 041 16 00:   AMPLIFIED SHORT NORMAL 16"
 CILD.MMHO   05 110 46 00:   CONDUCTIVITY INDUCTION LOG DEEP
~PARAMETER INFORMATION
#MNEM.UNIT          VALUE    DESCRIPTION
#----------   ------------   ------------------------------
 PD  .                 GL:   PERMANENT DATUM
 EPD .F              5110:   ELEVATION PERMANENT DATUM
 LMF .                 KB:   LOG MEASURED FROM
 DAPD.F                 4:   FEET ABOVE PERMANENT DATUM
 DMF .                 KB:   DRILLING MEASURED FROM
 EKB .F              5114:   KELLING BUSHING
 EGL .F              5110:   GROUND LEVEL
 DATE.            2-27-61:   RUN DATE
 RUN .                  1:   RUN NUMBER
 DD  .F               862:   DEPTH DRILLER
 DL  .F               860:   DEPTH LOGGER
 BLI .F               859:   BOTTOM LOG INTERVAL
 TLI .F                84:   TOP LOG INTERVAL
 CBD .F                12:   CASING BOTTOM DRILLER
 BS  .IN            7.875:   BIT SIZE
 BSD .F               862:   BIT SIZE AT DEPTH
 DFT .       GEL-OIL EMUL:   DRILLING FLUID TYPE
 DFD .                9.4:   DRILLING FLUID DENSITY
 DFV .                 33:   DRILLING FLUID VISCOSITY
 DFPH.                  8:   DRILLING FLUID PH
 DFL .               19.4:   DRILLING FLUID LOSS
 MSS .          FLOW LINE:   MUD SAMPLE SOURCE
 RMS .OHMM            .76:   RESISTIVITY MUD SAMPLE
 MST .F                73:   MUD SAMPLE TEMPERATURE
 RMF .OHMM            .52:   RESISTIVITY MUD FILTRATE SAMPLE
 MFST.F                73:   MUD FILTRATE SAMPLE TEMPERATURE
 RMC .OHMM            1.7:   RESISTIVITY MUD CAKE
 MCST.F                73:   MUD CAKE SAMPLE TEMPERATURE
 MFSS.                  M:   MUD FILTRATE SAMPLE SOURCE
 MCSS.                  M:   MUD CAKE SAMPLE SOURCE
 RMB .OHMM            .73:   RESISTIVITY MUD AT BHT
 BHT .F                77:   BOTTOM HOLE TEMPERATURE
 TCS .HRS               1:   TIME CURCULATED STOPPED
 MRT .F                77:   MAXIMUM RECORDED TEMPERATURE
 LUN .               2523:   LOGGING UNIT NUMBER
 LUL .               CSPR:   LOGGING UNIT LOCATION
 ENGI.             KNOBEL:   RECORDING ENGINEER
 WITN.          JORGENSEN:   WITNESSED BY
 CLNT.            A2DTECH:   CLIENT CODE
 ORIG.       2", 5" PRINT:   ORIGIN OF DATA
 UWI .       490251023000:   UNIQUE WELL ID
 DICO. A2D Technologies, Inc.:   DIGITIZING COMPANY
~OTHER INFORMATION
~A   DEPT      GRN        SPR        ILD        ASN       CILD   
# ...
  258.0000  -999.2500   -32.4271     6.7942     8.1381   147.5437
  258.5000  -999.2500   -32.3670     7.1829     8.2506   141.9274
  259.0000  -999.2500   -32.3059     7.4574     8.3446   136.7735
  259.5000  -999.2500   -32.2462     7.5893     8.4443   133.9742
  260.0000  -999.2500   -32.1838     7.7425     8.5393   131.3878
  260.5000  -999.2500   -32.1271     7.8816     8.6884   128.8013
  261.0000  -999.2500   -32.0449     8.0292     8.8266   126.2149
  261.5000  -999.2500   -31.9307     8.0724     8.9670   123.6285
  262.0000  -999.2500   -31.8388     8.0687     9.1065   121.7435
  262.5000  -999.2500   -31.7194     8.0699     9.2534   121.7435
  263.0000  -999.2500   -31.7949     8.0557     9.2668   125.1303
  263.5000  -999.2500   -31.9837     7.7927     9.0680   129.6812
  264.0000  -999.2500   -32.1400     7.4504     8.8276   134.9481
  264.5000  -999.2500   -32.3077     7.1204     8.6040   140.2150
  265.0000  -999.2500   -32.4741     6.7855     8.3634   145.4819
  265.5000  -999.2500   -32.6325     6.4529     8.1311   150.7488
  266.0000  -999.2500   -32.8153     6.1191     7.8921   155.8116
  266.5000  -999.2500   -32.8917     5.7862     7.6608   165.6984
  267.0000  -999.2500   -32.8278     5.4515     7.4174   175.2164
  267.5000  -999.2500   -32.7856     5.1208     7.2014   185.5649
  268.0000  -999.2500   -32.7320     4.7819     6.9181   196.4279
  268.5000  -999.2500   -32.6847     4.4677     6.5746   213.6964
  269.0000  -999.2500   -32.6339     4.2175     6.2745   233.9740
  269.5000  -999.2500   -32.5847     3.9996     5.9126   249.6234
  270.0000  -999.2500   -32.5347     3.7809     5.7343   252.0374
  270.5000  -999.2500   -32.4855     3.7488     5.5104   254.4514
  271.0000  -999.2500   -32.4354     3.7549     5.3937   254.6954
  271.5000  -999.2500   -32.3874     3.7681     5.3991   250.9709
  272.0000  -999.2500   -32.3339     3.9996     5.5193   246.9940
  272.5000  -999.2500   -32.3113     4.2815     5.7740   238.9780
  273.0000  -999.2500   -32.4066     4.5569     6.0177   224.2723
  273.5000  -999.2500   -32.4914     4.8331     6.2693   209.0124
  274.0000  -999.2500   -32.5799     5.1132     6.5203   193.7525
  274.5000  -999.2500   -32.6655     5.3580     6.7406   179.8597
  275.0000  -999.2500   -32.7535     5.4763     6.8514   176.7034
  275.5000  -999.2500   -32.8391     5.5814     6.9027   173.8066
  276.0000  -999.2500   -32.9276     5.6629     6.9278   173.6754
  276.5000  -999.2500   -33.0122     5.6612     6.9405   174.9168
  277.0000  -999.2500   -33.0984     5.6733     6.8884   176.3627
  277.5000  -999.2500   -33.0620     5.5799     6.7666   178.4319
  278.0000  -999.2500   -32.9672     5.2835     6.5994   180.8617
  278.5000  -999.2500   -32.8818     4.9918     6.4386   185.4175
  279.0000  -999.2500   -32.7921     4.6725     6.2758   199.2507
  279.5000  -999.2500   -32.7046     4.3490     6.1144   227.0691
  280.0000  -999.2500   -32.6160     3.9932     5.9246   254.8875
  280.5000  -999.2500   -32.5278     3.6430     5.4243   282.5268
  281.0000  -999.2500   -32.4392     3.2856     4.8857   309.9542
  281.5000  -999.2500   -32.3512     2.9721     4.3210   320.9968
  282.0000  -999.2500   -32.2624     2.9266     4.0426   326.1360
  282.5000  -999.2500   -32.1749     2.8949     4.0070   332.9655
  283.0000  -999.2500   -32.0856     2.8854     3.9280   341.0971
  283.5000  -999.2500   -31.9980     2.8188     3.8370   349.2060
  284.0000  -999.2500   -31.9123     2.8679     3.9027   351.7684
  284.5000  -999.2500   -31.9811     3.1174     4.0767   336.1729
  285.0000  -999.2500   -32.0831     3.2976     4.2355   314.4076
  285.5000  -999.2500   -32.1799     3.5422     4.3168   292.6370
  286.0000  -999.2500   -32.2786     3.6398     4.3965   271.0128
  286.5000  -999.2500   -32.3762     3.5404     4.5148   268.7342
  287.0000  -999.2500   -32.4750     3.4792     4.6807   270.8584
  287.5000  -999.2500   -32.5719     3.6386     4.8692   266.0643
  288.0000  -999.2500   -32.6730     3.8548     5.0543   251.7502
  288.5000  -999.2500   -32.7652     4.0580     5.1953   237.4961
  289.0000  -999.2500   -32.8733     4.2676     5.3327   223.2420
  289.5000  -999.2500   -32.8914     4.4742     5.4664   209.9198
  290.0000  -999.2500   -32.9506     4.6563     5.5929   211.3409
  290.5000  -999.2500   -33.0874     4.6018     5.7239   213.7862
  291.0000  -999.2500   -33.0101     4.4788     5.8151   216.2316
  291.5000  -999.2500   -32.9777     4.3716     5.8321   218.6769
  292.0000  -999.2500   -32.9213     4.2570     5.7363   221.1222
  292.5000  -999.2500   -32.8785     4.1482     5.5737   224.1734
  293.0000  -999.2500   -32.8284     4.0293     5.4379   229.9599
  293.5000  -999.2500   -32.7819     3.9056     5.2899   235.9719
  294.0000  -999.2500   -32.7338     3.7692     5.1495   250.0057
  294.5000  -999.2500   -32.6863     3.6203     5.0008   266.8544
  295.0000  -999.2500   -32.6388     3.4794     4.8479   283.7031
  295.5000  -999.2500   -32.5913     3.3274     4.6863   296.7535
  296.0000  -999.2500   -32.5438     3.2208     4.5195   301.5932
  296.5000  -999.2500   -32.4963     3.1614     4.3551   302.6277
  297.0000  -999.2500   -32.4488     3.0933     4.2042   303.6623
  297.5000  -999.2500   -32.4013     3.0296     4.0753   308.8176
  298.0000  -999.2500   -32.3538     2.9633     4.0356   317.0942
  298.5000  -999.2500   -32.3063     2.8987     4.1666   324.1483
  299.0000  -999.2500   -32.2588     2.8327     4.2618   329.2936
  299.5000  -999.2500   -32.2113     2.7686     4.1828   333.8341
  300.0000  -999.2500   -32.1637     2.6992     4.0043   341.3961
  300.5000  -999.2500   -32.1162     2.6175     3.8498   358.2516
  301.0000  -999.2500   -32.0687     2.5089     3.6902   377.4054
  301.5000  -999.2500   -32.0211     2.3913     3.5225   401.1939
  302.0000  -999.2500   -31.9734     2.2799     3.3897   424.9497
  302.5000  -999.2500   -31.9257     2.1583     3.2933   448.9746
  303.0000  -999.2500   -31.8783     2.0654     3.1965   472.9928
  303.5000  -999.2500   -31.8299     2.0383     3.0701   463.3397
  304.0000  -999.2500   -31.7839     2.1806     3.1141   446.9659
  304.5000  -999.2500   -31.7316     2.4472     3.2525   433.3667
  305.0000  -999.2500   -31.7137     2.6787     3.3682   400.6012
  305.5000  -999.2500   -31.8305     2.9301     3.4928   372.8691
  306.0000  -999.2500   -31.9335     3.1635     3.7009   339.7484
  306.5000  -999.2500   -32.0411     3.4260     4.0790   306.6277
  307.0000  -999.2500   -32.1446     3.6396     4.4658   273.5070
  307.5000  -999.2500   -32.2523     3.7436     4.8289   248.9855
  308.0000  -999.2500   -32.3542     3.8584     4.8691   235.9719
  308.5000  -999.2500   -32.4661     3.8574     4.8294   242.9860
  309.0000  -999.2500   -32.4887     3.8653     4.7588   250.3674
  309.5000  -999.2500   -32.3229     3.8362     4.6898   262.4208
  310.0000  -999.2500   -32.1714     3.6188     4.5378   277.5351
  310.5000  -999.2500   -32.0132     3.4095     4.3970   289.0782
  311.0000  -999.2500   -31.8599     3.1961     4.2529   309.1909
  311.5000  -999.2500   -31.7028     2.9891     4.1111   328.9106
  312.0000  -999.2500   -31.5494     2.7731     3.9681   355.7337
  312.5000  -999.2500   -31.3915     2.5717     3.8260   382.5568
  313.0000  -999.2500   -31.2394     2.3434     3.6829   409.3799
  313.5000  -999.2500   -31.0975     2.2472     3.5415   435.3707
  314.0000  -999.2500   -31.1818     2.2451     3.3935   452.4048
  314.5000  -999.2500   -31.3526     2.3416     3.2947   457.4148
  315.0000  -999.2500   -31.5023     2.5128     3.4373   429.1583
  315.5000  -999.2500   -31.6600     2.6508     3.5684   403.9679
  316.0000  -999.2500   -31.8151     2.7609     3.8107   378.7776
  316.5000  -999.2500   -31.9687     3.0120     4.0300   349.1984
  317.0000  -999.2500   -32.1282     3.3698     4.5539   319.9461
  317.5000  -999.2500   -32.2756     3.7091     5.2291   284.5222
  318.0000  -999.2500   -32.4455     4.0529     5.6822   249.0982
  318.5000  -999.2500   -32.4518     4.4013     5.8235   213.9279
