~VERSION INFORMATION
 VERS.                2.0:   CWLS LOG ASCII STANDARD - VERSION 2.0
 WRAP.                 NO:   ONE LINE PER DEPTH STEP
~WELL INFORMATION
#MNEM.UNIT      DATA TYPE    INFORMATION
#----------   ------------   ------------------------------
 STRT.F           82.0000:   START DEPTH
 STOP.F          750.0000:   STOP DEPTH
 STEP.F            0.5000:   STEP LENGTH
 NULL.          -999.2500:   NO VALUE
 COMP. U S NAVY/INTEX OIL CO:   COMPANY
 WELL.      GOVT #18-S-35:   WELL
 FLD .             TEAPOT:   FIELD
 LOC .      S35 T39N R78W:   LOCATION
 CNTY.            NATRONA:   COUNTY
 STAT.            WYOMING:   STATE
 CTRY. UNITED STATES OF AMERICA:   COUNTRY
 SRVC. Schlumberger Well Surveying Corp:   SERVICE COMPANY
 DATE.        19-JUL-1962:   LOGDATE
 API .       490250649300:   API NUMBER
~CURVE INFORMATION
#MNEM.UNIT       API CODE    CURVE DESCRIPTION
#----------   ------------   ------------------------------
 DEPT.F                  :   
 SPR .MV     05 010 01 00:   SPONTANEOUS POTENTIAL
 ILD .OHMM   05 120 46 00:   INDUCTION LOG DEEP
 CILD.MMHO   05 110 46 00:   CONDUCTIVITY INDUCTION LOG DEEP
 ASN .OHMM   05 041 16 00:   AMPLIFIED SHORT NORMAL 16"
 NEUT.NAPI   35 330 01 00:   NEUTRON GAMMA RAY
~PARAMETER INFORMATION
#MNEM.UNIT          VALUE    DESCRIPTION
#----------   ------------   ------------------------------
 PD  .                 GL:   PERMANENT DATUM
 EPD .F              5107:   ELEVATION PERMANENT DATUM
 LMF .                 KB:   LOG MEASURED FROM
 DAPD.F                 5:   FEET ABOVE PERMANENT DATUM
 DMF .                 KB:   DRILLING MEASURED FROM
 EKB .F              5112:   KELLING BUSHING
 EGL .F              5107:   GROUND LEVEL
 DATE.            7-19-62:   RUN DATE
 RUN .                  1:   RUN NUMBER
 DD  .F               745:   DEPTH DRILLER
 DL  .F               745:   DEPTH LOGGER
 BLI .F               744:   BOTTOM LOG INTERVAL
 TLI .F                80:   TOP LOG INTERVAL
 BS  .IN             6.75:   BIT SIZE
 BSD .F               745:   BIT SIZE AT DEPTH
 DFT .       OIL EMULSION:   DRILLING FLUID TYPE
 DFD .                 10:   DRILLING FLUID DENSITY
 DFV .                 46:   DRILLING FLUID VISCOSITY
 DFL .                2.9:   DRILLING FLUID LOSS
 RMS .OHMM           3.75:   RESISTIVITY MUD SAMPLE
 MST .F                87:   MUD SAMPLE TEMPERATURE
 RMF .OHMM           2.65:   RESISTIVITY MUD FILTRATE SAMPLE
 MFST.F                87:   MUD FILTRATE SAMPLE TEMPERATURE
 RMC .OHMM           3.54:   RESISTIVITY MUD CAKE
 MCST.F                87:   MUD CAKE SAMPLE TEMPERATURE
 TCS .HRS              .5:   TIME CURCULATED STOPPED
 LUN .               2503:   LOGGING UNIT NUMBER
 LUL .             CASPER:   LOGGING UNIT LOCATION
 ENGI.             DANNER:   RECORDING ENGINEER
 WITN.          JORGENSEN:   WITNESSED BY
 CLNT.            A2DTECH:   CLIENT CODE
 ORIG.       2", 5" PRINT:   ORIGIN OF DATA
 UWI .       490250649300:   UNIQUE WELL ID
 DICO. A2D Technologies, Inc.:   DIGITIZING COMPANY
~OTHER INFORMATION
~A   DEPT      SPR          ILD      CILD         ASN     NEUT   
   82.0000   -76.9618     4.9899   208.1653     0.4335  -999.2500
   82.5000   -76.7606     4.9934   208.1653     0.4335  -999.2500
   83.0000   -76.1323     5.0043   199.0927     0.5279  -999.2500
   83.5000   -75.5610     5.0130   204.9377     0.6084  -999.2500
   84.0000   -74.3396     5.0239   203.3173     0.8280  -999.2500
   84.5000   -73.0589     5.0348   201.4055     1.0843  -999.2500
   85.0000   -71.7733     5.0457   199.4708     1.3900  -999.2500
   85.5000   -70.5584     5.0566   196.8763     1.7586  -999.2500
   86.0000   -70.3067     5.0676   194.1170     3.3416  -999.2500
   86.5000   -70.0566     5.0782   192.0363     5.0627  -999.2500
   87.0000   -69.8046     5.0910   197.0286     5.1858  -999.2500
   87.5000   -69.3552     4.9862   201.7869     5.1771  -999.2500
   88.0000   -68.8270     4.8311   209.4758     5.0553  -999.2500
   88.5000   -68.2928     4.5995   224.1655     4.9260  -999.2500
   89.0000   -67.7591     4.3325   238.8553     4.7501  -999.2500
   89.5000   -67.1805     4.0647   253.5450     4.5704  -999.2500
   90.0000   -66.4026     3.7980   268.2430     4.3869  -999.2500
   90.5000   -65.6113     3.5679   282.9929     4.1619  -999.2500
   91.0000   -65.2095     3.3923   293.8907     3.9313  -999.2500
   91.5000   -65.0582     3.3154   294.7749     3.7375  -999.2500
   92.0000   -64.9128     3.3150   289.6505     3.6234  -999.2500
   92.5000   -64.7670     3.1666   280.2672     3.2666  -999.2500
   93.0000   -64.6207     3.0264   268.4812     2.3537  -999.2500
   93.5000   -64.4864     3.3114   254.5974     2.1998  -999.2500
   94.0000   -64.4497     4.0255   239.6902     3.5478  -999.2500
   94.5000   -64.4158     4.7581   210.4869     5.0877  -999.2500
   95.0000   -64.3819     5.1595   195.5798     5.3238  -999.2500
   95.5000   -64.3480     5.5278   179.9395     5.5510  -999.2500
   96.0000   -64.3140     5.6905   174.2552     5.7567  -999.2500
   96.5000   -64.2591     5.8610   167.4542     5.8553  -999.2500
   97.0000   -64.1003     6.0167   160.9123     5.9579  -999.2500
   97.5000   -63.9427     6.1003   156.4285     6.0152  -999.2500
   98.0000   -63.7852     6.1857   153.3938     6.0466  -999.2500
   98.5000   -63.6280     6.2711   151.2362     6.1819  -999.2500
   99.0000   -63.4779     6.3563   149.0786     6.3240  -999.2500
   99.5000   -63.3608     6.4013   146.9210     6.4261  -999.2500
  100.0000   -63.2477     6.4013   145.3633     6.4387  -999.2500
  100.5000   -63.1350     6.4016   146.2894     6.4413  -999.2500
  101.0000   -63.0221     6.4050   149.4107     6.4144  -999.2500
  101.5000   -62.9092     6.2598   152.5321     6.3385  -999.2500
  102.0000   -62.7955     6.0838   155.6534     6.2288  -999.2500
  102.5000   -62.6798     5.9073   160.1349     6.0759  -999.2500
  103.0000   -62.7272     5.7311   167.4488     5.9236  -999.2500
  103.5000   -62.7980     5.5559   174.7627     5.7709  -999.2500
  104.0000   -62.8684     5.3787   182.0766     5.6195  -999.2500
  104.5000   -62.9386     5.2269   189.3905     5.4560  -999.2500
  105.0000   -63.0087     5.0023   197.6095     5.2700  -999.2500
  105.5000   -63.0789     4.7824   207.2003     5.0841  -999.2500
  106.0000   -63.1495     4.5623   222.1191     4.8985  -999.2500
  106.5000   -63.2200     4.3421   236.7480     4.7129  -999.2500
  107.0000   -63.2617     4.1218   251.3591     4.5268  -999.2500
  107.5000   -63.1095     3.9029   259.3582     4.3423  -999.2500
  108.0000   -62.9571     3.7889   261.1118     4.1994  -999.2500
  108.5000   -62.7802     3.8108   260.3571     4.3271  -999.2500
  109.0000   -62.5695     3.8315   259.5766     4.4082  -999.2500
  109.5000   -62.3594     3.8535   260.5968     4.2929  -999.2500
  110.0000   -62.1487     3.8716   261.5927     4.1832  -999.2500
  110.5000   -61.9383     4.0785   251.6644     4.2255  -999.2500
  111.0000   -61.7161     4.3633   239.8243     4.4374  -999.2500
  111.5000   -61.8461     4.6521   223.2229     4.6484  -999.2500
  112.0000   -62.0876     4.9394   206.6215     4.8158  -999.2500
  112.5000   -62.3316     5.0717   194.0524     4.8290  -999.2500
  113.0000   -62.5747     5.0307   192.7644     4.8454  -999.2500
  113.5000   -62.8263     4.9903   193.0736     4.8489  -999.2500
  114.0000   -62.8290     4.9494   195.8240     4.8493  -999.2500
  114.5000   -62.7652     4.9088   198.5896     4.8463  -999.2500
  115.0000   -62.7000     4.8685   201.3456     4.7930  -999.2500
  115.5000   -62.6354     4.8301   204.1331     4.7302  -999.2500
  116.0000   -62.5710     4.7766   212.7277     4.6399  -999.2500
  116.5000   -62.5066     4.3946   226.1769     4.5070  -999.2500
  117.0000   -62.4422     4.1499   247.2625     4.2949  -999.2500
  117.5000   -62.3779     3.6993   282.1974     4.0510  -999.2500
  118.0000   -62.3130     3.2560   331.0887     3.8065  -999.2500
  118.5000   -62.2184     2.8131   379.8719     3.5620  -999.2500
  119.0000   -62.0727     2.3681   426.3206     3.3180  -999.2500
  119.5000   -61.9276     2.1706   455.3730     3.0724  -999.2500
  120.0000   -61.7823     2.1665   473.0415     2.9591  -999.2500
  120.5000   -61.6363     2.1751   480.3427     2.9532  -999.2500
  121.0000   -61.4839     2.2148   465.8638     2.9532  -999.2500
  121.5000   -61.6999     2.2511   452.0487     2.9535  -999.2500
  122.0000   -61.9779     2.4242   431.5716     2.9537  -999.2500
  122.5000   -62.2557     2.6846   384.8236     3.0821  -999.2500
  123.0000   -62.4733     3.0817   338.0756     3.3390  -999.2500
  123.5000   -62.4283     3.5304   291.3276     3.6671  -999.2500
  124.0000   -62.3890     3.9835   250.6740     3.9794  -999.2500
  124.5000   -62.3499     4.4413   221.2702     4.1806  -999.2500
  125.0000   -62.3109     4.5855   210.1815     4.3197  -999.2500
  125.5000   -62.2719     4.5879   206.1492     4.3312  -999.2500
  126.0000   -62.2329     4.5860   212.2451     4.3123  -999.2500
  126.5000   -62.1940     4.5310   218.6593     4.2927  -999.2500
  127.0000   -62.1550     4.3987   224.1384     4.2734  -999.2500
  127.5000   -62.1163     4.3257   227.1965     4.2543  -999.2500
  128.0000   -62.0812     4.2598   230.2547     4.2348  -999.2500
  128.5000   -61.9357     4.1943   233.3128     4.2070  -999.2500
  129.0000   -61.7795     4.1269   240.2851     4.1666  -999.2500
  129.5000   -61.6231     3.9928   249.8185     4.1232  -999.2500
  130.0000   -61.4674     3.7532   261.1492     4.0013  -999.2500
  130.5000   -61.3050     3.5103   280.9935     3.8703  -999.2500
  131.0000   -61.3139     3.2662   311.2198     3.7395  -999.2500
  131.5000   -61.4010     3.0194   341.4460     3.6225  -999.2500
  132.0000   -61.4894     2.7855   372.4798     3.5132  -999.2500
  132.5000   -61.5792     2.6663   393.6492     3.4030  -999.2500
  133.0000   -61.6612     2.7488   384.6197     3.2929  -999.2500
  133.5000   -61.3305     2.8234   370.4722     3.1938  -999.2500
  134.0000   -61.4525     2.8977   356.2960     3.1764  -999.2500
  134.5000   -61.6862     2.9805   342.2788     3.2471  -999.2500
  135.0000   -61.9174     3.2637   321.2337     3.4338  -999.2500
  135.5000   -61.9916     3.5532   291.9502     3.4653  -999.2500
  136.0000   -61.7431     3.8415   261.8788     3.5010  -999.2500
  136.5000   -61.4886     4.1295   229.5141     3.5810  -999.2500
  137.0000   -61.8551     4.4188   206.4052     4.1670  -999.2500
  137.5000   -61.9074     4.7121   195.3125     4.4883  -999.2500
  138.0000   -61.6763     4.8949   189.3296     4.5953  -999.2500
  138.5000   -61.7533     4.8889   188.0040     4.6945  -999.2500
  139.0000   -61.8228     4.8901   190.7182     4.7861  -999.2500
  139.5000   -61.8953     4.8889   195.8513     4.7708  -999.2500
  140.0000   -61.9700     4.7122   202.3073     4.7552  -999.2500
  140.5000   -62.0480     4.4608   220.2066     4.6011  -999.2500
  141.0000   -61.9352     4.1148   247.0337     4.4062  -999.2500
  141.5000   -61.7274     3.7700   273.9170     4.2101  -999.2500
  142.0000   -61.5162     3.4234   300.8531     4.0065  -999.2500
  142.5000   -61.3038     3.0869   328.1250     3.6899  -999.2500
