~VERSION INFORMATION
 VERS.                2.0:   CWLS LOG ASCII STANDARD - VERSION 2.0
 WRAP.                 NO:   ONE LINE PER DEPTH STEP
~WELL INFORMATION
#MNEM.UNIT      DATA TYPE    INFORMATION
#----------   ------------   ------------------------------
 STRT.F            7.5000:   START DEPTH
 STOP.F         2886.0000:   STOP DEPTH
 STEP.F            0.5000:   STEP LENGTH
 NULL.          -999.2500:   NO VALUE
 COMP. LAWRENCE/ALLISON INC:   COMPANY
 WELL.     16-1 AX #21-21:   WELL
 FLD .             TEAPOT:   FIELD
 LOC .      S21 T39N R78W:   LOCATION
 CNTY.            NATRONA:   COUNTY
 STAT.            WYOMING:   STATE
 CTRY. UNITED STATES OF AMERICA:   COUNTRY
 SRVC.      Dresser Atlas:   SERVICE COMPANY
 DATE.        05-DEC-1986:   LOGDATE
 API .       490251111900:   API NUMBER
~CURVE INFORMATION
#MNEM.UNIT       API CODE    CURVE DESCRIPTION
#----------   ------------   ------------------------------
 DEPT.F                  :   
 GRR .GAPI   07 310 01 00:   GAMMA RAY FROM RES. LOG.
 SPR .MV     07 010 01 00:   SPONTANEOUS POTENTIAL
 RFOC.OHMM   07 220 04 00:   RESISTIVITY FOCUSED LOG
 RILM.OHMM   07 120 44 00:   INDUCTION LOG MEDIUM RESISTIVITY
 RILD.OHMM   07 120 46 00:   INDUCTION LOG DEEP RESISTIVITY
 CALD.IN     45 280 60 00:   CALIPER
 DEN .G/C3   45 350 01 00:   BULK DENSITY
 CORR.G/C3   45 356 01 00:   DENSITY CORRECTION
 CNC .DEC    42 890 03 00:   NEUTRON POROSITY SANDSTONE
 PORD.DEC    45 890 12 00:   DENSITY POROSITY SANDSTONE
~PARAMETER INFORMATION
#MNEM.UNIT          VALUE    DESCRIPTION
#----------   ------------   ------------------------------
 PD  .                 GL:   PERMANENT DATUM
 EPD .F              4992:   ELEVATION PERMANENT DATUM
 LMF .                 KB:   LOG MEASURED FROM
 DAPD.F                12:   FEET ABOVE PERMANENT DATUM
 DMF .                 KB:   DRILLING MEASURED FROM
 EKB .F              5004:   KELLING BUSHING
 EGL .F              4992:   GROUND LEVEL
 DATE.            12-5-86:   RUN DATE
 RUN .                  1:   RUN NUMBER
 DD  .F              2905:   DEPTH DRILLER
 DL  .F              2890:   DEPTH LOGGER
 BLI .F              2884:   BOTTOM LOG INTERVAL
 TLI .F              2200:   TOP LOG INTERVAL
 CS  .IN            8.625:   CASING SIZE
 CBD .F               300:   CASING BOTTOM DRILLER
 CBL .F               300:   CASING BOTTOM LOGGER
 BS  .IN            7.875:   BIT SIZE
 BSD .F              2905:   BIT SIZE AT DEPTH
 DFT .        KCL POLYMER:   DRILLING FLUID TYPE
 DFD .                  9:   DRILLING FLUID DENSITY
 DFV .                 36:   DRILLING FLUID VISCOSITY
 DFPH.                9.5:   DRILLING FLUID PH
 DFL .               11.8:   DRILLING FLUID LOSS
 MSS .            MUDTANK:   MUD SAMPLE SOURCE
 RMS .OHMM            .43:   RESISTIVITY MUD SAMPLE
 MST .F                63:   MUD SAMPLE TEMPERATURE
 RMF .OHMM           .348:   RESISTIVITY MUD FILTRATE SAMPLE
 MFST.F                63:   MUD FILTRATE SAMPLE TEMPERATURE
 RMC .OHMM           .538:   RESISTIVITY MUD CAKE
 MCST.F                63:   MUD CAKE SAMPLE TEMPERATURE
 MFSS.               MEAS:   MUD FILTRATE SAMPLE SOURCE
 MCSS.               CALC:   MUD CAKE SAMPLE SOURCE
 RMB .OHMM           .233:   RESISTIVITY MUD AT BHT
 BHT .F               116:   BOTTOM HOLE TEMPERATURE
 TCS .HRS             3.5:   TIME CURCULATED STOPPED
 MRT .F               116:   MAXIMUM RECORDED TEMPERATURE
 LUN .            HL-6274:   LOGGING UNIT NUMBER
 LUL .           GILLETTE:   LOGGING UNIT LOCATION
 ENGI.             RAUTIO:   RECORDING ENGINEER
 WITN.             STRONG:   WITNESSED BY
 CLNT.            A2DTECH:   CLIENT CODE
 ORIG.       2", 5" PRINT:   ORIGIN OF DATA
 UWI .       490251111900:   UNIQUE WELL ID
 DICO. A2D Technologies, Inc.:   DIGITIZING COMPANY
~OTHER INFORMATION
~A    DEPT     GRR        SPR       RFOC       RILM       RILD       CALD        DEN       CORR        CNC       PORD   
# ...
 2352.5000    63.9445   -10.0240    26.5079    26.7541    23.4233     8.6641     2.4530     0.1539     0.2309     0.1187
 2353.0000    65.4570   -10.6135    25.9307    28.3408    25.7693     8.6272     2.4451     0.1587     0.2278     0.1256
 2353.5000    66.5507   -11.2406    26.2048    30.7719    27.9873     8.5908     2.4307     0.1721     0.2144     0.1343
 2354.0000    66.7490   -11.8685    27.2125    33.9704    30.3744     8.5325     2.4220     0.1870     0.1994     0.1393
 2354.5000    67.4093   -12.4967    35.8047    32.4467    30.6691     8.4730     2.4389     0.1911     0.1879     0.1289
 2355.0000    68.8238   -13.2145    49.4043    30.6691    28.7107     8.4742     2.4748     0.1753     0.1861     0.1065
 2355.5000    69.4177   -13.5176    63.3191    30.1827    27.4002     8.4772     2.5101     0.1579     0.1931     0.0838
 2356.0000    68.7192   -13.7275    48.6333    29.7086    25.2312     8.6256     2.5130     0.1257     0.2109     0.0837
 2356.5000    68.5949   -13.6043    35.9355    29.0191    24.9236     8.9597     2.4788     0.0883     0.2301     0.1044
 2357.0000    68.7713   -13.4200    28.3802    28.2082    24.4987     8.9463     2.4494     0.0659     0.2454     0.1252
 2357.5000    68.9512   -13.2347    26.5461    27.4175    23.9294     8.9436     2.4341     0.0515     0.2454     0.1326
 2358.0000    69.1451   -13.0511    24.5264    26.6814    23.4233     8.9473     2.4196     0.0420     0.2364     0.1407
 2358.5000    69.7534   -12.9760    22.8973    25.7049    22.0770     8.9516     2.4090     0.0350     0.2337     0.1469
 2359.0000    71.8479   -13.0302    21.3974    22.6231    20.9083     8.9559     2.4043     0.0421     0.2408     0.1494
 2359.5000    73.1682   -13.0833    19.6145    20.5655    20.1814     8.9583     2.4084     0.0552     0.2499     0.1460
 2360.0000    72.0330   -13.1400    19.6144    21.3583    20.8409     8.9468     2.4112     0.0497     0.2558     0.1442
 2360.5000    67.4920   -13.0921    22.8097    22.7792    21.5752     8.9355     2.3949     0.0382     0.2509     0.1561
 2361.0000    65.6137   -13.0111    26.1710    22.5493    22.3597     8.9240     2.3806     0.0356     0.2435     0.1643
 2361.5000    66.6286   -13.0646    27.1787    22.2484    22.0848     8.9193     2.3769     0.0442     0.2369     0.1655
 2362.0000    66.6892   -13.4320    26.5881    21.9514    21.8057     8.9193     2.3760     0.0552     0.2419     0.1655
 2362.5000    66.1719   -13.7923    25.9446    21.6584    21.2133     8.9197     2.3725     0.0621     0.2486     0.1683
 2363.0000    66.3517   -14.4053    24.7758    21.3694    20.8499     8.9163     2.3709     0.0582     0.2501     0.1692
 2363.5000    70.2387   -15.2166    23.3129    21.1470    20.6881     8.8324     2.3779     0.0491     0.2515     0.1652
 2364.0000    75.4740   -16.0278    21.9364    21.1470    20.5279     8.8183     2.3906     0.0521     0.2530     0.1575
 2364.5000    79.6795   -16.8394    20.7910    21.7934    20.3752     8.8204     2.4055     0.0622     0.2488     0.1473
 2365.0000    78.4332   -17.6508    20.5655    23.2325    21.4040     8.7311     2.4205     0.0793     0.2336     0.1393
 2365.5000    74.1095   -18.4620    23.8226    25.4715    22.4346     8.6299     2.4339     0.0990     0.2125     0.1312
 2366.0000    69.4932   -19.2764    27.1303    26.0420    23.5149     8.5307     2.4540     0.1231     0.2007     0.1208
 2366.5000    68.9475   -19.8485    30.8973    26.2505    24.6472     8.4148     2.5005     0.1705     0.1985     0.0903
 2367.0000    69.7283   -20.2848    33.2025    26.4693    25.6130     8.2981     2.5494     0.2293     0.1990     0.0614
 2367.5000    71.7777   -20.7191    33.6561    26.6898    26.0994     8.2747     2.5773     0.2821     0.1892     0.0429
 2368.0000    73.8117   -21.1525    32.0999    26.9273    26.5950     8.2820     2.5585     0.2917     0.1880     0.0489
 2368.5000    75.3328   -21.3869    30.8779    25.0835    26.9273     8.2913     2.5505     0.2950     0.1973     0.0619
 2369.0000    75.3110   -21.3849    30.3381    22.5472    24.6504     8.3006     2.5580     0.2662     0.2081     0.0542
 2369.5000    74.8254   -21.3902    29.3201    20.2675    23.0185     8.3085     2.5521     0.2390     0.2171     0.0542
 2370.0000    74.1691   -21.1473    25.7824    18.5105    21.4946     8.4651     2.5040     0.2116     0.2254     0.0797
 2370.5000    74.8730   -20.8134    22.1282    18.1966    20.0716     8.6996     2.4334     0.1891     0.2298     0.1327
 2371.0000    76.0057   -20.4762    19.7137    17.8893    18.7428     8.7994     2.3928     0.1383     0.2314     0.1620
 2371.5000    77.4032   -20.1350    18.5767    16.9710    17.5019     8.8379     2.3734     0.0521     0.2309     0.1715
 2372.0000    78.7929   -20.2243    17.5053    15.9038    16.3434     8.8391     2.4168     0.0274     0.2308     0.1472
 2372.5000    80.2237   -20.6785    16.4957    14.9967    15.2624     8.8174     2.4486     0.0338     0.2342     0.1205
 2373.0000    80.5186   -21.0873    15.7005    14.4300    14.2462     8.7917     2.4562     0.0441     0.2389     0.1173
 2373.5000    80.5111   -21.4938    15.0263    13.9192    13.3349     8.7700     2.4621     0.0309     0.2433     0.1138
 2374.0000    80.5803   -22.0683    14.3810    12.9134    12.4760     8.7348     2.4649     0.0118     0.2425     0.1127
 2374.5000    82.8931   -22.6915    13.9554    12.1079    11.8364     8.7170     2.4593     0.0091     0.2459     0.1159
 2375.0000    85.3433   -23.3141    13.4737    11.8024    11.5527     8.7162     2.4543     0.0247     0.2465     0.1187
 2375.5000    87.7863   -23.9482    12.5604    11.5581    11.3453     8.7673     2.4656     0.0359     0.2434     0.1132
 2376.0000    90.1274   -24.7184    11.5953    11.7797    11.3606     8.8377     2.4787     0.0280     0.2392     0.1042
 2376.5000    88.1944   -25.1165    11.3453    11.9829    11.3903     8.9056     2.4735     0.0187     0.2325     0.1060
 2377.0000    85.0752   -25.3097    13.0755    12.1896    11.4201     8.9208     2.4651     0.0229     0.2247     0.1131
 2377.5000    83.1772   -25.4977    14.9935    12.4490    11.4512     8.8375     2.4681     0.0237     0.2219     0.1123
 2378.0000    83.6099   -25.5375    14.5420    12.3016    11.5812     8.7268     2.4747     0.0199     0.2307     0.1061
 2378.5000    86.7803   -25.3912    13.5515    12.1098    11.7182     8.6557     2.4749     0.0158     0.2413     0.1057
 2379.0000    88.5374   -25.2467    12.8022    11.9969    11.7875     8.6565     2.4746     0.0176     0.2411     0.1065
 2379.5000    88.2633   -25.2125    13.0424    12.0996    11.8089     8.6742     2.4790     0.0192     0.2382     0.1063
 2380.0000    86.0714   -24.8298    13.6258    12.1747    11.8302     8.7033     2.4846     0.0226     0.2388     0.1015
 2380.5000    83.7622   -24.4130    14.2303    12.2503    11.8516     8.7321     2.4891     0.0372     0.2416     0.0974
 2381.0000    82.3278   -23.9925    14.5813    12.3263    11.8726     8.7723     2.4918     0.0536     0.2441     0.0959
 2381.5000    82.7647   -23.8167    14.2883    12.4028    11.9181     8.7606     2.4946     0.0661     0.2524     0.0944
 2382.0000    83.0816   -23.9599    14.1803    12.4798    11.9909     8.7578     2.4948     0.0661     0.2542     0.0943
 2382.5000    83.4028   -24.1209    14.2793    12.5573    12.0649     8.7561     2.4904     0.0635     0.2333     0.0966
 2383.0000    83.7042   -24.3022    14.3132    12.6828    12.1391     8.6835     2.4861     0.0708     0.2236     0.0999
 2383.5000    84.5126   -24.4912    14.0983    12.8160    12.2138     8.5294     2.4844     0.0890     0.2212     0.1015
 2384.0000    85.5324   -24.6748    13.2871    12.9506    12.2890     8.4195     2.4910     0.1076     0.2247     0.0966
 2384.5000    86.5163   -24.5861    13.3515    13.0424    12.3646     8.3464     2.4989     0.1247     0.2354     0.0913
 2385.0000    86.1908   -24.5724    13.5979    12.9846    12.4407     8.2240     2.4982     0.1286     0.2438     0.0925
 2385.5000    84.1197   -24.4473    14.1691    12.9410    12.5179     8.1094     2.4951     0.1300     0.2420     0.0950
