~VERSION INFORMATION
 VERS.                2.0:   CWLS LOG ASCII STANDARD - VERSION 2.0
 WRAP.                 NO:   ONE LINE PER DEPTH STEP
~WELL INFORMATION
#MNEM.UNIT      DATA TYPE    INFORMATION
#----------   ------------   ------------------------------
 STRT.F           29.0000:   START DEPTH
 STOP.F          720.0000:   STOP DEPTH
 STEP.F            0.5000:   STEP LENGTH
 NULL.          -999.2500:   NO VALUE
 COMP.    FENIX & SCISSON:   COMPANY
 WELL. RES 3 TEAPOT DOM #21-S-14:   WELL
 FLD .        TEAPOT DOME:   FIELD
 LOC .      S14 T38N R78W:   LOCATION
 CNTY.            NATRONA:   COUNTY
 STAT.            WYOMING:   STATE
 CTRY. UNITED STATES OF AMERICA:   COUNTRY
 SRVC.            Unknown:   SERVICE COMPANY
 DATE.        25-MAY-1978:   LOGDATE
 API .       490251063300:   API NUMBER
~CURVE INFORMATION
#MNEM.UNIT       API CODE    CURVE DESCRIPTION
#----------   ------------   ------------------------------
 DEPT.F                  :   
 CALD.IN     45 280 60 00:   CALIPER FROM DENSITY LOG
 CORR.G/C3   45 356 01 00:   DENSITY CORRECTION
 DPHI.DEC    45 890 12 00:   DENSITY POROSITY SANDSTONE
 GRD .GAPI   45 310 01 00:   GAMMA RAY FROM DENSITY LOG
 RHOB.G/C3   45 350 01 00:   BULK DENSITY
 ILD .OHMM   05 120 46 00:   INDUCTION LOG DEEP
 SN  .OHMM   05 040 16 00:   SHORT NORMAL 16"
 SPR .MV     05 010 01 00:   SPONTANEOUS POTENTIAL FROM RES.
~PARAMETER INFORMATION
#MNEM.UNIT          VALUE    DESCRIPTION
#----------   ------------   ------------------------------
 PD  .                 GL:   PERMANENT DATUM
 EPD .F              5232:   ELEVATION PERMANENT DATUM
 LMF .                 KB:   LOG MEASURED FROM
 DAPD.F                 4:   FEET ABOVE PERMANENT DATUM
 DMF .                 KB:   DRILLING MEASURED FROM
 EKB .F              5236:   KELLING BUSHING
 EGL .F              5232:   GROUND LEVEL
 DATE.        25-MAY-1978:   RUN DATE
 RUN .                  1:   RUN NUMBER
 DD  .F               716:   DEPTH DRILLER
 DL  .F               727:   DEPTH LOGGER
 BLI .F               720:   BOTTOM LOG INTERVAL
 TLI .F                44:   TOP LOG INTERVAL
 CS  .IN            8.625:   CASING SIZE
 CBD .F                40:   CASING BOTTOM DRILLER
 CBL .F                44:   CASING BOTTOM LOGGER
 BS  .IN            7.875:   BIT SIZE
 BSD .F               716:   BIT SIZE AT DEPTH
 DFT .                KCL:   DRILLING FLUID TYPE
 DFD .                8.6:   DRILLING FLUID DENSITY
 DFV .                 31:   DRILLING FLUID VISCOSITY
 DFPH.                9.5:   DRILLING FLUID PH
 DFL .               10.8:   DRILLING FLUID LOSS
 MSS .            MUD PIT:   MUD SAMPLE SOURCE
 RMS .OHMM           0.32:   RESISTIVITY MUD SAMPLE
 MST .F                82:   MUD SAMPLE TEMPERATURE
 RMF .OHMM           0.34:   RESISTIVITY MUD FILTRATE SAMPLE
 MFST.F                72:   MUD FILTRATE SAMPLE TEMPERATURE
 RMC .OHMM            0.8:   RESISTIVITY MUD CAKE
 MCST.F                72:   MUD CAKE SAMPLE TEMPERATURE
 MFSS.               MEAS:   MUD FILTRATE SAMPLE SOURCE
 RMB .OHMM           0.35:   RESISTIVITY MUD AT BHT
 BHT .F                74:   BOTTOM HOLE TEMPERATURE
 TCS .HRS               1:   TIME CURCULATED STOPPED
 MRT .F                74:   MAXIMUM RECORDED TEMPERATURE
 LUN .               2958:   LOGGING UNIT NUMBER
 LUL .               CASP:   LOGGING UNIT LOCATION
 ENGI.             MILLER:   RECORDING ENGINEER
 WITN.           MCGINLEY:   WITNESSED BY
 CLNT.            A2DTECH:   CLIENT CODE
 ORIG.           5" PRINT:   ORIGIN OF DATA
 UWI .       490251063300:   UNIQUE WELL ID
 DICO. A2D Technologies, Inc.:   DIGITIZING COMPANY
~OTHER INFORMATION
~A   DEPT     CALD       CORR       DPHI         GRD      RHOB        ILD         SN        SPR   
# ...
  110.0000     7.4159    -0.0167     0.2472    73.2255     2.3058     5.6786     5.5828   -29.2278
  110.5000     7.3131    -0.0196     0.2789    73.9907     2.2498     4.9176     5.2875   -29.2043
  111.0000     7.2847    -0.0133     0.3051    76.8454     2.2088     4.2003     4.9392   -29.4831
  111.5000     7.2870    -0.0011     0.3475    78.9539     2.1580     3.6787     4.3657   -29.7666
  112.0000     7.2889     0.0067     0.3565    80.5155     2.0908     3.0440     3.2917   -30.0454
  112.5000     7.4552     0.0113     0.3597    89.8383     2.0759     2.6912     2.7531   -30.3199
  113.0000     7.5468     0.0085     0.3603    90.8065     2.0745     2.4290     2.3777   -30.3006
  113.5000     7.5487     0.0027     0.3602    90.2284     2.0746     2.1035     2.2116   -30.1101
  114.0000     7.5506     0.0209     0.3375    83.8294     2.0747     1.9784     2.1528   -29.8120
  114.5000     7.4483     0.0779     0.2654    82.3511     2.0908     1.9809     2.2158   -29.3468
  115.0000     7.3606     0.1186     0.2109    81.7777     2.2410     2.0667     2.3117   -28.5840
  115.5000     7.2877     0.0305     0.1720    80.3041     2.3264     2.3137     2.4794   -26.9283
  116.0000     7.2149     0.0007     0.1651    75.0713     2.3556     2.7114     2.7528   -26.3142
  116.5000     7.1420     0.0055     0.1642    69.3003     2.3976     3.2467     3.0352   -25.9978
  117.0000     7.1136     0.0072     0.1638    70.2148     2.3985     3.5549     3.3775   -25.9790
  117.5000     7.1159     0.0104     0.1599    70.6815     2.3971     4.1133     4.0939   -25.8110
  118.0000     7.1029     0.0106     0.1593    68.7601     2.4032     5.8135     6.2459   -25.7879
  118.5000     7.0450     0.0033     0.1607    66.6895     2.4048     6.9627     7.1782   -25.9226
  119.0000     7.0300    -0.0040     0.1706    64.9174     2.4033     8.1121     7.5933   -26.1967
  119.5000     7.0189    -0.0068     0.1807    63.7423     2.3919     9.0688     7.8676   -26.7732
  120.0000     7.0511    -0.0096     0.1863    62.5672     2.3587     9.2672     7.9846   -26.9079
  120.5000     7.0979    -0.0125     0.1986    62.1239     2.3558     9.0260     8.0475   -26.8844
  121.0000     7.1745    -0.0152     0.2063    61.8588     2.3425     8.4327     7.9996   -26.8656
  121.5000     7.2063    -0.0119     0.2222    62.3302     2.3209     7.5590     7.8888   -26.9956
  122.0000     7.2381    -0.0027     0.2425    67.7222     2.2896     6.5460     7.4813   -27.1448
  122.5000     7.2699     0.0169     0.2438    74.6068     2.2717     5.7874     7.0368   -27.5533
  123.0000     7.2867     0.0336     0.2351    84.6258     2.2741     5.5966     6.5280   -27.8321
  123.5000     7.3190     0.0308     0.2022    89.1223     2.2818     5.5638     5.9316   -28.1109
  124.0000     7.3524     0.0071     0.1756    86.7532     2.3289     5.5312     5.2068   -28.2409
  124.5000     7.4125     0.0043     0.1734    80.3542     2.3761     5.5381     4.8302   -28.2174
  125.0000     7.4742     0.0060     0.1707    75.0000     2.3822     5.5821     4.8683   -27.7522
  125.5000     7.5209     0.0047     0.1686    68.0194     2.3853     5.7045     5.1230   -25.7989
  126.0000     7.5377     0.0034     0.1731    63.9978     2.3847     5.8701     5.7585   -24.8770
  126.5000     7.5546     0.0021     0.1791    63.1165     2.3795     6.5166     6.5273   -23.8221
  127.0000     7.5864     0.0024     0.1813    66.7222     2.3714     7.4368     7.3987   -23.2080
  127.5000     7.6481     0.0026     0.1807    68.9800     2.3693     9.0306     7.8808   -22.8916
  128.0000     7.6350     0.0013     0.1794    67.2079     2.3709     9.9565     8.2791   -22.5752
  128.5000     7.6220     0.0000     0.1851    64.6895     2.3693    10.1053     8.5782   -22.2588
  129.0000     7.6239    -0.0028     0.1859    64.1067     2.3651    10.1876     8.9497   -22.2400
  129.5000     7.6113     0.0004     0.1844    64.1303     2.3630    10.3396     9.1509   -21.6259
  130.0000     7.5683     0.0126     0.1805    64.5970     2.3668    10.4938     9.4783   -20.8631
  130.5000     7.5403     0.0143     0.1795    66.3180     2.3729    10.7240     9.8888   -20.6949
  131.0000     7.5422     0.0145     0.1785    68.0724     2.3722    11.3439    10.1755   -20.6720
  131.5000     7.5441     0.0087     0.1768    67.6436     2.3761    11.7539    10.3983   -20.6532
  132.0000     7.5460     0.0044     0.1788    66.0208     2.3807    11.8472    10.5529   -20.6344
  132.5000     7.5479     0.0136     0.1809    65.4379     2.3688    11.9415    10.7098   -20.6156
  133.0000     7.5349     0.0153     0.1764    66.9541     2.3667    12.0389    10.8691   -20.5968
  133.5000     7.5213     0.0108     0.1718    67.1176     2.3814    12.2184    10.9548   -20.5780
  134.0000     7.4938     0.0068     0.1688    64.9024     2.3878    12.4007    10.9654   -20.5592
  134.5000     7.4663     0.0085     0.1670    63.7273     2.3902    12.4991    10.9779   -20.3914
  135.0000     7.4682     0.0057     0.1669    63.7463     2.3955    12.6855    10.9882   -20.2232
  135.5000     7.4701     0.0014     0.1689    65.4671     2.3979    12.7861    10.9985   -20.0517
  136.0000     7.4720     0.0001     0.1773    67.6647     2.3890    12.9768    11.0089   -19.8841
  136.5000     7.4739    -0.0012     0.1794    65.3003     2.3741    12.9985    11.0956   -19.5677
  137.0000     7.4603    -0.0010     0.1793    65.0160     2.3712    13.1869    11.1830   -19.5489
  137.5000     7.4627    -0.0007     0.1841    65.0397     2.3714    13.3835    11.2711   -19.3813
  138.0000     7.4646    -0.0005     0.1894    64.9094     2.3630    13.5831    11.3697   -19.3625
  138.5000     7.4516    -0.0003     0.1858    64.9283     2.3611    13.7857    11.5316   -19.1949
  139.0000     7.4216     0.0014     0.1876    64.9472     2.3582    13.8951    11.6224   -19.1756
  139.5000     7.3956     0.0046     0.1917    64.9661     2.3553    14.0053    11.7140   -19.1526
  140.0000     7.3979     0.0123     0.1907    64.8358     2.3547    14.0194    11.8881   -19.1338
  140.5000     7.3998     0.0305     0.1578    65.0194     2.3600    14.2287    11.9818   -19.2638
  141.0000     7.4017     0.0353     0.1632    66.0724     2.3818    14.3420    12.0762   -19.3985
  141.5000     7.3882     0.0203     0.1658    66.0914     2.3924    14.3594    12.2558   -19.3750
  142.0000     7.3751     0.0116     0.1688    64.9163     2.3933    14.4734    12.4382   -19.3562
  142.5000     7.3775     0.0238     0.1574    64.1889     2.3936    14.4879    12.5389   -19.3374
  143.0000     7.3794     0.0240     0.1484    63.4616     2.4076    14.6029    12.8136   -19.3185
  143.5000     7.3813     0.0212     0.1421    63.3265     2.4250    14.8207    13.0041   -19.1503
  144.0000     7.3832     0.0199     0.1297    67.9771     2.4385    15.0417    13.1974   -19.1275
  144.5000     7.3552     0.0247     0.1064    68.5930     2.4588    15.3732    13.3937   -19.1087
  145.0000     7.2828     0.0279     0.0807    67.5672     2.4724    15.9424    13.6870   -19.2434
  145.5000     7.1502     0.0281     0.0701    64.0344     2.5301    16.7363    14.0838   -19.6664
  146.0000     7.1068     0.0013     0.0674    57.3112     2.5444    17.8263    14.6008   -19.9452
  146.5000     7.1390     0.0076     0.0841    52.8526     2.5487    18.9873    15.2420   -20.0759
  147.0000     7.1858     0.0108     0.0984    49.7372     2.5259    20.0849    16.1087   -20.0564
  147.5000     7.2026     0.0125     0.1074    49.6021     2.5116    21.2460    17.0402   -20.0372
  148.0000     7.2045     0.0142     0.1256    51.4168     2.4858    21.5628    18.0255   -20.0141
  148.5000     6.6957     0.0114     0.1501    56.5104     2.4589    21.2887    18.2935   -19.8465
  149.0000     6.5955     0.0116     0.1668    62.4995     2.4224    20.5616    18.3107   -19.5301
  149.5000     6.6277     0.0103     0.1807    64.3094     2.3971    19.5065    18.0759   -19.2137
  150.0000     6.7069     0.0180     0.1785    64.6269     2.3733    18.6854    17.3586   -19.0508
