~VERSION INFORMATION
 VERS.                2.0:   CWLS LOG ASCII STANDARD - VERSION 2.0
 WRAP.                 NO:   ONE LINE PER DEPTH STEP
~WELL INFORMATION
#MNEM.UNIT      DATA TYPE    INFORMATION
#----------   ------------   ------------------------------
 STRT.F           17.0000:   START DEPTH
 STOP.F         1345.0000:   STOP DEPTH
 STEP.F            0.5000:   STEP LENGTH
 NULL.          -999.2500:   NO VALUE
 COMP. DEPARTMENT OF ENERGY:   COMPANY
 WELL. RES 3 TEAPOT DOME ##86S-11:   WELL
 FLD .             TEAPOT:   FIELD
 LOC .      S11 T38N R78W:   LOCATION
 CNTY.            NATRONA:   COUNTY
 STAT.            WYOMING:   STATE
 CTRY. UNITED STATES OF AMERICA:   COUNTRY
 SRVC.       Schlumberger:   SERVICE COMPANY
 DATE.        13-AUG-1959:   LOGDATE
 API .       490250633200:   API NUMBER
~CURVE INFORMATION
#MNEM.UNIT       API CODE    CURVE DESCRIPTION
#----------   ------------   ------------------------------
 DEPT.F                  :   
 SPR .MV     05 010 01 00:   SPONTANEOUS POTENTIAL FROM RES.
 CILD.MMHO   05 110 46 00:   CONDUCTIVITY INDUCTION LOG DEEP
 ILD .OHMM   05 120 46 00:   INDUCTION LOG DEEP
 ASN .OHMM   05 041 16 00:   AMPLIFIED SHORT NORMAL 16"
~PARAMETER INFORMATION
#MNEM.UNIT          VALUE    DESCRIPTION
#----------   ------------   ------------------------------
 PD  .                 GL:   PERMANENT DATUM
 EPD .F              5295:   ELEVATION PERMANENT DATUM
 LMF .                 KB:   LOG MEASURED FROM
 DAPD.F                 4:   FEET ABOVE PERMANENT DATUM
 DMF .                 KB:   DRILLING MEASURED FROM
 EKB .F              5299:   KELLING BUSHING
 EGL .F              5295:   GROUND LEVEL
 DATE.            8-13-59:   RUN DATE
 RUN .                  1:   RUN NUMBER
 DD  .F              1350:   DEPTH DRILLER
 DL  .F              1350:   DEPTH LOGGER
 BLI .F              1345:   BOTTOM LOG INTERVAL
 TLI .F                17:   TOP LOG INTERVAL
 CBD .F                17:   CASING BOTTOM DRILLER
 CBL .F                17:   CASING BOTTOM LOGGER
 BS  .IN             6.75:   BIT SIZE
 BSD .F              1350:   BIT SIZE AT DEPTH
 DFT .                GEL:   DRILLING FLUID TYPE
 DFD .                9.8:   DRILLING FLUID DENSITY
 DFV .                 65:   DRILLING FLUID VISCOSITY
 DFPH.                9.5:   DRILLING FLUID PH
 DFL .                5.4:   DRILLING FLUID LOSS
 RMS .OHMM           2.84:   RESISTIVITY MUD SAMPLE
 MST .F                69:   MUD SAMPLE TEMPERATURE
 RMF .OHMM            2.5:   RESISTIVITY MUD FILTRATE SAMPLE
 MFST.F                69:   MUD FILTRATE SAMPLE TEMPERATURE
 RMC .OHMM           2.46:   RESISTIVITY MUD CAKE
 MCST.F                69:   MUD CAKE SAMPLE TEMPERATURE
 MFSS.                  M:   MUD FILTRATE SAMPLE SOURCE
 MCSS.                  M:   MUD CAKE SAMPLE SOURCE
 TCS .HRS               1:   TIME CURCULATED STOPPED
 LUN .               2523:   LOGGING UNIT NUMBER
 LUL .               CSPR:   LOGGING UNIT LOCATION
 ENGI.             KNOBEL:   RECORDING ENGINEER
 WITN.             MARTIN:   WITNESSED BY
 CLNT.            A2DTECH:   CLIENT CODE
 ORIG.         2"5" PRINT:   ORIGIN OF DATA
 UWI .       490250633200:   UNIQUE WELL ID
 DICO. A2D Technologies, Inc.:   DIGITIZING COMPANY
~OTHER INFORMATION
~A   DEPT      SPR        CILD         ILD      ASN   
# ...
  820.0000   -17.6331   147.2144     7.2605     7.7539
  820.5000   -17.7426   147.5442     7.2957     7.8649
  821.0000   -17.8322   147.8870     7.3287     7.9619
  821.5000   -17.8431   146.9372     7.3659     8.0692
  822.0000   -17.8265   145.9481     7.3954     8.1664
  822.5000   -17.6990   144.9590     7.4402     8.2654
  823.0000   -17.5660   143.9699     7.3979     8.1950
  823.5000   -17.4351   142.9807     7.2633     7.9970
  824.0000   -17.3030   144.2422     7.1433     7.8199
  824.5000   -17.1714   147.8690     7.0153     7.6289
  825.0000   -17.0396   151.4957     6.8925     7.4508
  825.5000   -16.9076   155.1225     6.7653     7.2556
  826.0000   -16.7767   158.7493     6.6431     7.1473
  826.5000   -16.6438   161.3141     6.5130     7.1077
  827.0000   -16.5143   162.8684     6.4335     7.0711
  827.5000   -16.3996   164.4227     6.4030     7.1445
  828.0000   -16.4956   165.9307     6.3634     7.2817
  828.5000   -16.6769   166.2419     6.3297     7.4071
  829.0000   -16.8279   166.5442     6.2905     7.5270
  829.5000   -16.9980   166.8329     6.2754     7.4697
  830.0000   -17.1164   166.8329     6.2887     7.3246
  830.5000   -17.1204   166.8329     6.3003     7.1969
  831.0000   -17.1231   166.8329     6.3122     7.0594
  831.5000   -17.0904   166.8329     6.3253     6.9431
  832.0000   -17.0274   166.8329     6.3349     6.9515
  832.5000   -16.9862   164.2466     6.3517     7.1119
  833.0000   -16.9273   161.0438     6.3538     7.2780
  833.5000   -17.0798   157.2659     6.4403     7.4419
  834.0000   -17.5907   153.4881     6.5951     7.6086
  834.5000   -18.1022   149.7101     6.7336     7.7709
  835.0000   -18.6674   145.9323     6.8774     7.9395
  835.5000   -18.7465   140.6695     7.0224     8.0257
  836.0000   -18.6115   142.5957     7.1596     8.0557
  836.5000   -18.4564   145.7691     7.3136     8.0776
  837.0000   -18.2958   146.9848     7.3143     8.0965
  837.5000   -18.1384   147.1878     7.2004     8.0473
  838.0000   -17.9790   147.3691     7.1120     7.9519
  838.5000   -17.8203   147.5848     7.0111     7.8704
  839.0000   -17.6612   147.7823     6.9175     7.7822
  839.5000   -17.4968   147.9467     6.8190     7.6982
  840.0000   -17.4812   151.5728     6.7248     7.6107
  840.5000   -17.6033   154.7259     6.6245     7.5292
  841.0000   -17.7551   157.8789     6.5521     7.4618
  841.5000   -17.9029   160.5191     6.5673     7.4385
  842.0000   -18.0541   162.3263     6.5848     7.4120
  842.5000   -18.2000   162.3219     6.6045     7.3927
  843.0000   -18.3549   161.7085     6.6196     7.3825
  843.5000   -18.4940   158.2928     6.6492     7.4281
  844.0000   -18.6654   155.0287     6.7596     7.4957
  844.5000   -18.6861   152.3979     6.8635     7.5769
  845.0000   -18.5204   148.0674     6.9677     7.8250
  845.5000   -18.3805   144.4406     7.0715     8.0521
  846.0000   -18.2258   140.8139     7.1760     8.2832
  846.5000   -18.0809   137.1871     7.2795     8.5100
  847.0000   -17.9273   133.5603     7.3635     8.7097
  847.5000   -17.7845   131.6477     7.3501     8.7882
  848.0000   -17.6238   132.9649     7.4449     8.5907
  848.5000   -17.5040   134.3542     7.5200     8.4079
  849.0000   -17.4315   139.1733     7.3316     8.2223
  849.5000   -17.2900   143.0790     7.1686     8.0393
  850.0000   -17.3021   146.9848     6.9978     7.8534
  850.5000   -17.3261   150.8906     6.8309     7.6711
  851.0000   -17.3988   154.7963     6.6626     7.4615
  851.5000   -17.4583   159.6154     6.4795     7.3659
  852.0000   -17.5247   162.8572     6.4492     7.3386
  852.5000   -17.5874   165.9307     6.4595     7.3179
  853.0000   -17.6524   166.8329     6.4484     7.3699
  853.5000   -17.7153   165.0285     6.5089     7.4534
  854.0000   -17.7812   161.0002     6.6892     7.6572
  854.5000   -17.8348   153.2933     6.8697     7.9556
  855.0000   -17.8412   147.1137     7.0527     8.3462
  855.5000   -17.8319   144.5231     7.2342     8.7380
  856.0000   -17.7617   141.9326     7.4163     9.1872
  856.5000   -17.6886   138.8651     7.5980     9.4964
  857.0000   -17.6164   135.0605     7.7802     9.6585
  857.5000   -17.5437   130.3975     7.9621     9.5490
  858.0000   -17.4713   125.7345     8.1484     9.1793
  858.5000   -17.3985   122.6258     8.1011     8.7809
  859.0000   -17.3263   129.0674     7.9962     8.5253
  859.5000   -17.2534   137.9630     7.9046     8.5407
  860.0000   -17.1814   137.9630     7.8067     8.5107
  860.5000   -17.1191   138.1172     7.7115     8.5028
  861.0000   -17.1419   138.2986     7.6164     8.4846
  861.5000   -17.3312   138.4799     7.5184     8.4697
  862.0000   -17.5113   138.6613     7.4271     8.4556
  862.5000   -17.6948   138.8651     7.3207     8.3854
  863.0000   -17.8717   140.6798     7.2654     8.2514
  863.5000   -18.0614   142.7523     7.2582     8.1156
  864.0000   -18.1917   144.8247     7.2173     7.9857
  864.5000   -18.2039   146.8972     7.1837     7.8389
  865.0000   -18.1738   148.9696     7.1460     7.7598
  865.5000   -17.9667   151.0421     7.1104     7.7722
  866.0000   -17.7784   153.3001     7.0738     7.7714
  866.5000   -17.5880   153.3001     7.0375     7.7798
  867.0000   -17.3986   153.1485     7.0009     7.7807
  867.5000   -17.2087   152.7858     6.9813     7.8037
  868.0000   -17.0189   152.4232     6.9635     7.8545
  868.5000   -16.8295   152.0605     6.9453     7.9150
  869.0000   -16.6396   151.6978     6.9267     7.9643
  869.5000   -16.4503   151.4957     6.9117     8.0456
  870.0000   -16.2479   150.3778     6.9370     7.9917
  870.5000   -16.2226   149.1952     6.9697     7.8406
  871.0000   -16.3232   148.0125     7.0009     7.8836
  871.5000   -16.4493   146.8299     7.0328     7.9513
  872.0000   -16.5738   145.6472     7.0642     8.0170
  872.5000   -16.6988   144.4646     7.0959     8.0837
  873.0000   -16.8235   143.2819     7.1275     8.1488
  873.5000   -16.9484   142.0916     7.1588     8.2164
  874.0000   -17.0731   140.9106     7.1909     8.2806
  874.5000   -17.1982   139.7337     7.2214     8.3517
  875.0000   -17.3225   138.5623     7.2549     8.3599
  875.5000   -17.4482   137.9901     7.2728     8.2746
  876.0000   -17.5709   139.8317     7.3059     8.3293
  876.5000   -17.6992   141.6576     7.3394     8.5127
  877.0000   -17.8174   141.5803     7.4061     8.6510
  877.5000   -17.9569   139.8533     7.5079     8.6060
  878.0000   -18.0016   138.1262     7.6027     8.5583
  878.5000   -17.9298   136.3992     7.7004     8.6855
  879.0000   -17.8752   134.6721     7.7975     8.8242
  879.5000   -17.8116   132.9451     7.8932     8.9654
  880.0000   -17.7526   131.2181     7.9932     9.0989
  880.5000   -17.6915   129.4910     8.0746     9.2470
  881.0000   -17.6307   127.7640     8.0993     9.2848
  881.5000   -17.5713   126.0369     8.1328     9.2298
  882.0000   -17.5078   124.4302     8.1640     9.1876
  882.5000   -17.4742   125.4000     8.1962     9.1457
  883.0000   -17.4927   126.3067     8.2280     9.0955
  883.5000   -17.6360   127.1367     8.2598     9.1946
  884.0000   -17.8007   126.4270     8.2919     9.3843
  884.5000   -17.9597   125.3324     8.3231     9.5623
  885.0000   -18.1220   122.7262     8.3589     9.7273
  885.5000   -18.2817   120.3587     8.4540    10.0817
  886.0000   -18.4445   117.9935     8.6144    10.3727
  886.5000   -18.6023   115.6257     8.7704    10.5328
  887.0000   -18.7695   113.2553     8.9260    10.6377
  887.5000   -18.9026   110.8804     9.0820    10.9137
  888.0000   -18.9239   108.5047     9.2376    11.1459
  888.5000   -18.8475   106.1286     9.3941    11.3659
  889.0000   -18.7031   103.7660     9.5488    11.5852
  889.5000   -18.5744   101.3947     9.7068    11.8145
  890.0000   -18.4386    99.0233     9.8587    12.0352
  890.5000   -18.3055    96.6519    10.0197    12.2031
  891.0000   -18.1726    94.6581    10.0654    12.0396
  891.5000   -18.0362    95.8580     9.9682    11.8959
  892.0000   -17.9069    97.6714     9.8856    11.7352
  892.5000   -17.7633    99.4848     9.7973    11.5844
