~VERSION INFORMATION
 VERS.                2.0:   CWLS LOG ASCII STANDARD - VERSION 2.0
 WRAP.                 NO:   ONE LINE PER DEPTH STEP
~WELL INFORMATION
#MNEM.UNIT      DATA TYPE    INFORMATION
#----------   ------------   ------------------------------
 STRT.F           16.0000:   START DEPTH
 STOP.F         1334.0000:   STOP DEPTH
 STEP.F            0.5000:   STEP LENGTH
 NULL.          -999.2500:   NO VALUE
 COMP. U S NAVY/INTEX OIL CO:   COMPANY
 WELL.  S-11 NPR 3 #87-11:   WELL
 FLD .             TEAPOT:   FIELD
 LOC .      S11 T38N R78W:   LOCATION
 CNTY.            NATRONA:   COUNTY
 STAT.            WYOMING:   STATE
 CTRY. UNITED STATES OF AMERICA:   COUNTRY
 SRVC.       Schlumberger:   SERVICE COMPANY
 DATE.        17-JUN-1966:   LOGDATE
 API .       490250958900:   API NUMBER
~CURVE INFORMATION
#MNEM.UNIT       API CODE    CURVE DESCRIPTION
#----------   ------------   ------------------------------
 DEPT.F                  :   
 GRD .GAPI   45 310 01 00:   GAMMA RAY FROM DENSITY LOG
 CALD.IN     45 280 60 00:   CALIPER
 RHOB.G/C3   45 350 01 00:   BULK DENSITY
 DPOR.DEC    45 890 12 00:   DENSITY POROSITY SANDSTONE
 DRHO.G/C3   45 356 01 00:   DENSITY CORRECTION
 ASN .OHMM   05 041 16 00:   AMPLIFIED SHORT NORMAL 16"
 ILD .OHMM   05 120 46 00:   INDUCTION LOG DEEP
 CILD.MMHO   05 110 46 00:   CONDUCTIVITY INDUCTION LOG DEEP
 SPR .MV     05 010 01 00:   SPONTANEOUS POTENTIAL FROM RES.
~PARAMETER INFORMATION
#MNEM.UNIT          VALUE    DESCRIPTION
#----------   ------------   ------------------------------
 PD  .                 GL:   PERMANENT DATUM
 EPD .F              5284:   ELEVATION PERMANENT DATUM
 LMF .                 KB:   LOG MEASURED FROM
 DAPD.F                 5:   FEET ABOVE PERMANENT DATUM
 DMF .                 KB:   DRILLING MEASURED FROM
 EKB .F              5289:   KELLING BUSHING
 EGL .F              5284:   GROUND LEVEL
 DATE.          8-17-1966:   RUN DATE
 RUN .                  1:   RUN NUMBER
 DD  .F              1335:   DEPTH DRILLER
 DL  .F              1335:   DEPTH LOGGER
 BLI .F              1334:   BOTTOM LOG INTERVAL
 TLI .F                50:   TOP LOG INTERVAL
 CS  .IN            8.625:   CASING SIZE
 CBD .F                10:   CASING BOTTOM DRILLER
 BS  .IN            7.875:   BIT SIZE
 BSD .F              1335:   BIT SIZE AT DEPTH
 DFT .           GEL-CHEM:   DRILLING FLUID TYPE
 DFD .                9.3:   DRILLING FLUID DENSITY
 DFV .                 50:   DRILLING FLUID VISCOSITY
 MSS .          FLOW LINE:   MUD SAMPLE SOURCE
 RMS .OHMM           1.38:   RESISTIVITY MUD SAMPLE
 MST .F                80:   MUD SAMPLE TEMPERATURE
 RMF .OHMM           1.09:   RESISTIVITY MUD FILTRATE SAMPLE
 MFST.F                77:   MUD FILTRATE SAMPLE TEMPERATURE
 MFSS.                  M:   MUD FILTRATE SAMPLE SOURCE
 RMB .OHMM           1.70:   RESISTIVITY MUD AT BHT
 BHT .F               108:   BOTTOM HOLE TEMPERATURE
 TCS .HRS               1:   TIME CURCULATED STOPPED
 MRT .F               108:   MAXIMUM RECORDED TEMPERATURE
 LUN .               4507:   LOGGING UNIT NUMBER
 LUL .               CSPR:   LOGGING UNIT LOCATION
 ENGI.            MANGOLD:   RECORDING ENGINEER
 WITN.                MAY:   WITNESSED BY
 CLNT.            A2DTECH:   CLIENT CODE
 ORIG.       2", 5" PRINT:   ORIGIN OF DATA
 UWI .       490250958900:   UNIQUE WELL ID
 DICO. A2D Technologies, Inc.:   DIGITIZING COMPANY
~OTHER INFORMATION
~A   DEPT       GRD      CALD       RHOB       DPOR       DRHO        ASN        ILD       CILD        SPR   
# ...
  782.5000   106.3946     8.4709     2.5266     0.0753     0.0483     6.8475     5.9539   172.2939   -40.6931
  783.0000   104.1266     8.4711     2.5320     0.0731     0.0401     6.8218     6.0253   170.8584   -40.6931
  783.5000   105.2038     8.4713     2.5403     0.0703     0.0481     6.8449     6.0976   169.4507   -40.6931
  784.0000   106.2181     8.4715     2.5360     0.0718     0.0569     6.9343     6.1700   168.0431   -40.6931
  784.5000   106.7991     8.4717     2.5305     0.0733     0.0652     7.0251     6.2423   166.6354   -40.6931
  785.0000   105.2458     8.4720     2.5389     0.0617     0.0608     7.1638     6.3146   165.2278   -40.6931
  785.5000   103.7132     8.4722     2.5603     0.0484     0.0519     7.3009     6.3869   163.8201   -40.6931
  786.0000   102.1321     8.4724     2.5807     0.0427     0.0443     7.4381     6.4592   161.8972   -40.6931
  786.5000   103.3232     8.4726     2.5304     0.0638     0.0582     7.5759     6.5315   159.7211   -40.6931
  787.0000   109.1823     8.4728     2.5292     0.0745     0.0635     7.6692     6.6038   157.5450   -40.6931
  787.5000   114.8619     8.4730     2.5250     0.0741     0.0448     7.5420     6.6761   155.3689   -40.6931
  788.0000   115.0801     8.4732     2.5165     0.0792     0.0348     7.4311     6.7483   153.4021   -40.6931
  788.5000   110.9068     8.4734     2.5149     0.0818     0.0317     7.3984     6.8206   153.4353   -40.6931
  789.0000   109.3129     8.4737     2.5352     0.0749     0.0341     7.5023     6.8929   152.0644   -40.6931
  789.5000   107.8056     8.4739     2.5495     0.0663     0.0376     7.6160     6.9652   150.1660   -40.6931
  790.0000   106.0998     8.4741     2.5637     0.0576     0.0583     7.7298     7.0375   148.2663   -40.6931
  790.5000   104.4415     8.4743     2.5710     0.0514     0.0787     7.8440     7.1101   146.3638   -40.6931
  791.0000   106.3902     8.4745     2.5666     0.0490     0.0849     7.9153     7.1856   144.4687   -40.6932
  791.5000   108.6759     8.4747     2.5708     0.0519     0.0713     7.9548     7.1441   142.5025   -40.6932
  792.0000   110.9031     8.4749     2.5660     0.0506     0.0618     7.9927     7.0716   144.3508   -40.6922
  792.5000   111.0805     8.4752     2.5694     0.0483     0.0626     7.9944     6.9984   146.2676   -40.6315
  793.0000   106.9240     8.4754     2.5537     0.0609     0.0693     7.9941     6.9253   148.1844   -40.4625
  793.5000   102.4696     8.4756     2.5344     0.0698     0.0586     7.9812     6.8523   150.1012   -40.2996
  794.0000   104.8810     8.4758     2.5249     0.0785     0.0550     7.9333     6.7793   152.0180   -40.3955
  794.5000   108.7214     8.4760     2.5400     0.0699     0.0584     7.8200     6.7063   153.9348   -40.5208
  795.0000   108.9989     8.4762     2.5528     0.0603     0.0620     7.7079     6.6330   155.8516   -40.6462
  795.5000   108.4686     8.4764     2.5404     0.0671     0.0655     7.5967     6.5605   157.7684   -40.7721
  796.0000   107.9611     8.4767     2.5242     0.0781     0.0652     7.4995     6.5151   159.6852   -40.8929
  796.5000   108.2926     8.4769     2.5210     0.0746     0.0464     7.4058     6.5763   160.3774   -40.7329
  797.0000   108.6474     8.4771     2.5365     0.0690     0.0334     7.3113     6.6349   159.3518   -40.5424
  797.5000   109.0420     8.4773     2.5472     0.0636     0.0456     7.2844     6.6933   158.1385   -40.3517
  798.0000   107.2579     8.4775     2.5580     0.0581     0.0574     7.3131     6.7517   156.9252   -40.1592
  798.5000   104.4686     8.4777     2.5670     0.0530     0.0715     7.3886     6.8101   155.7118   -40.1091
  799.0000   101.6203     8.4779     2.5549     0.0601     0.0510     7.4636     6.8685   154.4985   -40.1216
  799.5000   100.6011     8.4781     2.5430     0.0667     0.0590     7.5584     6.9269   153.2852   -40.1355
  800.0000    99.7364     8.4784     2.5376     0.0723     0.0665     7.7510     6.9853   152.6415   -40.1493
  800.5000    96.8081     8.4786     2.5578     0.0486     0.0424     8.0425     7.0438   153.3422   -40.1630
  801.0000    93.9665     8.4788     2.5719     0.0410     0.0189     8.2726     7.1024   154.0429   -40.1767
  801.5000    91.8540     8.4790     2.5835     0.0312     0.0274     8.1065     7.1592   154.7436   -40.1903
  802.0000    98.9787     8.4792     2.5635     0.0677     0.0352     8.4011     7.1473   155.4443   -40.2040
  802.5000   107.3688     8.4794     2.5435     0.0666     0.0433     8.6640     6.9778   156.1450   -40.2177
  803.0000   111.1482     8.4796     2.5400     0.0690     0.0519     8.2291     6.8109   156.8457   -40.2314
  803.5000   109.7204     8.4798     2.5396     0.0721     0.0396     7.8417     6.6445   157.5464   -40.2451
  804.0000   108.4708     8.4801     2.5152     0.0807     0.0469     7.6442     6.4762   158.2471   -40.2588
  804.5000   107.2330     8.4803     2.5000     0.0900     0.0468     7.4594     6.4458   158.9478   -40.2723
  805.0000   105.9417     8.4805     2.5096     0.0852     0.0311     7.3802     6.5133   158.8340   -40.2862
  805.5000   108.0225     8.4807     2.5170     0.0805     0.0334     7.3593     6.5822   157.3742   -40.3179
  806.0000   111.9738     8.4809     2.5257     0.0758     0.0396     7.4342     6.6515   155.9144   -40.4310
  806.5000   110.3040     8.4811     2.5343     0.0702     0.0342     7.5299     6.7208   154.4547   -40.5423
  807.0000   107.7287     8.4813     2.5354     0.0756     0.0284     7.6263     6.7921   152.9949   -40.6535
  807.5000   106.4275     8.4816     2.5156     0.0825     0.0280     7.7231     6.7491   153.3125   -40.7656
  808.0000   105.8915     8.4818     2.5049     0.0877     0.0168     7.8130     6.6838   154.9689   -40.8801
  808.5000   105.3616     8.4820     2.5231     0.0779     0.0095     7.7772     6.6180   157.3999   -40.7556
  809.0000   104.5180     8.4822     2.5374     0.0674     0.0302     7.5831     6.5524   159.8309   -40.5976
  809.5000   102.0838     8.4824     2.5482     0.0760     0.0296     7.3940     6.4869   162.2619   -40.4388
  810.0000   103.2899     8.4826     2.5140     0.0837     0.0261     7.2072     6.4214   164.6929   -40.2978
  810.5000   106.0594     8.4828     2.5194     0.0801     0.0225     7.1005     6.3558   167.1239   -40.2963
  811.0000   108.7624     8.4831     2.5118     0.0865     0.0189     7.0085     6.2903   169.5548   -40.2969
  811.5000   111.3235     8.4833     2.5186     0.0791     0.0162     6.9370     6.2247   171.4889   -40.2970
  812.0000   112.6701     8.4835     2.5307     0.0725     0.0315     6.8870     6.1592   172.1562   -40.2970
  812.5000   114.1629     8.4837     2.5415     0.0660     0.0406     6.8930     6.0936   172.8248   -40.2970
  813.0000   113.8970     8.4839     2.5546     0.0574     0.0349     6.9088     6.0281   173.4909   -40.2970
  813.5000   112.3220     8.4841     2.5412     0.0641     0.0439     6.9250     5.9626   174.1582   -40.2970
  814.0000   108.0291     8.4843     2.5255     0.0749     0.0547     6.9411     5.8970   174.8255   -40.2970
  814.5000   109.5705     8.4845     2.5357     0.0671     0.0439     6.9588     5.8315   175.4929   -40.2970
  815.0000   110.1270     8.4848     2.5479     0.0582     0.0366     6.9060     5.7657   176.1602   -40.2970
  815.5000   108.5043     8.4851     2.5598     0.0479     0.0634     6.8313     5.6954   176.8275   -40.2970
  816.0000   108.9432     8.4806     2.5654     0.0609     0.0741     6.7560     5.6168   177.2592   -40.2970
  816.5000   114.5523     8.4744     2.5286     0.0757     0.0623     6.6808     5.7447   177.2592   -40.2975
  817.0000   113.8096     8.4682     2.5519     0.0688     0.0530     6.6036     5.8871   175.5402   -40.3278
  817.5000   112.2992     8.4620     2.5502     0.0605     0.0598     6.5886     6.0289   172.5108   -40.3997
  818.0000   112.5182     8.4558     2.5546     0.0558     0.0680     6.7352     6.1703   169.4815   -40.4710
  818.5000   113.0396     8.4496     2.5607     0.0601     0.0652     6.8811     6.3118   166.4522   -40.5425
