~VERSION INFORMATION
 VERS.                2.0:   CWLS LOG ASCII STANDARD - VERSION 2.0
 WRAP.                 NO:   ONE LINE PER DEPTH STEP
~WELL INFORMATION
#MNEM.UNIT      DATA TYPE    INFORMATION
#----------   ------------   ------------------------------
 STRT.F           64.0000:   START DEPTH
 STOP.F          795.0000:   STOP DEPTH
 STEP.F            0.5000:   STEP LENGTH
 NULL.          -999.2500:   NO VALUE
 COMP. LAWRENCE/ALLISON INC:   COMPANY
 WELL.      23-61 SX #2-2:   WELL
 FLD .             TEAPOT:   FIELD
 LOC .       S2 T38N R78W:   LOCATION
 CNTY.            NATRONA:   COUNTY
 STAT.            WYOMING:   STATE
 CTRY. UNITED STATES OF AMERICA:   COUNTRY
 SRVC.              Welex:   SERVICE COMPANY
 DATE.        14-AUG-1985:   LOGDATE
 API .       490251103800:   API NUMBER
~CURVE INFORMATION
#MNEM.UNIT       API CODE    CURVE DESCRIPTION
#----------   ------------   ------------------------------
 DEPT.F                  :   
 SPR .MV     07 010 01 00:   SPONTANEOUS POTENTIAL
 ILD .OHMM   07 120 46 00:   INDUCTION LOG DEEP
 ILM .OHMM   07 120 44 00:   INDUCTION LOG MEDIUM
 SGRD.OHMM   07 221 05 00:   SHALLOW SHORT GUARD RESISTIVITY
 DPHI.DEC    45 890 12 00:   DENSITY POROSITY SANDSTONE
 NPHI.DEC    42 890 03 00:   NEUTRON POROSITY SANDSTONE
 GRD .GAPI   45 310 01 00:   GAMMA RAY FROM DENSITY LOG
 CALD.IN     45 280 60 00:   CALIPER FROM DENSITY
 CORR.G/C3   45 356 01 00:   DENSITY CORRECTION
 RHOB.G/C3   45 350 01 00:   BULK DENSITY
~PARAMETER INFORMATION
#MNEM.UNIT          VALUE    DESCRIPTION
#----------   ------------   ------------------------------
 PD  .                 GL:   PERMANENT DATUM
 EPD .F              5112:   ELEVATION PERMANENT DATUM
 LMF .                 GL:   LOG MEASURED FROM
 DMF .                 GL:   DRILLING MEASURED FROM
 EGL .F              5112:   GROUND LEVEL
 DATE.        14-AUG-1985:   RUN DATE
 RUN .                  1:   RUN NUMBER
 DD  .F               800:   DEPTH DRILLER
 DL  .F               797:   DEPTH LOGGER
 BLI .F               795:   BOTTOM LOG INTERVAL
 TLI .F                76:   TOP LOG INTERVAL
 CS  .IN            8.625:   CASING SIZE
 CBD .F                76:   CASING BOTTOM DRILLER
 CBL .F                76:   CASING BOTTOM LOGGER
 BS  .IN            7.875:   BIT SIZE
 BSD .F               800:   BIT SIZE AT DEPTH
 DFT .                KCL:   DRILLING FLUID TYPE
 MSS .               TANK:   MUD SAMPLE SOURCE
 RMS .OHMM           0.22:   RESISTIVITY MUD SAMPLE
 MST .F                64:   MUD SAMPLE TEMPERATURE
 MFSS.               MEAS:   MUD FILTRATE SAMPLE SOURCE
 TCS .HRS            2230:   TIME CURCULATED STOPPED
 TLAB.HRS            0200:   TIME LOGGER AT BOTTOM
 LUN .               1892:   LOGGING UNIT NUMBER
 LUL .             CASPER:   LOGGING UNIT LOCATION
 ENGI.         T. QUINLAN:   RECORDING ENGINEER
 WITN.        N. JENNINGS:   WITNESSED BY
 CLNT.            A2DTECH:   CLIENT CODE
 ORIG.        2" 5" PRINT:   ORIGIN OF DATA
 UWI .       490251103800:   UNIQUE WELL ID
 DICO. A2D Technologies, Inc.:   DIGITIZING COMPANY
 R1  . POROSITY WITH SANDSTONE:   REMARKS 1
~OTHER INFORMATION
~A   DEPT      SPR        ILD        ILM       SGRD       DPHI       NPHI         GRD      CALD       CORR       RHOB   
# ...
  734.0000   -45.4689     9.0621     9.2957    13.1157     0.1177     0.2811   105.2620     7.8649     0.0234     2.4827
  734.5000   -46.0633     9.2487     9.4215    13.4767     0.1178     0.2778   105.2650     7.8647     0.0218     2.4796
  735.0000   -46.6368     9.3096     9.4134    13.5608     0.1172     0.2766   104.9703     7.8646     0.0287     2.4826
  735.5000   -46.6368     9.5665     9.4728    13.5480     0.1169     0.2769   100.5090     7.8644     0.0310     2.4923
  736.0000   -46.6368     9.6529     9.5326    13.8267     0.1124     0.2754    97.2382     7.8643     0.0379     2.4983
  736.5000   -46.6368     9.8399     9.7337    14.2073     0.1070     0.2733    94.5626     7.8641     0.0439     2.5043
  737.0000   -46.6368    10.0293    10.0108    14.4969     0.1034     0.2718    92.1846     7.8640     0.0495     2.5095
  737.5000   -46.6368    10.0237    10.2718    14.4832     0.1028     0.2713    90.9970     7.8638     0.0524     2.5102
  738.0000   -46.3378    10.0884    10.5535    14.4723     0.1028     0.2707    92.1906     7.8637     0.0547     2.5041
  738.5000   -46.0389    10.0977    10.6201    14.4613     0.1038     0.2708    96.0626     7.8635     0.0546     2.4949
  739.0000   -45.5904    10.2904    10.8373    14.8594     0.1126     0.2714    99.6370     7.8634     0.0485     2.4873
  739.5000   -44.9925    10.3568    10.9057    15.0568     0.1196     0.2721    99.3424     7.8632     0.0431     2.4789
  740.0000   -44.5441    10.4235    11.0532    14.9404     0.1230     0.2730    96.6668     7.8631     0.0392     2.4727
  740.5000   -44.2446    10.4908    11.1230    14.9267     0.1251     0.2733    95.7762     7.8629     0.0361     2.4658
  741.0000   -43.6472    10.5584    11.1932    14.9154     0.1282     0.2740    96.9704     7.8628     0.0361     2.4620
  741.5000   -43.0493    10.7743    11.2618    14.9041     0.1288     0.2756   100.2472     7.8626     0.0383     2.4634
  742.0000   -42.7504    10.9197    11.2541    15.3144     0.1283     0.2784   101.7383     7.8625     0.0390     2.4671
  742.5000   -42.7504    10.9137    11.2464    15.4129     0.1274     0.2798   102.0389     7.8623     0.0389     2.4701
  743.0000   -42.7504    10.9856    11.0829    15.2912     0.1223     0.2791   102.3395     7.8622     0.0358     2.4745
  743.5000   -42.4514    10.9780    11.0753    15.0679     0.1211     0.2778   102.6401     7.8620     0.0342     2.4752
  744.0000   -41.8535    10.8957    11.1453    14.7447     0.1248     0.2793   101.4526     7.8619     0.0296     2.4691
  744.5000   -40.8072    10.9674    11.3731    14.4283     0.1272     0.2806    97.8841     7.8617     0.0273     2.4660
  745.0000   -39.9103    10.8837    11.5302    14.0206     0.1257     0.2812    94.3157     7.8616     0.0279     2.4735
  745.5000   -39.4619    10.8777    11.7607    14.2069     0.1206     0.2818    93.1274     7.8614     0.0324     2.4901
  746.0000   -38.7145    10.8717    11.6705    14.7001     0.1128     0.2813    94.6193     7.8613     0.0384     2.4991
  746.5000   -37.6682    10.8657    11.5798    14.7921     0.1089     0.2807    97.0032     7.8611     0.0437     2.5013
  747.0000   -37.6553    10.7842    11.3321    14.6779     0.1080     0.2798    99.9824     7.8610     0.0496     2.4967
  747.5000   -38.8640    10.6239    11.2456    14.6667     0.1153     0.2789   102.9615     7.8609     0.0466     2.4867
  748.0000   -41.2871    10.5490    10.9286    14.5535     0.1190     0.2784   105.3455     7.8607     0.0374     2.4783
  748.5000   -42.4698    10.5304    10.6948    14.3409     0.1214     0.2799   104.1580     7.8606     0.0351     2.4805
  749.0000   -43.0493    10.3179    10.4661    14.3277     0.1190     0.2830    99.3990     7.8604     0.0403     2.4857
  749.5000   -43.4978    10.2405    10.3139    13.9228     0.1163     0.2857    97.0211     7.8603     0.0440     2.4879
  750.0000   -43.1012    10.0198    10.0789    13.7221     0.1155     0.2888    99.3648     7.8610     0.0462     2.4856
  750.5000   -41.7093     9.9663     9.9800    13.5216     0.1197     0.2925   103.8622     7.8723     0.0473     2.4779
  751.0000   -40.2190     9.8075     9.8733    12.9582     0.1213     0.2925   109.8087     7.8835     0.0498     2.4741
  751.5000   -39.1772     9.7353     9.7992    12.9491     0.1219     0.2922   108.6124     7.8948     0.0542     2.4808
  752.0000   -38.5838     9.5963     9.6580    12.9401     0.1201     0.2914   106.8208     7.9024     0.0556     2.4891
  752.5000   -38.8872     9.4594     9.5854    12.9310     0.1142     0.2902   105.6244     7.9018     0.0585     2.4935
  753.0000   -39.4896     9.1952     9.3816    12.9220     0.1114     0.2887   103.8328     7.9012     0.0569     2.4942
  753.5000   -40.6899     9.1913     9.3112    12.8232     0.1100     0.2881   105.6127     7.9006     0.0522     2.4957
  754.0000   -41.8902     9.1236     9.1770    12.5488     0.1097     0.2879   107.9877     7.9000     0.0491     2.4979
  754.5000   -42.4926     9.1198     9.1081    12.4528     0.1091     0.2894   109.4700     7.8994     0.0475     2.4993
  755.0000   -42.4971     9.1160     9.0397    12.2717     0.1098     0.2907   109.7617     7.8988     0.0458     2.4977
  755.5000   -42.3510     9.1122     9.0992    12.0932     0.1098     0.2907   110.9463     7.8982     0.0457     2.4961
  756.0000   -42.5061     9.1083     9.0308    11.8344     0.1101     0.2894   113.6190     7.8976     0.0441     2.4976
  756.5000   -43.1085     9.0412     9.0890    11.7439     0.1111     0.2884   117.8116     7.8971     0.0424     2.5013
  757.0000   -43.7389     9.0374     9.0826    11.7357     0.1102     0.2910   121.0714     7.8965     0.0416     2.5088
  757.5000   -44.3397     9.0337     9.0775    12.2289     0.1027     0.2940   121.6371     7.8959     0.0470     2.5132
  758.0000   -44.7653     9.0299     9.0724    12.8320     0.0973     0.2967   118.0794     7.8953     0.0542     2.5162
  758.5000   -44.9193     8.9010     9.0043    12.7339     0.0952     0.2970   112.6953     7.8947     0.0571     2.5169
  759.0000   -44.9238     8.7740     8.8128    12.3747     0.0955     0.2964   110.3085     7.8941     0.0570     2.5183
  759.5000   -44.9283     8.6488     8.5655    12.1099     0.0955     0.2913   109.7074     7.8935     0.0546     2.5175
  760.0000   -44.6336     8.6451     8.5012    11.8508     0.0992     0.2877   112.0825     7.8929     0.0477     2.5045
  760.5000   -44.6382     8.4625     8.3204    11.7602     0.1077     0.2862  -999.2500     7.8923     0.0377     2.4901
  761.0000   -44.8092     8.4002     8.2579    11.4285     0.1150     0.2923  -999.2500     7.8917     0.0323     2.4832
  761.5000   -45.2761     8.1655     8.1389    11.3411     0.1184     0.2977  -999.2500     7.8911     0.0337     2.4808
  762.0000   -45.8475     8.1054     8.0778    11.1761     0.1194     0.3042  -999.2500     7.8905     0.0367     2.4823
  762.5000   -45.7024     7.9897     7.8511    11.0906     0.1167     0.3024  -999.2500     7.8899     0.0403     2.4867
  763.0000   -45.5356     7.9308     7.8467    11.0829     0.1164     0.2987  -999.2500     7.8893     0.0432     2.4836
  763.5000   -44.8053     7.7633     7.7878    11.0752     0.1164     0.2958  -999.2500     7.8887     0.0439     2.4775
  764.0000   -44.6696     7.8152     7.7834    11.0674     0.1225     0.2934  -999.2500     7.8881     0.0423     2.4691
  764.5000   -45.1290     7.8111     7.7790    11.0597     0.1275     0.2944  -999.2500     7.8875     0.0406     2.4622
  765.0000   -45.5805     7.8078     7.7747    11.0520     0.1327     0.2950  -999.2500     7.8869     0.0398     2.4568
  765.5000   -45.8824     7.7503     7.7163    10.7402     0.1355     0.2951  -999.2500     7.8863     0.0397     2.4529
  766.0000   -46.0329     7.6932     7.7120    10.5104     0.1339     0.2945  -999.2500     7.8857     0.0411     2.4589
  766.5000   -45.5889     7.5307     7.6008    10.4300     0.1291     0.2939  -999.2500     7.8851     0.0493     2.4649
  767.0000   -45.1450     7.3203     7.3361    10.4228     0.1288     0.2956  -999.2500     7.8845     0.0461     2.4656
