~VERSION INFORMATION
 VERS.                2.0:   CWLS LOG ASCII STANDARD - VERSION 2.0
 WRAP.                 NO:   ONE LINE PER DEPTH STEP
~WELL INFORMATION
#MNEM.UNIT      DATA TYPE    INFORMATION
#----------   ------------   ------------------------------
 STRT.F           30.0000:   START DEPTH
 STOP.F         2423.0000:   STOP DEPTH
 STEP.F            0.5000:   STEP LENGTH
 NULL.          -999.2500:   NO VALUE
 COMP. DEPARTMENT OF ENERGY:   COMPANY
 WELL.   NPR-3 #35-1 X 10:   WELL
 FLD .        TEAPOT DOME:   FIELD
 LOC .      S10 T38N R78W:   LOCATION
 CNTY.            NATRONA:   COUNTY
 STAT.            WYOMING:   STATE
 CTRY. UNITED STATES OF AMERICA:   COUNTRY
 SRVC.       Schlumberger:   SERVICE COMPANY
 DATE.        15-JAN-1999:   LOGDATE
 API .       490252282200:   API NUMBER
~CURVE INFORMATION
#MNEM.UNIT       API CODE    CURVE DESCRIPTION
#----------   ------------   ------------------------------
 DEPT.F                  :   
 GRR .GAPI   06 310 01 00:   GAMMA RAY FROM RESISTIVITY
 SPR .MV     06 010 01 00:   SPONTANEOUS POTENTIAL FROM RES.
 HD  .IN     06 280 01 00:   HOLE DIAMETER
 AT90.OHMM   06 120 90 00:   90-IN. RESISTIVITY, 2-FT RESOLUTION
 AT30.OHMM   06 120 30 00:   30-IN. RESISTIVITY, 2-FT RESOLUTION
 AT10.OHMM   06 120 10 00:   10-IN. RESISTIVITY, 2-FT RESOLUTION
~PARAMETER INFORMATION
#MNEM.UNIT          VALUE    DESCRIPTION
#----------   ------------   ------------------------------
 PD  .                 GL:   PERMANENT DATUM
 EPD .F              5228:   ELEVATION PERMANENT DATUM
 LMF .                 KB:   LOG MEASURED FROM
 DAPD.F                10:   FEET ABOVE PERMANENT DATUM
 DMF .                 KB:   DRILLING MEASURED FROM
 EKB .F              5238:   KELLING BUSHING
 EDF .F              5237:   DRILLING FLOOR
 EGL .F              5228:   GROUND LEVEL
 DATE.        15-JAN-1999:   RUN DATE
 RUN .                  1:   RUN NUMBER
 DD  .F              2400:   DEPTH DRILLER
 DL  .F              2421:   DEPTH LOGGER
 BLI .F              2393:   BOTTOM LOG INTERVAL
 TLI .F                30:   TOP LOG INTERVAL
 CS  .IN            9.625:   CASING SIZE
 CBD .F               778:   CASING BOTTOM DRILLER
 CBL .F               773:   CASING BOTTOM LOGGER
 BS  .IN              8.5:   BIT SIZE
 BSD .F              2400:   BIT SIZE AT DEPTH
 DFT .            GEL/KCL:   DRILLING FLUID TYPE
 DFD .                8.9:   DRILLING FLUID DENSITY
 DFV .                 39:   DRILLING FLUID VISCOSITY
 DFPH.                  9:   DRILLING FLUID PH
 DFL .                8.8:   DRILLING FLUID LOSS
 MSS .            MUD PIT:   MUD SAMPLE SOURCE
 RMS .OHMM            .29:   RESISTIVITY MUD SAMPLE
 MST .F                65:   MUD SAMPLE TEMPERATURE
 RMF .OHMM            .22:   RESISTIVITY MUD FILTRATE SAMPLE
 MFST.F                65:   MUD FILTRATE SAMPLE TEMPERATURE
 RMC .OHMM            .43:   RESISTIVITY MUD CAKE
 MCST.F                65:   MUD CAKE SAMPLE TEMPERATURE
 MFSS.          MUD PRESS:   MUD FILTRATE SAMPLE SOURCE
 MCSS.         CALCULATED:   MUD CAKE SAMPLE SOURCE
 RMB .OHMM           .195:   RESISTIVITY MUD AT BHT
 BHT .F               100:   BOTTOM HOLE TEMPERATURE
 TCS .HRS            2015:   TIME CURCULATED STOPPED
 TLAB.HRS            2315:   TIME LOGGER AT BOTTOM
 MRT .F               100:   MAXIMUM RECORDED TEMPERATURE
 LUN .               2102:   LOGGING UNIT NUMBER
 LUL .             CASPER:   LOGGING UNIT LOCATION
 ENGI.    TISOVEC/PIERSON:   RECORDING ENGINEER
 WITN.           ESMERSON:   WITNESSED BY
 CLNT.            A2DTECH:   CLIENT CODE
 ORIG.       2", 5" PRINT:   ORIGIN OF DATA
 UWI .       490252282200:   UNIQUE WELL ID
 DICO. A2D Technologies, Inc.:   DIGITIZING COMPANY
~OTHER INFORMATION
~A   DEPT       GRR       SPR         HD       AT90       AT30       AT10   
# ...
 1278.0000   115.5188    -2.4824     8.6564     7.5521     6.9832     6.4581
 1278.5000   115.9158    -2.4485     8.6544     7.3666     6.6345     6.2734
 1279.0000   114.5212    -2.4037     8.6519     7.2099     6.6611     6.2885
 1279.5000   112.7025    -2.3684     8.6496     7.2099     6.6926     6.3138
 1280.0000   110.9626    -2.3187     8.6471     7.2099     6.7904     6.3392
 1280.5000   111.6712    -2.3866     8.6448     7.2099     6.9406     6.3648
 1281.0000   114.2831    -2.5378     8.6423     7.2099     7.0649     6.3909
 1281.5000   115.6558    -2.6735     8.6400     7.2089     7.0403     6.2903
 1282.0000   114.6260    -2.8162     8.6374     7.3962     7.0120     6.3635
 1282.5000   109.2107    -2.9553     8.6369     7.6762     7.2110     6.7367
 1283.0000   107.1489    -3.0960     8.6387     7.9851     7.4147     7.0774
 1283.5000   110.9996    -3.2366     8.6401     8.0617     7.5313     7.0774
 1284.0000   115.2330    -3.3766     8.6417     8.0639     7.6353     7.0774
 1284.5000   118.9574    -3.5269     8.6432     8.0532     7.7689     7.1433
 1285.0000   118.6424    -3.6492     8.6447     8.1377     7.9411     7.3815
 1285.5000   117.9700    -3.7829     8.6462     8.3894     8.1172     7.7652
 1286.0000   117.4552    -3.9105     8.6478     8.6553     8.2970     7.7425
 1286.5000   116.2146    -4.0505     8.6493     8.9243     8.4413     7.6805
 1287.0000   114.4132    -4.1182     8.6508     8.8698     8.4062     7.6225
 1287.5000   112.6903    -4.0352     8.6523     8.8042     8.3720     7.7508
 1288.0000   109.6736    -3.9518     8.6538     8.7391     8.3380     7.9106
 1288.5000   106.6411    -3.8649     8.6554     8.6745     8.3042     7.8698
 1289.0000   104.7291    -3.7799     8.6565     8.5993     8.2861     7.8376
 1289.5000   105.6096    -3.6950     8.6566     8.7189     8.3537     7.8376
 1290.0000   108.1567    -3.6073     8.6566     8.8657     8.5086     7.8376
 1290.5000   109.3655    -3.5377     8.6566     9.0149     8.6664     7.8376
 1291.0000   106.4743    -3.5116     8.6567     9.1667     8.8271     7.9143
 1291.5000   103.1776    -3.4769     8.6580     9.3480     9.0075     7.9965
 1292.0000   101.5492    -3.4481     8.6596     9.2464     8.8948     8.0587
 1292.5000   102.0220    -3.4112     8.6611     9.0884     8.7603     7.9253
 1293.0000   103.3953    -3.3883     8.6626     8.9243     8.6279     7.7636
 1293.5000   102.2025    -3.3381     8.6641     8.9387     8.5199     7.8287
 1294.0000   100.4114    -3.4396     8.6657     8.9779     8.6735     8.0024
 1294.5000   101.2367    -3.7415     8.6672     9.0914     8.8066     8.1804
 1295.0000   103.3384    -4.0167     8.6687     9.3666     9.0075     8.4326
 1295.5000   103.7552    -4.3185     8.6703     9.5230     8.9513     8.3111
 1296.0000   104.4564    -4.5292     8.6718     9.1637     8.6463     8.0472
 1296.5000   107.4323    -4.4786     8.6733     8.5993     8.3633     7.8433
 1297.0000   111.6803    -4.4209     8.6748     8.6340     8.3633     8.1338
 1297.5000   112.5364    -4.3619     8.6764     8.7739     8.3633     7.9628
 1298.0000   110.5338    -4.3022     8.6762     8.9243     8.3633     7.7652
 1298.5000   109.0779    -4.2475     8.6750     8.9922     8.4741     7.9769
 1299.0000   107.7983    -4.1791     8.6741     9.0648     8.7849     8.3711
 1299.5000   104.8714    -4.1539     8.6730     9.3536     9.1070     8.7847
 1300.0000   100.6623    -4.0931     8.6721     9.7820     9.4410     9.0914
 1300.5000    96.1804    -3.9185     8.6711    10.2301     9.7872     9.0914
 1301.0000    92.6437    -3.8905     8.6700    10.4469    10.1612     9.0914
 1301.5000    91.8636    -3.8292     8.6691    10.5647    10.1427     9.0914
 1302.0000    92.4744    -3.7845     8.6680    10.6457    10.1272     9.0914
 1302.5000    96.8121    -3.7468     8.6670    10.5907    10.1118     9.0914
 1303.0000   102.6295    -3.8435     8.6660    10.4604    10.0959     9.0914
 1303.5000   109.8279    -3.9436     8.6650    10.3311    10.0791     9.0914
 1304.0000   108.6694    -4.0647     8.6640    10.2036     9.9885     9.0914
 1304.5000   102.8033    -4.1803     8.6630    10.0773     9.8291     9.1057
 1305.0000    98.4625    -4.2961     8.6620     9.9750     9.6720     8.9329
 1305.5000    95.8824    -4.4123     8.6610     9.9854     9.4379     8.6265
 1306.0000    97.1547    -4.5396     8.6600     9.9942     9.4785     8.3950
 1306.5000   103.5197    -4.7212     8.6590    10.0030     9.5926     9.0400
 1307.0000   109.1302    -4.9269     8.6580    10.0119     9.7030     8.9566
 1307.5000   112.3016    -5.1429     8.6570    10.0207     9.6992     8.9271
 1308.0000   113.2767    -5.1121     8.6565    10.0296     9.7022     8.9223
 1308.5000   114.5589    -4.8883     8.6566    10.0384     9.7013     8.9633
 1309.0000   115.4599    -4.8088     8.6566    10.0473     9.7013     8.9809
 1309.5000   115.8811    -4.7053     8.6566    10.0562     9.7013     9.0088
 1310.0000   114.6552    -4.6151     8.6566    10.0651     9.7289     9.0069
 1310.5000   112.4576    -4.5190     8.6566    10.1424     9.7910     9.0371
 1311.0000   109.4714    -4.4219     8.6566    10.2546     9.8830     9.0659
 1311.5000   104.3044    -4.3342     8.6566    10.3521     9.8605     9.0919
 1312.0000    99.2381    -4.2222     8.6566    10.2533     9.7935     8.7788
 1312.5000    95.6835    -4.1956     8.6566    10.1680     9.7013     8.5199
 1313.0000    97.1734    -4.3612     8.6566    10.0700     9.7438     9.1762
 1313.5000   101.4227    -4.3821     8.6566    10.1057     9.8137     9.1209
 1314.0000   106.2888    -4.4325     8.6566    10.1482     9.8841     9.0075
 1314.5000   106.9613    -4.4634     8.6566    10.1902     9.9551     9.2716
 1315.0000   106.1476    -4.5069     8.6566    10.2559     9.9750     9.6117
 1315.5000   104.7474    -4.5435     8.6566    10.1406     9.8186     9.2708
 1316.0000   103.5152    -4.6427     8.6566     9.8205     9.5417     8.9808
 1316.5000   102.8593    -4.7764     8.6566     9.5160     9.2727     8.7603
 1317.0000   103.7914    -4.9052     8.6566     9.3480     9.1485     8.6052
 1317.5000   103.9601    -5.0343     8.6566     9.3480     9.0914     8.4413
 1318.0000   100.6649    -5.1679     8.6566     9.3480     9.1620     8.5208
 1318.5000    96.7304    -5.3798     8.6565     9.4833     9.2653     8.6377
 1319.0000    94.0071    -5.5975     8.6568     9.6756     9.3698     8.7562
 1319.5000    96.0946    -5.7450     8.6543     9.8718     9.5040     8.8762
 1320.0000    98.9459    -5.7022     8.6481    10.0680     9.7917     8.9537
 1320.5000   100.5749    -5.6383     8.6419     9.9552     9.7073     8.9981
 1321.0000    98.6499    -5.6095     8.6368     9.7788     9.5164     8.8594
 1321.5000    96.0322    -5.3790     8.6384     9.6055     9.3480     8.1928
 1322.0000    93.2328    -5.2005     8.6403     9.4839     9.2666     8.3124
 1322.5000    94.1919    -4.8791     8.6423     9.4089     9.1932     8.5053
 1323.0000    99.8763    -4.5096     8.6442     9.3480     9.1205     8.3259
 1323.5000   105.6390    -4.5600     8.6461     9.1480     8.8174     7.9699
 1324.0000   109.6088    -4.5356     8.6481     8.7910     8.3783     7.6298
 1324.5000   106.3277    -4.5445     8.6500     7.9843     7.9106     7.2090
 1325.0000   102.0193    -4.5868     8.6520     8.0737     7.7652     7.3657
 1325.5000    99.9793    -4.6829     8.6537     8.3876     8.0058     7.7621
 1326.0000    99.9020    -4.7531     8.6560     8.5993     8.2861     7.7319
 1326.5000   100.7087    -4.8436     8.6545     8.5993     8.2861     7.6257
 1327.0000   100.4865    -4.9069     8.6500     8.5993     8.2861     7.8228
 1327.5000   100.0777    -5.0825     8.6459     9.0136     8.5278     8.0603
 1328.0000    99.9190    -5.3460     8.6418     9.3480     8.6795     7.9966
 1328.5000   101.4647    -5.5728     8.6376     8.8957     8.3793     7.9018
 1329.0000   102.7562    -5.8267     8.6368     8.0587     7.9843     7.8082
 1329.5000   104.2721    -6.0469     8.6381     8.0932     8.0150     7.7157
