~VERSION INFORMATION
 VERS.                2.0:   CWLS LOG ASCII STANDARD - VERSION 2.0
 WRAP.                 NO:   ONE LINE PER DEPTH STEP
~WELL INFORMATION
#MNEM.UNIT      DATA TYPE    INFORMATION
#----------   ------------   ------------------------------
 STRT.F            8.5000:   START DEPTH
 STOP.F         2140.0000:   STOP DEPTH
 STEP.F            0.5000:   STEP LENGTH
 NULL.          -999.2500:   NO VALUE
 COMP. LAWRENCE/ALLISON INC:   COMPANY
 WELL.   11-61 SHX #61-11:   WELL
 FLD .             TEAPOT:   FIELD
 LOC .      S11 T38N R78W:   LOCATION
 CNTY.            NATRONA:   COUNTY
 STAT.            WYOMING:   STATE
 CTRY. UNITED STATES OF AMERICA:   COUNTRY
 SRVC.      NL McCullough:   SERVICE COMPANY
 DATE.        04-MAY-1988:   LOGDATE
 API .       490251115600:   API NUMBER
~CURVE INFORMATION
#MNEM.UNIT       API CODE    CURVE DESCRIPTION
#----------   ------------   ------------------------------
 DEPT.F                  :   
 GRR .GAPI   81 310 01 00:   GAMMY RAY
 ROP .FT/HR  91 810 01 00:   RAT OF DRILLING PENETRATION
 TGAS.TC/CC  91 830 01 00:   TOTAL GAS UNIT
~PARAMETER INFORMATION
#MNEM.UNIT          VALUE    DESCRIPTION
#----------   ------------   ------------------------------
 PD  .                 GL:   PERMANENT DATUM
 EPD .F              5135:   ELEVATION PERMANENT DATUM
 LMF .                 KB:   LOG MEASURED FROM
 DAPD.F                 8:   FEET ABOVE PERMANENT DATUM
 DMF .                 KB:   DRILLING MEASURED FROM
 EKB .F              5143:   KELLING BUSHING
 EGL .F              5135:   GROUND LEVEL
 DATE.        04-MAY-1988:   RUN DATE
 RUN .                  1:   RUN NUMBER
 DD  .F              2140:   DEPTH DRILLER
 DL  .F               572:   DEPTH LOGGER
 BLI .F               568:   BOTTOM LOG INTERVAL
 CS  .IN              5.5:   CASING SIZE
 CBD .F               622:   CASING BOTTOM DRILLER
 BSD .F              2140:   BIT SIZE AT DEPTH
 DFT .         KCL/ WATER:   DRILLING FLUID TYPE
 TCS .HRS               1:   TIME CURCULATED STOPPED
 ENGI.               DALY:   RECORDING ENGINEER
 WITN.           MR. LOWL:   WITNESSED BY
 CLNT.            A2DTECH:   CLIENT CODE
 ORIG.           5" PRINT:   ORIGIN OF DATA
 UWI .       490251115600:   UNIQUE WELL ID
 DICO. A2D Technologies, Inc.:   DIGITIZING COMPANY
~OTHER INFORMATION
~A    DEPT      GRR       ROP       TGAS   
# ...
 1919.5000  -999.2500     0.2022     1.2674
 1920.0000  -999.2500     0.2025     1.2828
 1920.5000  -999.2500     0.2028     0.5132
 1921.0000  -999.2500     0.2032     0.1208
 1921.5000  -999.2500     0.2035    -0.2717
 1922.0000  -999.2500     0.2038    -0.2897
 1922.5000  -999.2500     0.2041    -0.2694
 1923.0000  -999.2500     0.2044    -0.2444
 1923.5000  -999.2500     0.2047    -0.2194
 1924.0000  -999.2500     0.2050    -0.1944
 1924.5000  -999.2500     0.2054    -0.1694
 1925.0000  -999.2500     0.2057    -0.1444
 1925.5000  -999.2500     0.2060    -0.1194
 1926.0000  -999.2500     0.2063    -0.0944
 1926.5000  -999.2500     0.2066    -0.0694
 1927.0000  -999.2500     0.2069    -0.0444
 1927.5000  -999.2500     0.2073    -0.0194
 1928.0000  -999.2500     0.2075     0.0056
 1928.5000  -999.2500     0.2075     0.0306
 1929.0000  -999.2500     0.2075     0.0557
 1929.5000  -999.2500     0.2075     0.0807
 1930.0000  -999.2500     0.2075     0.1057
 1930.5000  -999.2500     0.2075     0.1307
 1931.0000  -999.2500     0.2075     0.1557
 1931.5000  -999.2500     0.2075     0.1807
 1932.0000  -999.2500     0.2075     0.2057
 1932.5000  -999.2500     0.2075     0.2307
 1933.0000  -999.2500     0.2075     0.2557
 1933.5000  -999.2500     0.2075     0.2807
 1934.0000  -999.2500     0.2010     0.3057
 1934.5000  -999.2500     0.1981     0.3307
 1935.0000  -999.2500     0.1981     0.3557
 1935.5000  -999.2500     0.1981     0.3807
 1936.0000  -999.2500     0.1981     0.4057
 1936.5000  -999.2500     0.1981     0.4307
 1937.0000  -999.2500     0.1981     0.4557
 1937.5000  -999.2500     0.1981     0.4807
 1938.0000  -999.2500     0.1981     0.5057
 1938.5000  -999.2500     0.1981     0.5307
 1939.0000  -999.2500     0.1981     0.5557
 1939.5000  -999.2500     0.1981     0.5807
 1940.0000  -999.2500     0.1981     0.6057
 1940.5000  -999.2500     0.1981     0.6308
 1941.0000  -999.2500     0.1981     0.6558
 1941.5000  -999.2500     0.1981     0.6808
 1942.0000  -999.2500     0.1981     0.7058
 1942.5000  -999.2500     0.1981     0.7308
 1943.0000  -999.2500     0.1981     0.7558
 1943.5000  -999.2500     0.1981     0.7808
 1944.0000  -999.2500     0.1981     0.8058
 1944.5000  -999.2500     0.1981     0.8308
 1945.0000  -999.2500     0.1981     0.8558
 1945.5000  -999.2500     0.1887     0.8808
 1946.0000  -999.2500     0.1887    -0.6340
 1946.5000  -999.2500     0.1887    -1.0264
 1947.0000  -999.2500     0.1844    -0.6633
 1947.5000  -999.2500     0.1792    -0.6629
 1948.0000  -999.2500     0.1792    -0.6490
 1948.5000  -999.2500     0.1792    -0.6351
 1949.0000  -999.2500     0.1792    -0.6211
 1949.5000  -999.2500     0.1792    -0.6072
 1950.0000  -999.2500     0.1792    -0.5933
 1950.5000  -999.2500     0.1698    -0.5794
 1951.0000  -999.2500     0.1698    -0.5655
 1951.5000  -999.2500     0.1698    -0.5516
 1952.0000  -999.2500     0.1698    -0.5377
 1952.5000  -999.2500     0.1698    -0.5238
 1953.0000  -999.2500     0.1698    -0.5099
 1953.5000  -999.2500     0.1698    -0.4960
 1954.0000  -999.2500     0.1698    -0.4821
 1954.5000  -999.2500     0.1698    -0.4682
 1955.0000  -999.2500     0.1698    -0.4543
 1955.5000  -999.2500     0.1698    -0.4403
 1956.0000  -999.2500     0.1698    -0.4264
 1956.5000  -999.2500     0.1698    -0.4125
 1957.0000  -999.2500     0.1698    -0.3986
 1957.5000  -999.2500     0.1698    -0.3847
 1958.0000  -999.2500     0.1698    -0.3708
 1958.5000  -999.2500     0.1698    -0.3569
 1959.0000  -999.2500     0.1698    -0.3430
 1959.5000  -999.2500     0.1698    -0.3291
 1960.0000  -999.2500     0.1698    -0.3152
 1960.5000  -999.2500     0.1698    -0.2987
 1961.0000  -999.2500     0.1700    -0.2801
 1961.5000  -999.2500     0.1703    -0.2615
 1962.0000  -999.2500     0.1707    -0.2429
 1962.5000  -999.2500     0.1711    -0.2242
 1963.0000  -999.2500     0.1714    -0.2056
 1963.5000  -999.2500     0.1718    -0.1870
 1964.0000  -999.2500     0.1721    -0.1684
 1964.5000  -999.2500     0.1725    -0.1498
 1965.0000  -999.2500     0.1729    -0.1311
 1965.5000  -999.2500     0.1732    -0.1125
 1966.0000  -999.2500     0.1736    -0.0939
 1966.5000  -999.2500     0.1739    -0.0753
 1967.0000  -999.2500     0.1743    -0.0567
 1967.5000  -999.2500     0.1747    -0.0380
 1968.0000  -999.2500     0.1750    -0.0194
 1968.5000  -999.2500     0.1754    -0.0008
 1969.0000  -999.2500     0.1757     0.0178
 1969.5000  -999.2500     0.1761     0.0364
 1970.0000  -999.2500     0.1765     0.0550
 1970.5000  -999.2500     0.1768     0.0737
 1971.0000  -999.2500     0.1772     0.0923
 1971.5000  -999.2500     0.1776     0.1109
 1972.0000  -999.2500     0.1779     0.1295
 1972.5000  -999.2500     0.1783     0.1481
 1973.0000  -999.2500     0.1786     0.1668
 1973.5000  -999.2500     0.1790     0.1854
 1974.0000  -999.2500     0.1794     0.2040
 1974.5000  -999.2500     0.1797     0.2226
 1975.0000  -999.2500     0.1801     0.2412
 1975.5000  -999.2500     0.1804     0.2599
 1976.0000  -999.2500     0.1808     0.2785
 1976.5000  -999.2500     0.1812     0.2971
 1977.0000  -999.2500     0.1815     0.3157
 1977.5000  -999.2500     0.1819     0.3343
 1978.0000  -999.2500     0.1822     0.3530
 1978.5000  -999.2500     0.1826     0.3716
 1979.0000  -999.2500     0.1830     0.3902
 1979.5000  -999.2500     0.1833     0.4088
 1980.0000  -999.2500     0.1837     0.4274
 1980.5000  -999.2500     0.1840     0.0631
 1981.0000  -999.2500     0.1844     1.5615
 1981.5000  -999.2500     0.1848     5.7013
 1982.0000  -999.2500     0.1851     8.7091
 1982.5000  -999.2500     0.1855    11.7169
 1983.0000  -999.2500     0.1858    14.3871
 1983.5000  -999.2500     0.1862    17.8375
 1984.0000  -999.2500     0.1866    25.6459
 1984.5000  -999.2500     0.1869    21.1772
 1985.0000  -999.2500     0.1873    16.6937
 1985.5000  -999.2500     0.1877    12.2103
 1986.0000  -999.2500     0.1880     7.7268
 1986.5000  -999.2500     0.1884     3.2434
 1987.0000  -999.2500     0.1887     0.6779
 1987.5000  -999.2500     0.1891     0.6810
 1988.0000  -999.2500     0.1895     0.6840
 1988.5000  -999.2500     0.1898     0.6871
 1989.0000  -999.2500     0.1902     0.6902
 1989.5000  -999.2500     0.1905     0.6933
 1990.0000  -999.2500     0.1909     0.6964
 1990.5000  -999.2500     0.1913     0.6995
 1991.0000  -999.2500     0.1916     0.7026
 1991.5000  -999.2500     0.1920     0.7057
 1992.0000  -999.2500     0.1923     0.7088
 1992.5000  -999.2500     0.1927     0.7119
 1993.0000  -999.2500     0.1931     0.7150
 1993.5000  -999.2500     0.1934     0.7181
 1994.0000  -999.2500     0.1938     0.7211
 1994.5000  -999.2500     0.1941     0.7242
 1995.0000  -999.2500     0.1945     0.7273
 1995.5000  -999.2500     0.1949     0.7304
 1996.0000  -999.2500     0.1952     0.7335
 1996.5000  -999.2500     0.1956     0.7366
 1997.0000  -999.2500     0.1959     0.7397
 1997.5000  -999.2500     0.1963     0.7428
 1998.0000  -999.2500     0.1967     0.7459
 1998.5000  -999.2500     0.1970     0.7490
 1999.0000  -999.2500     0.1974     0.7521
 1999.5000  -999.2500     0.1978     0.7552
 2000.0000  -999.2500     0.1981     0.7547
 2000.5000  -999.2500     0.2041     0.3660
 2001.0000  -999.2500     0.2102    -0.0226
 2001.5000  -999.2500     0.2173    -0.0360
 2002.0000  -999.2500     0.1608    -0.0453
 2002.5000  -999.2500     0.1514    -0.0566
 2003.0000  -999.2500     0.1516    -0.0679
 2003.5000  -999.2500     0.1523    -0.0792
 2004.0000  -999.2500     0.1531    -0.0906
 2004.5000  -999.2500     0.1539    -0.1019
 2005.0000  -999.2500     0.1546    -0.1132
 2005.5000  -999.2500     0.1554    -0.1245
 2006.0000  -999.2500     0.1561    -0.1358
 2006.5000  -999.2500     0.1569    -0.1472
 2007.0000  -999.2500     0.1576    -0.1585
 2007.5000  -999.2500     0.1584    -0.1698
 2008.0000  -999.2500     0.1591    -0.1811
 2008.5000  -999.2500     0.1599    -0.1925
 2009.0000  -999.2500     0.1606    -0.2038
 2009.5000  -999.2500     0.1614    -0.2151
 2010.0000  -999.2500     0.1621    -0.2264
