~VERSION INFORMATION
 VERS.                2.0:   CWLS LOG ASCII STANDARD - VERSION 2.0
 WRAP.                 NO:   ONE LINE PER DEPTH STEP
~WELL INFORMATION
#MNEM.UNIT      DATA TYPE    INFORMATION
#----------   ------------   ------------------------------
 STRT.F           24.5000:   START DEPTH
 STOP.F          576.0000:   STOP DEPTH
 STEP.F            0.5000:   STEP LENGTH
 NULL.          -999.2500:   NO VALUE
 COMP. FENIX & SCISSON INC:   COMPANY
 WELL.    NPR-3 SX #61-15:   WELL
 FLD .             TEAPOT:   FIELD
 LOC .      S15 T38N R78W:   LOCATION
 CNTY.            NATRONA:   COUNTY
 STAT.            WYOMING:   STATE
 CTRY. UNITED STATES OF AMERICA:   COUNTRY
 SRVC.            Unknown:   SERVICE COMPANY
 DATE.        29-MAY-1978:   LOGDATE
 API .       490251062300:   API NUMBER
~CURVE INFORMATION
#MNEM.UNIT       API CODE    CURVE DESCRIPTION
#----------   ------------   ------------------------------
 DEPT.F                  :   
 GRD .GAPI   45 310 01 00:   GAMMA RAY FROM DENSITY LOG
 CALD.IN     45 280 60 00:   CALIPER FROM DENSITY LOG
 SN  .OHMM   05 040 16 00:   SHORT NORMAL 16'
 SPR .MV     05 010 01 00:   SPONTANEOUS POTENTIAL
 ILD .OHMM   05 120 46 00:   INDUCTION LOG DEEP
 RHOB.G/C3   45 350 01 00:   BULK DENSITY
 DPHI.DEC    45 890 12 00:   DENSITY POROSITY SANDSTONE
 CORR.G/C3   45 356 01 00:   DENSITY CORRECTION
~PARAMETER INFORMATION
#MNEM.UNIT          VALUE    DESCRIPTION
#----------   ------------   ------------------------------
 PD  .                 GL:   PERMANENT DATUM
 EPD .F              5221:   ELEVATION PERMANENT DATUM
 LMF .                 KB:   LOG MEASURED FROM
 DAPD.F                 4:   FEET ABOVE PERMANENT DATUM
 DMF .                 KB:   DRILLING MEASURED FROM
 EKB .F              5225:   KELLING BUSHING
 EGL .F              5221:   GROUND LEVEL
 DATE.          5-29-1978:   RUN DATE
 RUN .                  1:   RUN NUMBER
 DD  .F               565:   DEPTH DRILLER
 DL  .F               578:   DEPTH LOGGER
 BLI .F               570:   BOTTOM LOG INTERVAL
 TLI .F                40:   TOP LOG INTERVAL
 CS  .IN            8.625:   CASING SIZE
 CBD .F                40:   CASING BOTTOM DRILLER
 CBL .F                40:   CASING BOTTOM LOGGER
 BS  .IN            7.875:   BIT SIZE
 BSD .F               565:   BIT SIZE AT DEPTH
 DFT .                KCL:   DRILLING FLUID TYPE
 DFD .                8.7:   DRILLING FLUID DENSITY
 DFV .                 34:   DRILLING FLUID VISCOSITY
 DFPH.                9.5:   DRILLING FLUID PH
 DFL .               10.4:   DRILLING FLUID LOSS
 BHT .F                76:   BOTTOM HOLE TEMPERATURE
 TCS .HRS               3:   TIME CURCULATED STOPPED
 MRT .F                76:   MAXIMUM RECORDED TEMPERATURE
 LUN .               2958:   LOGGING UNIT NUMBER
 LUL .              CASP.:   LOGGING UNIT LOCATION
 ENGI.             MILLER:   RECORDING ENGINEER
 WITN.           MCGINLEY:   WITNESSED BY
 CLNT.            A2DTECH:   CLIENT CODE
 ORIG.      2" , 5" PRINT:   ORIGIN OF DATA
 UWI .       490251062300:   UNIQUE WELL ID
 DICO. A2D Technologies, Inc.:   DIGITIZING COMPANY
~OTHER INFORMATION
~A   DEPT       GRD      CALD         SN        SPR        ILD       RHOB       DPHI       CORR   
# ...
  105.5000    88.9623     7.4662     8.3534   -34.9602     7.1364     2.4708     0.1288     0.0811
  106.0000    86.7862     7.3798     8.4199   -34.9602     7.3361     2.4626     0.1273     0.0559
  106.5000    87.8898     7.2901     8.4869   -34.9602     7.5387     2.4547     0.1256     0.0505
  107.0000    88.1072     7.1981     8.5544   -34.9602     7.7444     2.4572     0.1240     0.0495
  107.5000    88.1115     7.1934     8.6225   -34.9602     7.9558     2.4612     0.1210     0.0470
  108.0000    88.3145     7.2328     8.6911   -34.9602     8.1730     2.4652     0.1177     0.0447
  108.5000    89.1124     7.3935     8.7603   -34.9602     8.3961     2.4691     0.1145     0.0461
  109.0000    92.8879     7.5784     8.8300   -34.9602     8.6252     2.4731     0.1116     0.0491
  109.5000    96.2418     7.7653     8.9003   -34.9602     8.8607     2.4760     0.1112     0.0539
  110.0000    97.2037     7.9267     8.9712   -34.9602     9.1025     2.4761     0.1152     0.0667
  110.5000    95.9333     8.0644     9.0651   -34.9602     9.3239     2.4741     0.1208     0.0794
  111.0000    94.6956     8.1876     9.0551   -34.9602     9.3156     2.4677     0.1224     0.0999
  111.5000    93.9195     8.2734     9.0405   -34.9602     9.3216     2.4612     0.1240     0.1328
  112.0000    94.0711     8.2777     9.0259   -34.9602     9.2335     2.4610     0.1192     0.1836
  112.5000    94.1941     8.2735     9.0116   -34.9603     9.1489     2.4667     0.1056     0.2349
  113.0000    93.8758     8.2437     8.9981   -34.9600     8.9821     2.4741     0.0936     0.2700
  113.5000    92.4895     8.1751     8.9827   -34.9619     8.8320     2.5034     0.0970     0.2804
  114.0000    90.9710     8.1103     9.2520   -34.8005     8.5772     2.5041     0.1097     0.2157
  114.5000    88.3554     7.9704     9.5353   -34.5352     8.3298     2.4801     0.1156     0.1438
  115.0000    85.8837     7.7796     9.7576   -34.2674     8.1925     2.4657     0.1166     0.1144
  115.5000    85.8337     7.5337     9.7576   -33.9994     8.4110     2.4675     0.1229     0.0903
  116.0000    87.9263     7.3602     9.7805   -33.9736     8.6777     2.4665     0.1248     0.0669
  116.5000    90.6130     7.2748     9.8297   -33.9857     8.9529     2.4619     0.1224     0.0540
  117.0000    90.8669     7.3922     9.8791   -33.9982     9.4318     2.4607     0.1216     0.0505
  117.5000    91.1818     7.5068     9.9288   -34.0102     9.9820     2.4652     0.1176     0.0539
  118.0000    91.1861     7.6231     9.9788   -34.0221    10.5642     2.4698     0.1140     0.0633
  118.5000    89.1274     7.8090    10.0290   -34.0341    11.2016     2.4743     0.1143     0.0745
  119.0000    88.0726     7.9966    10.0794   -34.0460    11.6593     2.4750     0.1147     0.0858
  119.5000    87.7000     8.1260    10.1301   -34.0579    11.9916     2.4745     0.1151     0.0974
  120.0000    87.5115     8.2285    10.1811   -34.0698    12.0573     2.4738     0.1155     0.1194
  120.5000    87.8342     8.3311    10.2323   -34.0818    11.9469     2.4730     0.1124     0.1534
  121.0000    88.2852     8.2650    10.2838   -34.0937    11.7290     2.4753     0.1014     0.1874
  121.5000    88.0175     8.1853    10.3114   -34.1056    11.2501     2.4837     0.0785     0.2216
  122.0000    86.4238     8.1064    10.2529   -34.1176    10.8142     2.5153     0.0786     0.2564
  122.5000    84.3031     8.0360    10.1866   -34.1295    10.3952     2.5268     0.0828     0.2593
  123.0000    84.8290     7.9147    10.1207   -34.1416     9.9922     2.5177     0.0974     0.2117
  123.5000    85.1215     7.7967    10.0552   -34.1535     9.6056     2.5006     0.1115     0.1703
  124.0000    85.3205     7.6796     9.9901   -34.1544     9.2287     2.4837     0.1268     0.1291
  124.5000    84.4328     7.5646     9.9255   -34.0922     9.1489     2.4669     0.1422     0.0879
  125.0000    83.3630     7.4500     9.8612   -34.0306     9.0651     2.4499     0.1448     0.0450
  125.5000    83.9710     7.3347     9.7974   -33.9691     9.0984     2.4325     0.1400     0.0291
  126.0000    87.1728     7.2471     9.7340   -33.9075     9.2557     2.4286     0.1364     0.0305
  126.5000    88.5173     7.1850     9.6710   -33.8463     9.4156     2.4369     0.1301     0.0329
  127.0000    89.1839     7.2495     9.6085   -33.7826     9.5784     2.4497     0.1238     0.0352
  127.5000    88.8023     7.3754     9.5463   -33.8283     9.7439     2.4627     0.1192     0.0374
  128.0000    87.4910     7.5356     9.4845   -33.9188     9.9123     2.4660     0.1180     0.0398
  128.5000    86.6373     7.6963     9.4231   -34.2770    10.0836     2.4660     0.1184     0.0417
  129.0000    89.4849     7.8550     9.3622   -34.8881    10.2579     2.4649     0.1213     0.0511
  129.5000    92.4546     7.9579     9.3016   -35.2350    10.4067     2.4625     0.1252     0.0604
  130.0000    92.1963     8.0498     9.2414   -35.3851    10.3869     2.4601     0.1234     0.0740
  130.5000    90.1975     8.1418     9.1815   -35.5324    10.3522     2.4590     0.1123     0.1195
  131.0000    89.4658     8.2369     9.1220   -35.5580    10.3176     2.4688     0.0864     0.1673
  131.5000    89.5177     8.2571     9.0652   -35.5582    10.2170     2.4961     0.0744     0.2147
  132.0000    90.4781     8.2440     9.0651   -35.5578     9.9875     2.5238     0.0760     0.2444
  132.5000    91.4591     8.1605     9.0878   -35.5578     9.7195     2.5303     0.0914     0.2144
  133.0000    91.5062     8.0780     9.1145   -35.5578     9.4585     2.5178     0.1000     0.1832
  133.5000    92.0596     7.9962     9.1484   -35.5578     9.2046     2.5024     0.1024     0.1520
  134.0000    94.8142     7.9147     9.1329   -35.5578     8.9577     2.4945     0.1044     0.1208
  134.5000    98.5146     7.8008     9.1104   -35.5578     8.7174     2.4880     0.1098     0.0952
  135.0000    96.3372     7.6847     9.0880   -35.5578     8.6080     2.4813     0.1156     0.0746
  135.5000    94.5211     7.6010     9.0656   -35.5578     8.5420     2.4730     0.1214     0.0542
  136.0000    94.7556     7.5163     9.0433   -35.5578     8.4766     2.4641     0.1265     0.0411
  136.5000    94.7353     7.4402     9.0210   -35.5578     8.4117     2.4550     0.1264     0.0365
  137.0000    91.9362     7.3852     8.9985   -35.5578     8.3472     2.4539     0.1264     0.0336
  137.5000    88.9412     7.3394     8.9787   -35.5577     8.2833     2.4537     0.1264     0.0316
  138.0000    91.0708     7.3403     8.9860   -35.5573     8.2199     2.4534     0.1273     0.0295
  138.5000    93.6741     7.3391     8.8998   -35.5605     8.1569     2.4530     0.1286     0.0274
  139.0000    94.0175     7.3944     8.8775   -35.6177     8.0944     2.4527     0.1296     0.0253
  139.5000    93.9135     7.4583     8.8032   -35.6739     8.0324     2.4523     0.1296     0.0232
  140.0000    93.9889     7.5225     8.7295   -35.7296     7.9707     2.4520     0.1260     0.0225
  140.5000    95.3505     7.5864     8.6564   -35.7853     7.9094     2.4520     0.1225     0.0225
  141.0000    97.3466     7.6505     8.5840   -35.8410     7.8510     2.4563     0.1224     0.0225
  141.5000    99.2682     7.7006     8.5121   -35.8967     7.8242     2.4609     0.1220     0.0229
  142.0000    99.0777     7.7405     8.4409   -35.9525     7.9923     2.4649     0.1189     0.0284
  142.5000    98.0559     7.7800     8.3702   -36.0082     8.1544     2.4682     0.1157     0.0360
  143.0000    98.3892     7.8159     8.3447   -36.0639     8.3197     2.4745     0.1125     0.0494
  143.5000    99.4751     7.8885     8.4218   -36.1196     8.4884     2.4811     0.1091     0.0651
  144.0000    98.0831     7.9729     8.5427   -36.1753     8.6605     2.4871     0.1072     0.0811
  144.5000    96.7581     8.0580     8.6578   -36.2310     8.8361     2.4880     0.1064     0.1000
  145.0000    96.3495     8.1427     8.7744   -36.2867     9.0152     2.4948     0.1058     0.1311
  145.5000    94.0623     8.2229     8.8998   -36.3424     9.1980     2.5011     0.1032     0.1613
