~VERSION INFORMATION
 VERS.                2.0:   CWLS LOG ASCII STANDARD - VERSION 2.0
 WRAP.                 NO:   ONE LINE PER DEPTH STEP
~WELL INFORMATION
#MNEM.UNIT      DATA TYPE    INFORMATION
#----------   ------------   ------------------------------
 STRT.F            8.0000:   START DEPTH
 STOP.F         3200.0000:   STOP DEPTH
 STEP.F            0.5000:   STEP LENGTH
 NULL.          -999.2500:   NO VALUE
 COMP. BROWN JOHN E&C INC:   COMPANY
 WELL.  62 x 15-17 #62-15:   WELL
 FLD .        N.P.R NO. 3:   FIELD
 LOC .      S15 T38N R78W:   LOCATION
 CNTY.            NATRONA:   COUNTY
 STAT.            WYOMING:   STATE
 CTRY. UNITED STATES OF AMERICA:   COUNTRY
 SRVC.      Western Atlas:   SERVICE COMPANY
 DATE.        17-JUN-1986:   LOGDATE
 API .       490251104300:   API NUMBER
~CURVE INFORMATION
#MNEM.UNIT       API CODE    CURVE DESCRIPTION
#----------   ------------   ------------------------------
 DEPT.F                  :   
 GRR .GAPI   07 310 01 00:   GAMMA RAY
 CALR.IN     07 280 01 00:   CALIPER FROM RESISTIVITY
 SPR .MV     07 010 01 00:   SPONTANEOUS POTENTIAL
 RILD.OHMM   07 120 46 00:   INDUCTION LOG DEEP RESISTIVITY
 RILM.OHMM   07 120 44 00:   INDUCTION LOG MEDIUM RESISTIVITY
 RFOC.OHMM   07 220 04 00:   RESISTIVITY FOCUSED LOG
 PORD.DEC    45 890 12 00:   POROSITY DENSITY SANDSTONE
 CNC .DEC    42 890 03 00:   NEUTRON POROSITY SANDSTONE
 CORR.G/C3   45 356 01 00:   DENSITY CORRECTION
 DEN .G/C3   45 350 01 00:   COMPENSATED BULK DENSTIY
~PARAMETER INFORMATION
#MNEM.UNIT          VALUE    DESCRIPTION
#----------   ------------   ------------------------------
 PD  .                 GL:   PERMANENT DATUM
 EPD .F              5242:   ELEVATION PERMANENT DATUM
 LMF .                 KB:   LOG MEASURED FROM
 DAPD.F                11:   FEET ABOVE PERMANENT DATUM
 DMF .                 KB:   DRILLING MEASURED FROM
 EKB .F              5253:   KELLING BUSHING
 EGL .F              5242:   GROUND LEVEL
 DATE.            6-17-86:   RUN DATE
 RUN .                  1:   RUN NUMBER
 DD  .F              3200:   DEPTH DRILLER
 DL  .F              3202:   DEPTH LOGGER
 BLI .F              3200:   BOTTOM LOG INTERVAL
 CS  .IN            8.625:   CASING SIZE
 CBD .F               573:   CASING BOTTOM DRILLER
 CBL .F               573:   CASING BOTTOM LOGGER
 BS  .IN            7.875:   BIT SIZE
 BSD .F              3200:   BIT SIZE AT DEPTH
 DFT .            KCL/GEL:   DRILLING FLUID TYPE
 DFD .                8.9:   DRILLING FLUID DENSITY
 DFV .                 37:   DRILLING FLUID VISCOSITY
 DFPH.                8.5:   DRILLING FLUID PH
 DFL .               10.2:   DRILLING FLUID LOSS
 MSS .           MUD TANK:   MUD SAMPLE SOURCE
 RMS .OHMM            .39:   RESISTIVITY MUD SAMPLE
 MST .F                80:   MUD SAMPLE TEMPERATURE
 RMF .OHMM            .29:   RESISTIVITY MUD FILTRATE SAMPLE
 MFST.F                80:   MUD FILTRATE SAMPLE TEMPERATURE
 RMC .OHMM            .49:   RESISTIVITY MUD CAKE
 MCST.F                80:   MUD CAKE SAMPLE TEMPERATURE
 MFSS.               CALC:   MUD FILTRATE SAMPLE SOURCE
 MCSS.               CALC:   MUD CAKE SAMPLE SOURCE
 RMB .OHMM            .24:   RESISTIVITY MUD AT BHT
 BHT .F               130:   BOTTOM HOLE TEMPERATURE
 TCS .HRS               5:   TIME CURCULATED STOPPED
 MRT .F               130:   MAXIMUM RECORDED TEMPERATURE
 LUN .            HL 6264:   LOGGING UNIT NUMBER
 LUL .           GILLETTE:   LOGGING UNIT LOCATION
 ENGI.      P.H. FAHLSING:   RECORDING ENGINEER
 WITN.             STRONG:   WITNESSED BY
 CLNT.            A2DTECH:   CLIENT CODE
 UWI .       490251104300:   UNIQUE WELL ID
 DICO. A2D Technologies, Inc.:   DIGITIZING COMPANY
~OTHER INFORMATION
~A    DEPT     GRR       CALR        SPR       RILD       RILM       RFOC       PORD        CNC       CORR        DEN   
# ...
 1783.5000    99.7070    10.5722   -49.6460     6.4795     6.2053     7.4854  -999.2500  -999.2500  -999.2500  -999.2500
 1784.0000   101.2260    10.5725   -50.0904     6.4795     6.2484     7.5365  -999.2500  -999.2500  -999.2500  -999.2500
 1784.5000   104.5469    10.5579   -50.2337     6.4795     6.2918     7.5352  -999.2500  -999.2500  -999.2500  -999.2500
 1785.0000   105.7856    10.5433   -50.5257     6.5244     6.3355     7.5342  -999.2500  -999.2500  -999.2500  -999.2500
 1785.5000   108.3154    10.5138   -50.5184     6.5244     6.3795     7.5332  -999.2500  -999.2500  -999.2500  -999.2500
 1786.0000   113.6129    10.4842   -50.5110     6.5697     6.4685     7.5322  -999.2500  -999.2500  -999.2500  -999.2500
 1786.5000   116.0328    10.4546   -50.5037     6.6612     6.5135     7.5312  -999.2500  -999.2500  -999.2500  -999.2500
 1787.0000   115.4498    10.4549   -50.4963     6.6612     6.5135     7.5299  -999.2500  -999.2500  -999.2500  -999.2500
 1787.5000   112.1640    10.4403   -50.4890     6.7074     6.5135     7.6336  -999.2500  -999.2500  -999.2500  -999.2500
 1788.0000   108.5779    10.4249   -50.3311     6.7074     6.4685     7.6326  -999.2500  -999.2500  -999.2500  -999.2500
 1788.5000   109.4964    10.3812   -50.1731     6.7074     6.4239     7.6316  -999.2500  -999.2500  -999.2500  -999.2500
 1789.0000   111.3157    10.3517   -50.1567     6.7074     6.4239     7.6305  -999.2500  -999.2500  -999.2500  -999.2500
 1789.5000   111.0261    10.3370   -49.9830     6.7074     6.4239     7.5770  -999.2500  -999.2500  -999.2500  -999.2500
 1790.0000   110.4499    10.3224   -49.6974     6.7074     6.4239     7.5760  -999.2500  -999.2500  -999.2500  -999.2500
 1790.5000   112.5739    10.3227   -49.3889     6.6612     6.4239     7.5750  -999.2500  -999.2500  -999.2500  -999.2500
 1791.0000   116.7956    10.3230   -49.2310     6.6612     6.4685     7.5739  -999.2500  -999.2500  -999.2500  -999.2500
 1791.5000   121.0174    10.3233   -49.0730     6.6612     6.5135     7.6254  -999.2500  -999.2500  -999.2500  -999.2500
 1792.0000   122.5364    10.3236   -48.9151     6.7074     6.5587     7.6772  -999.2500  -999.2500  -999.2500  -999.2500
 1792.5000   118.3497    10.3239   -49.0602     6.7540     6.6043     7.6759  -999.2500  -999.2500  -999.2500  -999.2500
 1793.0000   114.1631    10.3242   -49.0510     6.8480     6.6964     7.7283  -999.2500  -999.2500  -999.2500  -999.2500
 1793.5000   110.8773    10.3245   -49.1943     6.8986     6.7429     7.7270  -999.2500  -999.2500  -999.2500  -999.2500
 1794.0000   109.6898    10.3248   -49.5020     7.0401     6.7898     7.7260  -999.2500  -999.2500  -999.2500  -999.2500
 1794.5000   109.7117    10.3251   -49.7820     7.0401     6.8370     7.7792  -999.2500  -999.2500  -999.2500  -999.2500
 1795.0000   109.7331    10.3254   -49.7728     7.0889     6.8845     7.8929  -999.2500  -999.2500  -999.2500  -999.2500
 1795.5000   109.7506    10.3257   -49.7655     7.0889     6.9323     8.3320  -999.2500  -999.2500  -999.2500  -999.2500
 1796.0000   109.7682    10.3260   -49.7581     7.0889     6.9323     8.5642  -999.2500  -999.2500  -999.2500  -999.2500
 1796.5000   107.3833    10.3412   -49.7508     7.0889     6.9323     8.5630  -999.2500  -999.2500  -999.2500  -999.2500
 1797.0000   106.4955    10.3415   -49.7435     7.0889     6.9323     8.4445  -999.2500  -999.2500  -999.2500  -999.2500
 1797.5000   108.3193    10.3418   -49.7361     6.9916     6.9323     8.2702  -999.2500  -999.2500  -999.2500  -999.2500
 1798.0000   108.9374    10.3421   -49.7288     6.9351     6.9323     8.0996  -999.2500  -999.2500  -999.2500  -999.2500
 1798.5000   109.8586    10.3424   -49.7214     6.8480     6.9323     7.8779  -999.2500  -999.2500  -999.2500  -999.2500
 1799.0000   113.2453    10.3427   -49.6949     6.8008     6.8845     7.7688  -999.2500  -999.2500  -999.2500  -999.2500
 1799.5000   114.0995    10.3430   -49.5543     6.7540     6.8370     7.7141  -999.2500  -999.2500  -999.2500  -999.2500
 1800.0000   113.8123    10.3423   -49.3779     6.7013     6.7828     7.6701  -999.2500  -999.2500  -999.2500  -999.2500
 1800.5000   115.1006    10.3287   -49.1276     6.6637     6.7395     7.6701  -999.2500  -999.2500  -999.2500  -999.2500
 1801.0000   117.7504    10.3261   -48.8773     6.6260     6.6962     7.6701  -999.2500  -999.2500  -999.2500  -999.2500
 1801.5000   118.3619    10.3272   -48.7668     6.6167     6.6530     7.6701  -999.2500  -999.2500  -999.2500  -999.2500
 1802.0000   115.9776    10.3280   -48.9109     6.6172     6.6097     7.6701  -999.2500  -999.2500  -999.2500  -999.2500
 1802.5000   111.1873    10.3289   -49.2012     6.6177     6.5664     7.6701  -999.2500  -999.2500  -999.2500  -999.2500
 1803.0000   110.8979    10.3298   -49.3434     6.6181     6.5232     7.6701  -999.2500  -999.2500  -999.2500  -999.2500
 1803.5000   113.3185    10.3306   -49.6355     6.5728     6.5103     7.6701  -999.2500  -999.2500  -999.2500  -999.2500
 1804.0000   114.9194    10.3315   -49.7774     6.5280     6.5099     7.6701  -999.2500  -999.2500  -999.2500  -999.2500
 1804.5000   115.7499    10.3326   -49.9192     6.5285     6.5093     7.6701  -999.2500  -999.2500  -999.2500  -999.2500
 1805.0000   110.6630    10.3335   -50.0611     6.5290     6.5089     7.6701  -999.2500  -999.2500  -999.2500  -999.2500
 1805.5000   108.2751    10.3343   -50.2008     6.6203     6.5538     7.6172  -999.2500  -999.2500  -999.2500  -999.2500
 1806.0000   106.7881    10.3352   -50.1921     6.7131     6.5532     7.5647  -999.2500  -999.2500  -999.2500  -999.2500
 1806.5000   105.6014    10.3361   -49.8821     6.8542     6.6443     7.5598  -999.2500  -999.2500  -999.2500  -999.2500
 1807.0000   103.2135    10.3369   -49.5722     6.9502     6.7364     7.7291  -999.2500  -999.2500  -999.2500  -999.2500
 1807.5000   102.6274    10.3378   -49.0964     7.0474     6.7359     8.3342  -999.2500  -999.2500  -999.2500  -999.2500
 1808.0000   103.8468    10.3389   -48.7995     7.0968     6.2132     8.8086  -999.2500  -999.2500  -999.2500  -999.2500
 1808.5000   101.1586    10.3848   -48.6424     6.2667     5.2853     9.1187  -999.2500  -999.2500  -999.2500  -999.2500
 1809.0000    97.5695    10.4457   -48.7843     5.5236     4.8300     8.8698  -999.2500  -999.2500  -999.2500  -999.2500
 1809.5000    98.1846    10.5367   -48.6228     4.9204     4.3834     7.6172  -999.2500  -999.2500  -999.2500  -999.2500
 1810.0000   101.5025    10.6577   -48.4634     4.4977     4.0898     5.8559  -999.2500  -999.2500  -999.2500  -999.2500
 1810.5000   105.7212    10.7940   -48.3041     4.3152     4.0613     4.7529  -999.2500  -999.2500  -999.2500  -999.2500
 1811.0000   105.1330    10.8870   -48.1446     4.2561     4.1177     4.4400  -999.2500  -999.2500  -999.2500  -999.2500
 1811.5000    97.0415    10.8107   -47.9832     4.4986     4.2370     4.4094  -999.2500  -999.2500  -999.2500  -999.2500
 1812.0000    97.9606    10.5713   -47.9745     4.8210     4.5362     4.8917  -999.2500  -999.2500  -999.2500  -999.2500
 1812.5000   101.2784    10.4220   -47.9658     5.2023     4.8276     6.0203  -999.2500  -999.2500  -999.2500  -999.2500
 1813.0000   106.9986    10.3778   -48.2582     5.6242     5.2094     7.4093  -999.2500  -999.2500  -999.2500  -999.2500
 1813.5000   113.6197    10.3937   -48.7013     6.1423     5.7393     8.1067  -999.2500  -999.2500  -999.2500  -999.2500
 1814.0000   122.0427    10.3948   -49.2950     6.5372     6.2796     8.5090  -999.2500  -999.2500  -999.2500  -999.2500
 1814.5000   122.9581    10.4105   -49.7469     6.9094     6.7762     8.1630  -999.2500  -999.2500  -999.2500  -999.2500
 1815.0000   121.0512    10.4266   -49.8800     7.1530     7.2616     7.9953  -999.2500  -999.2500  -999.2500  -999.2500
 1815.5000   114.5824    10.4274   -49.8690     7.3034     6.8509     7.9401  -999.2500  -999.2500  -999.2500  -999.2500
 1816.0000   112.7914    10.4283   -49.8603     7.1046     6.3653     8.0508  -999.2500  -999.2500  -999.2500  -999.2500
 1816.5000   115.2120    10.4442   -49.8516     6.8605     6.1483     8.1720  -999.2500  -999.2500  -999.2500  -999.2500
