~VERSION INFORMATION
 VERS.                2.0:   CWLS LOG ASCII STANDARD - VERSION 2.0
 WRAP.                 NO:   ONE LINE PER DEPTH STEP
~WELL INFORMATION
#MNEM.UNIT      DATA TYPE    INFORMATION
#----------   ------------   ------------------------------
 STRT.F           35.0000:   START DEPTH
 STOP.F          736.0000:   STOP DEPTH
 STEP.F            0.5000:   STEP LENGTH
 NULL.          -999.2500:   NO VALUE
 COMP. US DEPTMNT OF ENRGY:   COMPANY
 WELL.       NPR 3 #73-15:   WELL
 FLD .   TEAPOT NAVAL RES:   FIELD
 LOC .      S15 T38N R78W:   LOCATION
 CNTY.            NATRONA:   COUNTY
 STAT.            WYOMING:   STATE
 CTRY. UNITED STATES OF AMERICA:   COUNTRY
 SRVC.           Gearhart:   SERVICE COMPANY
 DATE.        02-SEP-1987:   LOGDATE
 API .       490251122300:   API NUMBER
~CURVE INFORMATION
#MNEM.UNIT       API CODE    CURVE DESCRIPTION
#----------   ------------   ------------------------------
 DEPT.F                  :   
 GRR .GAPI   07 310 01 00:   GAMMA RAY
 RILD.OHMM   07 120 46 00:   INDUCTION LOG DEEP RESISTIVITY
 RILM.OHMM   07 120 44 00:   INDUCTION LOG MEDIUM RESISTIVITY
~PARAMETER INFORMATION
#MNEM.UNIT          VALUE    DESCRIPTION
#----------   ------------   ------------------------------
 PD  .                 GL:   PERMANENT DATUM
 LMF .                 KB:   LOG MEASURED FROM
 DAPD.F              10.5:   FEET ABOVE PERMANENT DATUM
 DMF .                 KB:   DRILLING MEASURED FROM
 DATE.        02-SEP-1987:   RUN DATE
 RUN .                  1:   RUN NUMBER
 DD  .F               740:   DEPTH DRILLER
 DL  .F               743:   DEPTH LOGGER
 BLI .F               735:   BOTTOM LOG INTERVAL
 TLI .F                30:   TOP LOG INTERVAL
 CS  .IN            9.625:   CASING SIZE
 CBD .F               740:   CASING BOTTOM DRILLER
 CBL .F                40:   CASING BOTTOM LOGGER
 BS  .IN             8.75:   BIT SIZE
 BSD .F               740:   BIT SIZE AT DEPTH
 DFT .                AIR:   DRILLING FLUID TYPE
 TCS .HRS            0230:   TIME CURCULATED STOPPED
 TLAB.HRS            0447:   TIME LOGGER AT BOTTOM
 MRT .F                80:   MAXIMUM RECORDED TEMPERATURE
 LUN .               7697:   LOGGING UNIT NUMBER
 LUL .           GILLETTE:   LOGGING UNIT LOCATION
 ENGI.         WEATHERMON:   RECORDING ENGINEER
 WITN.             STRONG:   WITNESSED BY
 CLNT.            A2DTECH:   CLIENT CODE
 ORIG.           5" PRINT:   ORIGIN OF DATA
 UWI .       490251122300:   UNIQUE WELL ID
 DICO. A2D Technologies, Inc.:   DIGITIZING COMPANY
~OTHER INFORMATION
~A   DEPT       GRR      RILD       RILM   
# ...
  672.0000   139.6020     6.3195     5.4612
  672.5000   127.2359     6.5456     6.3692
  673.0000   115.3834     6.7835     7.1829
  673.5000   107.0302     7.2685     8.0673
  674.0000   100.7167     7.7399     8.6504
  674.5000    99.2216     8.4155     9.0842
  675.0000    98.9400     9.1500     9.5397
  675.5000    99.2679     9.6759     9.8798
  676.0000    99.8927    10.0208    10.0907
  676.5000   101.1217    10.1639    10.2348
  677.0000   103.2571    10.2375    10.3090
  677.5000   105.4382    10.3117    10.3837
  678.0000   105.7152    10.4590    10.4648
  678.5000   104.5273    10.4878    10.6824
  679.0000   104.5530    10.9110    10.8355
  679.5000   105.1778    11.2217    10.9140
  680.0000   105.8027    11.4613    11.1470
  680.5000   106.4275    11.7060    11.4644
  681.0000   107.3544    11.9559    11.7909
  681.5000   107.6771    12.2112    12.1266
  682.0000   105.2446    12.4719    12.4719
  682.5000   101.5861    12.7382    12.5623
  683.0000   100.4881    13.0144    12.6575
  683.5000   100.8159    13.1176    12.8341
  684.0000   106.2746    13.2924    12.9279
  684.5000   107.4985    13.3888    13.1124
  685.0000   106.6127    13.4858    13.2075
  685.5000   105.7321    13.4895    13.3032
  686.0000   106.0548    13.5872    13.3997
  686.5000   106.6889    13.5909    13.4033
  687.0000   107.0030    13.5946    13.5005
  687.5000   107.3301    13.6932    13.5041
  688.0000   105.5380    13.6969    13.4142
  688.5000   103.1417    13.7007    13.4180
  689.0000   101.3496    13.6094    13.3285
  689.5000   100.7608    13.5188    13.3331
  690.0000   101.3908    13.4288    13.2434
  690.5000   102.3177    13.3394    13.2479
  691.0000   103.5590    13.2506    13.2515
  691.5000   106.0242    13.1624    13.2551
  692.0000   104.4994    13.1668    13.2587
  692.5000   102.4052    13.0791    13.2623
  693.0000   101.8164    12.9921    13.1740
  693.5000   103.3527    12.8162    13.0863
  694.0000   105.4880    12.6427    12.9091
  694.5000   104.6023    12.4715    12.7352
  695.0000   103.7165    12.2183    12.4758
  695.5000   104.0453    12.0529    12.2208
  696.0000   105.9456    11.8889    11.8897
  696.5000   109.2215    11.7287    11.7287
  697.0000   109.5442    11.4898    11.5700
  697.5000   109.5648    11.2557    11.3343
  698.0000   110.1896    11.0264    11.0264
  698.5000   110.3848    10.7270    10.7238
  699.0000   110.7176    10.5818    10.4984
  699.5000   112.2644    10.3669    10.3662
  700.0000   113.8112    10.2972    10.2972
  700.5000   114.7511    10.2286    10.1585
  701.0000   113.8700    10.2321    10.0209
  701.5000   110.8245    10.0929     9.8846
  702.0000   108.4659     9.9569    10.0956
  702.5000   110.3236     9.8215     9.7541
  703.0000   112.7809     9.4237     9.4234
  703.5000   114.9346     9.3603     9.3607
  704.0000   112.8396     9.4288     9.5606
  704.5000   109.2271     9.4971     9.5638
  705.0000   106.8285     9.5660     9.5664
  705.5000   108.1537     9.5023     9.5690
  706.0000   112.0539     9.5050     9.4388
  706.5000   114.8147     9.3762     9.3764
  707.0000   116.0581     9.3138     9.3140
  707.5000   116.0874     9.2518     9.3166
  708.0000   116.1168     9.1908     9.1910
  708.5000   116.1462     9.1290     9.1292
  709.0000   116.8032     9.0682     9.0684
  709.5000   118.0332     9.0083     8.8227
  710.0000   119.5800     8.8249     8.5831
  710.5000   118.0919     8.6434     8.4083
  711.0000   117.5070     8.4617     8.3517
  711.5000   118.1507     8.3544     8.3546
  712.0000   117.5731     8.2418     8.1844
  712.5000   117.2989     8.0739     8.0689
  713.0000   117.3293     7.8547     7.9091
  713.5000   118.2755     7.6413     7.6948
  714.0000   118.9045     7.4852     7.3825
  714.5000   117.1203     7.3332     6.9851
  715.0000   115.0252     7.3352     6.6551
  715.5000   114.7437     7.3372     6.5191
  716.0000   115.9944     7.4419     6.5213
  716.5000   114.1831     7.6543     6.7538
  717.0000   113.6252     7.8723     7.2419
  717.5000   116.0899     8.2098     7.8824
  718.0000   118.5472     8.5617     8.5196
  718.5000   119.7905     9.0538     9.1172
  719.0000   118.3024     9.5078     9.4422
  719.5000   115.6004     9.8468     9.7110
  720.0000   113.5053    10.1271     9.9875
  720.5000  -999.2500    10.1299    10.1303
  721.0000  -999.2500    10.2034    10.1331
  721.5000  -999.2500    10.2062    10.1358
  722.0000  -999.2500    10.2808    10.0677
  722.5000  -999.2500    10.2836    10.0711
  723.0000  -999.2500    10.2864    10.0738
  723.5000  -999.2500    10.2179    10.1469
  724.0000  -999.2500    10.2206    10.1496
  724.5000  -999.2500    10.2234    10.1524
  725.0000  -999.2500    10.2262    10.1552
  725.5000  -999.2500    10.1581    10.1586
  726.0000  -999.2500    10.1609    10.1613
  726.5000  -999.2500    10.1637    10.1641
  727.0000  -999.2500     9.8883    10.1669
  727.5000  -999.2500     9.6197    10.1696
  728.0000  -999.2500     9.2937    10.1724
  728.5000  -999.2500     8.9164    10.1045
  729.0000  -999.2500     8.6142     9.9679
  729.5000  -999.2500     8.3797     9.8304
  730.0000  -999.2500     8.0962     9.6909
  730.5000  -999.2500     7.7138     9.4370
  731.0000  -999.2500     7.4523     9.1171
  731.5000  -999.2500     7.3283     8.6263
  732.0000  -999.2500     7.5182     8.1054
  732.5000  -999.2500  -999.2500     7.5631
  733.0000  -999.2500  -999.2500     6.7220
  733.5000  -999.2500  -999.2500     5.9330
  734.0000  -999.2500  -999.2500     5.1644
  734.5000  -999.2500  -999.2500     4.6536
  735.0000  -999.2500  -999.2500     3.7094
  735.5000  -999.2500  -999.2500     3.1336
  736.0000  -999.2500  -999.2500     3.0421
