~VERSION INFORMATION
 VERS.                2.0:   CWLS LOG ASCII STANDARD - VERSION 2.0
 WRAP.                 NO:   ONE LINE PER DEPTH STEP
~WELL INFORMATION
#MNEM.UNIT      DATA TYPE    INFORMATION
#----------   ------------   ------------------------------
 STRT.F           60.0000:   START DEPTH
 STOP.F          894.0000:   STOP DEPTH
 STEP.F            0.5000:   STEP LENGTH
 NULL.          -999.2500:   NO VALUE
 COMP.           U S NAVY:   COMPANY
 WELL. RES 3 TEAPOT DOM #27S-35:   WELL
 FLD .        TEAPOT DOME:   FIELD
 LOC .      S35 T39N R78W:   LOCATION
 CNTY.            NATRONA:   COUNTY
 STAT.            WYOMING:   STATE
 CTRY. UNITED STATES OF AMERICA:   COUNTRY
 SRVC. Schlumberger Well Surveying Corp:   SERVICE COMPANY
 DATE.        30-JUL-1959:   LOGDATE
 API .       490250650600:   API NUMBER
~CURVE INFORMATION
#MNEM.UNIT       API CODE    CURVE DESCRIPTION
#----------   ------------   ------------------------------
 DEPT.F                  :   
 SPS .MV     60 010 01 00:   SPONTANEOUS POTENTIAL FROM SONIC
 DT  .US/F   60 520 32 00:   INTERVAL TRANSIT TIME
~PARAMETER INFORMATION
#MNEM.UNIT          VALUE    DESCRIPTION
#----------   ------------   ------------------------------
 PD  .                 GL:   PERMANENT DATUM
 EPD .F              5101:   ELEVATION PERMANENT DATUM
 LMF .                 KB:   LOG MEASURED FROM
 DAPD.F                 4:   FEET ABOVE PERMANENT DATUM
 DMF .                 KB:   DRILLING MEASURED FROM
 EKB .F              5105:   KELLING BUSHING
 EGL .F              5101:   GROUND LEVEL
 DATE.        30-JUL-1959:   RUN DATE
 RUN .                  1:   RUN NUMBER
 DD  .F               897:   DEPTH DRILLER
 DL  .F               897:   DEPTH LOGGER
 BLI .F               894:   BOTTOM LOG INTERVAL
 TLI .F                73:   TOP LOG INTERVAL
 CBD .F                17:   CASING BOTTOM DRILLER
 BS  .IN             6.75:   BIT SIZE
 BSD .F               897:   BIT SIZE AT DEPTH
 DFT .       OIL EMULSION:   DRILLING FLUID TYPE
 DFD .                9.0:   DRILLING FLUID DENSITY
 DFV .                 55:   DRILLING FLUID VISCOSITY
 DFPH.                  9:   DRILLING FLUID PH
 DFL .                3.8:   DRILLING FLUID LOSS
 RMS .OHMM            4.0:   RESISTIVITY MUD SAMPLE
 MST .F                79:   MUD SAMPLE TEMPERATURE
 RMF .OHMM            3.6:   RESISTIVITY MUD FILTRATE SAMPLE
 MFST.F                79:   MUD FILTRATE SAMPLE TEMPERATURE
 RMB .OHMM            4.0:   RESISTIVITY MUD AT BHT
 BHT .F                79:   BOTTOM HOLE TEMPERATURE
 TCS .HRS            0100:   TIME CURCULATED STOPPED
 LUN .               2545:   LOGGING UNIT NUMBER
 LUL .                RIV:   LOGGING UNIT LOCATION
 ENGI.           STAFFORD:   RECORDING ENGINEER
 WITN.             MARTIN:   WITNESSED BY
 CLNT.            A2DTECH:   CLIENT CODE
 ORIG.       2", 5" PRINT:   ORIGIN OF DATA
 UWI .       490250650600:   UNIQUE WELL ID
 DICO. A2D Technologies, Inc.:   DIGITIZING COMPANY
~OTHER INFORMATION
~A   DEPT      SPS         DT   
# ...
  181.5000   -43.0811    93.1253
  182.0000   -42.9968    97.6634
  182.5000   -42.8597   104.5847
  183.0000   -42.8283   107.3913
  183.5000   -42.5786   108.3356
  184.0000   -42.5186   108.3372
  184.5000   -42.2975   107.9902
  185.0000   -42.2980   106.4303
  185.5000   -42.2985   104.8240
  186.0000   -42.2991   104.3819
  186.5000   -42.2995   104.4543
  187.0000   -42.3000   104.6440
  187.5000   -42.3904   105.0934
  188.0000   -42.4757   105.6006
  188.5000   -42.8658   105.8132
  189.0000   -43.1936   105.9463
  189.5000   -43.8717   106.1378
  190.0000   -44.4590   106.6560
  190.5000   -44.0716   108.0228
  191.0000   -42.5862   108.5192
  191.5000   -41.8965   108.4990
  192.0000   -41.4588   103.2686
  192.5000   -41.4593    95.0645
  193.0000   -41.4598    95.8275
  193.5000   -41.4604   100.2535
  194.0000   -41.6019   108.2936
  194.5000   -41.7434   109.4971
  195.0000   -41.7439   109.7106
  195.5000   -41.7444   110.0683
  196.0000   -41.7450   112.0888
  196.5000   -41.8101   113.8167
  197.0000   -41.8870   111.7397
  197.5000   -41.9807   110.3539
  198.0000   -42.0659   109.9726
  198.5000   -42.3116   110.4219
  199.0000   -42.3121   112.5505
  199.5000   -42.3126   114.3741
  200.0000   -42.2854   115.5941
  200.5000   -42.2195   116.1757
  201.0000   -42.1749   116.0193
  201.5000   -42.1763   115.1032
  202.0000   -42.1777   114.2395
  202.5000   -42.1791   113.9743
  203.0000   -42.0396   113.9756
  203.5000   -41.7588   113.8201
  204.0000   -41.9013   113.4835
  204.5000   -42.0715   112.6052
  205.0000   -42.8914   107.5906
  205.5000   -42.7520   106.0051
  206.0000   -41.7988   110.1835
  206.5000   -40.9211   112.3245
  207.0000   -40.7814   112.8760
  207.5000   -41.0802   112.1468
  208.0000   -41.2076   106.7047
  208.5000   -41.3890   102.7802
  209.0000   -41.4924   108.4916
  209.5000   -41.4937   109.6850
  210.0000   -41.4904   109.7555
  210.5000   -41.3554   109.4873
  211.0000   -41.3568   107.4868
  211.5000   -41.4995   104.4842
  212.0000   -41.6944    98.9816
  212.5000   -41.9253    96.5686
  213.0000   -42.1443    95.7335
  213.5000   -42.3511    94.9408
  214.0000   -41.7887    95.0099
  214.5000   -41.4236    99.7594
  215.0000   -41.0861   103.9630
  215.5000   -41.0874   107.7834
  216.0000   -41.0889   108.6881
  216.5000   -41.1803   109.0501
  217.0000   -41.2327   110.5301
  217.5000   -41.3753   112.5407
  218.0000   -41.4321   113.7616
  218.5000   -41.6601   114.7813
  219.0000   -41.8025   114.9424
  219.5000   -41.9868   115.0641
  220.0000   -42.3698   115.0638
  220.5000   -42.3324   114.8187
  221.0000   -41.2441   104.5323
  221.5000   -40.9666    95.4087
  222.0000   -40.8134    91.0368
  222.5000   -40.6841    89.0391
  223.0000   -40.6855    88.6265
  223.5000   -40.6870    89.0626
  224.0000   -40.6883    89.7371
  224.5000   -40.6897    89.8429
  225.0000   -40.7734    89.6291
  225.5000   -40.8336    89.2618
  226.0000   -40.9762    89.2343
  226.5000   -41.0252    95.7993
  227.0000   -41.1200    99.3253
  227.5000   -41.2623    99.7779
  228.0000   -41.2769    99.7498
  228.5000   -41.4062    99.3720
  229.0000   -41.4448    97.3224
  229.5000   -41.5502    95.4255
  230.0000   -41.6925    95.0638
  230.5000   -41.6939    94.8579
  231.0000   -41.6953    94.7867
  231.5000   -41.6968    94.8293
  232.0000   -41.5573   103.0070
  232.5000   -41.3669   103.8590
  233.0000   -41.1369   104.1403
  233.5000   -40.9227   104.7581
  234.0000   -40.7164   106.0371
  234.5000   -40.5771   107.7537
  235.0000   -40.4370   108.9593
  235.5000   -40.2977   110.3044
  236.0000   -40.1580   110.4467
  236.5000   -40.1594   108.7421
  237.0000   -40.0729   106.1218
  237.5000   -40.0210   104.7779
  238.0000   -40.0228   101.9397
  238.5000   -40.0240    94.1513
  239.0000   -40.0254    93.9305
  239.5000   -40.0268    94.2634
  240.0000   -40.0470   103.0014
  240.5000   -40.1709   103.7807
  241.0000   -40.1721   102.6815
  241.5000   -40.1736   101.5121
  242.0000   -40.2417   102.2492
  242.5000   -40.3173   103.7255
  243.0000   -40.4095   103.7080
  243.5000   -40.6345   103.7076
  244.0000   -40.7449   103.7073
  244.5000   -40.8872   103.7510
  245.0000   -41.0296   104.0669
  245.5000   -40.8098   104.8401
  246.0000   -40.4466   105.8235
  246.5000   -40.1878   107.3931
  247.0000   -39.9567   109.9634
  247.5000   -39.6263   112.7103
  248.0000   -39.6276   114.8313
  248.5000   -39.4879   118.0613
  249.0000   -39.4894   118.5868
  249.5000   -39.4908   118.5865
  250.0000   -39.4924   114.5937
  250.5000   -39.6347    99.1668
  251.0000   -39.6361    93.5627
  251.5000   -39.7205    93.0003
  252.0000   -39.9455    90.3012
  252.5000   -40.0637    93.0883
  253.0000   -40.1133    97.2515
  253.5000   -40.2074   100.1762
  254.0000   -40.2087   103.7711
  254.5000   -40.2240   105.0648
  255.0000   -40.3529   105.6839
  255.5000   -40.3540   104.9039
  256.0000   -40.3556   104.2280
  256.5000   -40.2158   103.7693
  257.0000   -40.2172   103.8037
  257.5000   -40.2186   104.4909
  258.0000   -40.2200   106.0361
  258.5000   -40.2216   106.6117
  259.0000   -40.2229   107.0985
  259.5000   -40.2243   107.6865
  260.0000   -39.9342   109.6445
  260.5000   -39.6628   112.6878
  261.0000   -39.5235   115.3698
  261.5000   -39.3834   118.2944
  262.0000   -39.2441   118.6485
  262.5000   -39.3865   117.3960
  263.0000   -39.5350   114.9553
  263.5000   -39.7600   111.8637
  264.0000   -40.1260   108.2998
  264.5000   -40.2385   102.8568
  265.0000   -40.4349   101.9171
  265.5000   -40.5233   101.8377
  266.0000   -40.5247   102.4916
  266.5000   -40.5261   103.6913
  267.0000   -40.6688   103.8474
  267.5000   -40.7134   103.6198
  268.0000   -40.8125   102.6952
  268.5000   -40.8138   101.3577
  269.0000   -40.8063   100.9964
  269.5000   -40.6756   101.0933
  270.0000   -40.5031   101.4918
  270.5000   -40.3963   104.2041
  271.0000   -40.2567   108.9045
  271.5000   -40.1171   111.9797
  272.0000   -39.6145   113.2334
  272.5000   -39.4145   113.3257
  273.0000   -39.5574   113.2873
  273.5000   -39.7459   112.7504
  274.0000   -40.1242   109.7101
  274.5000   -40.3369   107.2214
  275.0000   -40.5618   106.3076
  275.5000   -40.6925   106.3072
  276.0000   -40.8350   105.9111
  276.5000   -40.8365   100.4241
  277.0000   -40.8378   100.1404
  277.5000   -40.8392   101.9117
  278.0000   -40.6159   103.9667
  278.5000   -40.5348   104.0430
  279.0000   -40.4203   104.2036
  279.5000   -40.6119   104.3777
  280.0000   -40.8463   104.8157
  280.5000   -40.8477   105.7750
  281.0000   -40.5524   107.3598
  281.5000   -40.2866   109.0295
  282.0000   -40.0696   110.1103
  282.5000   -39.7251   111.0506
  283.0000   -39.7264   111.7012
  283.5000   -39.5867   112.2593
  284.0000   -39.6747   112.3518
  284.5000   -39.7306   111.8844
  285.0000   -39.7322   109.7732
  285.5000   -39.7854   109.7020
  286.0000   -40.0170   109.7077
  286.5000   -40.1594   111.9871
  287.0000   -40.3018   114.1763
  287.5000   -40.4445   116.1498
  288.0000   -40.4457   118.4146
  288.5000   -40.5883   120.1889
  289.0000   -40.5896   121.1725
  289.5000   -40.5910   121.3343
  290.0000   -40.5924   120.9673
  290.5000   -40.4526   117.0949
  291.0000   -40.3133   112.6038
  291.5000   -40.3145   108.3073
  292.0000   -40.1749   103.4598
  292.5000   -40.1763    98.0031
  293.0000   -40.1777    95.2844
  293.5000   -40.1794    95.3802
  294.0000   -40.1805   101.0773
  294.5000   -40.1820   106.7133
  295.0000   -40.1834   108.9156
  295.5000   -40.1848   109.0083
  296.0000   -40.1862   109.1275
  296.5000   -40.1876   109.4821
  297.0000   -40.1892   110.1236
  297.5000   -40.1904   111.8904
  298.0000   -40.1918   113.5930
  298.5000   -40.1932   116.9925
  299.0000   -40.1946   120.4325
  299.5000   -40.1963   123.8110
  300.0000   -40.2194   126.8190
  300.5000   -40.3249   130.2442
  301.0000   -40.4305   130.2438
  301.5000   -40.5361   129.4684
  302.0000   -40.6417   125.9977
  302.5000   -40.7653   121.3860
