~VERSION INFORMATION
 VERS.                2.0:   CWLS LOG ASCII STANDARD - VERSION 2.0
 WRAP.                 NO:   ONE LINE PER DEPTH STEP
~WELL INFORMATION
#MNEM.UNIT      DATA TYPE    INFORMATION
#----------   ------------   ------------------------------
 STRT.F           30.0000:   START DEPTH
 STOP.F          618.0000:   STOP DEPTH
 STEP.F            0.5000:   STEP LENGTH
 NULL.          -999.2500:   NO VALUE
 COMP. FENNIX & SCISSON, INC.:   COMPANY
 WELL.       NPR #88-S-10:   WELL
 FLD .              NPR-3:   FIELD
 LOC .      S10 T38N R78W:   LOCATION
 CNTY.            NATRONA:   COUNTY
 STAT.            WYOMING:   STATE
 CTRY. UNITED STATES OF AMERICA:   COUNTRY
 SRVC.              Welex:   SERVICE COMPANY
 DATE.        22-APR-1977:   LOGDATE
 API .       490251034200:   API NUMBER
~CURVE INFORMATION
#MNEM.UNIT       API CODE    CURVE DESCRIPTION
#----------   ------------   ------------------------------
 DEPT.F                  :   
 CALD.IN     45 280 60 00:   CALIPER FROM DENSITY LOG
 GRD .GAPI   45 310 01 00:   GAMMA RAY FROM DENSITY LOG
 CORR.G/C3   45 356 01 00:   DENSITY CORRECTION
 RHOB.G/C3   45 350 01 00:   BULK DENSITY
 DPHI.DEC    45 890 12 00:   DENSITY POROSITY SANDSTONE
 ILD .OHMM   07 120 46 00:   INDUCTION LOG DEEP
 ILM .OHMM   07 120 44 00:   INDUCTION LOG MEDIUM
 SGRD.OHMM   07 220 05 00:   SHALLOW GUARD RESISTIVITY
 SPR .MV     07 010 01 00:   SPONTANEOUS POTENTIAL FROM RES.
~PARAMETER INFORMATION
#MNEM.UNIT          VALUE    DESCRIPTION
#----------   ------------   ------------------------------
 PD  .                 GL:   PERMANENT DATUM
 EPD .F              5255:   ELEVATION PERMANENT DATUM
 LMF .                 GL:   LOG MEASURED FROM
 DMF .                 GL:   DRILLING MEASURED FROM
 EGL .F              5255:   GROUND LEVEL
 DATE.        22-APR-1977:   RUN DATE
 RUN .                  1:   RUN NUMBER
 DD  .F               630:   DEPTH DRILLER
 DL  .F               620:   DEPTH LOGGER
 BLI .F               618:   BOTTOM LOG INTERVAL
 TLI .F                38:   TOP LOG INTERVAL
 CS  .IN            8.625:   CASING SIZE
 CBD .F                40:   CASING BOTTOM DRILLER
 BS  .IN            7.875:   BIT SIZE
 BSD .F               630:   BIT SIZE AT DEPTH
 DFT .            KCL GEL:   DRILLING FLUID TYPE
 DFD .                9.0:   DRILLING FLUID DENSITY
 DFV .                 40:   DRILLING FLUID VISCOSITY
 DFPH.                8.0:   DRILLING FLUID PH
 DFL .                6.4:   DRILLING FLUID LOSS
 MSS .            MUD PIT:   MUD SAMPLE SOURCE
 RMS .OHMM            .20:   RESISTIVITY MUD SAMPLE
 MST .F                65:   MUD SAMPLE TEMPERATURE
 RMF .OHMM            .18:   RESISTIVITY MUD FILTRATE SAMPLE
 MFST.F                65:   MUD FILTRATE SAMPLE TEMPERATURE
 RMC .OHMM            .28:   RESISTIVITY MUD CAKE
 MCST.F                65:   MUD CAKE SAMPLE TEMPERATURE
 MFSS.               MEAS:   MUD FILTRATE SAMPLE SOURCE
 MCSS.               MEAS:   MUD CAKE SAMPLE SOURCE
 RMB .OHMM            .18:   RESISTIVITY MUD AT BHT
 BHT .F                71:   BOTTOM HOLE TEMPERATURE
 TCS .HRS            0300:   TIME CURCULATED STOPPED
 MRT .F                71:   MAXIMUM RECORDED TEMPERATURE
 LUN .               8611:   LOGGING UNIT NUMBER
 LUL .             CASPER:   LOGGING UNIT LOCATION
 ENGI.          T. JOYNER:   RECORDING ENGINEER
 WITN.           ROB LYON:   WITNESSED BY
 CLNT.            A2DTECH:   CLIENT CODE
 ORIG.           5" PRINT:   ORIGIN OF DATA
 UWI .       490251034200:   UNIQUE WELL ID
 DICO. A2D Technologies, Inc.:   DIGITIZING COMPANY
~OTHER INFORMATION
~A   DEPT     CALD        GRD       CORR       RHOB       DPHI        ILD        ILM       SGRD        SPR   
# ...
  249.0000     7.8685   107.6407     0.0098     2.4735     0.1109    10.2233    12.9053    17.0059   -22.4670
  249.5000     7.8685   110.3323     0.0083     2.4682     0.1139    10.2904    13.2664    18.1624   -22.4689
  250.0000     7.8685   114.6707     0.0068     2.4286     0.1274    10.2143    13.6376    18.1599   -22.3216
  250.5000     7.8686   112.4206     0.0053     2.4390     0.1220    10.0338    12.5500    16.7135   -22.3229
  251.0000     7.8688   111.6676     0.0053     2.4510     0.1178     9.8006    11.8728    15.9238   -22.3244
  251.5000     7.8839   112.4116     0.0053     2.4540     0.1166     9.6652    11.4670    15.5947   -22.3262
  252.0000     7.8840   115.5508     0.0038     2.4480     0.1214     9.5316    11.2290    15.3780   -22.0300
  252.5000     7.8842   118.6901     0.0038     2.4343     0.1262     9.3999    11.0721    15.1643   -22.0315
  253.0000     7.8694   119.7333     0.0039     2.4369     0.1226     9.3986    10.9173    14.9597   -22.0330
  253.5000     7.8695   121.2258     0.0039     2.4420     0.1206     9.3973    10.8393    14.9504   -21.8853
  254.0000     7.8697   118.8260     0.0039     2.4459     0.1188     9.3960    10.9868    14.8528   -21.8869
  254.5000     7.8549   116.8765     0.0054     2.4570     0.1167     9.3947    11.1372    14.8416   -21.8611
  255.0000     7.8550   118.3690     0.0054     2.4629     0.1140     9.3934    11.2112    14.5348   -21.7410
  255.5000     7.8402   118.0639     0.0100     2.4689     0.1191     9.3276    10.9777    14.2451   -21.7426
  256.0000     7.8404   114.1672     0.0130     2.4749     0.1158     9.1987    10.6760    14.2431   -21.7440
  256.5000     7.8405   113.1148     0.0160     2.4920     0.1042     9.1343    10.5268    14.2411   -21.7629
  257.0000     7.8407   115.0564     0.0161     2.5024     0.0979     9.0081    10.3802    14.3378   -21.8958
  257.5000     7.8408   117.7464     0.0146     2.5009     0.0982     8.9450    10.3773    14.3357   -22.0461
  258.0000     7.8559   119.9886     0.0116     2.4755     0.1060     8.8824    10.3745    14.3337   -22.0476
  258.5000     7.8710   114.5937     0.0086     2.4665     0.1138     8.8202    10.5158    14.3318   -22.0491
  259.0000     7.8712   110.9963     0.0055     2.4627     0.1177     8.8800    10.5857    14.2137   -22.1994
  259.5000     7.8713   109.4948     0.0041     2.4545     0.1189     8.8787    10.6560    14.1132   -22.2009
  260.0000     7.8864   109.6400     0.0041     2.4417     0.1216     8.9392    10.6530    13.9358   -22.2024
  260.5000     7.8866   114.4259     0.0041     2.4305     0.1261     8.9997    10.5679    13.7431   -22.2039
  261.0000     7.8867   115.7686     0.0041     2.4252     0.1288     9.0607    10.2781    13.7412   -22.2054
  261.5000     7.9018   117.1114     0.0026     2.4320     0.1300     9.0591     9.8593    13.6449   -22.2069
  262.0000     7.9169   120.1020     0.0026     2.4506     0.1252     9.0579     9.5889    13.5493   -22.2084
  262.5000     7.9171   119.7730     0.0026     2.4611     0.1176     8.9945     9.4610    13.4544   -22.2099
  263.0000     7.9322   119.8134     0.0027     2.4648     0.1153     8.9315     9.4584    13.4525   -22.3602
  263.5000     7.9323   120.2979     0.0028     2.4508     0.1158     8.7476     9.3867    13.5437   -22.3617
  264.0000     7.9175   119.8843     0.0042     2.4394     0.1203     8.6267     9.1925    13.6355   -22.3631
  264.5000     7.9177   112.2899     0.0057     2.4386     0.1240     8.5075     9.0050    13.8229   -22.5134
  265.0000     7.9178   111.8413     0.0072     2.4464     0.1207     8.4479     9.1929    13.9171   -22.6638
  265.5000     7.9179   114.0823     0.0103     2.4582     0.1168     8.3888     9.5123    13.7242   -22.6652
  266.0000     7.9181   119.0179     0.0118     2.4663     0.1145     8.3876     9.7742    13.5344   -22.8155
  266.5000     7.9182   118.4146     0.0133     2.4692     0.1133     8.2717     9.9074    13.3472   -22.9659
  267.0000     7.9184   117.0627     0.0118     2.4669     0.1109     8.1574    10.0421    13.2537   -22.9673
  267.5000     7.9036   115.8606     0.0118     2.4767     0.1094     8.1563     9.9017    13.1608   -22.9688
  268.0000     7.9037   115.1076     0.0103     2.4744     0.1100     8.0992     9.4976    13.1590   -23.1193
  268.5000     7.8889   117.0491     0.0089     2.4512     0.1208     8.0425     9.1099    13.2487   -23.1206
  269.0000     7.8891   117.4948     0.0058     2.4445     0.1217     7.9862     8.7381    13.4303   -23.2709
  269.5000     7.8892   116.8904     0.0044     2.4310     0.1295     7.9302     8.4979    13.4285   -23.4212
  270.0000     7.8894   114.6403     0.0029     2.4377     0.1343     7.9292     8.2643    12.8826   -23.5716
  270.5000     7.9045   112.9891     0.0029     2.4362     0.1313     8.0381     8.3768    12.7044   -23.5730
  271.0000     7.9046   112.2361     0.0014     2.4272     0.1340     8.1484     8.9727    12.8795   -23.5745
  271.5000     7.9048   110.7345     0.0014     2.4264     0.1356     8.2039     9.7445    13.1464   -23.5760
  272.0000     7.8900   112.9755     0.0029     2.4287     0.1290     8.3163    10.3658    13.4192   -23.5775
  272.5000     7.8752   113.7206     0.0029     2.4361     0.1209     8.3729    10.9510    13.6978   -23.5790
  273.0000     7.8753   112.2180     0.0045     2.4518     0.1197     8.4296    11.4897    13.8865   -23.7293
  273.5000     7.8605   110.4170     0.0045     2.4413     0.1248     8.4282    11.8080    13.7888   -23.8796
  274.0000     7.8607   109.2160     0.0075     2.4376     0.1260     8.2547    11.8288    13.7869   -23.8811
  274.5000     7.8459   113.8511     0.0121     2.4503     0.1200     7.8650    11.0146    13.7850   -24.0314
  275.0000     7.8461   118.1879     0.0136     2.4705     0.1126     7.6502    10.4203    13.5009   -24.1817
  275.5000     7.8312   119.9797     0.0151     2.4645     0.1159     7.4926     9.9950    12.9521   -24.1832
  276.0000     7.8164   120.2757     0.0151     2.4562     0.1177     7.1883     9.5870    12.3402   -24.3335
  276.5000     7.8166   116.5276     0.0136     2.4599     0.1135     7.0889     9.1957    11.7572   -24.3350
  277.0000     7.8168   117.8114     0.0136     2.4719     0.1084     7.0880     8.9429    11.5150   -24.4853
  277.5000     7.8169   119.0646     0.0134     2.4771     0.1069     7.0870     8.6971    11.5930   -24.4868
  278.0000     7.8171   115.4172     0.0122     2.4808     0.1081     7.0860     8.6349    11.9155   -24.4883
  278.5000     7.8172   115.0136     0.0090     2.4524     0.1195     7.0850     8.5732    12.1633   -24.4898
  279.0000     7.8174   123.5218     0.0030     2.4419     0.1234     7.1330     8.5708    12.2457   -24.3421
  279.5000     7.8325   127.7491    -0.0029     2.4359     0.1258     7.1816     8.5685    12.1595   -24.3440
  280.0000     7.8476   129.8204    -0.0029     2.4301     0.1327     7.2800     8.7452    12.0743   -24.1963
  280.5000     7.8627   131.3128    -0.0029     2.4162     0.1351     7.4310     8.9874    11.9897   -24.1982
  281.0000     7.8778   131.3183    -0.0043     2.4142     0.1351     7.6375     9.3003    11.9881   -24.1997
  281.5000     7.8629   130.1062    -0.0043     2.4182     0.1333     7.8498     9.5579    11.9041   -24.2012
  282.0000     7.8481   127.5567    -0.0028     2.4361     0.1285     8.1238     9.8233    11.9852   -24.2027
  282.5000     7.8483   126.3049    -0.0013     2.4464     0.1202     8.3496    10.1645    12.1495   -24.2041
  283.0000     7.8335   127.3980     0.0002     2.4493     0.1193     8.5820    10.3750    12.5738   -24.2056
  283.5000     7.8337   126.3455     0.0033     2.4448     0.1217     8.8206    10.4439    12.8348   -24.2071
  284.0000     7.8338   124.0955     0.0063     2.4440     0.1220     8.9417    10.2972    12.9223   -24.2083
  284.5000     7.8339   123.7927     0.0078     2.4462     0.1217     9.0645    10.0835    12.6556   -24.2098
  285.0000     7.8341   124.6852     0.0094     2.4485     0.1211     9.0007     9.8063    12.4806   -24.2113
