~VERSION INFORMATION
 VERS.                2.0:   CWLS LOG ASCII STANDARD - VERSION 2.0
 WRAP.                 NO:   ONE LINE PER DEPTH STEP
~WELL INFORMATION
#MNEM.UNIT      DATA TYPE    INFORMATION
#----------   ------------   ------------------------------
 STRT.F           28.5000:   START DEPTH
 STOP.F          625.0000:   STOP DEPTH
 STEP.F            0.5000:   STEP LENGTH
 NULL.          -999.2500:   NO VALUE
 COMP. FENIX & SCISSON INC:   COMPANY
 WELL.    NPR ##3 13-SX-3:   WELL
 FLD .             TEAPOT:   FIELD
 LOC .       S3 T38N R78W:   LOCATION
 CNTY.            NATRONA:   COUNTY
 STAT.            WYOMING:   STATE
 CTRY. UNITED STATES OF AMERICA:   COUNTRY
 SRVC.       Schlumberger:   SERVICE COMPANY
 DATE.        25-FEB-1977:   LOGDATE
 API .       490251028400:   API NUMBER
~CURVE INFORMATION
#MNEM.UNIT       API CODE    CURVE DESCRIPTION
#----------   ------------   ------------------------------
 DEPT.F                  :   
 SPR .MV     07 010 01 00:   SPONTANEOUS POTENTIAL
 ILD .OHMM   07 120 46 00:   INDUCTION LOG DEEP
 LL8 .OHMM   07 220 08 00:   LATEROLOG-8 RES.
 ILM .OHMM   07 120 44 00:   INDUCTION LOG MEDIUM
 GRD .GAPI   45 310 01 00:   GAMMA RAY FROM DENSITY LOG
 CALD.IN     45 280 60 00:   CALIPER
 RHOB.G/C3   45 350 01 00:   BULK DENSITY
 CORR.G/C3   45 356 01 00:   DENSITY CORRECTION
 DPOR.DEC    45 890 12 00:   DENSITY POROSITY SANDSTONE
~PARAMETER INFORMATION
#MNEM.UNIT          VALUE    DESCRIPTION
#----------   ------------   ------------------------------
 PD  .                 GL:   PERMANENT DATUM
 EPD .F              5227:   ELEVATION PERMANENT DATUM
 LMF .                 GL:   LOG MEASURED FROM
 DMF .                 GL:   DRILLING MEASURED FROM
 EKB .F              5232:   KELLING BUSHING
 EGL .F              5227:   GROUND LEVEL
 DATE.          2-25-1977:   RUN DATE
 RUN .                  1:   RUN NUMBER
 DD  .F               629:   DEPTH DRILLER
 DL  .F               626:   DEPTH LOGGER
 BLI .F               620:   BOTTOM LOG INTERVAL
 TLI .F                40:   TOP LOG INTERVAL
 CS  .IN            8.625:   CASING SIZE
 CBD .F                40:   CASING BOTTOM DRILLER
 CBL .F                40:   CASING BOTTOM LOGGER
 BS  .IN            7.875:   BIT SIZE
 BSD .F               629:   BIT SIZE AT DEPTH
 DFT .                KCL:   DRILLING FLUID TYPE
 DFD .                8.8:   DRILLING FLUID DENSITY
 DFV .                 45:   DRILLING FLUID VISCOSITY
 DFPH.                  8:   DRILLING FLUID PH
 DFL .                8.2:   DRILLING FLUID LOSS
 MSS .                PIT:   MUD SAMPLE SOURCE
 RMS .OHMM           .508:   RESISTIVITY MUD SAMPLE
 MST .F                60:   MUD SAMPLE TEMPERATURE
 RMF .OHMM           .419:   RESISTIVITY MUD FILTRATE SAMPLE
 MFST.F                58:   MUD FILTRATE SAMPLE TEMPERATURE
 MFSS.                  M:   MUD FILTRATE SAMPLE SOURCE
 RMB .OHMM            .41:   RESISTIVITY MUD AT BHT
 BHT .F                75:   BOTTOM HOLE TEMPERATURE
 TCS .HRS            1700:   TIME CURCULATED STOPPED
 TLAB.HRS            2130:   TIME LOGGER AT BOTTOM
 MRT .F                75:   MAXIMUM RECORDED TEMPERATURE
 LUN .               5642:   LOGGING UNIT NUMBER
 LUL .               CSPR:   LOGGING UNIT LOCATION
 ENGI.             MARTIN:   RECORDING ENGINEER
 CLNT.            A2DTECH:   CLIENT CODE
 ORIG.       2", 5" PRINT:   ORIGIN OF DATA
 UWI .       490251028400:   UNIQUE WELL ID
 DICO. A2D Technologies, Inc.:   DIGITIZING COMPANY
~OTHER INFORMATION
~A   DEPT      SPR        ILD        LL8        ILM         GRD      CALD         RHOB     CORR       DPOR   
# ...
  503.0000   -37.7796    17.0128    13.4540    15.4466    78.6490     7.9888     2.3203     0.0251     0.2004
  503.5000   -37.9221    17.0877    13.6258    15.3646    78.8447     8.0600     2.3331     0.0182     0.1916
  504.0000   -37.9427    17.1629    13.5632    15.3661    78.2787     8.0900     2.3256     0.0141     0.1960
  504.5000   -38.4571    17.2384    13.4490    15.3664    77.3926     8.0974     2.3546     0.0292     0.1772
  505.0000   -38.9789    17.3142    13.3357    15.4191    76.8384     8.1044     2.3347     0.0177     0.1961
  505.5000   -39.2388    17.3903    13.2234    15.5151    77.8663     8.1115     2.3198     0.0134     0.2012
  506.0000   -39.5041    17.4668    13.1310    15.6119    79.9873     8.1189     2.3348     0.0270     0.1944
  506.5000   -39.6834    17.5436    13.7158    15.7842    82.0868     8.1244     2.3444     0.0374     0.1846
  507.0000   -39.3923    17.6208    14.1393    16.0159    83.6732     8.0731     2.3209     0.0275     0.2054
  507.5000   -38.8829    17.6528    13.6927    16.2501    83.3862     8.0115     2.3143     0.0161     0.2022
  508.0000   -38.3171    17.6161    13.2530    16.3940    81.7489     7.9281     2.3235     0.0137     0.1968
  508.5000   -37.7455    17.5896    13.3765    15.9014    80.7086     7.8449     2.3354     0.0139     0.1889
  509.0000   -37.2029    17.5633    13.5329    15.5545    81.4163     7.8179     2.3372     0.0194     0.1906
  509.5000   -38.4904    17.5368    13.6258    15.2268    82.2021     7.9373     2.3413     0.0255     0.1929
  510.0000   -38.8709    17.5106    13.6661    15.6099    82.9921     8.0565     2.3510     0.0330     0.1837
  510.5000   -39.2031    17.4903    13.7058    16.0023    83.8235     8.0232     2.3569     0.0404     0.1786
  511.0000   -39.1869    17.3338    13.7524    16.5424    83.3376     7.9363     2.3361     0.0479     0.1910
  511.5000   -38.8648    17.1825    13.6719    16.3946    82.3821     7.8472     2.3522     0.0557     0.1872
  512.0000   -38.5435    17.0326    13.5759    16.0531    82.0335     7.7588     2.3813     0.0643     0.1798
  512.5000   -38.2210    16.8840    13.4806    15.6560    83.8376     7.7862     2.3777     0.0701     0.1699
  513.0000   -37.8978    16.7367    13.3859    15.2688    84.9628     7.8326     2.3760     0.0478     0.1629
  513.5000   -37.5740    16.5906    13.2919    14.8911    85.2764     7.8794     2.3738     0.0301     0.1698
  514.0000   -37.5997    16.4459    13.1986    14.5228    85.5940     7.9660     2.3497     0.0123     0.1767
  514.5000   -37.6786    16.3024    13.1310    14.4032    85.9124     8.1106     2.3483    -0.0032     0.1835
  515.0000   -37.7125    16.1601    13.2163    14.5317    85.4691     8.1821     2.3399     0.0099     0.1825
  515.5000   -37.3008    16.0191    13.5273    14.6334    84.5807     8.1894     2.3285     0.0045     0.1966
  516.0000   -36.9453    15.8794    13.7524    14.7359    84.0132     8.0939     2.3404     0.0271     0.1898
  516.5000   -37.0942    15.7408    13.3192    14.9460    85.7199     7.9993     2.3528     0.0418     0.1797
  517.0000   -37.7879    15.6035    12.9929    15.0355    84.5236     7.9064     2.3651     0.0337     0.1790
  517.5000   -38.5456    15.5092    12.7718    15.1357    82.2857     7.8339     2.3756     0.0506     0.1649
  518.0000   -38.8173    15.6276    13.0665    15.2250    79.9743     7.9022     2.3454     0.0265     0.1846
  518.5000   -38.9283    15.7187    13.2530    15.0254    79.7996     7.8500     2.3514     0.0005     0.1819
  519.0000   -38.5925    15.8104    13.2985    14.5440    80.2501     7.8319     2.3554     0.0020     0.1764
  519.5000   -38.2101    15.9450    13.3463    14.1393    80.7268     7.9277     2.3492     0.0060     0.1805
  520.0000   -38.3394    15.9046    13.3787    14.4226    81.2009     8.0148     2.3430     0.0052     0.1856
  520.5000   -38.5310    15.8260    13.0757    14.6767    81.8793     7.8433     2.3373     0.0041     0.1928
  521.0000   -38.3882    15.7487    12.5396    14.4453    82.7698     7.6392     2.3517     0.0081     0.1867
  521.5000   -38.1403    15.6717    12.2627    14.0333    83.6523     7.3810     2.3673     0.0200     0.1759
  522.0000   -37.9987    15.6532    12.1527    13.6191    84.5304     7.6939     2.3825     0.0259     0.1650
  522.5000   -38.4861    15.7703    11.8952    13.9570    84.3363     8.1726     2.4076     0.0159     0.1542
  523.0000   -38.9673    15.8569    11.7566    14.5729    82.8253     8.2441     2.4193     0.0264     0.1412
  523.5000   -39.4465    15.9454    14.1595    15.2278    81.3304     8.2444     2.4092     0.0101     0.1430
  524.0000   -39.9255    15.7644    16.2431    15.3741    80.4484     8.2425     2.4222     0.0053     0.1456
  524.5000   -40.4045    15.5824    15.2046    15.1017    80.5626     8.2411     2.4114     0.0124     0.1417
  525.0000   -40.8835    15.4020    14.2212    14.8097    81.1852     8.2399     2.4002     0.0068     0.1501
  525.5000   -41.3631    15.2239    13.3014    14.5164    81.1796     8.2388     2.3888     0.0012     0.1657
  526.0000   -41.8438    15.0479    12.9868    14.2296    80.8037     8.2376     2.3877    -0.0043     0.1621
  526.5000   -42.3019    14.8739    12.8104    13.9487    81.6718     8.2365     2.3903    -0.0039     0.1573
  527.0000   -42.3745    14.6868    12.6363    13.6735    83.1558     8.2353     2.3893    -0.0027     0.1592
  527.5000   -42.4306    14.5370    12.5140    13.5004    84.7232     8.2342     2.3879    -0.0014     0.1613
  528.0000   -42.4948    14.4771    12.4587    13.5039    86.3002     8.2331     2.3890    -0.0002     0.1570
  528.5000   -42.1875    14.4192    12.4036    13.5061    87.4399     8.2319     2.3991     0.0010     0.1521
  529.0000   -41.6824    14.3615    12.3488    13.4938    87.5869     8.2308     2.4041     0.0023     0.1473
  529.5000   -41.7515    14.3040    12.2942    13.6258    87.3229     8.2296     2.4080     0.0036     0.1486
  530.0000   -42.0983    14.2468    12.2399    13.3762    87.0838     8.2284     2.4122     0.0019     0.1464
  530.5000   -42.4511    14.1898    12.1858    13.2530    87.9806     8.2273     2.4069    -0.0014     0.1433
  531.0000   -42.7286    14.1330    12.1319    13.0102    88.5433     8.2261     2.4000    -0.0030     0.1513
  531.5000   -42.7812    14.0764    12.0783    12.7718    87.3141     8.2250     2.4224     0.0031     0.1453
  532.0000   -42.8369    14.0201    12.0249    12.5377    86.1341     8.2239     2.4518     0.0246     0.1391
  532.5000   -42.8910    13.9640    11.9718    12.5377    85.0642     8.2227     2.4414     0.0204     0.1326
  533.0000   -43.0098    13.9101    11.9188    12.5377    85.4297     8.2216     2.4387     0.0169     0.1245
  533.5000   -43.1517    13.7716    11.8610    12.5377    85.8364     8.2204     2.4383     0.0143     0.1293
  534.0000   -43.2936    13.5613    11.8848    12.5381    86.2264     8.2193     2.4101     0.0097     0.1420
  534.5000   -43.4369    13.3527    11.9111    12.3851    85.2824     8.2181     2.3900     0.0041     0.1548
  535.0000   -43.1336    13.1472    11.9375    12.2189    84.3795     8.2170     2.3760    -0.0015     0.1676
  535.5000   -42.4837    12.9746    11.9732    12.0548    83.8903     8.2158     2.3590    -0.0071     0.1804
  536.0000   -42.4222    12.8653    11.6819    11.8931    85.4892     8.2147     2.3231    -0.0094     0.1920
  536.5000   -42.3488    12.7570    11.1501    11.7336    87.0538     8.2135     2.2873    -0.0030     0.2119
  537.0000   -42.0064    12.6495    10.6424    11.5365    88.6052     8.2124     2.2406     0.0083     0.2333
  537.5000   -41.4437    12.5430    10.1590    11.6676    89.7015     8.2112     2.2508     0.0353     0.2483
  538.0000   -40.8847    12.4374     9.6776    11.9712    90.1180     8.2101     2.2706     0.0616     0.2273
  538.5000   -40.4272    12.3326     9.7461    11.7511    90.2157     8.2089     2.2680     0.0498     0.2321
  539.0000   -40.1335    12.2288     9.8371    11.3671    90.1163     8.2077     2.2627     0.0331     0.2367
