~VERSION INFORMATION
 VERS.                2.0:   CWLS LOG ASCII STANDARD - VERSION 2.0
 WRAP.                 NO:   ONE LINE PER DEPTH STEP
~WELL INFORMATION
#MNEM.UNIT      DATA TYPE    INFORMATION
#----------   ------------   ------------------------------
 STRT.F           29.0000:   START DEPTH
 STOP.F          720.0000:   STOP DEPTH
 STEP.F            0.5000:   STEP LENGTH
 NULL.          -999.2500:   NO VALUE
 COMP.    FENIX & SCISSON:   COMPANY
 WELL. RES 3 TEAPOT DOM #21-S-14:   WELL
 FLD .        TEAPOT DOME:   FIELD
 LOC .      S14 T38N R78W:   LOCATION
 CNTY.            NATRONA:   COUNTY
 STAT.            WYOMING:   STATE
 CTRY. UNITED STATES OF AMERICA:   COUNTRY
 SRVC.            Unknown:   SERVICE COMPANY
 DATE.        25-MAY-1978:   LOGDATE
 API .       490251063300:   API NUMBER
~CURVE INFORMATION
#MNEM.UNIT       API CODE    CURVE DESCRIPTION
#----------   ------------   ------------------------------
 DEPT.F                  :   
 CALD.IN     45 280 60 00:   CALIPER FROM DENSITY LOG
 CORR.G/C3   45 356 01 00:   DENSITY CORRECTION
 DPHI.DEC    45 890 12 00:   DENSITY POROSITY SANDSTONE
 GRD .GAPI   45 310 01 00:   GAMMA RAY FROM DENSITY LOG
 RHOB.G/C3   45 350 01 00:   BULK DENSITY
 ILD .OHMM   05 120 46 00:   INDUCTION LOG DEEP
 SN  .OHMM   05 040 16 00:   SHORT NORMAL 16"
 SPR .MV     05 010 01 00:   SPONTANEOUS POTENTIAL FROM RES.
~PARAMETER INFORMATION
#MNEM.UNIT          VALUE    DESCRIPTION
#----------   ------------   ------------------------------
 PD  .                 GL:   PERMANENT DATUM
 EPD .F              5232:   ELEVATION PERMANENT DATUM
 LMF .                 KB:   LOG MEASURED FROM
 DAPD.F                 4:   FEET ABOVE PERMANENT DATUM
 DMF .                 KB:   DRILLING MEASURED FROM
 EKB .F              5236:   KELLING BUSHING
 EGL .F              5232:   GROUND LEVEL
 DATE.        25-MAY-1978:   RUN DATE
 RUN .                  1:   RUN NUMBER
 DD  .F               716:   DEPTH DRILLER
 DL  .F               727:   DEPTH LOGGER
 BLI .F               720:   BOTTOM LOG INTERVAL
 TLI .F                44:   TOP LOG INTERVAL
 CS  .IN            8.625:   CASING SIZE
 CBD .F                40:   CASING BOTTOM DRILLER
 CBL .F                44:   CASING BOTTOM LOGGER
 BS  .IN            7.875:   BIT SIZE
 BSD .F               716:   BIT SIZE AT DEPTH
 DFT .                KCL:   DRILLING FLUID TYPE
 DFD .                8.6:   DRILLING FLUID DENSITY
 DFV .                 31:   DRILLING FLUID VISCOSITY
 DFPH.                9.5:   DRILLING FLUID PH
 DFL .               10.8:   DRILLING FLUID LOSS
 MSS .            MUD PIT:   MUD SAMPLE SOURCE
 RMS .OHMM           0.32:   RESISTIVITY MUD SAMPLE
 MST .F                82:   MUD SAMPLE TEMPERATURE
 RMF .OHMM           0.34:   RESISTIVITY MUD FILTRATE SAMPLE
 MFST.F                72:   MUD FILTRATE SAMPLE TEMPERATURE
 RMC .OHMM            0.8:   RESISTIVITY MUD CAKE
 MCST.F                72:   MUD CAKE SAMPLE TEMPERATURE
 MFSS.               MEAS:   MUD FILTRATE SAMPLE SOURCE
 RMB .OHMM           0.35:   RESISTIVITY MUD AT BHT
 BHT .F                74:   BOTTOM HOLE TEMPERATURE
 TCS .HRS               1:   TIME CURCULATED STOPPED
 MRT .F                74:   MAXIMUM RECORDED TEMPERATURE
 LUN .               2958:   LOGGING UNIT NUMBER
 LUL .               CASP:   LOGGING UNIT LOCATION
 ENGI.             MILLER:   RECORDING ENGINEER
 WITN.           MCGINLEY:   WITNESSED BY
 CLNT.            A2DTECH:   CLIENT CODE
 ORIG.           5" PRINT:   ORIGIN OF DATA
 UWI .       490251063300:   UNIQUE WELL ID
 DICO. A2D Technologies, Inc.:   DIGITIZING COMPANY
~OTHER INFORMATION
~A   DEPT     CALD       CORR       DPHI         GRD      RHOB        ILD         SN        SPR   
# ...
  636.5000     7.5006     0.0194     0.1730    67.6182     2.3818    13.7549    11.8867   -19.9749
  637.0000     7.5024     0.0243     0.1676    69.1266     2.3827    13.5792    11.7374   -20.1106
  637.5000     7.4736     0.0333     0.1604    70.6350     2.3858    13.4057    11.7485   -20.0889
  638.0000     7.4754     0.0381     0.1529    72.2926     2.4083    13.0531    11.7596   -20.0714
  638.5000     7.4619     0.0383     0.1477    72.4578     2.4136    12.7097    11.8526   -20.2030
  639.0000     7.4484     0.0369     0.1385    69.4925     2.4153    12.3754    11.9484   -20.1813
  639.5000     7.3755     0.0327     0.1271    66.5233     2.4303    12.3871    11.9597   -20.3170
  640.0000     7.1826     0.0329     0.1192    63.4048     2.4528    12.3991    11.9710   -20.4485
  640.5000     7.1538     0.0301     0.1111    59.6894     2.4656    12.5857    12.1490   -20.7244
  641.0000     7.1556     0.0244     0.1006    57.6157     2.4897    12.8610    12.3296   -21.1534
  641.5000     7.1869     0.0127     0.0961    54.6465     2.5040    13.0520    12.6871   -21.8801
  642.0000     7.2781     0.0279     0.0943    53.6175     2.5130    13.2458    13.0549   -22.0119
  642.5000     7.3094     0.0311     0.0934    53.4841     2.5430    13.5355    13.3425   -21.9940
  643.0000     7.3112     0.0283     0.0936    53.9517     2.5297    13.8316    13.7401   -21.9767
  643.5000     7.3127     0.0240     0.0948    54.7139     2.5283    14.3305    14.2269   -23.2943
  644.0000     7.3141     0.0167     0.1061    53.0879     2.5089    14.7467    14.6394   -23.5745
  644.5000     7.3156     0.0045     0.1449    51.0143     2.5001    14.9647    15.1682   -23.7103
  645.0000     7.3170    -0.0082     0.1563    50.8806     2.4500    14.9818    15.1825   -23.3910
  645.5000     7.3483    -0.0065     0.1647    51.5159     2.4232    14.5878    14.6808   -23.0760
  646.0000     7.3498     0.0087     0.1735    53.4539     2.3951    14.0094    14.0979   -22.6122
  646.5000     7.3200     0.0149     0.1792    56.3055     2.3830    13.2696    13.5381   -22.1484
  647.0000     7.2335     0.0136     0.1806    58.7095     2.3756    12.7435    12.8210   -21.8333
  647.5000     7.1751     0.0124     0.1758    60.2179     2.3720    12.1541    12.2187   -21.6667
  648.0000     7.1467     0.0111     0.1749    61.1293     2.3781    11.8344    11.6646   -21.4966
  648.5000     7.1481     0.0113     0.1734    61.7421     2.3812    11.6029    11.3547   -21.4793
  649.0000     7.1645     0.0131     0.1727    60.8310     2.3828    11.4546    11.1348   -21.4619
  649.5000     7.1809     0.0148     0.1631    59.6843     2.3844    11.3083    10.9923   -21.4445
  650.0000     7.2272     0.0198     0.1601    61.6246     2.3947    11.2366    10.8142   -21.4295
  650.5000     7.2886     0.0221     0.1613    63.4448     2.4014    11.1809    10.5985   -21.4171
  651.0000     7.4096     0.0213     0.1618    62.1194     2.4033    11.1251    10.3829   -21.4026
  651.5000     7.4640     0.0230     0.1618    61.9845     2.4026    11.0694    10.1522   -21.3910
  652.0000     7.4726     0.0278     0.1540    62.1517     2.4020    11.0478    10.0901   -21.5283
  652.5000     7.4740     0.0324     0.1408    62.3153     2.4088    11.0588    10.0290   -21.9632
  653.0000     7.4605     0.0371     0.1324    62.3296     2.4246    11.0677     9.9680   -21.9516
  653.5000     7.4022     0.0418     0.1269    62.6425     2.4382    11.0004     9.9780   -22.0893
  654.0000     7.3737     0.0450     0.1281    62.8061     2.4525    11.0092    10.0552   -22.0773
  654.5000     7.3602     0.0332     0.1332    62.9701     2.4563    10.9420    10.0633   -22.0658
  655.0000     7.3620     0.0289     0.1328    63.2861     2.4534    10.9511    10.0001   -22.9442
  655.5000     7.3634     0.0336     0.1298    63.3004     2.4520    10.9602     9.9412   -23.6767
  656.0000     7.3649     0.0353     0.1238    63.3148     2.4573    10.8932     9.8804   -23.6652
  656.5000     7.3663     0.0340     0.1229    63.1799     2.4619    10.9041     9.8886   -23.6536
  657.0000     7.3677     0.0357     0.1273    63.0448     2.4620    10.9129     9.8968   -23.7909
  657.5000     7.3692     0.0376     0.1291    62.9100     2.4606    10.9216     9.9065   -23.7793
  658.0000     7.3710     0.0421     0.1281    63.5250     2.4599    10.9304     9.9145   -23.9167
  658.5000     7.3724     0.0438     0.1212    65.1811     2.4623    11.0149     9.9224   -23.9050
  659.0000     7.3738     0.0439     0.1158    66.6844     2.4668    11.0239     9.9304   -24.0423
  659.5000     7.3902     0.0351     0.1196    64.4635     2.4722    11.1111     9.9384   -24.1796
  660.0000     7.4066     0.0338     0.1202    65.8211     2.4723    11.1970     9.9464   -24.1651
  660.5000     7.4394     0.0373     0.1166    66.2832     2.4716    11.2060     9.9544   -24.1536
  661.0000     7.4995     0.0417     0.1121    65.5549     2.4732    11.2150     9.9626   -24.1420
  661.5000     7.5607     0.0359     0.1078    64.9686     2.4763    11.1446     9.9724   -24.1305
  662.0000     7.6220     0.0316     0.1278    66.4791     2.4719    11.0787     9.9804   -24.1189
  662.5000     7.6533     0.0363     0.1287    69.9263     2.4689    10.9360     9.9197   -24.1071
  663.0000     7.6547     0.0245     0.1287    70.2391     2.4720    10.6468     9.8593   -24.0929
  663.5000     7.6263     0.0217     0.1283    67.3724     2.4609    10.3674     9.8672   -24.0814
  664.0000     7.5683     0.0249     0.1280    65.9430     2.4580    10.2315     9.8069   -24.0698
  664.5000     7.5099     0.0251     0.1274    65.6553     2.4589    10.0994     9.7475   -24.0583
  665.0000     7.4811     0.0238     0.1267    65.3711     2.4604     9.9710     9.6214   -24.0468
  665.5000     7.4527     0.0240     0.1264    65.6875     2.4598     9.9789     9.5648   -24.0352
  666.0000     7.4395     0.0242     0.1267    66.5974     2.4591    10.0561     9.5065   -24.0237
  666.5000     7.4260     0.0211     0.1266    66.6117     2.4577    10.1340     9.5142   -24.0119
  667.0000     7.4128     0.0186     0.1296    65.2864     2.4570    10.2142     9.3893   -23.9977
  667.5000     7.3840     0.0203     0.1301    64.5545     2.4579    10.1521     9.3987   -23.9861
  668.0000     7.3858     0.0235     0.1295    65.9121     2.4587    10.1602     9.4063   -23.9746
  668.5000     7.4321     0.0267     0.1277    69.0607     2.4596    10.1684     9.3490   -23.9630
  669.0000     7.4634     0.0269     0.1264    72.3587     2.4612    10.1765     9.2921   -23.9515
  669.5000     7.5103     0.0271     0.1252    72.8209     2.4612    10.1847     9.3001   -23.9399
  670.0000     7.6012     0.0273     0.1273    72.6859     2.4613    10.1929     9.3089   -24.0774
  670.5000     7.6325     0.0305     0.1263    72.7038     2.4599    10.1219     9.3810   -24.2144
  671.0000     7.5891     0.0306     0.1233    73.4644     2.4630    10.0693     9.3885   -24.2000
  671.5000     7.5308     0.0323     0.1201    74.5235     2.4668    10.0081     9.3961   -24.3402
  672.0000     7.5022     0.0310     0.1167    74.5378     2.4707     9.9472     9.4036   -24.3257
  672.5000     7.4586     0.0313     0.1196    71.5521     2.4708     9.8868     9.3464   -24.3142
  673.0000     7.4155     0.0284     0.1214    66.8089     2.4678     9.8267     9.3542   -24.4543
  673.5000     7.4020     0.0256     0.1225    65.6256     2.4649     9.8365     9.3633   -24.4399
  674.0000     7.3290     0.0258     0.1249    66.3898     2.4651     9.8445     9.3708   -24.4283
  674.5000     7.2557     0.0260     0.1222    66.8519     2.4659     9.8543     9.3784   -24.5719
  675.0000     7.2572     0.0262     0.1242    66.8663     2.4660     9.8622     9.3859   -24.7029
  675.5000     7.2735     0.0246     0.1221    65.9851     2.4653     9.8022     9.3935   -24.6884
  676.0000     7.3223     0.0236     0.1262    64.6328     2.4639     9.8101     9.4010   -24.8257
  676.5000     7.3665     0.0223     0.1247    66.0173     2.4632     9.7504     9.3438   -24.8141
