~VERSION INFORMATION
 VERS.                2.0:   CWLS LOG ASCII STANDARD - VERSION 2.0
 WRAP.                 NO:   ONE LINE PER DEPTH STEP
~WELL INFORMATION
#MNEM.UNIT      DATA TYPE    INFORMATION
#----------   ------------   ------------------------------
 STRT.F           20.0000:   START DEPTH
 STOP.F          600.0000:   STOP DEPTH
 STEP.F            0.5000:   STEP LENGTH
 NULL.          -999.2500:   NO VALUE
 COMP. FENIX & SCISSON INC:   COMPANY
 WELL. TEAPOT DOME #23 SX 3-4:   WELL
 FLD .             TEAPOT:   FIELD
 LOC .       S4 T38N R78W:   LOCATION
 CNTY.            NATRONA:   COUNTY
 STAT.            WYOMING:   STATE
 CTRY. UNITED STATES OF AMERICA:   COUNTRY
 SRVC.            Unknown:   SERVICE COMPANY
 DATE.        31-JUL-1978:   LOGDATE
 API .       490251067600:   API NUMBER
~CURVE INFORMATION
#MNEM.UNIT       API CODE    CURVE DESCRIPTION
#----------   ------------   ------------------------------
 DEPT.F                  :   
 CALD.IN     45 280 60 00:   CALIPER FROM DENSITY LOG
 GRD .GAPI   45 310 01 00:   GAMMA RAY FROM DENSITY LOG
 CORR.G/C3   45 356 01 00:   DENSITY CORRECTION
 DPHI.DEC    45 890 12 00:   DENSITY POROSITY SANDSTONE
 RHOB.G/C3   45 350 01 00:   BULK DENSITY
 SPR .MV     07 010 01 00:   SPONTANEOUS POTENTIAL
 ILD .OHMM   07 120 46 00:   INDUCTION LOG DEEP
 SN  .OHMM   07 040 16 00:   SHORT NORMAL 16"
 CILD.MMHO   07 110 46 00:   CONDUCTIVITY INDUCTION LOG DEEP
~PARAMETER INFORMATION
#MNEM.UNIT          VALUE    DESCRIPTION
#----------   ------------   ------------------------------
 PD  .                 GL:   PERMANENT DATUM
 EPD .F              5181:   ELEVATION PERMANENT DATUM
 LMF .                 KB:   LOG MEASURED FROM
 DAPD.F                 4:   FEET ABOVE PERMANENT DATUM
 DMF .                 KB:   DRILLING MEASURED FROM
 EKB .F              5185:   KELLING BUSHING
 EGL .F              5181:   GROUND LEVEL
 DATE.        31-JUL-1978:   RUN DATE
 RUN .                  1:   RUN NUMBER
 DD  .F               595:   DEPTH DRILLER
 DL  .F               606:   DEPTH LOGGER
 BLI .F               600:   BOTTOM LOG INTERVAL
 TLI .F                40:   TOP LOG INTERVAL
 CBL .F                45:   CASING BOTTOM LOGGER
 BS  .IN            7.875:   BIT SIZE
 BSD .F               595:   BIT SIZE AT DEPTH
 DFT .                KCL:   DRILLING FLUID TYPE
 DFD .                9.0:   DRILLING FLUID DENSITY
 DFV .                 36:   DRILLING FLUID VISCOSITY
 DFPH.                9.0:   DRILLING FLUID PH
 DFL .                8.0:   DRILLING FLUID LOSS
 MSS .           FLOWLINE:   MUD SAMPLE SOURCE
 BHT .F                74:   BOTTOM HOLE TEMPERATURE
 TCS .HRS            0500:   TIME CURCULATED STOPPED
 MRT .F                74:   MAXIMUM RECORDED TEMPERATURE
 LUN .               2958:   LOGGING UNIT NUMBER
 LUL .               CASP:   LOGGING UNIT LOCATION
 ENGI.            POINTER:   RECORDING ENGINEER
 WITN.              AMEND:   WITNESSED BY
 CLNT.            A2DTECH:   CLIENT CODE
 ORIG.           5" PRINT:   ORIGIN OF DATA
 UWI .       490251067600:   UNIQUE WELL ID
 DICO. A2D Technologies, Inc.:   DIGITIZING COMPANY
~OTHER INFORMATION
~A   DEPT     CALD        GRD       CORR       DPHI       RHOB        SPR        ILD         SN       CILD   
# ...
  312.0000     7.9446   102.6190     0.0112     0.0728     2.5351   -35.0373     7.9800     8.4639   122.7280
  312.5000     7.9611   104.8881     0.0188     0.0808     2.5322   -35.0297     7.9844     8.4667   122.6592
  313.0000     7.9776   105.2053     0.0189     0.0869     2.5188   -35.0222     7.9328     8.4119   123.3408
  313.5000     7.9792   107.7747     0.0174     0.0916     2.5256   -35.0146     7.8827     8.4155   124.7716
  314.0000     7.9807   105.9898     0.0160     0.0666     2.5609   -35.0071     7.7789     8.3610   126.2153
  314.5000     7.9823   103.4541     0.0176     0.0552     2.5760   -34.9995     7.6777     8.3646   127.6447
  315.0000     7.9684   101.6692     0.0237     0.0744     2.5566   -34.8434     7.5245     8.3105   128.3249
  315.5000     7.9720   100.3305     0.0215     0.1082     2.4945   -34.5386     7.3744     8.3140   129.7543
  316.0000     7.9865   105.1564     0.0028     0.1106     2.4728   -34.0853     7.3277     8.2594   130.4345
  316.5000     7.9880   102.1067    -0.0032     0.1004     2.4999   -34.9693     7.2804     8.2060   131.1148
  317.0000     7.9746    98.1131     0.0075     0.0964     2.5022   -35.2608     7.2256     8.0977   133.2760
  317.5000     7.9607    98.1458     0.0135     0.0934     2.5021   -35.2513     7.1886     8.0446   134.1198
  318.0000     8.1276   100.4149     0.0151     0.0727     2.4970   -35.0952     7.1406     7.9926   136.1519
  318.5000     8.1441   102.0835     0.0152     0.0499     2.4942   -35.0891     6.9525     7.9417   137.6104
  319.0000     8.1457   103.7520     0.0145     0.0861     2.4935   -35.3792     6.7668     7.8896   139.7596
  319.5000     8.1318   105.4205     0.0146     0.1023     2.4928   -35.6786     6.5863     7.7855   142.6871
  320.0000     8.1184   101.9839     0.0154     0.1029     2.4906   -36.1070     6.3664     7.4727   147.1127
  320.5000     8.1049   100.3492     0.0155     0.1145     2.4675   -36.3966     6.0694     7.3622   151.5383
  321.0000     8.1514   103.6694     0.0156     0.1172     2.4646   -36.5379     5.9074     7.2244   155.9639
  321.5000     8.1530   105.7841     0.0164     0.1198     2.4557   -36.6791     5.7101     7.1200   160.3894
  322.0000     8.1545   103.1371     0.0165     0.1246     2.4355   -36.9702     5.5962     6.9346   168.5603
  322.5000     8.2160   106.3589     0.0158     0.1369     2.4059   -37.2598     5.2620     6.6584   181.9747
  323.0000     8.2176   107.3383     0.0129     0.1542     2.3608   -37.4008     4.5230     6.4352   196.8872
  323.5000     8.2191   107.8036     0.0066     0.1934     2.2994   -37.5419     3.9419     6.1766   229.7772
  324.0000     8.2053   109.6223    -0.0036     0.2614     2.2463   -37.5324     3.4354     5.9285   256.3890
  324.5000     8.2072   111.7413    -0.0102     0.2575     2.1917   -37.5249     2.9124     5.5353   288.9202
  325.0000     8.2109   112.2044    -0.0132     0.2997     2.1056   -37.5173     2.6151     5.2040   345.6929
  325.5000     8.2409   106.3696    -0.0154     0.2997     2.0608   -37.8069     2.4012     5.0644   374.8376
  326.0000     8.3313    99.4796    -0.0138     0.2490     2.1133   -37.8306     2.3549     5.0665   393.4954
  326.5000     8.4828    99.0418     0.0029     0.2039     2.2032   -37.9619     2.3890     5.0686   404.6626
  327.0000     8.2441   101.0149     0.0323     0.1400     2.3898   -37.9246     2.4573     5.1413   392.6087
  327.5000     8.2760   102.9837     0.0865     0.0856     2.5131   -36.1441     2.5604     5.2511   384.3002
  328.0000     8.4425   108.0843     0.1038     0.1123     2.4658   -35.5422     2.7486     5.4378   371.4973
  328.5000     8.1441   106.4130     0.0666     0.1371     2.4320   -35.3861     2.9367     5.6702   329.4810
  329.0000     8.1757   103.6307     0.0234     0.1008     2.4688   -35.3785     3.1248     5.9273   290.4609
  329.5000     8.4471   102.2963     0.0183     0.0972     2.4935   -35.2224     3.3130     6.3047   245.4483
  330.0000     8.1934   104.8657     0.0177     0.1077     2.4794   -34.7691     3.5948     6.7061   213.6353
  330.5000     8.1949   110.8886     0.0140     0.1082     2.4802   -34.7615     3.9865     7.0346   168.9213
  331.0000     8.2114   113.0034     0.0096     0.1085     2.4781   -35.0530     4.3781     7.0863   170.3527
  331.5000     8.2130   109.1206     0.0081     0.1087     2.4774   -35.0436     4.7697     7.1878   163.5424
  332.0000     8.0946   107.7819     0.0082     0.1093     2.4745   -34.8874     5.1614     7.2908   158.8914
  332.5000     8.1561   109.3045     0.0083     0.1087     2.4758   -34.8799     5.5530     7.2939   160.4119
  333.0000     8.2476   109.1670     0.0084     0.1069     2.4829   -34.8723     5.9303     7.3475   161.1060
  333.5000     8.2191   111.5192     0.0092     0.1044     2.4897   -34.8662     5.8542     7.3506   161.0200
  334.0000     8.2207   116.0379     0.0100     0.1119     2.4778   -35.0077     5.7808     7.3537   159.4531
  334.5000     8.2219   118.5421     0.0078     0.1104     2.4726   -35.0000     5.7074     7.3568   157.8862
  335.0000     8.2233   121.0964     0.0079     0.1094     2.4779   -34.9926     5.6268     7.3085   158.5837
  335.5000     8.2099   122.1643     0.0087     0.1188     2.4675   -34.8364     5.4680     7.2620   162.2430
  336.0000     8.1964   123.6827     0.0073     0.1326     2.4084   -34.8289     5.3091     7.2151   167.4176
  336.5000     8.1980   124.4461     0.0006     0.1582     2.3530   -34.8213     5.1503     7.1191   172.4566
  337.0000     8.1841   120.1086    -0.0083     0.1887     2.3007   -34.8138     4.9914     7.0245   189.9475
  337.5000     8.1861   120.1297    -0.0150     0.2196     2.3282   -34.6576     4.8249     6.9225   193.4457
  338.0000     8.1876   114.0125    -0.0127     0.1299     2.4057   -34.0557     4.6540     6.7444   194.1260
  338.5000     8.3691   110.9542     0.0250     0.1023     2.4889   -34.6425     4.4831     6.7008   205.2931
  339.0000     8.8949   109.2975     0.0368     0.1347     2.4590   -35.0807     4.3123     6.7500   211.9659
  339.5000     8.2643   107.6922     0.0347     0.1418     2.4254   -35.0732     4.1735     6.7529   214.9106
  340.0000     8.2384   112.3650     0.0109     0.0965     2.4854   -34.7684     4.2132     6.8971   220.0680
  340.5000     8.2399   114.9451     0.0162     0.1039     2.5004   -34.6123     4.2503     7.0444   223.0127
  341.0000     8.2414   119.3189     0.0231     0.1167     2.4706   -34.4576     4.4392     7.0962   203.4510
  341.5000     8.2430   120.2715     0.0171     0.1081     2.4774   -34.4305     4.8860     7.1484   193.6444
  342.0000     8.2445   121.1809     0.0142     0.1048     2.4910   -34.2942     5.3039     7.2508   185.3359
  342.5000     8.2460   121.6916     0.0173     0.0979     2.5000   -34.2868     5.6847     7.4057   175.9927
  343.0000     8.2626   116.9240     0.0196     0.0898     2.5197   -34.4278     6.0109     7.6163   158.9064
  343.5000     8.2641   115.3188     0.0212     0.0829     2.5219   -34.5688     6.2686     7.7789   156.5918
  344.0000     8.2657   111.4714     0.0228     0.0822     2.5190   -34.5613     6.5374     7.8904   149.8720
  344.5000     8.2669   113.7943     0.0213     0.0849     2.5130   -34.4051     6.7709     8.0035   143.0616
  345.0000     8.2684   114.2302     0.0192     0.0989     2.4899   -34.3976     6.8689     8.0069   139.2475
  345.5000     8.2699   114.8671     0.0177     0.0995     2.4885   -34.3900     6.8245     7.9543   138.4296
  346.0000     8.2714   116.8395     0.0148     0.1001     2.4878   -34.3825     6.8293     7.9577   138.3609
  346.5000     8.3629   111.9458     0.0149     0.1025     2.4804   -34.3749     6.8804     7.9610   139.7902
  347.0000     8.3345   117.9736     0.0150     0.1057     2.4805   -34.3674     6.9320     7.8551   141.2195
  347.5000     8.2611   119.1256     0.0150     0.1057     2.4804   -34.5103     7.0323     7.8043   142.6489
  348.0000     8.2322   117.4439     0.0151     0.1102     2.4745   -34.5008     7.0850     7.7538   144.8273
