~VERSION INFORMATION
 VERS.                2.0:   CWLS LOG ASCII STANDARD - VERSION 2.0
 WRAP.                 NO:   ONE LINE PER DEPTH STEP
~WELL INFORMATION
#MNEM.UNIT      DATA TYPE    INFORMATION
#----------   ------------   ------------------------------
 STRT.F           80.0000:   START DEPTH
 STOP.F          820.0000:   STOP DEPTH
 STEP.F            0.5000:   STEP LENGTH
 NULL.          -999.2500:   NO VALUE
 COMP. U S NAVY/INTEX OIL CO:   COMPANY
 WELL.      GOVT #15-S-35:   WELL
 FLD .        EAST TEAPOT:   FIELD
 LOC .      S35 T39N R78W:   LOCATION
 CNTY.            NATRONA:   COUNTY
 STAT.            WYOMING:   STATE
 CTRY. UNITED STATES OF AMERICA:   COUNTRY
 SRVC.       Schlumberger:   SERVICE COMPANY
 DATE.        12-FEB-1961:   LOGDATE
 API .       490250654500:   API NUMBER
~CURVE INFORMATION
#MNEM.UNIT       API CODE    CURVE DESCRIPTION
#----------   ------------   ------------------------------
 DEPT.F                  :   
 SPR .MV     05 010 01 00:   SPONTANEOUS POTENTIAL FROM RES.
 ASN .OHMM   05 041 16 00:   AMPLIFIED SHORT NORMAL 16"
 ILD .OHMM   05 120 46 00:   INDUCTION LOG DEEP
 CILD.MMHO   05 110 46 00:   CONDUCTIVITY INDUCTION LOG DEEP
 GR  .GAPI   30 310 01 00:   GAMMA RAY
~PARAMETER INFORMATION
#MNEM.UNIT          VALUE    DESCRIPTION
#----------   ------------   ------------------------------
 PD  .                 GL:   PERMANENT DATUM
 EPD .F              5069:   ELEVATION PERMANENT DATUM
 LMF .                 KB:   LOG MEASURED FROM
 DAPD.F                 4:   FEET ABOVE PERMANENT DATUM
 DMF .                 KB:   DRILLING MEASURED FROM
 EKB .F              5073:   KELLING BUSHING
 EGL .F              5069:   GROUND LEVEL
 DATE.            2-12-61:   RUN DATE
 RUN .                  1:   RUN NUMBER
 DD  .F               820:   DEPTH DRILLER
 DL  .F               820:   DEPTH LOGGER
 BLI .F               819:   BOTTOM LOG INTERVAL
 TLI .F                90:   TOP LOG INTERVAL
 CBD .F                12:   CASING BOTTOM DRILLER
 BS  .IN            7.875:   BIT SIZE
 BSD .F               820:   BIT SIZE AT DEPTH
 DFT .   GEL OIL EMULSION:   DRILLING FLUID TYPE
 DFD .                9.5:   DRILLING FLUID DENSITY
 DFV .                 50:   DRILLING FLUID VISCOSITY
 DFPH.                  8:   DRILLING FLUID PH
 DFL .                  9:   DRILLING FLUID LOSS
 MSS .          FLOW LINE:   MUD SAMPLE SOURCE
 RMS .OHMM           1.04:   RESISTIVITY MUD SAMPLE
 MST .F                56:   MUD SAMPLE TEMPERATURE
 MFSS.                  C:   MUD FILTRATE SAMPLE SOURCE
 MCSS.                  C:   MUD CAKE SAMPLE SOURCE
 RMB .OHMM           2.78:   RESISTIVITY MUD AT BHT
 BHT .F                77:   BOTTOM HOLE TEMPERATURE
 TCS .HRS               1:   TIME CURCULATED STOPPED
 MRT .F                77:   MAXIMUM RECORDED TEMPERATURE
 LUN .               2523:   LOGGING UNIT NUMBER
 LUL .               CSPR:   LOGGING UNIT LOCATION
 ENGI.             KNOBEL:   RECORDING ENGINEER
 WITN.          JORGENSEN:   WITNESSED BY
 CLNT.            A2DTECH:   CLIENT CODE
 ORIG.       2", 5" PRINT:   ORIGIN OF DATA
 UWI .       490250654500:   UNIQUE WELL ID
 DICO. A2D Technologies, Inc.:   DIGITIZING COMPANY
~OTHER INFORMATION
~A   DEPT      SPR          ASN        ILD      CILD        GR   
# ...
  202.0000   -28.2215     5.0856     3.6697   282.3982  -999.2500
  202.5000   -28.1424     5.4606     4.0369   249.1311  -999.2500
  203.0000   -28.0633     5.8366     4.4042   215.8640  -999.2500
  203.5000   -27.9843     6.2175     4.7715   182.5968  -999.2500
  204.0000   -27.9052     6.3945     5.1359   164.8461  -999.2500
  204.5000   -27.8261     6.5179     5.4204   157.1308  -999.2500
  205.0000   -27.7471     6.5367     5.4120   164.0058  -999.2500
  205.5000   -27.6679     6.5297     5.3970   170.8808  -999.2500
  206.0000   -27.5867     6.4273     5.3339   177.7454  -999.2500
  206.5000   -27.5886     6.3012     5.1135   184.6011  -999.2500
  207.0000   -27.6135     6.0836     4.8500   191.4217  -999.2500
  207.5000   -27.6392     5.8412     4.5848   198.2487  -999.2500
  208.0000   -27.6648     5.5980     4.3198   221.2512  -999.2500
  208.5000   -27.6903     5.3549     4.0550   249.4538  -999.2500
  209.0000   -27.7158     5.1119     3.7901   277.6564  -999.2500
  209.5000   -27.7413     4.8686     3.5254   305.8590  -999.2500
  210.0000   -27.7668     4.6250     3.2601   334.0616  -999.2500
  210.5000   -27.7923     4.3838     2.9894   341.8570  -999.2500
  211.0000   -27.8178     4.2011     2.9310   330.9335  -999.2500
  211.5000   -27.8433     4.2311     2.9710   316.0378  -999.2500
  212.0000   -27.8688     4.3523     3.2803   301.1420  -999.2500
  212.5000   -27.8944     4.4906     3.6150   286.2463  -999.2500
  213.0000   -27.9202     4.9913     3.9503   265.4600  -999.2500
  213.5000   -27.9448     5.5910     4.2856   242.7101  -999.2500
  214.0000   -27.9392     6.1902     4.6210   219.9603  -999.2500
  214.5000   -27.8234     6.6805     4.9557   197.2104  -999.2500
  215.0000   -27.7103     6.7743     5.2914   174.4606  -999.2500
  215.5000   -27.5975     6.8783     5.6372   156.4052  -999.2500
  216.0000   -27.4843     6.9822     5.5895   152.4330  -999.2500
  216.5000   -27.3712     7.0542     5.4331   152.0074  -999.2500
  217.0000   -27.2589     7.0105     5.2494   162.2216  -999.2500
  217.5000   -27.1699     6.9382     4.9819   172.3766  -999.2500
  218.0000   -27.2270     6.7503     4.7169   182.5843  -999.2500
  218.5000   -27.2973     6.5631     4.4522   200.3442  -999.2500
  219.0000   -27.3679     6.3202     4.1873   220.6347  -999.2500
  219.5000   -27.4386     5.8718     3.9226   240.9136  -999.2500
  220.0000   -27.5092     5.4310     3.6576   261.1718  -999.2500
  220.5000   -27.5798     4.9895     3.3877   281.4300  -999.2500
  221.0000   -27.6503     4.6522     3.2967   287.6862  -999.2500
  221.5000   -27.7209     4.6622     3.2577   289.2751  -999.2500
  222.0000   -27.7915     4.8449     3.2925   288.9772  -999.2500
  222.5000   -27.8621     5.0659     3.5901   283.0189  -999.2500
  223.0000   -27.9327     5.2888     3.8807   273.5298  -999.2500
  223.5000   -28.0033     5.5114     4.1708   253.4481  -999.2500
  224.0000   -28.0741     5.7351     4.4609   233.3664  -999.2500
  224.5000   -28.1457     5.9144     4.7515   213.2848  -999.2500
  225.0000   -28.1413     6.0817     5.0480   193.2031  -999.2500
  225.5000   -28.0500     6.2528     5.1133   185.7001  -999.2500
  226.0000   -27.9600     6.4389     5.1150   182.3899  -999.2500
  226.5000   -27.8701     6.6231     5.1146   179.0798  -999.2500
  227.0000   -27.7803     6.7582     5.1173   178.2522  -999.2500
  227.5000   -27.6904     6.7125     5.0086   181.6570  -999.2500
  228.0000   -27.6006     6.6301     4.8693   187.3315  -999.2500
  228.5000   -27.5108     6.3979     4.7288   193.0061  -999.2500
  229.0000   -27.4208     6.1692     4.5885   198.6807  -999.2500
  229.5000   -27.3307     5.9410     4.4483   206.6901  -999.2500
  230.0000   -27.2418     5.7125     4.3081   225.4231  -999.2500
  230.5000   -27.1842     5.4840     4.1678   244.1579  -999.2500
  231.0000   -27.2412     5.2553     4.0278   252.3512  -999.2500
  231.5000   -27.2952     5.0277     3.8923   257.1412  -999.2500
  232.0000   -27.3490     4.8293     3.7736   261.9312  -999.2500
  232.5000   -27.4030     4.7367     3.6544   266.7212  -999.2500
  233.0000   -27.4569     4.6385     3.5352   271.5112  -999.2500
  233.5000   -27.5108     4.6524     3.4162   276.3015  -999.2500
  234.0000   -27.5647     4.6974     3.3025   281.0923  -999.2500
  234.5000   -27.6188     4.7416     3.2085   285.8768  -999.2500
  235.0000   -27.6731     4.7368     3.1139   290.5660  -999.2500
  235.5000   -27.7257     4.5533     3.0193   294.9355  -999.2500
  236.0000   -27.7333     4.3743     2.9248   299.3049  -999.2500
  236.5000   -27.5769     4.1957     2.8302   323.4029  -999.2500
  237.0000   -27.4247     4.0169     2.7356   354.0770  -999.2500
  237.5000   -27.2727     3.8380     2.6409   384.7512  -999.2500
  238.0000   -27.1208     3.6588     2.5466   415.4254  -999.2500
  238.5000   -26.9685     3.4813     2.4517   438.3069  -999.2500
  239.0000   -26.8116     3.3364     2.3516   437.8103  -999.2500
  239.5000   -26.8387     3.3041     2.4587   430.3314  -999.2500
  240.0000   -26.9163     3.6063     2.6225   401.9054  -999.2500
  240.5000   -26.9958     4.0007     2.7858   373.4794  -999.2500
  241.0000   -27.0751     4.3991     3.0483   345.0604  -999.2500
  241.5000   -27.1542     4.7977     3.3378   316.6273  -999.2500
  242.0000   -27.2332     5.1922     3.6283   288.1831  -999.2500
  242.5000   -27.3123     5.4986     3.9192   259.6987  -999.2500
  243.0000   -27.3913     5.5550     4.2105   231.3493  -999.2500
  243.5000   -27.4704     5.5148     4.4976   207.0506  -999.2500
  244.0000   -27.5496     5.4427     4.6759   213.2798  -999.2500
  244.5000   -27.6292     5.3680     4.4572   221.5853  -999.2500
  245.0000   -27.7067     5.2740     4.2486   229.8908  -999.2500
  245.5000   -27.7325     5.1090     4.0409   238.1963  -999.2500
  246.0000   -27.5693     4.9459     3.8327   246.5018  -999.2500
  246.5000   -27.4110     4.7829     3.6246   259.4296  -999.2500
  247.0000   -27.2530     4.6198     3.4166   286.7359  -999.2500
  247.5000   -27.0949     4.4567     3.2084   314.0540  -999.2500
  248.0000   -26.9368     4.2936     3.0005   341.3664  -999.2500
  248.5000   -26.7787     4.1305     2.7922   368.6016  -999.2500
  249.0000   -26.6202     3.9675     2.5791   395.8653  -999.2500
  249.5000   -26.4615     3.8016     2.5541   405.1638  -999.2500
  250.0000   -26.3054     3.7288     2.5803   401.4399  -999.2500
  250.5000   -26.2194     3.8785     2.6111   376.7212  -999.2500
  251.0000   -26.3890     4.0820     2.7089   351.8036  -999.2500
  251.5000   -26.5521     4.2807     3.0515   328.8478  -999.2500
  252.0000   -26.7146     4.7589     3.3880   311.5375  -999.2500
  252.5000   -26.8775     5.3106     3.7239   287.8747  -999.2500
  253.0000   -27.0403     5.7882     4.0600   245.2247  -999.2500
  253.5000   -27.2031     5.9846     4.3962   202.5776  -999.2500
  254.0000   -27.3663     6.1880     4.7349   190.7821  -999.2500
  254.5000   -27.5315     6.3912     4.9784   186.2348  -999.2500
  255.0000   -27.5336     6.5777     5.1958   181.4987  -999.2500
  255.5000   -27.3776     6.7061     5.4122   176.7627  -999.2500
  256.0000   -27.2234     6.8670     5.6288   172.0266  -999.2500
  256.5000   -27.0697     7.1409     5.8454   167.2905  -999.2500
  257.0000   -26.9159     7.4119     6.0621   162.5544  -999.2500
  257.5000   -26.7622     7.6825     6.2788   158.0189  -999.2500
  258.0000   -26.6083     7.9535     6.4955   153.5502  -999.2500
  258.5000   -26.4543     8.2278     6.7120   149.0814  -999.2500
  259.0000   -26.3016     8.3724     6.9289   144.6127  -999.2500
  259.5000   -26.1823     8.4816     7.1519   144.0914  -999.2500
  260.0000   -26.1855     8.5880     7.1390   144.8858  -999.2500
  260.5000   -26.1861     8.6560     7.0614   145.6802  -999.2500
  261.0000   -26.2007     8.5837     6.9814   146.4747  -999.2500
  261.5000   -26.2681     8.5148     6.9017   147.2691  -999.2500
  262.0000   -26.3340     8.4464     6.8222   148.0636  -999.2500
  262.5000   -26.3999     8.3777     6.7428   148.8580  -999.2500
