~VERSION INFORMATION
 VERS.                2.0:   CWLS LOG ASCII STANDARD - VERSION 2.0
 WRAP.                 NO:   ONE LINE PER DEPTH STEP
~WELL INFORMATION
#MNEM.UNIT      DATA TYPE    INFORMATION
#----------   ------------   ------------------------------
 STRT.F           12.0000:   START DEPTH
 STOP.F          448.0000:   STOP DEPTH
 STEP.F            0.5000:   STEP LENGTH
 NULL.          -999.2500:   NO VALUE
 COMP. LAWRENCE/ALLISON INC:   COMPANY
 WELL. LI2 -52-61 SX10 #10-10:   WELL
 FLD .             TEAPOT:   FIELD
 LOC .      S10 T38N R78W:   LOCATION
 CNTY.            NATRONA:   COUNTY
 STAT.            WYOMING:   STATE
 CTRY. UNITED STATES OF AMERICA:   COUNTRY
 SRVC.      Dresser Atlas:   SERVICE COMPANY
 DATE.        13-JAN-1985:   LOGDATE
 API .       490251100400:   API NUMBER
~CURVE INFORMATION
#MNEM.UNIT       API CODE    CURVE DESCRIPTION
#----------   ------------   ------------------------------
 DEPT.F                  :   
 AC  .US/F   60 520 00 00:   ACCOUSTIC
 SPR .MV     11 010 01 00:   SPONTANEOUS POTENTIAL FROM RES.
 RD  .OHMM   11 220 10 00:   RESISTIVITY DEEP
 RS  .OHMM   11 220 09 00:   RESISTIVITY SHALLOW
 RMLL.OHMM   11 270 04 00:   MICRO LATEROLOG
 GRD .GAPI   45 310 01 00:   GAMMA RAY FROM DENSITY LOG
 CALD.IN     45 280 60 00:   CALIPER FROM DENSITY LOG
 CORR.G/C3   45 356 01 00:   DENSITY CORRECTION
 DEN .G/C3   45 350 01 00:   COMPENSATED BULK DENSTIY
 PORD.DEC    45 890 12 00:   POROSITY DENSITY SANDSTONE
 CNC .DEC    42 890 03 00:   NEUTRON POROSITY SANDSTONE
~PARAMETER INFORMATION
#MNEM.UNIT          VALUE    DESCRIPTION
#----------   ------------   ------------------------------
 PD  .                 GL:   PERMANENT DATUM
 EPD .F              5156:   ELEVATION PERMANENT DATUM
 LMF .                 GL:   LOG MEASURED FROM
 DMF .                 GL:   DRILLING MEASURED FROM
 EGL .F              5156:   GROUND LEVEL
 DATE.        13-JAN-1985:   RUN DATE
 RUN .                  1:   RUN NUMBER
 DD  .F               450:   DEPTH DRILLER
 DL  .F               450:   DEPTH LOGGER
 BLI .F               448:   BOTTOM LOG INTERVAL
 TLI .F                20:   TOP LOG INTERVAL
 CS  .IN            8.625:   CASING SIZE
 CBD .F                20:   CASING BOTTOM DRILLER
 CBL .F                20:   CASING BOTTOM LOGGER
 BS  .IN            7.875:   BIT SIZE
 BSD .F               450:   BIT SIZE AT DEPTH
 DFT .            KCL-H2O:   DRILLING FLUID TYPE
 MSS .               TANK:   MUD SAMPLE SOURCE
 RMS .OHMM           0.16:   RESISTIVITY MUD SAMPLE
 MST .F                20:   MUD SAMPLE TEMPERATURE
 RMF .OHMM           0.12:   RESISTIVITY MUD FILTRATE SAMPLE
 MFST.F                20:   MUD FILTRATE SAMPLE TEMPERATURE
 RMC .OHMM            0.2:   RESISTIVITY MUD CAKE
 MCST.F                20:   MUD CAKE SAMPLE TEMPERATURE
 MFSS.               CALC:   MUD FILTRATE SAMPLE SOURCE
 MCSS.               CALC:   MUD CAKE SAMPLE SOURCE
 BHT .F               100:   BOTTOM HOLE TEMPERATURE
 TCS .HRS               2:   TIME CURCULATED STOPPED
 MRT .F               100:   MAXIMUM RECORDED TEMPERATURE
 LUN .               6270:   LOGGING UNIT NUMBER
 LUL .                 FM:   LOGGING UNIT LOCATION
 ENGI.          E. GOVETT:   RECORDING ENGINEER
 WITN.             GROOMS:   WITNESSED BY
 CLNT.            A2DTECH:   CLIENT CODE
 ORIG.        2" 5" PRINT:   ORIGIN OF DATA
 UWI .       490251100400:   UNIQUE WELL ID
 DICO. A2D Technologies, Inc.:   DIGITIZING COMPANY
 R1  . POROSITY WITH SANDSTONE:   REMARKS 1
~OTHER INFORMATION
~A   DEPT       AC        SPR         RD         RS       RMLL         GRD      CALD       CORR        DEN       PORD        CNC   
# ...
  195.0000   107.7845   -48.9012    16.1652    10.2205     8.8930   124.9036     8.0842     0.0338     2.4709     0.1250     0.3022
  195.5000   106.9640   -48.9056    16.1600    10.2170     8.8900   120.6821     8.0833     0.0156     2.4694     0.1262     0.3159
  196.0000   106.4440   -48.9099    16.0437    10.2136     8.8870   119.6208     8.0824     0.0020     2.4678     0.1275     0.3192
  196.5000   106.2245   -48.9143    15.9282    10.2102     8.8841   121.7322     8.0966     0.0034     2.4670     0.1275     0.3189
  197.0000   106.3807   -48.9187    15.8135    10.1997     8.8194   125.3893     8.0955     0.0094     2.4662     0.1275     0.3162
  197.5000   107.5136   -49.0746    15.6997     9.9918     8.5739   129.5195     8.0946     0.0184     2.4654     0.1278     0.3090
  198.0000   108.5714   -49.0790    14.3252     9.2526     7.8299   128.3055     8.0938     0.0131     2.4624     0.1285     0.3042
  198.5000   109.4037   -49.0833    13.0942     8.2752     6.4870   129.8006     8.0929    -0.0195     2.4556     0.1336     0.3027
  199.0000   110.3864   -49.0877    12.5556     8.1016     6.5762   133.5513     8.1071    -0.0286     2.4403     0.1470     0.3015
  199.5000   111.1436   -49.2426    12.2930     8.2124     7.3473   133.9940     8.1060    -0.0105     2.4253     0.1509     0.2994
  200.0000   111.2998   -49.3976    12.6931     8.7400     7.9843   129.6241     8.1046     0.0179     2.4237     0.1518     0.2903
  200.5000   110.0277   -49.5518    13.8270     9.2993     8.0918   126.0501     8.0959     0.0331     2.4486     0.1407     0.2846
  201.0000   109.7306   -49.7052    14.0150     9.3610     8.2596   122.5370     8.0884     0.0300     2.4546     0.1350     0.2928
  201.5000   109.8864   -49.8587    13.2498     9.3556     8.3125   121.4757     8.0875     0.0013     2.4583     0.1317     0.3275
  202.0000   110.7173   -50.0122    11.6857     8.1935     7.5893   123.4220     8.0866    -0.0003     2.4507     0.1353     0.3687
  202.5000   113.4265   -50.1682    10.0235     6.2393     6.0719   125.5186     8.0857     0.0147     2.4281     0.1498     0.3670
  203.0000   114.4828   -50.4704     9.0267     6.1546     5.9860   123.3296     8.0847     0.0333     2.4091     0.1628     0.3458
  203.5000   114.3370   -50.6239     9.2125     6.6402     6.4135   117.0782     8.0838     0.0569     2.4038     0.1647     0.3322
  204.0000   113.1393   -50.6268    10.0805     7.2149     7.1255   117.6710     8.0679     0.0613     2.4154     0.1608     0.3283
  204.5000   110.3639   -50.6296    11.9905     7.9493     7.9488   120.3692     8.0520     0.0371     2.4453     0.1454     0.3225
  205.0000   108.1144   -50.4819    13.3969     8.7706     8.1693   118.5560     8.0359     0.0249     2.4679     0.1260     0.3020
  205.5000   106.6914   -50.3342    13.8668     9.2542     8.2234   114.6275     8.0200     0.0203     2.4732     0.1224     0.2902
  206.0000   106.1699   -50.3377    14.1523     9.5110     8.2187   115.5291     8.0191     0.0185     2.4716     0.1264     0.2886
  206.5000   105.8738   -50.3406    14.1453     9.3102     8.1579   117.9265     8.0183     0.0171     2.4693     0.1270     0.3005
  207.0000   105.8032   -50.3435    14.1397     9.3059     8.1532   117.4667     8.0325     0.0171     2.4677     0.1270     0.3078
  207.5000   105.8077   -50.1957    14.1341     9.5707     8.1495   118.5107     8.0316     0.0185     2.4677     0.1270     0.3030
  208.0000   105.7310   -50.0480    14.2350     9.8968     8.2598   120.6074     8.0305     0.0184     2.4699     0.1243     0.2872
  208.5000   105.2622   -50.0516    14.6214    10.0320     8.3717   122.1197     8.0297     0.0214     2.4767     0.1198     0.2797
  209.0000   104.5309   -50.0545    14.8218    10.0262     8.5433   121.4902     8.0288     0.0273     2.4812     0.1156     0.2851
  209.5000   104.3228   -49.9066    15.0235    10.0216     8.5394   117.7222     8.0279     0.0227     2.4842     0.1159     0.3069
  210.0000   105.6808   -49.9096    13.9099     9.5056     8.4762   115.4579     8.0271     0.0136     2.4849     0.1202     0.3272
  210.5000   108.8407   -49.9132    11.0956     7.6856     7.9030   117.2538     8.0260     0.0165     2.4773     0.1280     0.3330
  211.0000   113.5033   -49.9160     9.7467     6.5919     5.4644   120.5735     8.0402     0.0361     2.4576     0.1426     0.3360
  211.5000   113.6569   -49.9189     9.2154     6.2322     4.4318   122.7983     8.0393     0.0526     2.4259     0.1565     0.3342
  212.0000   112.6107   -49.7712     9.0215     6.2276     4.7821   122.1882     8.0384     0.0692     2.4153     0.1532     0.3179
  212.5000   109.7601   -49.7741     9.2724     6.8150     7.2558   119.7735     8.0376     0.0661     2.4416     0.1339     0.3010
  213.0000   106.9096   -49.7776    11.0283     7.4566     7.4179   118.1108     8.0367     0.0645     2.4726     0.1230     0.3016
  213.5000   105.9373   -49.6292    12.2363     8.1586     6.6678   119.0044     8.0356     0.0644     2.4756     0.1203     0.3003
  214.0000   105.8656   -49.6327    12.9315     8.7423     6.7581   120.5192     8.0348     0.0583     2.4665     0.1288     0.2898
  214.5000   105.3452   -49.4850    13.3839     9.3028     7.7633   120.9420     8.0339     0.0397     2.4641     0.1270     0.2829
  215.0000   103.7719   -49.4880    13.9617     9.6937     8.6131   118.6756     8.0330     0.0279     2.4719     0.1193     0.2808
  215.5000   103.3245   -49.3401    14.5361     9.9626     8.7937   116.2610     8.0322     0.0399     2.4852     0.1143     0.2887
  216.0000   103.3300   -49.0418    14.9404    10.2389     8.8480   112.1922     8.0311     0.0414     2.4890     0.1125     0.2929
  216.5000   103.1841   -48.8941    15.3559    10.4500     8.9668   111.4317     8.0302     0.0338     2.4814     0.1171     0.2938
  217.0000   102.8130   -48.5964    15.4569    10.5200     9.2798   112.4735     8.0294     0.0186     2.4829     0.1171     0.2963
  217.5000   102.4418   -48.2806    15.6817    10.7337     9.6709   113.3672     8.0285     0.0109     2.4828     0.1168     0.2972
  218.0000   102.0696   -47.8492    15.8805    10.8791     9.8019   115.0127     8.0277     0.0139     2.4828     0.1178     0.2972
  218.5000   101.6198   -47.4009    16.0950    11.0276     9.3306   117.4101     8.0268     0.0168     2.4812     0.1196     0.2948
  219.0000   101.1701   -46.9520    16.2025    11.0984     9.1974   119.3563     8.0409     0.0228     2.4797     0.1196     0.2882
  219.5000   101.1073   -46.6536    16.3076    11.0930     9.1932   120.2499     8.0399     0.0288     2.4781     0.1208     0.2861
  220.0000   101.2620   -46.2047    16.4149    11.1653     9.1889   119.1865     8.0390     0.0332     2.4773     0.1217     0.2852
  220.5000   100.8919   -45.9071    16.5229    11.1589     9.1836   119.1779     8.0532     0.0256     2.4773     0.1212     0.2773
  221.0000   100.5958   -45.7586    16.6317    11.2329     9.1794   119.9212     8.0523     0.0074     2.4773     0.1206     0.2686
  221.5000   100.3749   -45.4610    16.6234    11.2264     9.2403   120.3639     8.0513     0.0043     2.4787     0.1185     0.2643
  222.0000   100.2280   -45.3133    16.6168    11.2995     9.2349   119.4325     8.0504     0.0118     2.4817     0.1170     0.2725
  222.5000   100.2335   -45.0149    16.6086    11.3731     9.2306   117.3367     8.0495     0.0268     2.4832     0.1155     0.2807
  223.0000   100.5385   -44.8672    16.4870    11.6872     9.1614   114.7717     8.0487     0.0405     2.4854     0.1146     0.2837
  223.5000   101.1440   -44.7195    16.4804    13.5193     9.0937   114.9135     8.0478     0.0357     2.4877     0.1134     0.2768
  224.0000   101.4490   -44.7231    16.3597    15.5302     8.7788   116.7093     8.0469     0.0220     2.4891     0.1146     0.2726
  224.5000   101.5275   -44.7259    15.9888    15.8504     8.5935   117.4526     8.0459     0.0144     2.4868     0.1189     0.2741
  225.0000   100.6315   -44.7295    15.4603    12.3318     8.8309   113.6824     8.0450     0.0159     2.4830     0.1201     0.2848
