~VERSION INFORMATION
 VERS.                2.0:   CWLS LOG ASCII STANDARD - VERSION 2.0
 WRAP.                 NO:   ONE LINE PER DEPTH STEP
~WELL INFORMATION
#MNEM.UNIT      DATA TYPE    INFORMATION
#----------   ------------   ------------------------------
 STRT.F            3.0000:   START DEPTH
 STOP.F          600.0000:   STOP DEPTH
 STEP.F            0.5000:   STEP LENGTH
 NULL.          -999.2500:   NO VALUE
 COMP. FENIX & SCISSON INC:   COMPANY
 WELL.     NPR-3 #83SX4-4:   WELL
 FLD .             TEAPOT:   FIELD
 LOC .       S4 T38N R78W:   LOCATION
 CNTY.            NATRONA:   COUNTY
 STAT.            WYOMING:   STATE
 CTRY. UNITED STATES OF AMERICA:   COUNTRY
 SRVC.           BIRDWELL:   SERVICE COMPANY
 DATE.        02-AUG-1978:   LOGDATE
 API .       490251067700:   API NUMBER
~CURVE INFORMATION
#MNEM.UNIT       API CODE    CURVE DESCRIPTION
#----------   ------------   ------------------------------
 DEPT.F                  :   
 GRD .GAPI   45 310 01 00:   GAMMA RAY FROM DENSITY LOG
 CORR.G/C3   45 356 01 00:   DENSITY CORRECTION
 RHOB.G/C3   45 350 01 00:   BULK DENSITY
 DPHI.DEC    45 890 12 00:   DENSITY POROSITY SANDSTONE
 SPR .MV     05 010 01 00:   SPONTANEOUS POTENTIAL
 ILD .OHMM   05 120 46 00:   INDUCTION LOG DEEP
 SN  .OHMM   05 040 00 00:   SHORT NORMAL
~PARAMETER INFORMATION
#MNEM.UNIT          VALUE    DESCRIPTION
#----------   ------------   ------------------------------
 PD  .                 GL:   PERMANENT DATUM
 EPD .F              5204:   ELEVATION PERMANENT DATUM
 LMF .                 KB:   LOG MEASURED FROM
 DAPD.F                 4:   FEET ABOVE PERMANENT DATUM
 DMF .                 KB:   DRILLING MEASURED FROM
 EKB .F              5204:   KELLING BUSHING
 EGL .F              5200:   GROUND LEVEL
 DATE.        02-AUG-1978:   RUN DATE
 RUN .                  1:   RUN NUMBER
 DD  .F               590:   DEPTH DRILLER
 DL  .F               606:   DEPTH LOGGER
 BLI .F               590:   BOTTOM LOG INTERVAL
 TLI .F                30:   TOP LOG INTERVAL
 CS  .IN            8.625:   CASING SIZE
 CBD .F                40:   CASING BOTTOM DRILLER
 BS  .IN            7.875:   BIT SIZE
 BSD .F               590:   BIT SIZE AT DEPTH
 DFT .                KCL:   DRILLING FLUID TYPE
 DFD .                8.7:   DRILLING FLUID DENSITY
 DFV .                 32:   DRILLING FLUID VISCOSITY
 DFPH.                  9:   DRILLING FLUID PH
 DFL .                 12:   DRILLING FLUID LOSS
 MSS .           FLOWLINE:   MUD SAMPLE SOURCE
 RMS .OHMM             .4:   RESISTIVITY MUD SAMPLE
 MST .F                61:   MUD SAMPLE TEMPERATURE
 RMF .OHMM             .5:   RESISTIVITY MUD FILTRATE SAMPLE
 MFST.F                50:   MUD FILTRATE SAMPLE TEMPERATURE
 RMC .OHMM            .65:   RESISTIVITY MUD CAKE
 MCST.F                66:   MUD CAKE SAMPLE TEMPERATURE
 MFSS.               MEAS:   MUD FILTRATE SAMPLE SOURCE
 BHT .F                78:   BOTTOM HOLE TEMPERATURE
 TCS .HRS            0300:   TIME CURCULATED STOPPED
 MRT .F                78:   MAXIMUM RECORDED TEMPERATURE
 LUN .               3006:   LOGGING UNIT NUMBER
 LUL .               CASP:   LOGGING UNIT LOCATION
 ENGI.             MILLER:   RECORDING ENGINEER
 WITN.              AMEND:   WITNESSED BY
 CLNT.            A2DTECH:   CLIENT CODE
 ORIG.           5" PRINT:   ORIGIN OF DATA
 UWI .       490251067700:   UNIQUE WELL ID
 DICO. A2D Technologies, Inc.:   DIGITIZING COMPANY
~OTHER INFORMATION
~A    DEPT     GRD       CORR       RHOB       DPHI        SPR        ILD         SN   
# ...
  321.5000    58.8245     0.0383     2.5113     0.1082   -19.8496     8.4339     9.1973
  322.0000    54.7802     0.0412     2.5121     0.1076   -19.8368     8.4950     9.2011
  322.5000    52.3826     0.0443     2.5113     0.1073   -19.9784     8.4388     9.1403
  323.0000    51.7814     0.0455     2.5128     0.1052   -20.1148     8.4424     9.2073
  323.5000    53.5989     0.0499     2.5203     0.1037   -20.1046     8.4453     9.2104
  324.0000    61.5065     0.0513     2.5270     0.0992   -20.2435     8.4481     9.1495
  324.5000    63.4502     0.0512     2.5329     0.0915   -20.2333     8.3929     9.1534
  325.0000    63.8975     0.0496     2.5337     0.0912   -20.3748     8.3959     9.1565
  325.5000    64.6430     0.0465     2.5329     0.0945   -20.5138     8.3993     9.1596
  326.0000    66.1376     0.0401     2.5314     0.1121   -20.5010     8.4021     9.1627
  326.5000    68.3908     0.0314     2.5054     0.1145   -20.4908     8.3466     9.1028
  327.0000    69.8748     0.0373     2.4992     0.1098   -20.6299     8.2921     9.1060
  327.5000    68.6748     0.0417     2.5149     0.1025   -20.6194     8.1821     9.1091
  328.0000    65.0795     0.0416     2.5216     0.0993   -20.9077     8.0174     9.0496
  328.5000    61.4843     0.0355     2.5253     0.0966   -21.1960     8.0201     9.0528
  329.0000    56.3921     0.0310     2.5246     0.0972   -21.1832     7.9676     8.9936
  329.5000    50.5514     0.0262     2.5207     0.1005   -21.3247     7.9157     8.8135
  330.0000    53.3599     0.0188     2.5028     0.1140   -21.4637     7.8100     8.7560
  330.5000    61.7735     0.0157     2.4946     0.1173   -21.6027     7.6485     8.5800
  331.0000    65.3639     0.0201     2.4834     0.1209   -21.7417     7.4904     8.5240
  331.5000    67.4573     0.0245     2.4796     0.1182   -21.8807     7.2981     8.4103
  332.0000    68.2040     0.0274     2.4931     0.1152   -22.3156     7.1513     8.2981
  332.5000    65.9555     0.0288     2.4908     0.1159   -22.3054     7.0068     8.1312
  333.0000    64.8985     0.0271     2.4805     0.1284   -22.2951     6.9138     8.0228
  333.5000    64.0040     0.0256     2.4706     0.1302   -22.2849     6.7747     7.8614
  334.0000    60.7082     0.0256     2.4690     0.1448   -22.2746     6.5026     7.6505
  334.5000    56.9633     0.0270     2.4391     0.1461   -22.4224     6.2845     7.3881
  335.0000    55.4645     0.0269     2.4368     0.1476   -22.8511     6.0738     7.0910
  335.5000    60.8507     0.0253     2.4331     0.1533   -23.1393     5.7501     6.6739
  336.0000    67.2854     0.0237     2.4141     0.1686   -23.4250     5.2956     5.9388
  336.5000    66.1751     0.0234     2.3836     0.1893   -23.4148     4.6987     5.4323
  337.0000    63.8369     0.0220     2.3417     0.2031   -23.2552     3.9728     5.0727
  337.5000    56.3495     0.0219     2.3080     0.2189   -22.3495     3.2507     4.6721
  338.0000    51.2572     0.0234     2.2788     0.2480   -21.1452     2.8138     4.1290
  338.5000    50.6566     0.0262     2.2488     0.2755   -20.3886     2.6274     3.6490
  339.0000    52.3003     0.0321     2.2211     0.2860   -20.2291     2.4874     3.3149
  339.5000    57.5675     0.0351     2.2099     0.2875   -20.0696     2.4709     3.0954
  340.0000    67.7141     0.0443     2.2114     0.2860   -19.9101     2.5062     3.0332
  340.5000    70.7057     0.0588     2.2323     0.2557   -19.7506     2.5419     3.0552
  341.0000    72.4997     0.0737     2.2937     0.2037   -19.7403     2.5958     3.2077
  341.5000    76.0901     0.0452     2.4127     0.1771   -19.7299     2.7063     3.4194
  342.0000    78.9320     0.0406     2.4261     0.1537   -19.7194     3.2606     3.7724
  342.5000    80.5763     0.0420     2.4496     0.1388   -19.8588     4.1732     4.3464
  343.0000    79.9153     0.0449     2.4718     0.1301   -19.6967     4.9559     4.8541
  343.5000    73.5350     0.0448     2.4875     0.1244   -19.6865     5.7822     5.5724
  344.0000    69.4907     0.0447     2.5017     0.1150   -19.6762     6.1541     6.2663
  344.5000    70.0871     0.0476     2.5032     0.1116   -19.8178     6.1561     6.7615
  345.0000    71.5817     0.0505     2.5046     0.1077   -20.2553     6.1582     7.0977
  345.5000    74.2739     0.0519     2.5114     0.1056   -20.6902     6.2029     7.1492
  346.0000    79.4676     0.0503     2.5113     0.1053   -20.8292     6.2479     7.1516
  346.5000    84.5978     0.0473     2.5113     0.1041   -20.8189     6.2500     7.1540
  347.0000    86.0925     0.0455     2.5143     0.0999   -20.6594     6.2521     7.1564
  347.5000    85.7907     0.0411     2.5158     0.1110   -20.6492     6.2542     7.1588
  348.0000    86.8362     0.0380     2.4971     0.1167   -20.7882     6.1707     7.1613
  348.5000    88.6183     0.0379     2.4843     0.1209   -20.7776     5.9604     7.1145
  349.0000    90.5630     0.0378     2.4798     0.1248   -20.6158     5.7178     7.0202
  349.5000    91.4593     0.0377     2.4723     0.1284   -20.4563     5.5323     6.9266
  350.0000    89.0555     0.0377     2.4623     0.1350   -20.2884     5.4503     6.7867
  350.5000    74.0424     0.0376     2.4394     0.1503   -20.1356     5.4233     6.7435
  351.0000    66.8698     0.0435     2.4064     0.1668   -20.1239     5.2772     6.3848
  351.5000    66.7210     0.0674     2.4131     0.1683   -20.1122     5.1714     6.0869
  352.0000    67.7723     0.0739     2.4609     0.1383   -20.1005     5.1024     5.9234
  352.5000    71.8217     0.0373     2.4414     0.1444   -19.6410     4.9993     5.8852
  353.0000    76.4708     0.0282     2.4376     0.1501   -19.6293     5.0014     5.8881
  353.5000    77.9715     0.0356     2.4391     0.1462   -19.7672     5.1429     5.9722
  354.0000    76.8576     0.0371     2.4541     0.1390   -19.7551     5.2883     6.0993
  354.5000    74.3766     0.0355     2.4740     0.1261   -19.7433     5.4420     6.3164
  355.0000    73.9279     0.0354     2.4854     0.1225   -19.7115     5.7533     6.5034
  355.5000    74.0796     0.0383     2.4839     0.1207   -19.7200     6.1182     6.8261
  356.0000    74.9806     0.0427     2.5025     0.1130   -19.7054     6.5567     7.4085
  356.5000    74.5323     0.0351     2.5137     0.1019   -19.6937     6.7888     7.8311
  357.0000    68.8284     0.0321     2.5129     0.1064   -19.5357     7.0291     8.1647
  357.5000    66.4392     0.0335     2.5039     0.1100   -20.1180     7.1783     8.5124
  358.0000    67.9403     0.0364     2.5016     0.1088   -20.5570     7.2304     8.6935
  358.5000    67.4920     0.0379     2.5024     0.1097   -20.6946     7.2828     8.7571
  359.0000    67.4934     0.0378     2.5046     0.1091   -20.6799     7.2852     8.5816
  359.5000    68.2445     0.0377     2.5098     0.1059   -20.6682     7.2376     8.5253
  360.0000    70.9446     0.0377     2.5037     0.1092   -20.6565     7.1904     8.4130
  360.5000    74.2577     0.0376     2.5037     0.1083   -20.9433     7.1928     8.3014
  361.0000    79.1004     0.0375     2.5044     0.1080   -21.0809     7.0436     8.2478
  361.5000    86.6914     0.0374     2.4902     0.1104   -21.0945     7.0021     8.1945
  362.0000    88.0418     0.0373     2.4901     0.1143   -21.2067     6.9564     8.0857
  362.5000    84.2955     0.0373     2.4931     0.1149   -21.1921     6.9115     7.9245
  363.0000    81.5983     0.0357     2.4855     0.1200   -21.0311     6.9139     7.7656
  363.5000    82.0495     0.0356     2.4810     0.1200   -21.0194     6.7747     7.6618
  364.0000    85.8109     0.0356     2.4802     0.1230   -21.0077     6.3259     7.4567
  364.5000    89.2635     0.0385     2.4795     0.1248   -20.8467     5.8662     7.2579
  365.0000    90.8994     0.0504     2.4794     0.1221   -20.3873     5.5154     7.1124
  365.5000    89.8518     0.0578     2.4846     0.1200   -19.7786     5.2939     6.8746
  366.0000    82.0571     0.0592     2.4815     0.1224   -19.1698     5.2232     6.5991
  366.5000    76.8112     0.0606     2.4733     0.1275   -18.7104     5.2250     6.3784
