~VERSION INFORMATION
 VERS.                2.0:   CWLS LOG ASCII STANDARD - VERSION 2.0
 WRAP.                 NO:   ONE LINE PER DEPTH STEP
~WELL INFORMATION
#MNEM.UNIT      DATA TYPE    INFORMATION
#----------   ------------   ------------------------------
 STRT.F            0.0000:   START DEPTH
 STOP.F          530.0000:   STOP DEPTH
 STEP.F            0.5000:   STEP LENGTH
 NULL.          -999.2500:   NO VALUE
 COMP.   LAWRENCE-ALLISON:   COMPANY
 WELL. NPR 3 #51-56SX10 OB3:   WELL
 FLD .             TEAPOT:   FIELD
 LOC .      S10 T38N R78W:   LOCATION
 CNTY.            NATRONA:   COUNTY
 STAT.            WYOMING:   STATE
 CTRY. UNITED STATES OF AMERICA:   COUNTRY
 SRVC.           Gearhart:   SERVICE COMPANY
 DATE.        28-JUN-1987:   LOGDATE
 API .       490251100800:   API NUMBER
~CURVE INFORMATION
#MNEM.UNIT       API CODE    CURVE DESCRIPTION
#----------   ------------   ------------------------------
 DEPT.F                  :   
 CALD.IN     45 280 60 00:   CALIPER ROM DENSITY LOG
 CNC .DEC    45 890 03 00:   NEUTRON POROSITY SANDSTONE
 CORR.G/C3   45 356 01 00:   DENSITY CORRECTION
 DEN .G/C3   45 350 01 00:   COMPENSATED BULK DENSTIY
 PORD.DEC    45 890 12 00:   POROSITY DENSITY SANDSTONE
 GRR .GAPI   07 310 01 00:   GAMMA RAY
 ILD .OHMM   07 120 46 00:   INDUCTION LOG DEEP
 ILM .OHMM   07 120 44 00:   INDUCTION LOG MEDIUM
 LL  .OHMM   07 220 00 00:   LATEROLOG RESISTIVITY
 SPR .MV     07 010 01 00:   SPONTANEOUS POTENTIAL
 DT  .US/F   60 520 00 00:   INTERVAL TRANSIT TIME
~PARAMETER INFORMATION
#MNEM.UNIT          VALUE    DESCRIPTION
#----------   ------------   ------------------------------
 PD  .                 GL:   PERMANENT DATUM
 EPD .F              5198:   ELEVATION PERMANENT DATUM
 LMF .                 KB:   LOG MEASURED FROM
 DAPD.F                 8:   FEET ABOVE PERMANENT DATUM
 DMF .                 KB:   DRILLING MEASURED FROM
 EKB .F              5206:   KELLING BUSHING
 EDF .F              5204:   DRILLING FLOOR
 EGL .F              5198:   GROUND LEVEL
 DATE.        28-JUN-1987:   RUN DATE
 RUN .                  1:   RUN NUMBER
 DD  .F               535:   DEPTH DRILLER
 DL  .F               536:   DEPTH LOGGER
 BLI .F               533:   BOTTOM LOG INTERVAL
 BS  .IN             7.87:   BIT SIZE
 BSD .F               535:   BIT SIZE AT DEPTH
 DFT .                MUD:   DRILLING FLUID TYPE
 RMS .OHMM           0.84:   RESISTIVITY MUD SAMPLE
 MST .F                57:   MUD SAMPLE TEMPERATURE
 RMF .OHMM           0.63:   RESISTIVITY MUD FILTRATE SAMPLE
 MFST.F                57:   MUD FILTRATE SAMPLE TEMPERATURE
 RMC .OHMM           1.05:   RESISTIVITY MUD CAKE
 MCST.F                57:   MUD CAKE SAMPLE TEMPERATURE
 MFSS.               CALC:   MUD FILTRATE SAMPLE SOURCE
 MCSS.               CALC:   MUD CAKE SAMPLE SOURCE
 RMB .OHMM           0.59:   RESISTIVITY MUD AT BHT
 BHT .F                80:   BOTTOM HOLE TEMPERATURE
 TCS .HRS            1200:   TIME CURCULATED STOPPED
 TLAB.HRS            1322:   TIME LOGGER AT BOTTOM
 LUN .               7650:   LOGGING UNIT NUMBER
 LUL .           GILLETTE:   LOGGING UNIT LOCATION
 ENGI. JOHNSTON/HUCKFELDT:   RECORDING ENGINEER
 WITN.             STRONG:   WITNESSED BY
 CLNT.            A2DTECH:   CLIENT CODE
 ORIG.      2.5" 5" PRINT:   ORIGIN OF DATA
 UWI .       490251100800:   UNIQUE WELL ID
 DICO. A2D Technologies, Inc.:   DIGITIZING COMPANY
~OTHER INFORMATION
~A    DEPT    CALD        CNC       CORR        DEN       PORD         GRR         ILD        ILM       LL        SPR         DT   
# ...
  213.5000     6.4871     0.3340     0.0380     2.4674     0.1270   102.0130     6.1789     5.9176     5.9285   -48.5675   107.6414
  214.0000     6.4878     0.3313     0.0336     2.4646     0.1270   104.3323     6.1814     6.0850     5.9310   -48.5806   106.2861
  214.5000     6.4734     0.3112     0.0217     2.4647     0.1269   105.3664     6.1840     5.9973     5.9000   -48.5616   104.9307
  215.0000     6.4591     0.3000     0.0097     2.4663     0.1275   105.3754     5.9310     5.8305     5.8158   -48.5586   103.7274
  215.5000     6.4598     0.2957     0.0023     2.4656     0.1290   106.5896     5.6982     5.5739     5.7329   -48.4735   103.5801
  216.0000     6.4455     0.3160     0.0145     2.4618     0.1329   108.4845     5.4695     5.2663     5.4695   -48.2523   105.7030
  216.5000     6.4421     0.3230     0.0222     2.4589     0.1365   110.8094     5.2499     5.0004     5.2497   -47.8228   108.9584
  217.0000     6.4318     0.3188     0.0071     2.4484     0.1581   111.7618     4.9702     4.7575     4.9703   -46.7487   113.2720
  217.5000     6.4324     0.3173     0.0044     2.4138     0.1677   109.6256     4.8369     4.6613     4.7054   -46.2713   114.4866
  218.0000     6.4330     0.3152     0.0115     2.3823     0.1810   107.8325     4.7073     4.5945     4.7073   -46.1376   113.8871
  218.5000     6.4336     0.3077     0.0408     2.3778     0.1629   104.2376     4.7777     4.6331     4.7092   -46.4354   111.6247
  219.0000     6.4639     0.3122     0.0365     2.4359     0.1414    98.8409     4.9183     4.6990     4.7111   -46.4324   109.7403
  219.5000     6.4645     0.3213     0.0290     2.4646     0.1264    96.4472     5.0630     4.7659     4.7870   -46.4294   109.0652
  220.0000     6.4799     0.3209     0.0171     2.4684     0.1266    97.2172     5.2120     4.9688     5.0245   -46.4264   108.4656
  220.5000     6.4954     0.3059     0.0188     2.4708     0.1230   100.4355     5.5154     5.2523     5.4555   -46.4234   107.7140
  221.0000     6.4960     0.2970     0.0279     2.4799     0.1085   104.5586     5.7899     5.5543     5.9402   -46.4204   106.7770
  221.5000     6.5116     0.2889     0.0296     2.4968     0.1061   110.7097     6.0916     5.9707     6.2558   -46.4174   104.5571
  222.0000     6.5121     0.2804     0.0237     2.4988     0.1122   111.5057     6.4077     6.3032     6.5291   -46.4144   103.4235
  222.5000     6.5126     0.2829     0.0057     2.4838     0.1156   109.1542     6.5785     6.5781     6.7211   -46.4109   103.2020
  223.0000     6.5132     0.2871     0.0028     2.4839     0.1144   104.7908     6.8591     6.7711     6.9544   -46.4080   102.9048
  223.5000     6.5139     0.2853     0.0181     2.4878     0.1072   100.7254     7.0537     7.0305     7.1517   -46.4051   102.9100
  224.0000     6.5144     0.2775     0.0453     2.5021     0.1059   100.7341     7.2538     7.1742     7.1546   -46.4022   102.8383
  224.5000     6.5151     0.2806     0.0440     2.4999     0.1104   102.5446     7.4596     7.1814     7.1574   -46.9999   102.8448
  225.0000     6.5007     0.2809     0.0245     2.4902     0.1191   104.3551     7.4625     7.1355     7.1603   -46.9970   102.7731
  225.5000     6.5013     0.2794     0.0111     2.4767     0.1221   104.3638     7.4656     7.1384     7.1631   -47.2944   102.7796
  226.0000     6.5020     0.2707     0.0080     2.4753     0.1215   104.3725     7.4537     7.1408     7.0679   -47.2913   102.7848
  226.5000     6.5025     0.2806     0.0038     2.4791     0.1199   104.3293     7.3692     7.0453     7.0709   -47.2883   102.5633
  227.0000     6.4883     0.2915     0.0009     2.4792     0.1187   101.2513     7.3725     7.0477     6.9767   -46.9850   102.1905
  227.5000     6.4889     0.2975     0.0011     2.4815     0.1166    99.4845     7.2381     7.0500     6.9798   -47.2828   101.7372
  228.0000     6.5043     0.2937     0.0087     2.4876     0.1126    98.4013     7.0370     6.9545     6.9496   -47.2793   101.1267
  228.5000     6.5049     0.2792     0.0375     2.4929     0.1126    97.8094     6.8415     6.8471     6.8505   -47.2763   100.9967
  229.0000     6.5056     0.2817     0.0361     2.4892     0.1144   100.5666     6.5235     6.6642     6.6603   -46.9724   101.0032
  229.5000     6.5062     0.2859     0.0257     2.4832     0.1183   106.4274     6.2616     6.4788     6.5653   -46.9695   101.1596
  230.0000     6.4769     0.2844     0.0198     2.4818     0.1186   108.0480     6.1784     6.2729     6.3512   -46.9666   102.3742
  230.5000     6.4479     0.2796     0.0184     2.4849     0.1119   106.2570     5.9304     5.9568     6.1810   -46.9637   102.4549
  231.0000     6.4485     0.2664     0.0261     2.4940     0.1077   103.8633     5.6924     5.7562     5.9329   -46.9608   102.3846
  231.5000     6.4491     0.2604     0.0383     2.5009     0.1043   102.0691     5.5397     5.5139     5.8540   -46.9579   102.1630
  232.0000     6.4497     0.2592     0.0475     2.5047     0.1019   103.2801     5.2408     5.0798     5.4605   -46.6466   100.9588
  232.5000     6.4552     0.2719     0.0416     2.5078     0.0997   105.6912     5.0341     4.8089     5.0342   -46.3514    98.6209
  233.0000     6.4657     0.2803     0.0267     2.5116     0.0991   108.1023     5.0363     4.5523     4.6363   -46.0480    97.4167
  233.5000     6.4514     0.2858     0.0102     2.5140     0.0985   109.9129     5.1083     4.5539     4.5747   -45.7447    96.6660
  234.0000     6.4520     0.2897     0.0136     2.5155     0.0982   110.5225     5.1814     4.6186     4.6535   -45.7417    96.9736
  234.5000     6.4526     0.3010     0.0406     2.5141     0.1017   109.8328     5.2842     4.8153     4.8758   -45.7387    98.3666
  235.0000     6.4532     0.3159     0.0257     2.5051     0.1053   109.0591     5.4397     5.0936     5.2364   -45.7357    99.9622
  235.5000     6.4652     0.3126     0.0274     2.4954     0.1125   106.9446     5.7203     5.3938     5.5466   -45.4324   101.0721
  236.0000     6.4692     0.2861     0.0456     2.4857     0.1221   106.3527     5.9577     5.7130     5.8751   -45.4289   101.1529
  236.5000     6.4700     0.2671     0.0442     2.4767     0.1257   107.4965     6.3854     6.1552     6.2231   -45.4260   100.9313
  237.0000     6.4705     0.2669     0.0459     2.4730     0.1248   110.2843     6.6577     6.6165     6.5667   -45.4231    99.8027
  237.5000     6.4711     0.2697     0.0490     2.4757     0.1181   110.5856     7.0380     7.1357     6.8468   -45.4202    97.9183
  238.0000     6.4716     0.2691     0.0295     2.4987     0.1014   109.3949     7.2377     7.2997     7.2379   -45.1170    96.4117
  238.5000     6.4722     0.2646     0.0206     2.5237     0.0913   109.4036     7.4430     7.3022     7.3413   -45.4144    96.0390
  239.0000     6.4729     0.2616     0.0524     2.5283     0.0900   107.6105     7.4461     7.4067     7.4462   -45.7118    95.6663
  239.5000     6.4735     0.2670     0.0540     2.5284     0.0906   107.0180     7.4492     7.5120     7.4492   -45.7087    95.5190
  240.0000     6.4740     0.2788     0.0406     2.5299     0.0897   107.0273     7.4523     7.5145     7.4523   -45.7658    95.7523
  240.5000     6.4746     0.2815     0.0513     2.5375     0.0845   108.8438     7.4553     7.5170     7.5734   -46.0034    96.2110
  241.0000     6.4752     0.2752     0.0560     2.5421     0.0818   114.2523     7.4584     7.5195     7.6670   -46.1041    96.7473
  241.5000     6.4758     0.2644     0.0471     2.5429     0.0833   113.6600     7.4615     7.5220     7.7001   -46.1712    97.3684
  242.0000     6.4764     0.2635     0.0229     2.5317     0.0884   113.0681     7.4646     7.5245     7.7798   -45.9940    97.9894
  242.5000     6.4770     0.2614     0.0142     2.5295     0.0905   113.0781     7.4677     7.5271     7.7830   -45.9910    98.4250
  243.0000     6.4776     0.2572     0.0243     2.5311     0.0868   113.8999     7.4713     7.5297     7.7333   -45.9875    98.3546
  243.5000     6.4782     0.2458     0.0853     2.5409     0.0832   116.0070     7.4743     7.5081     7.6828   -45.9846    97.8307
