~VERSION INFORMATION
 VERS.                2.0:   CWLS LOG ASCII STANDARD - VERSION 2.0
 WRAP.                 NO:   ONE LINE PER DEPTH STEP
~WELL INFORMATION
#MNEM.UNIT      DATA TYPE    INFORMATION
#----------   ------------   ------------------------------
 STRT.F           80.0000:   START DEPTH
 STOP.F          930.0000:   STOP DEPTH
 STEP.F            0.5000:   STEP LENGTH
 NULL.          -999.2500:   NO VALUE
 COMP. U S NAVY-INTEX OIL:   COMPANY
 WELL. RES 3 TEAPOT DOM #56-S-2:   WELL
 FLD .             TEAPOT:   FIELD
 LOC .       S2 T38N R78W:   LOCATION
 CNTY.            NATRONA:   COUNTY
 STAT.            WYOMING:   STATE
 CTRY. UNITED STATES OF AMERICA:   COUNTRY
 SRVC.       Schlumberger:   SERVICE COMPANY
 DATE.        24-JUN-1962:   LOGDATE
 API .       490250641900:   API NUMBER
~CURVE INFORMATION
#MNEM.UNIT       API CODE    CURVE DESCRIPTION
#----------   ------------   ------------------------------
 DEPT.F                  :   
 ASN .OHMM   05 041 16 00:   AMPLIFIED SHORT NORMAL 16"
 ILD .OHMM   05 120 46 00:   INDUCTION LOG DEEP
 CILD.MMHO   05 110 46 00:   CONDUCTIVITY INDUCTION LOG DEEP
 SPR .MV     05 010 01 00:   SPONTANEOUS POTENTIAL FROM RES.
 GR  .GAPI   30 310 01 00:   GAMMA RAY
~PARAMETER INFORMATION
#MNEM.UNIT          VALUE    DESCRIPTION
#----------   ------------   ------------------------------
 PD  .                 KB:   PERMANENT DATUM
 LMF .                 KB:   LOG MEASURED FROM
 DMF .                 KB:   DRILLING MEASURED FROM
 EKB .F              5179:   KELLING BUSHING
 EGL .F              5174:   GROUND LEVEL
 DATE.        24-JUN-1962:   RUN DATE
 RUN .                  1:   RUN NUMBER
 DD  .F               942:   DEPTH DRILLER
 DL  .F               931:   DEPTH LOGGER
 BLI .F               930:   BOTTOM LOG INTERVAL
 TLI .F                80:   TOP LOG INTERVAL
 BS  .IN             6.75:   BIT SIZE
 BSD .F               942:   BIT SIZE AT DEPTH
 DFT .       OIL EMULSION:   DRILLING FLUID TYPE
 DFD .                9.9:   DRILLING FLUID DENSITY
 DFV .                 55:   DRILLING FLUID VISCOSITY
 DFL .                3.7:   DRILLING FLUID LOSS
 RMS .OHMM            4.2:   RESISTIVITY MUD SAMPLE
 MST .F                79:   MUD SAMPLE TEMPERATURE
 RMF .OHMM            3.7:   RESISTIVITY MUD FILTRATE SAMPLE
 MFST.F                79:   MUD FILTRATE SAMPLE TEMPERATURE
 RMC .OHMM            4.0:   RESISTIVITY MUD CAKE
 MCST.F                79:   MUD CAKE SAMPLE TEMPERATURE
 TCS .HRS               1:   TIME CURCULATED STOPPED
 LUN .               2503:   LOGGING UNIT NUMBER
 LUL .               CSPR:   LOGGING UNIT LOCATION
 ENGI.             DANNER:   RECORDING ENGINEER
 WITN.          JORGENSEN:   WITNESSED BY
 CLNT.            A2DTECH:   CLIENT CODE
 ORIG.           5" PRINT:   ORIGIN OF DATA
 UWI .       490250641900:   UNIQUE WELL ID
 DICO. A2D Technologies, Inc.:   DIGITIZING COMPANY
~OTHER INFORMATION
~A   DEPT        ASN        ILD      CILD       SPR         GR   
# ...
  690.0000     5.9253     6.4267   184.2544   -57.6383  -999.2500
  690.5000     6.1949     6.8787   170.7310   -57.7835  -999.2500
  691.0000     6.3298     7.2555   160.9559   -57.7787  -999.2500
  691.5000     6.5545     7.4072   151.9303   -57.7743  -999.2500
  692.0000     6.6745     7.4087   148.1521   -57.6203  -999.2500
  692.5000     6.7556     7.4099   147.3724   -57.6158  -999.2500
  693.0000     6.8248     7.4114   147.3424   -57.6114  -999.2500
  693.5000     6.8701     7.4129   145.8130   -57.6050  -999.2500
  694.0000     6.9351     7.4265   144.2838   -57.6004  -999.2500
  694.5000     7.0548     7.5020   143.5041   -57.8968  -999.2500
  695.0000     7.1574     7.5776   141.2251   -57.8923  -999.2500
  695.5000     7.2175     7.6441   138.9462   -57.8878  -999.2500
  696.0000     7.2909     7.7207   138.1665   -57.7338  -999.2500
  696.5000     7.3376     7.7292   137.3868   -57.8790  -999.2500
  697.0000     7.4126     7.8799   137.3568   -57.8742  -999.2500
  697.5000     7.5045     8.0255   135.8275   -57.7203  -999.2500
  698.0000     7.6373     8.0270   135.0478   -57.5663  -999.2500
  698.5000     7.6668     8.0285   133.5184   -58.3091  -999.2500
  699.0000     7.6976     8.0300   132.7388   -58.3046  -999.2500
  699.5000     7.7574     8.1066   131.9591   -58.1506  -999.2500
  700.0000     7.7728     8.1081   131.9114   -57.8315    53.0115
  700.5000     7.8328     8.2117   131.6105   -57.7315    56.7736
  701.0000     7.8928     8.2493   131.3095   -57.6851    63.6983
  701.5000     7.9381     8.1874   131.0716   -57.6791    66.4062
  702.0000     7.8338     8.1139   131.0340   -57.6731    58.7225
  702.5000     7.7593     8.0403   130.9964   -57.6671    65.0448
  703.0000     7.6550     7.9667   131.7092   -58.2590    66.3979
  703.5000     7.4909     7.8931   132.4213   -58.4040    65.1901
  704.0000     7.4015     7.7449   133.1324   -58.6970    74.8249
  704.5000     7.3121     7.7464   133.8456   -58.6895    78.2858
  705.0000     7.2377     7.5977   136.0557   -58.3846    84.6089
  705.5000     7.1483     7.4491   136.7691   -57.9301    79.9372
  706.0000     6.9543     7.2250   138.2309   -57.7747    84.4523
  706.5000     6.8649     7.0016   142.6895   -57.9197    84.2987
  707.0000     6.7605     6.9277   147.8993   -58.0616    79.9275
  707.5000     6.5419     6.8541   154.6083   -58.3546    59.8943
  708.0000     6.2978     6.6308   161.3173   -58.4981    56.5788
  708.5000     5.9095     6.1818   174.0234   -58.6431    64.7076
  709.0000     5.6855     5.3575   192.7264   -58.6356    67.5661
  709.5000     5.3121     4.7584   215.1775   -58.6296    68.1655
  710.0000     4.7743     4.2344   255.6197   -58.5949    62.1382
  710.5000     4.4458     3.6353   305.0573   -58.2910    55.3581
  711.0000     3.9677     2.8860   346.2491   -57.3333    50.0847
  711.5000     3.6691     2.5121   388.9401   -55.9163    48.8762
  712.0000     3.3405     2.3631   418.1379   -55.7349    49.9274
  712.5000     3.2512     2.2145   437.5906   -55.4560    54.1413
  713.0000     3.1169     2.1409   442.8097   -55.4500    60.1624
  713.5000     2.7435     2.2178   437.5154   -55.4440    62.7196
  714.0000     2.7410     2.4446   414.9890   -55.6094    70.3981
  714.5000     3.2374     2.8214   387.9649   -56.0301    74.9124
  715.0000     3.7011     3.3485   330.9557   -55.8744    76.5668
  715.5000     4.1498     3.8755   282.1925   -55.8684    77.0149
  716.0000     4.3145     4.4776   242.4248   -56.3468    70.6866
  716.5000     4.8529     5.3049   219.8984   -56.7535    74.5992
  717.0000     5.2718     5.6818   194.3736   -56.5819    75.1994
  717.5000     5.4813     5.8335   180.8427   -56.4275    66.9125
  718.0000     5.6012     5.9100   171.8096   -56.2870    71.4276
  718.5000     5.5865     6.0617   167.2742   -56.8764    68.7138
  719.0000     5.5718     6.1383   167.2366   -57.3220    69.6144
  719.5000     5.5872     6.2899   167.9580   -57.0156    83.9186
  720.0000     5.7519     6.2914   169.4103   -56.1127    85.4217
  720.5000     5.8568     6.1428   175.3697   -56.7061    85.4186
  721.0000     5.8272     5.9190   189.5749   -56.6986    79.5422
  721.5000     5.7528     5.6202   197.7832   -56.6926    83.0066
  722.0000     5.3794     5.0962   212.7381   -56.6867    84.6566
  722.5000     5.0658     4.7974   220.9464   -56.6807    75.5948
  723.0000     4.8419     4.5737   226.9058   -56.6747    78.9535
  723.5000     4.7973     4.3500   234.3644   -55.4729    83.4573
  724.0000     4.7677     4.1259   247.8295   -55.3174    81.3917
  724.5000     4.5289     4.2028   247.0328   -55.3114    83.0929
  725.0000     4.6039     4.3545   243.2471   -55.6044    84.1869
  725.5000     4.9480     4.7314   236.4629   -55.8973    73.9141
  726.0000     4.9333     5.1833   226.4079   -56.0423    67.9151
  726.5000     4.9337     5.4851   214.6517   -56.4833    76.6470
  727.0000     5.1133     5.7019   203.3697   -57.0767    77.9994
  727.5000     5.4574     5.9384   195.0862   -57.2202    87.7856
  728.0000     5.7417     6.1652   183.8042   -56.7643    84.3188
  728.5000     5.9214     6.3168   174.0215   -56.9092    80.7013
  729.0000     6.1908     6.5435   164.9884   -57.3502    80.8497
  729.5000     6.5648     6.9204   158.9538   -57.7926    77.3821
  730.0000     6.7444     7.2973   152.1695   -57.3382    70.9032
  730.5000     6.9091     7.4489   147.6342   -57.0333    75.4182
  731.0000     6.9692     7.5255   140.8499   -57.3262    81.1381
  731.5000     6.9545     7.5270   142.3116   -57.9182    90.1713
  732.0000     6.9250     7.5285   144.5229   -58.0631    82.1864
  732.5000     6.8954     7.4550   148.2334   -58.0557    89.5629
  733.0000     6.8359     7.3814   150.4446   -57.1528    91.0667
  733.5000     6.7615     7.3078   152.6559   -56.2514    79.1653
  734.0000     6.6571     7.1592   154.8672   -56.9913    78.1081
  734.5000     6.5528     7.0856   158.5777   -57.2858    76.2979
  735.0000     6.3887     6.8619   162.2882   -57.9073    80.3619
  735.5000     6.2843     6.6381   167.4980   -58.4696    74.3341
  736.0000     6.1800     6.4895   171.9581   -57.8096    84.5720
  736.5000     6.0308     6.3408   186.9130   -57.0852    85.3228
  737.0000     5.8069     5.5165   199.6190   -56.1574    76.8853
  737.5000     5.6278     5.0676   212.3251   -55.3064    64.8342
  738.0000     5.2739     4.9189   234.0266   -55.4502    63.9275
  738.5000     4.8512     4.9204   232.4897   -55.4440    65.8824
  739.0000     4.7318     4.9219   229.4536   -55.4380    80.4878
  739.5000     4.9265     4.9985   225.6679   -55.5817    82.5933
  740.0000     5.0015     5.2252   223.3814   -56.2133    81.3854
  740.5000     5.0317     5.6021   218.8461   -57.7002    73.0993
  741.0000     5.4207     5.9790   208.3137   -57.8059    69.9337
  741.5000     6.0637     6.6562   195.5325   -57.0354    61.1957
  742.0000     6.3331     6.9580   179.0031   -56.2989    70.9819
  742.5000     6.4231     7.1096   164.5780   -56.2780    77.7560
  743.0000     6.5130     7.1862   154.5282   -56.2871    90.4036
  743.5000     6.5881     7.2628   148.9131   -56.2940    88.3660
  744.0000     6.6930     7.4144   148.8756   -56.8849    79.1880
  744.5000     6.7830     7.4910   148.7284   -57.7639    72.8324
  745.0000     6.8580     7.4925   146.5517   -57.7479    71.4157
  745.5000     6.9181     7.4940   145.0150   -57.2765    84.2304
  746.0000     7.0231     7.5706   144.9775   -55.5038    92.9130
  746.5000     7.0981     7.5721   144.9400   -55.6148   105.6342
  747.0000     7.1432     7.5736   145.6529   -55.7244   115.4086
  747.5000     7.1585     7.5751   145.6147   -55.7858   114.1719
  748.0000     7.1588     7.5766   145.5777   -55.9278    99.1081
  748.5000     7.1740     7.5781   146.2897   -55.9218   105.7316
  749.0000     7.1743     7.5796   147.0018   -56.2163   100.3069
  749.5000     7.1447     7.5811   146.9640   -56.3598    91.7196
  750.0000     7.1077     7.5826   147.7825   -56.3526    76.3554
  750.5000     7.0187     7.4566   148.1686   -56.3452    80.8726
