~VERSION INFORMATION
 VERS.                2.0:   CWLS LOG ASCII STANDARD - VERSION 2.0
 WRAP.                 NO:   ONE LINE PER DEPTH STEP
~WELL INFORMATION
#MNEM.UNIT      DATA TYPE    INFORMATION
#----------   ------------   ------------------------------
 STRT.F            8.0000:   START DEPTH
 STOP.F          419.0000:   STOP DEPTH
 STEP.F            0.5000:   STEP LENGTH
 NULL.          -999.2500:   NO VALUE
 COMP. LAWRENCE/ALLISON INC:   COMPANY
 WELL.   62-46 -SX #10-10:   WELL
 FLD .             TEAPOT:   FIELD
 LOC .      S10 T38N R78W:   LOCATION
 CNTY.            NATRONA:   COUNTY
 STAT.            WYOMING:   STATE
 CTRY. UNITED STATES OF AMERICA:   COUNTRY
 SRVC.           Gearhart:   SERVICE COMPANY
 DATE.        27-MAY-1988:   LOGDATE
 API .       490251120800:   API NUMBER
~CURVE INFORMATION
#MNEM.UNIT       API CODE    CURVE DESCRIPTION
#----------   ------------   ------------------------------
 DEPT.F                  :   
 GRR .GAPI   07 310 01 00:   GAMMA RAY
 ILD .OHMM   07 120 46 00:   INDUCTION LOG DEEP
 ILM .OHMM   07 120 44 00:   INDUCTION LOG MEDIUM
~PARAMETER INFORMATION
#MNEM.UNIT          VALUE    DESCRIPTION
#----------   ------------   ------------------------------
 PD  .                 GL:   PERMANENT DATUM
 EPD .F              5157:   ELEVATION PERMANENT DATUM
 LMF .                 KB:   LOG MEASURED FROM
 DAPD.F                 5:   FEET ABOVE PERMANENT DATUM
 DMF .                 KB:   DRILLING MEASURED FROM
 EKB .F              5162:   KELLING BUSHING
 EGL .F              5157:   GROUND LEVEL
 DATE.        27-MAY-1988:   RUN DATE
 RUN .                  1:   RUN NUMBER
 DD  .F               449:   DEPTH DRILLER
 DL  .F               437:   DEPTH LOGGER
 BLI .F               419:   BOTTOM LOG INTERVAL
 CS  .IN            8.625:   CASING SIZE
 CBD .F                45:   CASING BOTTOM DRILLER
 CBL .F                45:   CASING BOTTOM LOGGER
 BS  .IN            7.875:   BIT SIZE
 BSD .F               449:   BIT SIZE AT DEPTH
 DFT .                AIR:   DRILLING FLUID TYPE
 TLAB.HRS            0910:   TIME LOGGER AT BOTTOM
 MRT .F                70:   MAXIMUM RECORDED TEMPERATURE
 LUN .               7597:   LOGGING UNIT NUMBER
 LUL .           GILLETTE:   LOGGING UNIT LOCATION
 ENGI.          HUCKFELDT:   RECORDING ENGINEER
 WITN.             STRONG:   WITNESSED BY
 CLNT.            A2DTECH:   CLIENT CODE
 ORIG.           5" PRINT:   ORIGIN OF DATA
 UWI .       490251120800:   UNIQUE WELL ID
 DICO. A2D Technologies, Inc.:   DIGITIZING COMPANY
~OTHER INFORMATION
~A    DEPT      GRR       ILD        ILM   
    8.0000    69.0137  -999.2500  -999.2500
    8.5000    70.8176  -999.2500  -999.2500
    9.0000    71.0993  -999.2500  -999.2500
    9.5000    70.1578  -999.2500  -999.2500
   10.0000    69.2219  -999.2500  -999.2500
   10.5000    68.5804  -999.2500  -999.2500
   11.0000    70.9974  -999.2500  -999.2500
   11.5000    72.8012  -999.2500  -999.2500
   12.0000    74.3006  -999.2500  -999.2500
   12.5000    76.0988  -999.2500  -999.2500
   13.0000    76.9894  -999.2500  -999.2500
   13.5000    78.1844  -999.2500  -999.2500
   14.0000    79.0949  -999.2500  -999.2500
   14.5000    79.3567  -999.2500  -999.2500
   15.0000    79.0240  -999.2500  -999.2500
   15.5000    77.4793  -999.2500  -999.2500
   16.0000    75.0156  -999.2500  -999.2500
   16.5000    73.1665  -999.2500  -999.2500
   17.0000    71.9262  -999.2500  -999.2500
   17.5000    74.0288  -999.2500  -999.2500
   18.0000    76.1370  -999.2500  -999.2500
   18.5000    77.9408  -999.2500  -999.2500
   19.0000    79.4805  -999.2500  -999.2500
   19.5000    80.9340  -999.2500  -999.2500
   20.0000    81.5258  -999.2500  -999.2500
   20.5000    81.4975  -999.2500  -999.2500
   21.0000    79.3383  -999.2500  -999.2500
   21.5000    79.0112  -999.2500  -999.2500
   22.0000    81.7283  -999.2500  -999.2500
   22.5000    81.3956  -999.2500  -999.2500
   23.0000    79.8509  -999.2500  -999.2500
   23.5000    78.0017  -999.2500  -999.2500
   24.0000    77.0452  -999.2500  -999.2500
   24.5000    74.9066  -999.2500  -999.2500
   25.0000    77.0149  -999.2500  -999.2500
   25.5000    80.0363  -999.2500  -999.2500
   26.0000    82.4433  -999.2500  -999.2500
   26.5000    84.2472  -999.2500  -999.2500
   27.0000    82.3980  -999.2500  -999.2500
   27.5000    79.9344  -999.2500  -999.2500
   28.0000    82.3471  -999.2500  -999.2500
   28.5000    84.1509  -999.2500  -999.2500
   29.0000    85.3658  -999.2500  -999.2500
   29.5000    86.2308  -999.2500  -999.2500
   30.0000    85.9037  -999.2500  -999.2500
   30.5000    84.3590  -999.2500  -999.2500
   31.0000    81.8954  -999.2500  -999.2500
   31.5000    80.6551  -999.2500  -999.2500
   32.0000    84.5898  -999.2500  -999.2500
   32.5000    85.1760  -999.2500  -999.2500
   33.0000    84.2344  -999.2500  -999.2500
   33.5000    83.2985  -999.2500  -999.2500
   34.0000    82.3420  -999.2500  -999.2500
   34.5000    81.4211  -999.2500  -999.2500
   35.0000    80.7896  -999.2500  -999.2500
   35.5000    82.2890  -999.2500  -999.2500
   36.0000    84.0928  -999.2500  -999.2500
   36.5000    83.1513  -999.2500  -999.2500
   37.0000    83.1286  -999.2500  -999.2500
   37.5000    84.3236  -999.2500  -999.2500
   38.0000    86.1218  -999.2500  -999.2500
   38.5000    88.8389  -999.2500  -999.2500
   39.0000    87.8620  -999.2500  -999.2500
   39.5000    85.4393  -999.2500  -999.2500
   40.0000    83.5902  -999.2500  -999.2500
   40.5000    82.3499  -999.2500  -999.2500
   41.0000    80.7995  -999.2500  -999.2500
   41.5000    82.6033  -999.2500  -999.2500
   42.0000    84.7116  -999.2500  -999.2500
   42.5000    85.2977  -999.2500  -999.2500
   43.0000    87.0959  -999.2500  -999.2500
   43.5000    90.7262  -999.2500  -999.2500
   44.0000    95.0462  -999.2500  -999.2500
   44.5000   103.4606  -999.2500  -999.2500
   45.0000   110.1351     4.9665   269.7736
   45.5000   116.8095     2.9687    62.5811
   46.0000   124.0872     2.4385    15.2715
   46.5000   124.9834     2.2098     7.7301
   47.0000   124.0419     2.7853     5.4744
   47.5000   121.5782     4.3640     4.0729
   48.0000   120.3379    13.3216     4.5586
   48.5000   120.6253    23.8517     5.7917
   49.0000   121.2059    27.2497     8.4711
   49.5000   121.1775    12.7640    14.3958
   50.0000   120.2416    11.0898    16.1915
   50.5000   118.9976    10.4821    16.6540
   51.0000   116.8440    11.5618    14.9847
   51.5000   114.9949    12.0568    12.0461
   52.0000   113.4445    14.2665    10.6871
   52.5000   113.1174    15.1091    10.3174
   53.0000   112.7903    14.2602    10.6196
   53.5000   112.1279    15.9522    11.5478
   54.0000   111.5217    14.4561    12.4778
   54.5000   110.2814    13.2850    13.2008
   55.0000   109.3455    12.9146    13.2941
   55.5000   107.7951    12.6436    13.0162
   56.0000   106.2504    13.0944    12.8342
   56.5000   104.7057    13.0888    12.7427
   57.0000   102.8509    12.9947    12.7442
   57.5000   101.6106    12.8110    12.6547
   58.0000   103.4144    12.7182    12.6547
   58.5000   106.4359    12.7157    12.5659
   59.0000   107.3265    12.6243    12.5659
   59.5000   106.0805    12.3588    12.3033
   60.0000   106.9711    12.1835    12.1312
   60.5000   109.9869    12.0112    12.1312
   61.0000   112.3996    11.9249    12.1312
   61.5000   113.5951    11.9224    12.0461
   62.0000   112.0442    11.9196    12.0461
   62.5000   109.2818    11.9172    12.0461
   63.0000   107.4327    11.9149    12.0461
   63.5000   108.3531    11.9120    11.9616
   64.0000   108.6050    11.9096    11.8776
   64.5000   108.2723    11.8240    11.7115
   65.0000   107.0320    11.7389    11.6294
   65.5000   106.0904    11.7361    11.5478
   66.0000   108.1986    11.7337    11.5478
   66.5000   109.0898    11.6494    11.4667
   67.0000   108.1477    11.6465    11.4667
   67.5000   107.2118    11.4819    11.4667
   68.0000   105.9715    11.3993    11.3863
   68.5000   104.7306    11.3173    11.3863
   69.0000   103.4852    11.3145    11.3064
   69.5000   104.6802    11.2332    11.2270
   70.0000   107.3973    11.1524    11.1483
   70.5000   110.4131    10.9944    11.0700
   71.0000   112.5213    10.7632    10.9152
   71.5000   111.8898    10.6080    10.9152
   72.0000   107.9041    10.3146    10.8285
   72.5000   104.8373    10.0977    10.6871
   73.0000   103.2926    10.0957    10.6121
   73.5000   104.5784    10.0226    10.5376
   74.0000   107.5034    10.0207    10.3174
   74.5000   109.3073     9.9486    10.1017
   75.0000   110.5023     9.9466    10.0308
   75.5000   109.8651     9.9442    10.0308
   76.0000   109.5381     9.9422    10.0308
   76.5000   109.2110     9.9403    10.0308
   77.0000   108.8783     9.9383    10.0308
   77.5000   108.5512    10.0064    10.1017
   78.0000   109.1374    10.0039    10.1017
   78.5000   111.2755    10.0019    10.1017
   79.0000   112.7450     9.9995    10.1731
   79.5000   112.1079     9.9276    10.1731
   80.0000   111.4764     9.8562    10.1731
   80.5000   110.5349     9.7114    10.1017
   81.0000   109.9034     9.3794     9.7522
   81.5000   108.3586     9.1821     9.3488
   82.0000   108.9391     8.9890     9.0254
   82.5000   110.4386     8.7379     8.9568
   83.0000   111.0304     8.6144     8.7747
   83.5000   107.5921     8.4926     8.7131
   84.0000   105.4943     8.4910     8.7131
   84.5000   104.2540     8.4889     8.7131
   85.0000   103.9269     8.4872     8.7131
   85.5000   105.1163     8.4855     8.7131
   86.0000   107.8334     8.6038     8.7747
   86.5000   111.1592     8.7233     8.7747
   87.0000   113.5662     8.7216     8.7747
   87.5000   114.4625     8.8432     8.8367
   88.0000   114.1298     8.9665     8.8991
   88.5000   113.4977     8.9643     8.8991
   89.0000   113.1656     9.0256     8.9620
   89.5000   114.9694     9.0238     8.9652
   90.0000   118.2953     8.9585     9.0891
   90.5000   120.0991     8.8941     9.1733
   91.0000   118.2443     8.8924     9.2180
   91.5000   117.0040     8.9532     9.4148
   92.0000   115.1492     9.0776     9.4814
   92.5000   113.3001     9.2046     9.5484
   93.0000   111.7553     9.3377     9.7522
   93.5000   110.2100     9.4625     9.8211
   94.0000   110.7911     9.4602     9.8905
   94.5000   114.1170     9.3922     9.8905
   95.0000   116.8341     9.2589     9.7522
   95.5000   119.5455     9.1924     9.6158
   96.0000   121.0449     9.1906     9.4814
   96.5000   119.5002     9.1245     9.3477
   97.0000   115.5145     9.1869     9.2832
   97.5000   114.2742     9.1204     9.2832
   98.0000   115.1648     9.1829     9.3488
   98.5000   115.7808     9.1806     9.4148
