~VERSION INFORMATION
 VERS.                2.0:   CWLS LOG ASCII STANDARD - VERSION 2.0
 WRAP.                 NO:   ONE LINE PER DEPTH STEP
~WELL INFORMATION
#MNEM.UNIT      DATA TYPE    INFORMATION
#----------   ------------   ------------------------------
 STRT.F          906.5000:   START DEPTH
 STOP.F         2710.5000:   STOP DEPTH
 STEP.F            0.5000:   STEP LENGTH
 NULL.          -999.2500:   NO VALUE
 COMP.   FLUOR DANIEL INC:   COMPANY
 WELL. NAVAL PETROLEUM RESERVE 3 X-4 #77-4:   WELL
 FLD .             TEAPOT:   FIELD
 LOC .       S4 T38N R78W:   LOCATION
 CNTY.            NATRONA:   COUNTY
 STAT.            WYOMING:   STATE
 CTRY. UNITED STATES OF AMERICA:   COUNTRY
 SRVC.            Unknown:   SERVICE COMPANY
 DATE.        21-JUN-1995:   LOGDATE
 API .       490252273600:   API NUMBER
~CURVE INFORMATION
#MNEM.UNIT       API CODE    CURVE DESCRIPTION
#----------   ------------   ------------------------------
 DEPT.F                  :   
 TGAS.UNITS  91 830 01 00:   TOTAL GAS FROM HOTWIRE
 ROP .MIN/FT 91 810 01 00:   RAT OF DRILLING PENETRATION
~PARAMETER INFORMATION
#MNEM.UNIT          VALUE    DESCRIPTION
#----------   ------------   ------------------------------
 EKB .F              5291:   KELLING BUSHING
 EGL .F              5281:   GROUND LEVEL
 DATE.            6-21-95:   RUN DATE
 DD  .F              2711:   DEPTH DRILLER
 CBD .F               893:   CASING BOTTOM DRILLER
 ENGI.               HUSK:   RECORDING ENGINEER
 WITN.              TOWER:   WITNESSED BY
 CLNT.            A2DTECH:   CLIENT CODE
 ORIG.           5" PRINT:   ORIGIN OF DATA
 UWI .       490252273600:   UNIQUE WELL ID
 DICO. A2D Technologies, Inc.:   DIGITIZING COMPANY
~OTHER INFORMATION
~A   DEPT      TGAS         ROP 
# ...
 2000.0000   234.7369     0.5725
 2000.5000   234.7392     0.5725
 2001.0000   234.7414     0.5724
 2001.5000   234.7436     0.5723
 2002.0000   234.7459     0.5722
 2002.5000   234.7481     0.5721
 2003.0000   234.7503     0.5721
 2003.5000   234.7526     0.5720
 2004.0000   234.7548     0.5719
 2004.5000   234.7570     0.5718
 2005.0000   234.7593     0.5718
 2005.5000   234.7615     0.5717
 2006.0000   234.7637     0.5716
 2006.5000   234.7660     0.5715
 2007.0000   234.7682     0.5715
 2007.5000   234.7704     0.5714
 2008.0000   234.7726     0.5713
 2008.5000   234.7749     0.5712
 2009.0000   234.7771     0.5711
 2009.5000   234.7793     0.5711
 2010.0000   234.7816     0.5710
 2010.5000   234.7838     0.5709
 2011.0000   234.7860     0.5708
 2011.5000   234.7883     0.5708
 2012.0000   234.7905     1.2732
 2012.5000   234.7927     1.2726
 2013.0000   234.7950     1.2721
 2013.5000   234.7972     1.2715
 2014.0000   234.7994     1.2710
 2014.5000   234.8017     0.9643
 2015.0000   234.8039     0.9636
 2015.5000   234.8061     0.9745
 2016.0000   234.8083     0.9738
 2016.5000   234.8106     0.9846
 2017.0000   234.8128     0.9841
 2017.5000   234.8150     0.9835
 2018.0000   234.8173     0.9830
 2018.5000   234.8195     0.9938
 2019.0000   234.8217     0.9932
 2019.5000   234.8240     1.0040
 2020.0000   234.8262     1.1394
 2020.5000   234.8284     1.5416
 2021.0000   234.8307     1.5339
 2021.5000   234.8329     1.5262
 2022.0000   234.8351     1.2834
 2022.5000   234.8374     1.2486
 2023.0000   234.8396     1.2477
 2023.5000   234.8418     1.2696
 2024.0000   234.8441     1.7107
 2024.5000   234.8463     1.7215
 2025.0000   234.8485     1.7204
 2025.5000   234.8508     1.7312
 2026.0000   234.8530     1.7188
 2026.5000   234.8552     0.7429
 2027.0000   234.8575     0.7307
 2027.5000   234.8597     0.7184
 2028.0000   234.8619     0.7175
 2028.5000   234.8642     0.7167
 2029.0000   234.8664     0.7274
 2029.5000   234.8686     0.7380
 2030.0000   234.8708     0.7369
 2030.5000   234.8731     0.9855
 2031.0000   234.8753     0.9847
 2031.5000   234.8775     0.9837
 2032.0000   234.8798     0.9829
 2032.5000   234.8820     0.9936
 2033.0000   234.8842     0.9925
 2033.5000   234.8865     1.0033
 2034.0000   234.8887     1.0022
 2034.5000   234.8909     0.9901
 2035.0000   234.8932     0.9892
 2035.5000   234.8954     0.9882
 2036.0000   234.8976     0.9989
 2036.5000   234.8999     1.5197
 2037.0000   234.9021     1.5302
 2037.5000   234.9043     1.5291
 2038.0000   234.9066     1.5283
 2038.5000   234.9088     1.4481
 2039.0000   234.9110     1.2659
 2039.5000   234.9132     1.2875
 2040.0000   234.9155     1.2983
 2040.5000   234.9177     2.0231
 2041.0000   234.9199     2.0149
 2041.5000   234.9222     2.0080
 2042.0000   234.9244     1.9749
 2042.5000   234.9266     1.2302
 2043.0000   234.9289     1.2188
 2043.5000   234.9311     1.2188
 2044.0000   234.9333     1.2188
 2044.5000   234.9356     0.9580
 2045.0000   234.9378     0.9580
 2045.5000   234.9400     0.9580
 2046.0000   234.9423     0.9580
 2046.5000   234.9445     0.9580
 2047.0000   234.9467     0.9694
 2047.5000   234.9489     0.9699
 2048.0000   234.9512     0.9807
 2048.5000   234.9534     0.7426
 2049.0000   234.9556     0.7540
 2049.5000   234.9579     0.7540
 2050.0000   234.9601     0.7653
 2050.5000   234.9623     0.7653
 2051.0000   234.9646     0.7766
 2051.5000   234.9668     0.7653
 2052.0000   234.9690     0.7766
 2052.5000   234.9713     0.4705
 2053.0000   234.9735     0.4819
 2053.5000   234.9757     0.4819
 2054.0000   234.9780     0.4932
 2054.5000   234.9802     0.5045
 2055.0000   234.9824     0.5045
 2055.5000   234.9846     0.5045
 2056.0000   234.9869     0.5045
 2056.5000   234.9891     0.5159
 2057.0000   234.9913     0.5159
 2057.5000   234.9936     0.5159
 2058.0000   234.9958     0.5045
 2058.5000   234.9980     0.5045
 2059.0000   235.0003     0.5045
 2059.5000   235.0025     0.5045
 2060.0000   235.0047     0.5159
 2060.5000   235.0070     0.6624
 2061.0000   235.0092     0.6610
 2061.5000   235.0114     0.6599
 2062.0000   235.0137     0.6585
 2062.5000   235.0159     0.6574
 2063.0000   235.0181     0.6680
 2063.5000   235.0204     0.6666
 2064.0000   235.0226     0.6655
 2064.5000   235.0248     0.6531
 2065.0000   235.0271     0.6519
 2065.5000   235.0293     0.6506
 2066.0000   235.0315     0.6495
 2066.5000   235.0338     0.6600
 2067.0000   235.0360     0.6587
 2067.5000   235.0382     0.6462
 2068.0000   235.0405     0.6451
 2068.5000   235.0427     2.4808
 2069.0000   235.0449     2.4910
 2069.5000   235.0471     2.4897
 2070.0000   235.0494     2.4772
 2070.5000   235.0516     1.9889
 2071.0000   235.0538     1.9989
 2071.5000   235.0561     1.9977
 2072.0000   235.0583     1.9737
 2072.5000   235.0605     0.9749
 2073.0000   235.0628     0.9738
 2073.5000   235.0650     0.9500
 2074.0000   235.0672     0.7108
 2074.5000   235.0695     0.7098
 2075.0000   235.0717     0.7200
 2075.5000   235.0739     0.7186
 2076.0000   235.0762     1.0010
 2076.5000   235.0784     0.9999
 2077.0000   235.0806     0.9988
 2077.5000   235.0828     0.9864
 2078.0000   235.0851     0.9853
 2078.5000   235.0873     0.9839
 2079.0000   235.0895     0.9828
 2079.5000   235.0918     0.9704
 2080.0000   235.0940     0.9704
 2080.5000   235.0962     0.9717
 2081.0000   235.0985     0.9729
 2081.5000   235.1007     0.9742
 2082.0000   235.1029     0.9755
 2082.5000   235.1052     0.9768
 2083.0000   235.1074     0.9781
 2083.5000   235.1096     0.9794
 2084.0000   235.1119     0.9807
 2084.5000   235.1141     1.7063
 2085.0000   235.1163     1.7063
 2085.5000   235.1185     1.7063
 2086.0000   235.1208     1.4569
 2086.5000   235.1230     1.4683
 2087.0000   235.1252     1.4811
 2087.5000   235.1275     1.4777
 2088.0000   235.1297     0.7313
 2088.5000   235.1319     0.6406
 2089.0000   235.1342     0.6633
 2089.5000   235.1364     0.6633
 2090.0000   235.1386     0.6633
 2090.5000   235.1409     0.6633
 2091.0000   235.1431     0.6519
 2091.5000   235.1453     0.6406
 2092.0000   235.1476     0.6406
 2092.5000   235.1498     0.6406
 2093.0000   235.1520     0.6519
 2093.5000   235.1543     0.6633
 2094.0000   235.1565     0.6633
 2094.5000   235.1587     0.6633
 2095.0000   235.1609     0.6746
 2095.5000   235.1632     0.6859
 2096.0000   235.1654     0.6973
 2096.5000   235.1676     0.7086
 2097.0000   235.1699     0.7200
 2097.5000   235.1721     0.7200
 2098.0000   235.1743     0.7653
 2098.5000   235.1766     1.5476
 2099.0000   235.1788     1.5476
 2099.5000   235.1810     1.5476
 2100.0000   235.1833     1.7971
 2100.5000   235.1855     1.8084
 2101.0000   235.1877     1.7985
 2101.5000   235.1900     1.7900
 2102.0000   235.1922     1.7816
 2102.5000   235.1944     1.4949
 2103.0000   235.1967     1.4936
 2103.5000   235.1989     1.4922
 2104.0000   235.2011     1.5136
 2104.5000   235.2034     1.5235
 2105.0000   235.2056     1.5335
 2105.5000   235.2078     1.5318
 2106.0000   235.2101     1.7232
 2106.5000   235.2123     1.7336
 2107.0000   235.2145     1.7434
 2107.5000   235.2168     1.7532
 2108.0000   235.2190     1.7515
 2108.5000   235.2212     1.2770
 2109.0000   235.2234     0.9666
 2109.5000   235.2257     0.9766
 2110.0000   235.2279     0.9749
 2110.5000   235.2301     0.9735
 2111.0000   235.2324     0.9722
 2111.5000   235.2346     0.9708
 2112.0000   235.2368     0.9691
 2112.5000   235.2391     0.9678
 2113.0000   235.2413     0.9778
 2113.5000   235.2435     0.9764
 2114.0000   235.2458     0.9751
 2114.5000   235.2480     0.9734
 2115.0000   235.2502     0.9610
 2115.5000   235.2525     0.9710
 2116.0000   235.2547     1.0487
 2116.5000   235.2569     1.7276
 2117.0000   235.2591     1.7259
 2117.5000   235.2614     1.7246
 2118.0000   235.2636     1.2017
 2118.5000   235.2658     1.2233
 2119.0000   235.2681     1.2330
 2119.5000   235.2703     1.2430
 2120.0000   235.2725     1.0499
 2120.5000   235.2748     0.4499
 2121.0000   235.2770     0.4526
