~VERSION INFORMATION
 VERS.                2.0:   CWLS LOG ASCII STANDARD - VERSION 2.0
 WRAP.                 NO:   ONE LINE PER DEPTH STEP
~WELL INFORMATION
#MNEM.UNIT      DATA TYPE    INFORMATION
#----------   ------------   ------------------------------
 STRT.F            3.0000:   START DEPTH
 STOP.F         1011.0000:   STOP DEPTH
 STEP.F            0.5000:   STEP LENGTH
 NULL.          -999.2500:   NO VALUE
 COMP. BROWN JOHN E&C INC:   COMPANY
 WELL. NPR 3 SHX-38 #2-35:   WELL
 FLD .             TEAPOT:   FIELD
 LOC .      S35 T39N R78W:   LOCATION
 CNTY.            NATRONA:   COUNTY
 STAT.            WYOMING:   STATE
 CTRY. UNITED STATES OF AMERICA:   COUNTRY
 SRVC.     Atlas Wireline:   SERVICE COMPANY
 DATE.        15-NOV-1991:   LOGDATE
 API .       490252248100:   API NUMBER
~CURVE INFORMATION
#MNEM.UNIT       API CODE    CURVE DESCRIPTION
#----------   ------------   ------------------------------
 DEPT.F                  :   
 GRR .GAPI   07 310 01 00:   GAMMA RAY
 RILD.OHMM   07 120 46 00:   INDUCTION LOG DEEP RESISTIVITY
 RILM.OHMM   07 120 44 00:   INDUCTION LOG MEDIUM RESISTIVITY
~PARAMETER INFORMATION
#MNEM.UNIT          VALUE    DESCRIPTION
#----------   ------------   ------------------------------
 PD  .                 GL:   PERMANENT DATUM
 EPD .F              5119:   ELEVATION PERMANENT DATUM
 LMF .                 KB:   LOG MEASURED FROM
 DAPD.F                11:   FEET ABOVE PERMANENT DATUM
 DMF .                 KB:   DRILLING MEASURED FROM
 EKB .F              5120:   KELLING BUSHING
 EGL .F              5119:   GROUND LEVEL
 DATE.        15-NOV-1991:   RUN DATE
 RUN .                  1:   RUN NUMBER
 DD  .F              1015:   DEPTH DRILLER
 DL  .F              1017:   DEPTH LOGGER
 BLI .F              1015:   BOTTOM LOG INTERVAL
 CS  .IN            8.625:   CASING SIZE
 CBD .F                60:   CASING BOTTOM DRILLER
 CBL .F                60:   CASING BOTTOM LOGGER
 BS  .IN            7.875:   BIT SIZE
 BSD .F              1015:   BIT SIZE AT DEPTH
 DFT .                AIR:   DRILLING FLUID TYPE
 LUN .            HL-6272:   LOGGING UNIT NUMBER
 LUL .         CASPER, WY:   LOGGING UNIT LOCATION
 ENGI.             ZIFGER:   RECORDING ENGINEER
 WITN.         MR. STRONG:   WITNESSED BY
 CLNT.            A2DTECH:   CLIENT CODE
 ORIG.           5" PRINT:   ORIGIN OF DATA
 UWI .       490252248100:   UNIQUE WELL ID
 DICO. A2D Technologies, Inc.:   DIGITIZING COMPANY
~OTHER INFORMATION
~A    DEPT      GRR      RILD       RILM   
# ...
  640.0000   126.4947     8.0743     8.1199
  640.5000   129.2543     8.0220     8.1232
  641.0000   129.8695     8.0258     8.1266
  641.5000   130.8589     8.0298     8.1300
  642.0000   133.6693     8.0337     8.0768
  642.5000   136.6514     8.0376     8.0802
  643.0000   135.7123     8.0415     8.0836
  643.5000   130.5710     8.0454     8.1436
  644.0000   127.2507     8.0494     8.1470
  644.5000   125.7513     8.0533     8.0928
  645.0000   125.1578     7.8901     7.9848
  645.5000   126.3944     7.6133     7.6606
  646.0000   130.9648     7.3018     7.3496
  646.5000   130.3759     6.9614     7.0512
  647.0000   126.4485     6.7325     6.9080
  647.5000   124.9446     6.6424     6.8144
  648.0000   129.8230     6.5542     6.7699
  648.5000   131.6575     6.5574     6.7256
  649.0000   126.8243     6.6066     6.7291
  649.5000   125.0169     6.6561     6.7790
  650.0000   126.8604     6.7342     6.7818
  650.5000   127.4854     6.7870     6.8322
  651.0000   126.8920     6.8528     6.8356
  651.5000   129.0390     7.0981     6.9840
  652.0000   132.6989     7.1504     6.9875
  652.5000   133.9309     7.1031     6.9909
  653.0000   134.2525     7.0561     6.9448
  653.5000   134.5846     7.0095     6.8999
  654.0000   135.1520     7.0610     6.9524
  654.5000   135.7711     7.1644     7.0536
  655.0000   136.0867     7.3700     7.2063
  655.5000   135.4918     7.5269     7.4138
  656.0000   132.7725     7.5823     7.4694
  656.5000   131.2672     7.6381     7.4202
  657.0000   134.0107     7.6408     7.3731
  657.5000   136.7542     7.6434     7.3245
  658.0000   136.7663     7.5373     7.2274
  658.5000   137.0819     7.3349     7.2309
  659.0000   138.0045     7.2864     7.2344
  659.5000   140.7480     7.2382     7.2380
  660.0000   144.4020     7.2408     7.2415
  660.5000   142.2897     7.2469     7.2450
  661.0000   142.9088     7.2966     7.2486
  661.5000   143.2244     7.2992     7.2521
  662.0000   141.1121     7.3017     7.2050
  662.5000   138.6962     7.3043     7.1877
  663.0000   137.4944     7.2559     7.1619
  663.5000   137.5065     7.2585     7.1656
  664.0000   137.5186     7.2105     7.1192
  664.5000   137.8342     7.1628     7.1227
  665.0000   138.7568     7.1654     7.1262
  665.5000   138.7689     7.0684     7.1295
  666.0000   139.0845     7.0709     7.1331
  666.5000   138.7901     7.0461     7.1366
  667.0000   139.1087     7.0266     7.0903
  667.5000   139.1208     7.0291     7.0938
  668.0000   138.8264     6.9825     7.0973
  668.5000   136.4136     6.9850     7.1008
  669.0000   135.2088     6.9813     7.1042
  669.5000   136.4379     6.9350     7.0848
  670.0000   139.7884     6.8953     7.0617
  670.5000   141.3179     6.8497     7.0160
  671.0000   141.6305     6.8455     7.0195
  671.5000   137.7003     6.8068     6.9740
  672.0000   132.8565     6.7550     6.9289
  672.5000   135.6001     6.6703     6.7887
  673.0000   136.8261     6.5732     6.6513
  673.5000   135.8674     6.3497     6.3818
  674.0000   137.1538     6.0844     6.0805
  674.5000   141.1113     5.6300     5.7935
  675.0000   144.4618     5.3317     5.4816
  675.5000   145.3844     5.1564     5.3333
  676.0000   145.4406     5.0926     5.2988
  676.5000   143.5877     5.1661     5.3386
  677.0000   139.3509     5.2472     5.4552
  677.5000   136.6316     5.4048     5.6532
  678.0000   134.5193     5.6383     5.9380
  678.5000   133.0139     5.9646     6.1093
  679.0000   132.9469     6.2222     6.2832
  679.5000   137.2870     6.3389     6.3773
  680.0000   137.6431     6.3416     6.4674
  680.5000   136.0800     6.3882     6.5158
  681.0000   137.9303     6.3905     6.5190
  681.5000   137.9535     6.3927     6.4768
  682.0000   136.1336     6.3949     6.4800
  682.5000   133.4143     6.3972     6.4380
  683.0000   135.8544     6.3543     6.3964
  683.5000   141.0289     6.3128     6.3550
  684.0000   145.2951     6.2711     6.3581
  684.5000   147.4234     6.2291     6.3115
  685.0000   146.8184     6.1879     6.2268
  685.5000   141.6291     5.9782     6.1063
  686.0000   140.1759     5.6950     5.9768
  686.5000   141.4214     5.3128     5.7622
  687.0000   142.6282     4.9562     5.2954
  687.5000   143.2473     4.6559     4.6719
  688.0000   143.8665     4.4045     4.3435
  688.5000   143.8786     4.2846     4.3205
  689.0000   142.5394     4.3162     4.3227
  689.5000   137.2301     4.3784     4.3915
  690.0000   131.6537     4.4727     4.5758
  690.5000   129.6627     4.5689     4.8408
  691.0000   131.9392     4.6673     5.1212
  691.5000   137.1695     4.8348     5.3428
  692.0000   141.3374     5.3705     5.5352
  692.5000   143.0647     5.9242     5.8151
  693.0000   141.5594     6.1798     6.1091
  693.5000   140.9645     6.3570     6.3291
  694.0000   141.2831     6.4939     6.4661
  694.5000   142.2057     6.6337     6.6061
  695.0000   144.9492     6.7293     6.7022
  695.5000   147.3892     6.7788     6.7997
  696.0000   149.8293     6.8287     6.8507
  696.5000   151.0553     6.9272     6.9020
  697.0000   151.3679     6.9781     6.9537
  697.5000   145.3132     6.9806     7.0059
  698.0000   140.4695     7.0319     7.0093
  698.5000   138.0537     7.0837     7.0618
  699.0000   137.7593     7.1358     7.1645
  699.5000   140.2024     7.1883     7.2182
  700.0000   140.8184     7.2412     7.2723
  700.5000   139.6196     7.2945     7.3268
  701.0000   139.0217     7.3482     7.3304
  701.5000   138.7303     7.3507     7.3339
  702.0000   140.5664     7.3533     7.3375
  702.5000   143.0064     7.3559     7.2892
  703.0000   143.3220     7.3191     7.3059
  703.5000   141.8167     7.3238     7.3247
  704.0000   137.3741     7.3284     7.3435
  704.5000   136.7854     7.2819     7.3086
  705.0000   138.6367     7.2866     7.3639
  705.5000   138.3576     7.2405     7.3158
  706.0000   138.9889     7.2451     7.2700
  706.5000   140.2271     7.1981     7.2225
  707.0000   142.6794     7.1525     7.1274
  707.5000   146.9465     7.0577     7.0316
  708.0000   144.8524     6.8210     6.8429
  708.5000   140.6279     6.5452     6.5660
  709.0000   137.9208     6.2806     6.1698
  709.5000   136.4277     6.0267     6.0034
  710.0000   137.0590     5.6632     5.7204
  710.5000   139.8147     5.1750     5.3379
  711.0000   141.9635     4.7621     4.6777
  711.5000   143.1957     4.2912     4.0424
  712.0000   140.1912     3.7342     3.5425
  712.5000   139.6024     3.0304     3.0401
  713.0000   139.9363     2.5824     2.6272
  713.5000   140.5676     2.2630     2.1322
  714.0000   140.5919     2.0824     2.0036
  714.5000   137.8848     2.0122     1.9632
  715.0000   130.6254     2.0135     1.9944
  715.5000   124.5799     2.0718     2.0711
  716.0000   125.2112     2.1770     2.3557
  716.5000   128.5739     2.3359     2.7981
  717.0000   132.7669     2.6137     3.1063
  717.5000   139.9392     3.0073     3.4775
  718.0000   142.3287     3.5089     3.9906
  718.5000   141.3881     4.3293     4.2496
  719.0000   141.1346     4.8104     4.6216
  719.5000   145.5057     5.1977     5.0632
  720.0000   151.5059     5.4235     5.3196
  720.5000   157.2966     5.6198     5.4733
  721.0000   155.7973     5.7826     5.5922
  721.5000   157.6487     5.8268     5.6345
  722.0000   158.8870     5.8713     5.6377
  722.5000   159.2148     5.8751     5.6409
  723.0000   158.9295     5.7972     5.6440
  723.5000   157.7460     5.6411     5.6071
  724.0000   153.2179     5.4657     5.4187
  724.5000   151.7187     5.0250     5.1633
  725.0000   152.3561     4.4987     4.6854
  725.5000   158.1467     4.1836     4.1060
  726.0000   166.6688     4.0467     3.9952
  726.5000   169.1210     3.9931     3.9420
  727.0000   169.4488     3.9678     3.8626
  727.5000   167.0452     3.9427     3.8373
  728.0000   150.0721     3.9452     3.9487
  728.5000   149.1798     3.9491     4.0627
  729.0000   149.8172     4.0630     4.2093
  729.5000   152.2695     4.1807     4.3918
  730.0000   156.2392     4.3919     4.6142
  730.5000   161.1193     4.5508     4.8818
