~VERSION INFORMATION
 VERS.                2.0:   CWLS LOG ASCII STANDARD - VERSION 2.0
 WRAP.                 NO:   ONE LINE PER DEPTH STEP
~WELL INFORMATION
#MNEM.UNIT      DATA TYPE    INFORMATION
#----------   ------------   ------------------------------
 STRT.F           36.0000:   START DEPTH
 STOP.F          557.0000:   STOP DEPTH
 STEP.F            0.5000:   STEP LENGTH
 NULL.          -999.2500:   NO VALUE
 COMP. FENIX & SCISSON U.S. NAVY:   COMPANY
 WELL.        NPR #62-S-3:   WELL
 FLD .             TEAPOT:   FIELD
 LOC .       S3 T38N R78W:   LOCATION
 CNTY.            NATRONA:   COUNTY
 STAT.            WYOMING:   STATE
 CTRY. UNITED STATES OF AMERICA:   COUNTRY
 SRVC.              Welex:   SERVICE COMPANY
 DATE.        07-MAY-1977:   LOGDATE
 API .       490251035000:   API NUMBER
~CURVE INFORMATION
#MNEM.UNIT       API CODE    CURVE DESCRIPTION
#----------   ------------   ------------------------------
 DEPT.F                  :   
 SPR .MV     07 010 01 00:   SPONTANEOUS POTENTIAL
 ILD .OHMM   07 120 46 00:   INDUCTION LOG DEEP
 ILM .OHMM   07 120 44 00:   INDUCTION LOG MEDIUM
 SGRD.OHMM   07 221 05 00:   SHALLOW SHORT GUARD RESISTIVITY
 GRD .GAPI   45 310 01 00:   GAMMA RAY FROM DENSITY LOG
 CALD.IN     45 280 60 00:   CALIPER FROM DENSITY LOG
 CORR.G/C3   45 356 01 00:   DENSITY CORRECTION
 RHOB.G/C3   45 350 01 00:   BULK DENSITY
 DPHI.DEC    45 890 12 00:   DENSITY POROSITY SANDSTONE
 NEUT.NAPI   35 330 01 00:   NEUTRON
~PARAMETER INFORMATION
#MNEM.UNIT          VALUE    DESCRIPTION
#----------   ------------   ------------------------------
 PD  .                 GL:   PERMANENT DATUM
 EPD .F              5136:   ELEVATION PERMANENT DATUM
 LMF .                 GL:   LOG MEASURED FROM
 DMF .                 GL:   DRILLING MEASURED FROM
 EGL .F              5136:   GROUND LEVEL
 DATE.        07-MAY-1977:   RUN DATE
 RUN .                  1:   RUN NUMBER
 DD  .F               560:   DEPTH DRILLER
 DL  .F               560:   DEPTH LOGGER
 BLI .F               558:   BOTTOM LOG INTERVAL
 TLI .F                35:   TOP LOG INTERVAL
 CS  .IN            8.625:   CASING SIZE
 CBD .F                40:   CASING BOTTOM DRILLER
 CBL .F                42:   CASING BOTTOM LOGGER
 BS  .IN            7.875:   BIT SIZE
 BSD .F               560:   BIT SIZE AT DEPTH
 DFT .             KCLMUD:   DRILLING FLUID TYPE
 DFD .                8.8:   DRILLING FLUID DENSITY
 MSS .           FLOWLINE:   MUD SAMPLE SOURCE
 RMS .OHMM           0.24:   RESISTIVITY MUD SAMPLE
 MST .F                60:   MUD SAMPLE TEMPERATURE
 RMF .OHMM           0.20:   RESISTIVITY MUD FILTRATE SAMPLE
 MFST.F                60:   MUD FILTRATE SAMPLE TEMPERATURE
 RMC .OHMM           0.29:   RESISTIVITY MUD CAKE
 MCST.F                60:   MUD CAKE SAMPLE TEMPERATURE
 MFSS.               MEAS:   MUD FILTRATE SAMPLE SOURCE
 MCSS.               MEAS:   MUD CAKE SAMPLE SOURCE
 RMB .OHMM             17:   RESISTIVITY MUD AT BHT
 BHT .F                71:   BOTTOM HOLE TEMPERATURE
 TCS .HRS            0230:   TIME CURCULATED STOPPED
 MRT .F                71:   MAXIMUM RECORDED TEMPERATURE
 LUN .               8611:   LOGGING UNIT NUMBER
 LUL .           GILLETTE:   LOGGING UNIT LOCATION
 ENGI.            C. DOCK:   RECORDING ENGINEER
 WITN.           ROB LYON:   WITNESSED BY
 CLNT.            A2DTECH:   CLIENT CODE
 ORIG.           5" PRINT:   ORIGIN OF DATA
 UWI .       490251035000:   UNIQUE WELL ID
 DICO. A2D Technologies, Inc.:   DIGITIZING COMPANY
~OTHER INFORMATION
~A   DEPT      SPR        ILD        ILM       SGRD        GRD       CALD       CORR       RHOB       DPHI       NEUT   
# ...
  270.5000   -50.8117     2.8474     3.2070     4.7668   110.0763     7.8760    -0.0044     2.2976     0.2196   632.0319
  271.0000   -50.2082     3.0333     3.3217     6.7441   115.1676     7.8774    -0.0058     2.3231     0.2093   430.8978
  271.5000   -49.7538     3.2768     3.6110     6.5556   121.7514     7.8635    -0.0088     2.3659     0.1905   313.4681
  272.0000   -49.4483     3.4908     4.2652     3.9828   128.3352     7.8652    -0.0095     2.3854     0.1756   333.8059
  272.5000   -48.8449     3.7974     4.9345     7.2642   131.1834     7.8666    -0.0086     2.3862     0.1684   352.7768
  273.0000   -48.5394     4.2481     5.5148     9.6388   127.4729     7.8679    -0.0071     2.4058     0.1593   366.3816
  273.5000   -48.2315     4.7192     5.7914    10.3064   124.7988     7.8693    -0.0055     2.4340     0.1362   371.8154
  274.0000   -47.7695     5.1698     6.2095    10.2288   127.6554     7.8554    -0.0039     2.4577     0.1205   372.1168
  274.5000   -47.4565     5.6240     6.5663    10.0088   128.7168     7.8571    -0.0023     2.4772     0.1154   374.6635
  275.0000   -47.0194     6.1181     6.8957     9.8241   129.3304     7.8432    -0.0023     2.4846     0.1123   376.0800
  275.5000   -46.7124     6.4736     7.0930     9.8392   129.4963     7.8299    -0.0014     2.4892     0.1111   377.4966
  276.0000   -46.5560     6.7077     6.9033    10.1051   129.5130     7.8164    -0.0021     2.4915     0.1104   377.5628
  276.5000   -46.6977     6.8490     6.8558    10.0374   130.1266     7.8025    -0.0020     2.4923     0.1095   378.9793
  277.0000   -46.9902     6.8450     7.0557     9.7647   131.4865     7.7889    -0.0020     2.4924     0.1092   377.6786
  277.5000   -47.1301     6.6648     7.2576     9.6317   133.2942     7.7754    -0.0012     2.4872     0.1097   377.7614
  278.0000   -47.4226     6.4839     7.3119     9.6342   134.6507     7.7767    -0.0018     2.4835     0.1118   377.8275
  278.5000   -47.7115     6.3068     7.3160     9.7708   134.3680     7.7781    -0.0018     2.4843     0.1163   376.5416
  279.0000   -48.1512     5.9665     7.2159     9.9783   135.7881     7.7944    -0.0025     2.4754     0.1209   373.9089
  279.5000   -48.4419     5.6047     6.8203    10.3325   138.6253     7.7957    -0.0024     2.4582     0.1276   368.5030
  280.0000   -48.7345     5.0974     6.3203    10.4790   141.5821     7.7971    -0.0038     2.4396     0.1426   357.6589
  280.5000   -48.8761     4.6946     5.7702     9.8470   143.2478     7.7984    -0.0053     2.4179     0.1522   340.3656
  281.0000   -49.1650     4.4141     5.0651     5.5385   142.3616     7.7998    -0.0075     2.3982     0.1617   324.2278
  281.5000   -49.1576     4.2667     4.9835     4.3757   138.7962     7.7859    -0.0097     2.3848     0.1738   309.4402
  282.0000   -49.1503     4.1815     5.2342     6.2775   128.6635     7.7876    -0.0111     2.3821     0.1735   308.1395
  282.5000   -49.1429     4.1837     5.3469     7.8936   121.9637     7.7890    -0.0133     2.3934     0.1653   319.0250
  283.0000   -49.1356     4.2442     5.1680     8.2307   118.5475     7.7903    -0.0132     2.4114     0.1578   329.8939
  283.5000   -48.8301     4.3956     5.2792     6.5031   116.3253     7.7917    -0.0132     2.4212     0.1514   340.7628
  284.0000   -48.6736     4.6158     5.5826     5.6617   115.1479     7.7930    -0.0123     2.4273     0.1457   347.5807
  284.5000   -48.2017     4.8470     5.9443     9.5934   115.4631     7.7944    -0.0115     2.4363     0.1402   355.7489
  285.0000   -47.5907     5.1250     6.5069     9.3328   116.6737     7.7958    -0.0107     2.4409     0.1369   362.5667
  285.5000   -46.8615     5.4189     7.0738     8.6491   119.2277     7.7971    -0.0106     2.4530     0.1345   368.0345
  286.0000   -46.7051     5.7298     7.6900     9.4671   122.0801     7.7982    -0.0106     2.4530     0.1320   372.2788
  286.5000   -46.3996     6.0584     8.4179    10.6540   124.1863     7.7996    -0.0097     2.4598     0.1272   375.1551
  287.0000   -46.0942     6.4059     8.8402    11.1090   125.2477     7.8009    -0.0082     2.4711     0.1199   377.7018
  287.5000   -45.6398     6.7267     9.2197    11.5834   124.3688     7.8022    -0.0066     2.4809     0.1160   377.7680
  288.0000   -45.4834     7.0150    10.5200    11.9117   123.9045     7.8036    -0.0050     2.4885     0.1136   379.1845
  288.5000   -45.1779     7.3664    11.5956    11.9971   123.5024     7.8050    -0.0042     2.4845     0.1132   379.2507
  289.0000   -45.1706     7.6298    10.6046    11.9996   124.4597     7.8063    -0.0056     2.4795     0.1168   379.3169
  289.5000   -45.1632     7.9015     9.3041    12.0856   126.5583     7.8077    -0.0071     2.4805     0.1144   379.3831
  290.0000   -45.1559     8.0184     9.1169    12.0045   128.6269     7.8240    -0.0093     2.4849     0.1143   379.4493
  290.5000   -45.1485     8.0201     9.9124    11.7598   127.0017     7.8253    -0.0107     2.4760     0.1227   378.1486
  291.0000   -45.1412     7.7967    11.0018    11.4404   124.0333     7.8267    -0.0114     2.4641     0.1272   375.5306
  291.5000   -45.4319     7.4824    11.1611    11.1297   124.1991     7.8430    -0.0121     2.4633     0.1254   374.2460
  292.0000   -45.5738     7.1808     9.3944    10.7526   126.0068     7.8593    -0.0113     2.4687     0.1220   372.8906
  292.5000   -45.7152     6.8913     7.2778    10.4605   128.1130     7.8756    -0.0104     2.4778     0.1193   370.1505
  293.0000   -45.8569     6.5680     7.5902    10.1760   129.6221     7.8918    -0.0081     2.4741     0.1156   366.3596
  293.5000   -46.1476     6.2599     8.0820     9.9001   128.8925     7.8932    -0.0058     2.4711     0.1198   363.7086
  294.0000   -46.2892     5.9012     7.8117     9.8301   128.4572     7.9095    -0.0042     2.4772     0.1180   358.3900
  294.5000   -46.7290     5.6258     7.2938     9.5616   128.9258     7.8956    -0.0026     2.4795     0.1170   354.4051
  295.0000   -46.8952     5.4005     7.1959     9.3004   129.5394     7.8970    -0.0018     2.4736     0.1197   349.0700
  295.5000   -47.3104     5.1841     6.8081     9.1727   130.1530     7.8984    -0.0017     2.4624     0.1263   342.3845
  296.0000   -47.4521     5.0456     6.3023     8.9131   131.3637     7.8997    -0.0024     2.4527     0.1341   341.0838
  296.5000   -47.7428     4.9791     5.6019     7.9485   132.7236     7.8861    -0.0046     2.4375     0.1416   341.1665
  297.0000   -47.5845     4.9818     5.2426     6.5247   133.4865     7.8725    -0.0061     2.4303     0.1490   346.6341
  297.5000   -47.2791     4.9845     5.3817     4.8882   131.5628     7.8590    -0.0083     2.4237     0.1526   354.8023
  298.0000   -46.8247     5.0217     5.9100     8.1118   130.5910     7.8454    -0.0104     2.4185     0.1511   367.0742
  298.5000   -46.5192     5.0943     6.4248     9.9901   129.4359     7.8468    -0.0119     2.4223     0.1441   380.8442
  299.0000   -46.0648     5.2761     7.0330    10.4893   128.1612     7.8329    -0.0118     2.4411     0.1366   390.3464
  299.5000   -45.6103     5.5022     7.6456    11.0133   128.2000     7.8346    -0.0102     2.4599     0.1287   395.5938
  300.0000   -45.4537     5.8987     8.1159    11.3054   129.4030     7.8505    -0.0086     2.4632     0.1248   395.0453
  300.5000   -45.4408     6.3238     8.5039    11.8938   131.1378     7.8394    -0.0080     2.4638     0.1245   387.7159
  301.0000   -45.4258     6.7328     8.7974    11.4138   132.8726     7.8299    -0.0074     2.4644     0.1259   382.1455
  301.5000   -44.9654     7.1190     8.9826    10.4340   134.6075     7.8204    -0.0069     2.4638     0.1235   383.4959
  302.0000   -44.8031     7.4241     8.9256    10.8067   136.1877     7.8102    -0.0069     2.4631     0.1196   383.4959
  302.5000   -44.4917     7.6361     9.0549    11.9964   134.5623     7.8113    -0.0068     2.4818     0.1156   383.4959
  303.0000   -44.3294     7.8002     9.2563    12.0849   132.4891     7.8123    -0.0052     2.4910     0.1114   384.8462
  303.5000   -44.1671     7.9129     9.5883    11.8410   131.0129     7.8134    -0.0044     2.4880     0.1116   383.4959
