~VERSION INFORMATION
 VERS.                2.0:   CWLS LOG ASCII STANDARD - VERSION 2.0
 WRAP.                 NO:   ONE LINE PER DEPTH STEP
~WELL INFORMATION
#MNEM.UNIT      DATA TYPE    INFORMATION
#----------   ------------   ------------------------------
 STRT.F           16.0000:   START DEPTH
 STOP.F          661.0000:   STOP DEPTH
 STEP.F            0.5000:   STEP LENGTH
 NULL.          -999.2500:   NO VALUE
 COMP. FENIX & SCISSON INC:   COMPANY
 WELL.  26-66 SX 11 #I-11:   WELL
 FLD .             TEAPOT:   FIELD
 LOC .      S11 T38N R78W:   LOCATION
 CNTY.            NATRONA:   COUNTY
 STAT.            WYOMING:   STATE
 CTRY. UNITED STATES OF AMERICA:   COUNTRY
 SRVC.      Dresser Atlas:   SERVICE COMPANY
 DATE.        22-JUL-1980:   LOGDATE
 API .       490251083200:   API NUMBER
~CURVE INFORMATION
#MNEM.UNIT       API CODE    CURVE DESCRIPTION
#----------   ------------   ------------------------------
 DEPT.F                  :   
 SFL .OHMM   07 220 01 00:   SHALLOW FOCUSED LOG RESISTIVITY
 ILD .OHMM   07 120 46 00:   INDUCTION LOG DEEP
 ILM .OHMM   07 120 44 00:   INDUCTION LOG MEDIUM
 SPR .MV     07 010 01 00:   SPONTANEOUS POTENTIAL
 CALD.IN     45 280 60 00:   CALIPER
 GRD .GAPI   45 310 01 00:   GAMMA RAY FROM DENSITY LOG
 RHOB.G/C3   45 350 01 00:   BULK DENSITY
 CORR.G/C3   45 356 01 00:   DENSITY CORRECTION
 DPHI.DEC    45 890 12 00:   DENSITY POROSITY SANDSTONE
 NPHI.DEC    42 890 03 00:   NEUTRON POROSITY SANDSTONE
~PARAMETER INFORMATION
#MNEM.UNIT          VALUE    DESCRIPTION
#----------   ------------   ------------------------------
 PD  .                 GL:   PERMANENT DATUM
 EPD .F              5193:   ELEVATION PERMANENT DATUM
 LMF .                 KB:   LOG MEASURED FROM
 DAPD.F                 5:   FEET ABOVE PERMANENT DATUM
 DMF .                 KB:   DRILLING MEASURED FROM
 EKB .F              5198:   KELLING BUSHING
 EDF .F              5196:   DRILLING FLOOR
 EGL .F              5193:   GROUND LEVEL
 DATE.            7-22-80:   RUN DATE
 RUN .                  1:   RUN NUMBER
 DD  .F               655:   DEPTH DRILLER
 DL  .F               655:   DEPTH LOGGER
 BLI .F               653:   BOTTOM LOG INTERVAL
 TLI .F                20:   TOP LOG INTERVAL
 BS  .IN            7.875:   BIT SIZE
 BSD .F               655:   BIT SIZE AT DEPTH
 DFT .                KCL:   DRILLING FLUID TYPE
 DFD .                9.1:   DRILLING FLUID DENSITY
 DFV .                 46:   DRILLING FLUID VISCOSITY
 DFPH.                 11:   DRILLING FLUID PH
 DFL .                  6:   DRILLING FLUID LOSS
 MSS .           FLOWLINE:   MUD SAMPLE SOURCE
 RMS .OHMM            .17:   RESISTIVITY MUD SAMPLE
 MST .F                75:   MUD SAMPLE TEMPERATURE
 RMF .OHMM            .13:   RESISTIVITY MUD FILTRATE SAMPLE
 MFST.F                75:   MUD FILTRATE SAMPLE TEMPERATURE
 RMC .OHMM            .26:   RESISTIVITY MUD CAKE
 MCST.F                75:   MUD CAKE SAMPLE TEMPERATURE
 MFSS.                  C:   MUD FILTRATE SAMPLE SOURCE
 MCSS.                  C:   MUD CAKE SAMPLE SOURCE
 TCS .HRS               1:   TIME CURCULATED STOPPED
 LUN .               6240:   LOGGING UNIT NUMBER
 LUL .               RVTN:   LOGGING UNIT LOCATION
 ENGI.   K. RALL/J. GETTY:   RECORDING ENGINEER
 WITN.            RHOADES:   WITNESSED BY
 CLNT.            A2DTECH:   CLIENT CODE
 ORIG.        2" 5" PRINT:   ORIGIN OF DATA
 UWI .       490251083200:   UNIQUE WELL ID
 DICO. A2D Technologies, Inc.:   DIGITIZING COMPANY
~OTHER INFORMATION
~A   DEPT      SFL        ILD        ILM        SPR       CALD        GRD       RHOB       CORR         DPHI     NPHI   
# ...
  585.5000    16.6112    15.2945    13.9581   -41.9681     7.7203    82.5942     2.5186     0.0399     0.0982     0.2322
  586.0000    14.9609    14.6489    13.4036   -41.7547     7.7203    80.1238     2.4828     0.0484     0.1204     0.2418
  586.5000    13.3908    14.0263    13.1532   -41.5384     7.7203    85.4562     2.4459     0.0459     0.1425     0.2477
  587.0000    13.0326    13.3977    13.5220   -41.2666     7.7203    91.2398     2.4206     0.0406     0.1562     0.2513
  587.5000    13.0326    13.3945    13.7466   -40.9215     7.7203    96.6625     2.3940     0.0380     0.1713     0.2533
  588.0000    12.9131    13.3731    14.0312   -40.3253     7.7203    98.9425     2.3719     0.0344     0.1831     0.2554
  588.5000    12.9483    13.3518    13.9687   -39.5870     7.7203    97.7970     2.3616     0.0302     0.1896     0.2616
  589.0000    12.9745    13.3305    13.8613   -39.4312     7.7203    93.5993     2.3606     0.0258     0.1904     0.2655
  589.5000    13.0006    13.3091    13.7547   -39.4742     7.7203    89.7200     2.3536     0.0212     0.1949     0.2676
  590.0000    13.0324    13.2878    13.6468   -39.5233     7.7203    88.8821     2.3451     0.0167     0.1993     0.2543
  590.5000    12.9132    13.2749    13.5764   -39.5728     7.7203    91.6445     2.3471     0.0161     0.1999     0.2407
  591.0000    12.8102    13.2466    13.4868   -39.5633     7.7203    93.2817     2.3692     0.0237     0.1807     0.2362
  591.5000    12.7068    13.0992    13.3979   -39.5190     7.7203    92.1990     2.3780     0.0210     0.1792     0.2436
  592.0000    12.6042    12.9536    13.3128   -39.6251     7.7196    90.7443     2.3692     0.0122     0.1876     0.2499
  592.5000    12.5024    12.8095    13.0669   -39.3312     7.7184    90.6885     2.3635     0.0073     0.1896     0.2567
  593.0000    12.4015    12.6671    12.8038   -38.9588     7.7172    90.7154     2.3712     0.0142     0.1799     0.2534
  593.5000    12.3014    12.5255    12.8925   -38.8035     7.7160    89.7891     2.3843     0.0216     0.1716     0.2470
  594.0000    12.2020    12.4472    12.8179   -39.1852     7.7148    88.6891     2.3972     0.0289     0.1632     0.2434
  594.5000    12.1068    12.3452    12.7632   -39.6521     7.7136    88.1131     2.4176     0.0382     0.1548     0.2482
  595.0000    12.0401    12.2260    12.6219   -40.0292     7.7124    89.0646     2.4376     0.0503     0.1464     0.2541
  595.5000    11.9958    12.1073    12.4834   -40.0230     7.7112    89.4072     2.4403     0.0562     0.1427     0.2604
  596.0000    11.8903    11.9898    12.3465   -40.0324     7.7100    87.4916     2.4408     0.0551     0.1403     0.2645
  596.5000    11.8888    11.8734    12.2188   -39.5457     7.7087    86.4408     2.4537     0.0549     0.1370     0.2684
  597.0000    11.8858    11.7582    12.1068   -39.0220     7.7076    87.7896     2.4639     0.0680     0.1283     0.2692
  597.5000    11.8868    11.6440    12.1551   -39.0054     7.7063    89.7756     2.4830     0.0810     0.1166     0.2653
  598.0000    11.8898    11.5561    12.1883   -39.0348     7.7051    91.1283     2.5021     0.0812     0.1056     0.2598
  598.5000    11.7660    11.5356    12.2188   -39.5518     7.7039    93.0728     2.4402     0.0603     0.1316     0.2631
  599.0000    11.7711    11.5151    12.1068   -39.9270     7.7027    96.1089     2.4203     0.0521     0.1554     0.2645
  599.5000    11.7334    11.4946    12.0880   -40.1579     7.7015   100.5277     2.4159     0.0571     0.1585     0.2540
  600.0000    11.7124    11.4740    12.0510   -40.1350     7.7003    98.1586     2.4256     0.0592     0.1522     0.2440
  600.5000    11.6915    11.4573    12.0142   -40.0154     7.7002    97.6196     2.4420     0.0653     0.1466     0.2533
  601.0000    11.6689    11.4756    11.9958   -39.8929     7.7002   100.4677     2.4614     0.0814     0.1358     0.2583
  601.5000    11.7658    11.4933    12.0245   -39.7701     7.7006   102.1460     2.4711     0.0718     0.1244     0.2595
  602.0000    11.9028    11.5110    12.0803   -39.6444     7.7019    99.8332     2.4317     0.0447     0.1369     0.2567
  602.5000    11.9958    11.5287    12.2188   -39.6152     7.7031    96.5647     2.4193     0.0189     0.1569     0.2578
  603.0000    11.9649    11.5465    12.1160   -39.8796     7.7044    95.4017     2.4392     0.0256     0.1492     0.2400
  603.5000    11.8729    11.5618    12.1056   -40.3528     7.7056    95.6210     2.4531     0.0247     0.1355     0.2276
  604.0000    11.7769    11.5180    11.9931   -40.8003     7.7069    96.1396     2.4341     0.0077     0.1425     0.2264
  604.5000    11.7240    11.4718    11.8942   -40.4476     7.7081    94.7973     2.4278     0.0119     0.1526     0.2302
  605.0000    11.6285    11.4257    11.7963   -40.0570     7.7094    92.8259     2.4367     0.0164     0.1484     0.2331
  605.5000    11.5340    11.3798    11.6991   -39.9639     7.7106    91.5335     2.4476     0.0210     0.1384     0.2364
  606.0000    11.4550    11.3509    11.6027   -40.3364     7.7119    93.2600     2.4581     0.0264     0.1323     0.2480
  606.5000    11.4550    11.3897    11.5619   -40.6503     7.7131    95.0468     2.4704     0.0356     0.1271     0.2512
  607.0000    11.4945    11.4401    11.7102   -41.1447     7.7144    96.1382     2.4651     0.0443     0.1251     0.2527
  607.5000    11.5613    11.4906    11.8193   -41.4331     7.7156    96.1235     2.4514     0.0396     0.1337     0.2550
  608.0000    11.6284    11.5619    11.8858   -41.4330     7.7169    96.1230     2.4454     0.0350     0.1398     0.2594
  608.5000    11.6689    11.3509    11.6689   -41.4432     7.7181    96.1239     2.4865     0.0491     0.1194     0.2425
  609.0000    11.5562    11.2199    11.5832   -41.0295     7.7194    97.5384     2.4890     0.0493     0.1136     0.2356
  609.5000    11.4174    11.0907    11.4429   -40.5583     7.7203   101.6847     2.4698     0.0381     0.1246     0.2550
  610.0000    11.2802    10.9630    11.3042   -40.5554     7.7203   105.6143     2.4623     0.0376     0.1283     0.2727
  610.5000    11.1447    10.8398    11.1672   -40.7362     7.7203   105.5392     2.5082     0.0544     0.1118     0.2768
  611.0000    11.0415    10.8396    11.1437   -40.9202     7.7208   104.2460     2.5114     0.0635     0.1001     0.2737
  611.5000    11.0415    10.9245    11.1829   -41.0989     7.7231   102.2484     2.5003     0.0604     0.1063     0.2700
  612.0000    11.1418    10.9845    11.2301   -41.0183     7.7253   100.6622     2.4963     0.0583     0.1096     0.2583
  612.5000    11.2128    11.0445    11.2775   -40.9485     7.7275   100.4999     2.5097     0.0583     0.1013     0.2471
  613.0000    11.2840    11.1049    11.3251   -40.8484     7.7297    99.9285     2.5028     0.0524     0.1084     0.2401
  613.5000    11.3511    11.1656    11.3729   -40.8267     7.7319    99.4424     2.4820     0.0406     0.1187     0.2422
  614.0000    11.3517    11.2266    11.4196   -40.8262     7.7341   100.3860     2.4632     0.0289     0.1290     0.2448
  614.5000    11.3519    11.2468    11.4610   -40.8268     7.7364   103.4720     2.4495     0.0184     0.1398     0.2477
  615.0000    11.2366    11.0909    11.3550   -40.8255     7.7386   106.5846     2.4458     0.0153     0.1406     0.2395
  615.5000    11.1479    10.9699    11.2841   -40.9402     7.7408   107.0349     2.4575     0.0173     0.1343     0.2338
  616.0000    11.0597    10.8502    11.2318   -41.1225     7.7430   105.3130     2.4735     0.0349     0.1254     0.2298
  616.5000    10.9722    10.7318    11.1798   -41.1918     7.7452   105.7729     2.4750     0.0402     0.1219     0.2414
  617.0000    10.8854    10.6146    11.1281   -40.9920     7.7474   110.0012     2.4600     0.0367     0.1327     0.2510
  617.5000    10.7993    10.4988    11.0767   -40.7975     7.7496   110.8755     2.4612     0.0375     0.1288     0.2653
  618.0000    10.7384    10.3842    11.0418   -40.6026     7.7518   107.9925     2.4681     0.0386     0.1271     0.2583
  618.5000    10.6410    10.3307    11.0416   -40.4282     7.7540   103.2020     2.4564     0.0332     0.1362     0.2640
