~VERSION INFORMATION
 VERS.                2.0:   CWLS LOG ASCII STANDARD - VERSION 2.0
 WRAP.                 NO:   ONE LINE PER DEPTH STEP
~WELL INFORMATION
#MNEM.UNIT      DATA TYPE    INFORMATION
#----------   ------------   ------------------------------
 STRT.F           30.0000:   START DEPTH
 STOP.F         1358.0000:   STOP DEPTH
 STEP.F            0.5000:   STEP LENGTH
 NULL.          -999.2500:   NO VALUE
 COMP. FENIX & SCISSON INC:   COMPANY
 WELL.      3 SX14 #85-14:   WELL
 FLD .             TEAPOT:   FIELD
 LOC .      S14 T38N R78W:   LOCATION
 CNTY.            NATRONA:   COUNTY
 STAT.            WYOMING:   STATE
 CTRY. UNITED STATES OF AMERICA:   COUNTRY
 SRVC.              Welex:   SERVICE COMPANY
 DATE.        10-FEB-1977:   LOGDATE
 API .       490251027500:   API NUMBER
~CURVE INFORMATION
#MNEM.UNIT       API CODE    CURVE DESCRIPTION
#----------   ------------   ------------------------------
 DEPT.F                  :   
 ILM .OHMM   07 120 44 00:   INDUCTION LOG MEDIUM
 ILD .OHMM   07 120 46 00:   INDUCTION LOG DEEP
 CALD.IN     45 280 60 00:   CALIPER
 GRD .GAPI   45 310 01 00:   GAMMA RAY FROM DENSITY LOG
 RHOB.G/C3   45 350 01 00:   BULK DENSITY
 DPHI.DEC    45 890 12 00:   DENSITY POROSITY SANDSTONE
 CORR.G/C3   45 356 01 00:   DENSITY CORRECTION
~PARAMETER INFORMATION
#MNEM.UNIT          VALUE    DESCRIPTION
#----------   ------------   ------------------------------
 PD  .                 GL:   PERMANENT DATUM
 EPD .F              5345:   ELEVATION PERMANENT DATUM
 LMF .                 GL:   LOG MEASURED FROM
 DMF .                 GL:   DRILLING MEASURED FROM
 EGL .F              5345:   GROUND LEVEL
 DATE.          2-10-1977:   RUN DATE
 RUN .                  1:   RUN NUMBER
 DD  .F              1362:   DEPTH DRILLER
 DL  .F              1361:   DEPTH LOGGER
 BLI .F              1359:   BOTTOM LOG INTERVAL
 TLI .F                43:   TOP LOG INTERVAL
 CS  .IN            8.625:   CASING SIZE
 CBD .F                43:   CASING BOTTOM DRILLER
 CBL .F                43:   CASING BOTTOM LOGGER
 BS  .IN            7.875:   BIT SIZE
 BSD .F              1362:   BIT SIZE AT DEPTH
 DFT .           AIR MIST:   DRILLING FLUID TYPE
 TCS .HRS               4:   TIME CURCULATED STOPPED
 MRT .F               104:   MAXIMUM RECORDED TEMPERATURE
 LUN .               8611:   LOGGING UNIT NUMBER
 LUL .           GILLETTE:   LOGGING UNIT LOCATION
 ENGI.               DOAK:   RECORDING ENGINEER
 WITN. PETTINGILL/STUEBINGER:   WITNESSED BY
 CLNT.            A2DTECH:   CLIENT CODE
 ORIG.       2", 5" PRINT:   ORIGIN OF DATA
 UWI .       490251027500:   UNIQUE WELL ID
 DICO. A2D Technologies, Inc.:   DIGITIZING COMPANY
~OTHER INFORMATION
~A   DEPT      ILM        ILD         CALD      GRD         RHOB     DPHI        CORR  
# ...
 1213.0000    13.1454    11.4059     8.0558    82.3349     2.4238     0.1525     0.0386
 1213.5000    13.0417    11.4548     8.0559    81.7430     2.4186     0.1513     0.0381
 1214.0000    12.9783    11.5032     8.0557    81.4301     2.4242     0.1483     0.0377
 1214.5000    13.0088    11.5519     8.0557    82.8208     2.4297     0.1452     0.0373
 1215.0000    13.0309    11.6007     8.0510    84.0761     2.4350     0.1422     0.0368
 1215.5000    13.0530    11.6498     8.0396    83.5176     2.4404     0.1393     0.0363
 1216.0000    13.0751    11.6991     8.0282    83.1122     2.4464     0.1337     0.0382
 1216.5000    13.0983    11.7485     8.0169    83.8558     2.4534     0.1271     0.0405
 1217.0000    12.9169    11.7982     8.0055    85.8676     2.4600     0.1261     0.0428
 1217.5000    12.6832    11.8374     7.9941    88.4343     2.4626     0.1285     0.0444
 1218.0000    12.5093    11.6123     7.9827    89.9247     2.4651     0.1271     0.0431
 1218.5000    12.4908    11.4300     7.9714    89.1096     2.4670     0.1242     0.0418
 1219.0000    12.4513    11.2505     7.9600    88.3352     2.4580     0.1226     0.0406
 1219.5000    12.4120    11.0739     7.9486    87.8311     2.4489     0.1302     0.0393
 1220.0000    12.3727    10.9000     7.9372    88.0764     2.4434     0.1375     0.0381
 1220.5000    12.3336    10.7289     7.9259    88.6848     2.4459     0.1344     0.0368
 1221.0000    12.2946    10.6000     7.9141    89.2905     2.4508     0.1306     0.0356
 1221.5000    12.2558    10.6980     7.9117    89.9020     2.4612     0.1268     0.0343
 1222.0000    12.2171    10.6836     7.9151    90.4961     2.4689     0.1230     0.0331
 1222.5000    12.1784    10.6627     7.9187    90.3181     2.4650     0.1251     0.0318
 1223.0000    12.1400    10.6417     7.9223    89.2285     2.4613     0.1239     0.0306
 1223.5000    12.1016    10.6208     7.9259    88.1404     2.4576     0.1256     0.0293
 1224.0000    12.0634    10.5999     7.9295    87.0972     2.4540     0.1293     0.0281
 1224.5000    12.0252    10.5791     7.9319    87.3969     2.4508     0.1329     0.0269
 1225.0000    11.9872    10.5584     7.9317    88.0710     2.4517     0.1345     0.0256
 1225.5000    11.9474    10.5377     7.9443    88.2877     2.4569     0.1297     0.0244
 1226.0000    11.9190    10.5170     7.9643    87.5416     2.4621     0.1259     0.0262
 1226.5000    11.8893    10.4963     7.9844    87.3802     2.4673     0.1185     0.0323
 1227.0000    11.8593    10.4757     8.0045    88.8498     2.4725     0.1200     0.0382
 1227.5000    11.8367    10.4552     8.0246    90.2604     2.4725     0.1216     0.0391
 1228.0000    11.8976    10.4347     8.0445    91.6700     2.4700     0.1168     0.0398
 1228.5000    11.9898    10.4142     8.0547    93.0149     2.4674     0.1192     0.0404
 1229.0000    12.0820    10.3937     8.0526    93.1739     2.4650     0.1234     0.0380
 1229.5000    12.1751    10.3733     8.0505    92.6688     2.4705     0.1210     0.0356
 1230.0000    12.2685    10.3530     8.0484    92.1752     2.4745     0.1189     0.0331
 1230.5000    12.3947    10.3327     8.0462    91.6861     2.4708     0.1211     0.0306
 1231.0000    12.2654    10.3124     8.0440    91.2007     2.4669     0.1233     0.0306
 1231.5000    12.0728    10.2921     8.0419    91.1204     2.4660     0.1224     0.0313
 1232.0000    11.8833    10.2719     8.0397    91.6578     2.4732     0.1191     0.0319
 1232.5000    11.6967    10.2518     8.0375    92.3962     2.4819     0.1158     0.0326
 1233.0000    11.5153    10.2317     8.0354    93.1361     2.4868     0.1125     0.0333
 1233.5000    11.7408    10.2116     8.0332    93.8795     2.4889     0.1093     0.0339
 1234.0000    12.0555    10.1915     8.0311    94.6794     2.4900     0.1114     0.0324
 1234.5000    11.8288    10.1716     8.0289    93.6537     2.4818     0.1151     0.0293
 1235.0000    11.5119    10.1516     8.0267    92.1443     2.4731     0.1188     0.0259
 1235.5000    11.6679    10.1234     8.0246    90.5951     2.4644     0.1242     0.0180
 1236.0000    11.8115    10.2334     8.0224    90.9903     2.4556     0.1314     0.0096
 1236.5000    11.8807    10.4241     8.0203    92.0363     2.4468     0.1358     0.0014
 1237.0000    11.9837    10.6183     8.0181    93.1093     2.4497     0.1332     0.0071
 1237.5000    12.0573    10.8371     8.0160    94.1674     2.4568     0.1305     0.0127
 1238.0000    12.3171    11.2607     8.0138    94.4184     2.4748     0.1113     0.0165
 1238.5000    13.6298    11.7009     8.0116    91.8481     2.4990     0.0911     0.0203
 1239.0000    15.0722    12.1583     8.0095    89.2999     2.5348     0.0801     0.0242
 1239.5000    16.6657    12.6347     8.0073    86.7617     2.5793     0.0671     0.0280
 1240.0000    17.7090    13.1003     8.0052    84.2131     2.6054     0.0541     0.0318
 1240.5000    18.5807    12.9820     8.0030    83.1280     2.6029     0.0440     0.0356
 1241.0000    17.2944    12.8591     8.0008    84.6729     2.5932     0.0516     0.0394
 1241.5000    15.6133    12.4749     7.9987    86.5901     2.5786     0.0593     0.0432
 1242.0000    14.2180    12.0708     7.9965    88.5242     2.5634     0.0669     0.0470
 1242.5000    13.4601    11.6802     7.9946    90.4692     2.5447     0.0746     0.0472
 1243.0000    12.7426    11.3025     7.9853    91.9280     2.5319     0.0822     0.0443
 1243.5000    12.2176    10.9370     7.9738    92.9986     2.5209     0.0898     0.0415
 1244.0000    11.7901    10.5834     7.9623    94.0722     2.5099     0.0975     0.0386
 1244.5000    11.5152    10.2361     7.9508    95.1357     2.4988     0.1051     0.0357
 1245.0000    11.6216     9.9322     7.9393    95.7072     2.4874     0.1123     0.0329
 1245.5000    11.5313     9.9440     7.9317    94.1335     2.4782     0.1162     0.0300
 1246.0000    11.1015     9.9469     7.9345    92.5798     2.4769     0.1191     0.0278
 1246.5000    10.7969     9.9514     7.9500    93.6855     2.4831     0.1142     0.0273
 1247.0000    11.0928     9.9559     7.9654    95.0717     2.4893     0.1092     0.0267
 1247.5000    11.2786     9.9604     7.9808    96.4669     2.4955     0.1048     0.0261
 1248.0000    11.4675     9.9650     7.9960    97.8535     2.5021     0.1077     0.0256
 1248.5000    11.6230     9.9695     8.0092    99.2407     2.4985     0.1093     0.0250
 1249.0000    11.6216     9.9740     8.0328    99.9470     2.4915     0.1077     0.0244
 1249.5000    11.6216     9.9786     8.0514    98.3652     2.4843     0.1139     0.0239
 1250.0000    11.6216     9.9831     8.0340    96.7567     2.4772     0.1208     0.0233
 1250.5000    11.6216     9.9876     8.0172    95.1627     2.4736     0.1242     0.0228
 1251.0000    11.4960     9.9922     8.0000    93.8651     2.4736     0.1211     0.0222
 1251.5000    11.3645     9.9967     7.9828    93.1811     2.4718     0.1185     0.0206
 1252.0000    11.2344    10.0013     7.9657    92.5732     2.4691     0.1231     0.0159
 1252.5000    11.1065    10.0058     7.9483    92.6185     2.4605     0.1287     0.0113
 1253.0000    10.9961    10.0104     7.9325    93.4494     2.4528     0.1344     0.0065
 1253.5000    10.9789    10.0149     7.9439    94.9898     2.4509     0.1396     0.0065
 1254.0000    10.9464    10.0195     7.9561    96.5161     2.4607     0.1263     0.0084
 1254.5000    10.9141    10.0240     7.9682    98.0390     2.4754     0.1169     0.0104
 1255.0000    10.8818    10.0301     7.9802    99.1683     2.4901     0.1109     0.0134
 1255.5000    10.8497    10.0098     7.9922    97.9193     2.5048     0.1060     0.0177
 1256.0000    10.8176     9.9717     8.0043    96.6971     2.5112     0.1019     0.0217
 1256.5000    10.7857     9.9335     8.0162    95.4863     2.5076     0.1042     0.0208
 1257.0000    10.7538     9.8954     8.0281    94.8336     2.5039     0.1063     0.0198
 1257.5000    10.7220     9.8576     8.0333    95.5964     2.5037     0.1085     0.0188
 1258.0000    10.6903     9.8198     8.0291    96.8673     2.5052     0.1082     0.0178
