~VERSION INFORMATION
 VERS.                2.0:   CWLS LOG ASCII STANDARD - VERSION 2.0
 WRAP.                 NO:   ONE LINE PER DEPTH STEP
~WELL INFORMATION
#MNEM.UNIT      DATA TYPE    INFORMATION
#----------   ------------   ------------------------------
 STRT.F          100.0000:   START DEPTH
 STOP.F          872.0000:   STOP DEPTH
 STEP.F            0.5000:   STEP LENGTH
 NULL.          -999.2500:   NO VALUE
 COMP. U S NAVY/INTEX OIL CO:   COMPANY
 WELL. 53 S 11 #N P R 3-11:   WELL
 FLD .             TEAPOT:   FIELD
 LOC .      S11 T38N R78W:   LOCATION
 CNTY.            NATRONA:   COUNTY
 STAT.            WYOMING:   STATE
 CTRY. UNITED STATES OF AMERICA:   COUNTRY
 SRVC.       Schlumberger:   SERVICE COMPANY
 DATE.        07-AUG-1961:   LOGDATE
 API .       490250635800:   API NUMBER
~CURVE INFORMATION
#MNEM.UNIT       API CODE    CURVE DESCRIPTION
#----------   ------------   ------------------------------
 DEPT.F                  :   
 CILD.MMHO   05 110 46 00:   CONDUCTIVITY INDUCTION LOG DEEP
 ILD .OHMM   05 120 46 00:   INDUCTION LOG DEEP
 SPR .MV     05 010 01 00:   SPONTANEOUS POTENTIAL FROM RES.
 ASN .OHMM   05 041 16 00:   AMPLIFIED SHORT NORMAL 16"
~PARAMETER INFORMATION
#MNEM.UNIT          VALUE    DESCRIPTION
#----------   ------------   ------------------------------
 PD  .                 GL:   PERMANENT DATUM
 EPD .F              5192:   ELEVATION PERMANENT DATUM
 LMF .                 KB:   LOG MEASURED FROM
 DAPD.F                 6:   FEET ABOVE PERMANENT DATUM
 DMF .                 KB:   DRILLING MEASURED FROM
 EKB .F              5198:   KELLING BUSHING
 EGL .F              5192:   GROUND LEVEL
 DATE.             8-7-61:   RUN DATE
 RUN .                  1:   RUN NUMBER
 DD  .F               870:   DEPTH DRILLER
 DL  .F               873:   DEPTH LOGGER
 BLI .F               872:   BOTTOM LOG INTERVAL
 TLI .F               100:   TOP LOG INTERVAL
 BS  .IN            7.875:   BIT SIZE
 BSD .F               870:   BIT SIZE AT DEPTH
 DFT .            GEL/OIL:   DRILLING FLUID TYPE
 DFD .               10.4:   DRILLING FLUID DENSITY
 DFV .                 43:   DRILLING FLUID VISCOSITY
 RMS .OHMM            .02:   RESISTIVITY MUD SAMPLE
 MST .F                70:   MUD SAMPLE TEMPERATURE
 TCS .HRS               1:   TIME CURCULATED STOPPED
 LUN .               2544:   LOGGING UNIT NUMBER
 LUL .                 NC:   LOGGING UNIT LOCATION
 ENGI.             QUINCY:   RECORDING ENGINEER
 WITN.          JORGENSON:   WITNESSED BY
 CLNT.            A2DTECH:   CLIENT CODE
 ORIG.       2", 5" PRINT:   ORIGIN OF DATA
 UWI .       490250635800:   UNIQUE WELL ID
 DICO. A2D Technologies, Inc.:   DIGITIZING COMPANY
~OTHER INFORMATION
~A   DEPT      CILD         ILD      SPR          ASN 
# ...
  538.0000    98.8791     9.8917   -24.6487    11.1942
  538.5000    97.3797    10.1333   -24.3688    11.4306
  539.0000    95.8802    10.3755   -24.4006    11.6571
  539.5000    94.3808    10.6219   -24.6449    11.8835
  540.0000    92.8813    10.8581   -24.8386    12.1196
  540.5000    91.2738    11.1156   -25.0558    12.2553
  541.0000    91.4386    11.2263   -25.2603    12.2983
  541.5000    91.6162    11.1623   -25.4716    12.3447
  542.0000    91.7937    11.1063   -25.6801    12.4056
  542.5000    91.9713    11.0500   -25.8909    12.3597
  543.0000    92.1488    10.9815   -26.0955    12.1525
  543.5000    92.3264    10.9409   -26.1560    11.9579
  544.0000    92.5040    10.7545   -26.2030    11.7567
  544.5000    92.6815    10.4287   -26.2428    11.5441
  545.0000    92.8591    10.1271   -26.3050    11.5400
  545.5000    93.0367     9.9845   -26.2640    11.6252
  546.0000    93.2142     9.9745   -25.8815    11.5186
  546.5000    94.2313     9.9371   -25.4928    11.2426
  547.0000    96.4316     9.9132   -25.2451    11.2147
  547.5000    98.6319     9.8822   -25.1743    11.2161
  548.0000   100.8321     9.8550   -25.0941    11.2206
  548.5000   103.3099     9.8263   -25.1041    11.1764
  549.0000   103.3099     9.7982   -25.0897    11.0718
  549.5000   102.4999     9.7697   -25.1710    10.9818
  550.0000   101.7507     9.7411   -25.4182    10.8732
  550.5000   101.0015     9.7128   -25.6583    10.8076
  551.0000   100.2523     9.6841   -25.9134    10.8207
  551.5000    99.5030     9.6558   -26.1459    10.8074
  552.0000    99.2979     9.6269   -26.4175    10.8876
  552.5000   101.2036     9.5938   -26.4436    10.8810
  553.0000   102.8887     9.4783   -26.2460    10.8359
  553.5000   104.5737     9.3624   -26.1019    10.7954
  554.0000   106.2588     9.2477   -25.9022    10.5983
  554.5000   107.3220     9.1328   -25.7283    10.4341
  555.0000   108.6872     9.0179   -25.5469    10.3373
  555.5000   110.0914     8.9031   -25.3706    10.2763
  556.0000   111.4956     8.7880   -25.1894    10.2222
  556.5000   112.8958     8.6735   -25.0156    10.1709
  557.0000   114.2892     8.5579   -24.8280    10.0259
  557.5000   115.6880     8.4463   -24.7121     9.9766
  558.0000   117.3316     8.3504   -24.8093     9.9502
  558.5000   117.9818     8.2363   -24.9000     9.9201
  559.0000   118.7690     8.1226   -24.9942     9.8885
  559.5000   119.5583     8.0059   -25.0864     9.8631
  560.0000   120.3302     7.8951   -25.1793     9.8241
  560.5000   121.1079     7.7690   -25.2733     9.8134
  561.0000   121.0060     7.6823   -25.3638     9.7236
  561.5000   120.2477     7.7608   -25.4614     9.6594
  562.0000   119.4895     7.9133   -25.5451     9.8564
  562.5000   118.7312     8.0502   -25.6588     9.9306
  563.0000   117.9729     8.2145   -25.6481     9.8067
  563.5000   117.2146     8.3077   -25.4299     9.8119
  564.0000   116.4564     8.2768   -25.2257     9.8101
  564.5000   115.6981     8.2594   -25.0144     9.7953
  565.0000   115.3460     8.2335   -24.8019     9.6968
  565.5000   114.4603     8.2137   -24.5994     9.5718
  566.0000   113.6826     8.1818   -24.3738     9.5012
  566.5000   113.3400     7.9439   -24.3277     9.3271
  567.0000   118.3271     7.6648   -24.4355     9.8346
  567.5000   122.6163     7.3928   -24.5165     9.7216
  568.0000   126.9056     7.1196   -24.6073     9.4793
  568.5000   131.1948     6.8441   -24.7117     9.2463
  569.0000   135.4840     6.5748   -24.9722     9.0233
  569.5000   139.7733     6.2912   -25.2714     8.7407
  570.0000   141.4243     6.0896   -25.3673     8.3873
  570.5000   144.6656     6.0526   -25.4352     8.1329
  571.0000   147.3262     6.0095   -25.4887     7.9626
  571.5000   149.9868     5.9707   -25.2307     7.9844
  572.0000   151.4544     5.9287   -24.8755     7.9536
  572.5000   148.9027     5.8968   -24.5536     8.0420
  573.0000   146.4762     6.0349   -24.6903     8.2056
  573.5000   144.0497     6.2256   -25.0005     8.2199
  574.0000   141.6233     6.3823   -24.9707     8.2216
  574.5000   139.4182     6.4495   -24.6281     8.2984
  575.0000   140.1078     6.5036   -24.3214     8.3449
  575.5000   140.7397     6.5596   -24.2168     8.3371
  576.0000   141.4243     6.6150   -24.1179     8.3459
  576.5000   139.8355     6.6706   -24.2147     8.3963
  577.0000   138.1023     6.7260   -24.5093     8.4473
  577.5000   136.3691     6.7813   -24.7735     8.4808
  578.0000   134.6359     6.8371   -24.9738     8.5386
  578.5000   132.9027     6.8919   -25.0967     8.6073
  579.0000   131.1695     6.9488   -25.2407     8.7013
  579.5000   129.4011     7.0017   -25.3886     8.8141
  580.0000   129.0254     7.0635   -25.5018     8.9284
  580.5000   128.5406     7.0934   -25.5058     9.0291
  581.0000   128.0557     7.0660   -25.5081     9.0852
  581.5000   127.5720     7.0466   -25.5038     9.1282
  582.0000   127.3812     7.0237   -25.5121     9.1440
  582.5000   128.6944     7.0027   -25.4783     9.1639
  583.0000   129.9911     6.9807   -25.2866     9.0947
  583.5000   131.2862     6.9592   -25.0690     9.0323
  584.0000   132.5824     6.9375   -24.6654     8.8079
  584.5000   133.8786     6.9156   -24.1670     8.5027
  585.0000   135.1748     6.8940   -23.8605     8.4575
  585.5000   136.4709     6.8874   -23.9021     8.6279
  586.0000   137.4482     6.8793   -23.8769     8.7530
  586.5000   137.5795     6.8711   -23.9204     8.7847
  587.0000   137.7108     6.8630   -24.2021     8.7800
  587.5000   137.8524     6.8548   -24.4928     8.8113
  588.0000   137.9778     6.8466   -24.7917     8.8739
  588.5000   138.1064     6.8385   -25.0670     8.8542
  589.0000   138.2368     6.8303   -25.3914     8.8174
  589.5000   138.3673     6.8223   -25.4241     8.8156
  590.0000   138.4982     6.8140   -25.2141     8.8078
  590.5000   138.6287     6.8061   -25.0093     8.7859
  591.0000   138.7594     6.7976   -24.9176     8.7352
  591.5000   138.8903     6.7906   -24.9965     8.6835
  592.0000   139.0181     6.7668   -25.0867     8.6595
  592.5000   139.1437     6.7308   -24.9155     8.6640
  593.0000   139.2702     6.7002   -24.4961     8.6615
  593.5000   139.3993     6.6620   -24.1423     8.6575
  594.0000   140.2485     6.6375   -23.7367     8.4893
  594.5000   141.3137     6.5731   -23.8353     8.2533
  595.0000   142.3825     6.4635   -24.0486     8.1197
  595.5000   143.4187     6.2352   -24.2411     8.2177
  596.0000   149.4952     5.9852   -24.4402     8.2249
  596.5000   156.8164     5.6682   -24.6410     8.0872
  597.0000   164.1317     5.2572   -24.8330     7.9182
  597.5000   171.4499     4.8828   -25.0422     7.6211
  598.0000   178.7729     4.4593   -25.0525     7.3053
  598.5000   185.5507     4.2527   -24.9326     7.0486
  599.0000   185.3430     4.3019   -24.8427     6.8551
  599.5000   184.9024     4.3672   -24.7388     6.6652
  600.0000   184.4574     4.4461   -24.6425     6.6447
  600.5000   184.0190     4.5274   -24.5416     6.7160
  601.0000   183.5664     4.5947   -24.4435     6.8529
  601.5000   176.9444     4.8048   -24.3426     7.1627
  602.0000   169.7674     5.0656   -24.2464     7.4519
  602.5000   162.5836     5.3218   -24.1422     7.5917
  603.0000   153.4604     5.5677   -24.0527     7.6713
  603.5000   152.3170     5.8470   -23.9334     7.6715
  604.0000   150.2909     6.0061   -23.9626     7.8083
  604.5000   148.2648     6.0461   -24.1834     7.9500
  605.0000   146.2387     6.1224   -24.3781     7.9940
  605.5000   144.2126     6.1848   -24.5915     8.0211
  606.0000   142.1866     6.2522   -24.7874     8.0083
  606.5000   141.4243     6.3036   -25.0077     8.0067
  607.0000   145.5700     6.1708   -25.1124     7.9951
  607.5000   148.9468     5.9324   -25.0983     7.9159
  608.0000   151.4544     5.7329   -25.1082     7.8109
  608.5000   154.4528     5.4858   -25.0877     7.7106
  609.0000   156.5856     5.3343   -24.9581     7.6107
  609.5000   158.7183     5.2151   -24.8303     7.4784
  610.0000   160.8510     5.0685   -24.6864     7.3621
  610.5000   167.2908     4.8760   -24.3812     7.2523
