~VERSION INFORMATION
 VERS.                2.0:   CWLS LOG ASCII STANDARD - VERSION 2.0
 WRAP.                 NO:   ONE LINE PER DEPTH STEP
~WELL INFORMATION
#MNEM.UNIT      DATA TYPE    INFORMATION
#----------   ------------   ------------------------------
 STRT.F           24.5000:   START DEPTH
 STOP.F          576.0000:   STOP DEPTH
 STEP.F            0.5000:   STEP LENGTH
 NULL.          -999.2500:   NO VALUE
 COMP. FENIX & SCISSON INC:   COMPANY
 WELL.    NPR-3 SX #61-15:   WELL
 FLD .             TEAPOT:   FIELD
 LOC .      S15 T38N R78W:   LOCATION
 CNTY.            NATRONA:   COUNTY
 STAT.            WYOMING:   STATE
 CTRY. UNITED STATES OF AMERICA:   COUNTRY
 SRVC.            Unknown:   SERVICE COMPANY
 DATE.        29-MAY-1978:   LOGDATE
 API .       490251062300:   API NUMBER
~CURVE INFORMATION
#MNEM.UNIT       API CODE    CURVE DESCRIPTION
#----------   ------------   ------------------------------
 DEPT.F                  :   
 GRD .GAPI   45 310 01 00:   GAMMA RAY FROM DENSITY LOG
 CALD.IN     45 280 60 00:   CALIPER FROM DENSITY LOG
 SN  .OHMM   05 040 16 00:   SHORT NORMAL 16'
 SPR .MV     05 010 01 00:   SPONTANEOUS POTENTIAL
 ILD .OHMM   05 120 46 00:   INDUCTION LOG DEEP
 RHOB.G/C3   45 350 01 00:   BULK DENSITY
 DPHI.DEC    45 890 12 00:   DENSITY POROSITY SANDSTONE
 CORR.G/C3   45 356 01 00:   DENSITY CORRECTION
~PARAMETER INFORMATION
#MNEM.UNIT          VALUE    DESCRIPTION
#----------   ------------   ------------------------------
 PD  .                 GL:   PERMANENT DATUM
 EPD .F              5221:   ELEVATION PERMANENT DATUM
 LMF .                 KB:   LOG MEASURED FROM
 DAPD.F                 4:   FEET ABOVE PERMANENT DATUM
 DMF .                 KB:   DRILLING MEASURED FROM
 EKB .F              5225:   KELLING BUSHING
 EGL .F              5221:   GROUND LEVEL
 DATE.          5-29-1978:   RUN DATE
 RUN .                  1:   RUN NUMBER
 DD  .F               565:   DEPTH DRILLER
 DL  .F               578:   DEPTH LOGGER
 BLI .F               570:   BOTTOM LOG INTERVAL
 TLI .F                40:   TOP LOG INTERVAL
 CS  .IN            8.625:   CASING SIZE
 CBD .F                40:   CASING BOTTOM DRILLER
 CBL .F                40:   CASING BOTTOM LOGGER
 BS  .IN            7.875:   BIT SIZE
 BSD .F               565:   BIT SIZE AT DEPTH
 DFT .                KCL:   DRILLING FLUID TYPE
 DFD .                8.7:   DRILLING FLUID DENSITY
 DFV .                 34:   DRILLING FLUID VISCOSITY
 DFPH.                9.5:   DRILLING FLUID PH
 DFL .               10.4:   DRILLING FLUID LOSS
 BHT .F                76:   BOTTOM HOLE TEMPERATURE
 TCS .HRS               3:   TIME CURCULATED STOPPED
 MRT .F                76:   MAXIMUM RECORDED TEMPERATURE
 LUN .               2958:   LOGGING UNIT NUMBER
 LUL .              CASP.:   LOGGING UNIT LOCATION
 ENGI.             MILLER:   RECORDING ENGINEER
 WITN.           MCGINLEY:   WITNESSED BY
 CLNT.            A2DTECH:   CLIENT CODE
 ORIG.      2" , 5" PRINT:   ORIGIN OF DATA
 UWI .       490251062300:   UNIQUE WELL ID
 DICO. A2D Technologies, Inc.:   DIGITIZING COMPANY
~OTHER INFORMATION
~A   DEPT       GRD      CALD         SN        SPR        ILD       RHOB       DPHI       CORR   
# ...
  510.5000    73.9633     7.8191    11.2875   -12.1865    12.0565     2.5126     0.0921     0.0813
  511.0000    73.3138     7.8187    11.2780   -12.1355    12.0579     2.5149     0.0932     0.0832
  511.5000    72.6028     7.8216    11.2685   -12.0855    12.0573     2.5171     0.0934     0.0850
  512.0000    72.7701     7.8302    11.2589   -12.0359    12.0573     2.5170     0.0915     0.0866
  512.5000    74.1140     7.8386    11.2494   -11.9862    12.0573     2.5170     0.0895     0.0863
  513.0000    75.5175     7.8471    11.2399   -11.9363    12.0573     2.5170     0.0876     0.0857
  513.5000    75.1161     7.8556    11.2304   -11.8870    12.0573     2.5177     0.0878     0.0851
  514.0000    73.0673     7.8640    11.2210   -11.8464    12.0573     2.5187     0.0888     0.0845
  514.5000    70.8005     7.8725    11.2115   -12.1129    12.0573     2.5186     0.0898     0.0839
  515.0000    68.5187     7.8810    11.2018   -12.4710    12.0573     2.5177     0.0908     0.0833
  515.5000    67.6463     7.8894    11.1909   -12.8282    12.0573     2.5162     0.0916     0.0827
  516.0000    70.5734     7.8980    11.1797   -13.0535    12.0573     2.5192     0.0851     0.0821
  516.5000    72.4544     7.9062    11.1685   -13.0685    12.0573     2.5230     0.0812     0.0815
  517.0000    72.5636     7.9142    11.1573   -13.0867    12.0571     2.5234     0.0899     0.0809
  517.5000    71.6196     7.8970    11.1462   -13.1040    12.0600     2.5177     0.0921     0.0806
  518.0000    69.7085     7.8941    11.1350   -13.1215    12.0573     2.5119     0.0943     0.0806
  518.5000    70.3946     7.8880    11.1240   -13.1391    11.9294     2.5062     0.0966     0.0815
  519.0000    72.8005     7.8815    11.1130   -13.1566    11.7741     2.5059     0.0988     0.0826
  519.5000    73.5496     7.8750    11.1017   -13.1742    11.6208     2.5084     0.0953     0.0838
  520.0000    72.3212     7.8685    10.9873   -13.1917    11.4696     2.5114     0.0868     0.0850
  520.5000    70.2043     7.8620    10.8425   -13.2093    11.3203     2.5143     0.0883     0.0862
  521.0000    68.0123     7.8555    10.6997   -13.2269    11.1729     2.5160     0.0896     0.0866
  521.5000    69.5733     7.8490    10.5587   -13.2445    11.0274     2.5160     0.0877     0.0858
  522.0000    72.4842     7.8427    10.4196   -13.2471    10.8839     2.5163     0.0852     0.0846
  522.5000    75.4258     7.8453    10.2824   -13.2471    10.7422     2.5170     0.0877     0.0834
  523.0000    76.4590     7.8630    10.1469   -13.2470    10.6024     2.5168     0.0918     0.0822
  523.5000    76.5875     7.8805    10.0307   -13.2470    10.4643     2.5154     0.0965     0.0777
  524.0000    76.1714     7.8981    10.0307   -13.2470    10.3281     2.5087     0.1011     0.0718
  524.5000    75.9222     7.9156     9.8935   -13.2470    10.1891     2.5003     0.1052     0.0657
  525.0000    75.8461     7.9339     9.7162   -13.2470    10.1234     2.4962     0.0937     0.0650
  525.5000    75.7617     7.9361     9.5797   -13.2471    10.0315     2.4964     0.0821     0.0728
  526.0000    75.9377     7.9319     9.4050   -13.2474    10.0092     2.5105     0.0800     0.0829
  526.5000    76.2257     7.9276     9.2147   -13.2352     9.9129     2.5250     0.0821     0.0931
  527.0000    76.3882     7.9234     9.0360   -13.2213     9.7578     2.5280     0.0841     0.0979
  527.5000    76.5213     7.9192     8.8206   -13.2073     9.5797     2.5271     0.0861     0.1001
  528.0000    75.6833     7.9149     8.5932   -13.1934     9.4050     2.5222     0.0882     0.0990
  528.5000    76.1180     7.9107     8.3716   -13.1794     8.1822     2.5182     0.0904     0.0979
  529.0000    79.4387     7.9065     8.1239   -13.1655     6.8549     2.5158     0.1041     0.0968
  529.5000    81.1508     7.9022     7.7331   -13.1515     6.0962     2.5077     0.1206     0.0957
  530.0000    81.8878     7.8980     7.3612   -13.1376     6.1054     2.4894     0.1260     0.0944
  530.5000    85.7819     7.8938     7.0074   -13.1236     6.0438     2.4709     0.1256     0.0967
  531.0000    91.1321     7.8895     6.6912   -13.1097     6.0484     2.4641     0.1095     0.1101
  531.5000    96.3307     7.8853     6.5692   -13.0958     6.0451     2.4701     0.0760     0.1245
  532.0000    98.4125     7.8811     6.7531   -13.0818     6.2356     2.5015     0.0704     0.1387
  532.5000    99.3343     7.8768     7.2606   -13.0679     6.3412     2.5321     0.0716     0.1352
  533.0000    94.6065     7.8726     7.7356   -13.0539     6.8478     2.5483     0.0704     0.1099
  533.5000    87.9953     7.8684     8.2417   -13.0400     7.7823     2.5489     0.0690     0.0959
  534.0000    81.3952     7.8641     8.7809   -13.0260     8.8466     2.5495     0.0701     0.0909
  534.5000    76.2231     7.8599     9.3554   -13.0121    10.0360     2.5498     0.0755     0.0894
  535.0000    74.4556     7.8397     9.6682   -12.9981    10.2203     2.5480     0.0756     0.0883
  535.5000    73.8097     7.8385     9.6682   -12.9842    10.3100     2.5462     0.0742     0.0871
  536.0000    76.1579     7.8386     9.8349   -12.9703    10.3102     2.5450     0.0743     0.0866
  536.5000    79.4252     7.8394     9.9948   -12.9563    10.4175     2.5450     0.0748     0.0866
  537.0000    79.5686     7.8401    10.1572   -12.9424    10.4816     2.5450     0.0754     0.0866
  537.5000    81.1577     7.8409    10.3223   -12.9284    10.5461     2.5450     0.0756     0.0866
  538.0000    79.8142     7.8416    10.4900   -12.9145    10.6344     2.5487     0.0656     0.0865
  538.5000    78.1210     7.8424    10.6605   -12.9005    10.8409     2.5500     0.0702     0.0864
  539.0000    77.9610     7.8431    10.8337   -12.8864    11.0514     2.5494     0.0732     0.0860
  539.5000    77.4747     7.8439    11.0098   -12.8715    11.2661     2.5484     0.0680     0.0827
  540.0000    76.4172     7.8447    11.1887   -12.8589    11.4849     2.5460     0.0691     0.0825
  540.5000    80.4731     7.8454    11.3705   -12.9288    11.7079     2.5499     0.0700     0.0834
  541.0000    84.9675     7.8462    11.5553   -13.2839    11.9353     2.5539     0.0676     0.0845
  541.5000    89.4853     7.8469    11.7431   -13.6306    12.1671     2.5531     0.0642     0.0856
  542.0000    89.5085     7.8477    11.9339   -13.7108    12.4034     2.5544     0.0612     0.0864
  542.5000    80.2468     7.8485    12.0573   -13.7766    12.5107     2.5560     0.0665     0.0809
  543.0000    76.1805     7.8492    12.1687   -13.8441    12.5193     2.5551     0.0718     0.0752
  543.5000    77.9085     7.8500    12.1687   -13.9109    12.5276     2.5504     0.0746     0.0696
  544.0000    77.4704     7.8507    12.1687   -13.9756    12.5360     2.5459     0.0762     0.0688
  544.5000    77.3490     7.8515    12.1687   -14.0937    12.5444     2.5412     0.0780     0.0708
  545.0000    78.1503     7.8522    12.1687   -14.3573    12.5528     2.5383     0.0784     0.0728
  545.5000    79.0045     7.8530    12.1687   -14.6196    12.5612     2.5381     0.0784     0.0749
  546.0000    76.3033     7.8538    12.1687   -14.8691    12.5697     2.5391     0.0760     0.0769
  546.5000    73.2633     7.8545    12.1687   -15.0340    12.5781     2.5400     0.0734     0.0789
  547.0000    74.1457     7.8553    12.1687   -15.0045    12.5866     2.5410     0.0759     0.0810
  547.5000    78.7562     7.8560    12.1687   -14.9790    12.5950     2.5420     0.0779     0.0826
  548.0000    82.6987     7.8568    12.1687   -14.9527    12.6035     2.5393     0.0782     0.0818
  548.5000    79.4688     7.8575    12.1688   -14.9266    12.6120     2.5364     0.0784     0.0810
  549.0000    76.7940     7.8583    12.1684   -14.9005    12.6204     2.5361     0.0776     0.0805
  549.5000    76.8188     7.8614    12.1707   -14.8744    12.6254     2.5368     0.0761     0.0811
  550.0000    81.1098     7.8741    12.0971   -14.8471    12.6270     2.5375     0.0780     0.0835
  550.5000    80.7171     7.8862    12.0151   -14.8624    12.5365     2.5373     0.0807     0.0877
