~VERSION INFORMATION
 VERS.                2.0:   CWLS LOG ASCII STANDARD - VERSION 2.0
 WRAP.                 NO:   ONE LINE PER DEPTH STEP
~WELL INFORMATION
#MNEM.UNIT      DATA TYPE    INFORMATION
#----------   ------------   ------------------------------
 STRT.F          779.5000:   START DEPTH
 STOP.F         2194.0000:   STOP DEPTH
 STEP.F            0.5000:   STEP LENGTH
 NULL.          -999.2500:   NO VALUE
 COMP. LAWRENCE/ALLISON INC:   COMPANY
 WELL.        27 X #10-10:   WELL
 FLD .             TEAPOT:   FIELD
 LOC .      S10 T38N R78W:   LOCATION
 CNTY.            NATRONA:   COUNTY
 STAT.            WYOMING:   STATE
 CTRY. UNITED STATES OF AMERICA:   COUNTRY
 SRVC.            Unknown:   SERVICE COMPANY
 DATE.        21-AUG-1987:   LOGDATE
 API .       490251118900:   API NUMBER
~CURVE INFORMATION
#MNEM.UNIT       API CODE    CURVE DESCRIPTION
#----------   ------------   ------------------------------
 DEPT.F                  :   
 ROP .MIN/FT 91 810 01 00:   RATE OF DRILLING PENETRATION
 TGAS.UNITS  91 830 01 00:   TOTAL GAS FROM HOTWIRE
~PARAMETER INFORMATION
#MNEM.UNIT          VALUE    DESCRIPTION
#----------   ------------   ------------------------------
 EKB .F              5237:   KELLING BUSHING
 EGL .F              5236:   GROUND LEVEL
 DATE.        21-AUG-1987:   RUN DATE
 BLI .F              2180:   BOTTOM LOG INTERVAL
 TLI .F               780:   TOP LOG INTERVAL
 LUN .              T-148:   LOGGING UNIT NUMBER
 ENGI.            R. HUSK:   RECORDING ENGINEER
 WITN.           C. TOWER:   WITNESSED BY
 CLNT.            A2DTECH:   CLIENT CODE
 ORIG.           5" PRINT:   ORIGIN OF DATA
 UWI .       490251118900:   UNIQUE WELL ID
 DICO. A2D Technologies, Inc.:   DIGITIZING COMPANY
~OTHER INFORMATION
~A   DEPT      ROP         TGAS 
# ...
 1144.0000     0.3680    82.0730
 1144.5000     0.3680    82.0949
 1145.0000     0.3680    82.1168
 1145.5000     0.3680    82.1387
 1146.0000     0.3680    82.1606
 1146.5000     0.3680    82.1825
 1147.0000     0.3680    82.2044
 1147.5000     0.3680    82.2263
 1148.0000     0.3557    82.2482
 1148.5000     0.3399    82.2701
 1149.0000     0.3288    82.2920
 1149.5000     0.3316    82.3139
 1150.0000     0.3355    82.3358
 1150.5000     0.3430    82.3577
 1151.0000     0.3463    82.3796
 1151.5000     0.3463    82.4015
 1152.0000     0.3463    82.4234
 1152.5000     0.3463    82.4453
 1153.0000     0.3463    82.4671
 1153.5000     0.3463    82.4890
 1154.0000     0.3463    82.5109
 1154.5000     0.3463    82.5328
 1155.0000     0.3463    82.5547
 1155.5000     0.3463    82.5766
 1156.0000     0.3355    82.5985
 1156.5000     0.3355    82.6204
 1157.0000     0.3355    82.6423
 1157.5000     0.3355    82.6642
 1158.0000     0.3355    82.6861
 1158.5000     0.3355    82.7080
 1159.0000     0.3355    82.7299
 1159.5000     0.3355    82.7518
 1160.0000     0.3463    82.7737
 1160.5000     0.3458    82.7297
 1161.0000     0.3452    82.6857
 1161.5000     0.3447    82.6416
 1162.0000     0.3442    82.5976
 1162.5000     0.3436    82.5536
 1163.0000     0.3431    82.5096
 1163.5000     0.3425    82.4656
 1164.0000     0.3420    82.4215
 1164.5000     0.3415    82.3775
 1165.0000     0.3409    82.3335
 1165.5000     0.3404    82.2895
 1166.0000     0.3398    82.2454
 1166.5000     0.3393    82.2014
 1167.0000     0.3387    82.1574
 1167.5000     0.3382    82.1134
 1168.0000     0.3377    82.0693
 1168.5000     0.3371    82.0253
 1169.0000     0.3366    81.9813
 1169.5000     0.3360    81.9373
 1170.0000     0.3355    81.8932
 1170.5000     0.3350    81.8492
 1171.0000     0.3344    81.8052
 1171.5000     0.3396    81.7612
 1172.0000     0.3442    81.7171
 1172.5000     0.3436    81.6731
 1173.0000     0.3431    81.6291
 1173.5000     0.3425    81.5851
 1174.0000     0.3420    81.5410
 1174.5000     0.3415    81.4970
 1175.0000     0.3409    81.4530
 1175.5000     0.3404    81.4090
 1176.0000     0.3398    81.3649
 1176.5000     0.3393    81.3209
 1177.0000     0.3387    81.2769
 1177.5000     0.3381    81.2329
 1178.0000     0.3376    81.1889
 1178.5000     0.3370    81.1448
 1179.0000     0.3365    81.1008
 1179.5000     0.3360    81.0568
 1180.0000     0.3571    81.0201
 1180.5000     0.3452    81.0201
 1181.0000     0.3441    81.0202
 1181.5000     0.3431    81.0202
 1182.0000     0.3420    81.0203
 1182.5000     0.3409    81.0203
 1183.0000     0.3398    81.0204
 1183.5000     0.3389    81.0204
 1184.0000     0.3487    81.0204
 1184.5000     0.3474    81.0205
 1185.0000     0.3463    81.0205
 1185.5000     0.3452    81.0206
 1186.0000     0.3442    81.0206
 1186.5000     0.3472    81.0207
 1187.0000     0.3483    81.0207
 1187.5000     0.3409    81.0208
 1188.0000     0.3398    81.0208
 1188.5000     0.3500    81.0209
 1189.0000     0.3653    81.0209
 1189.5000     0.3882    81.0209
 1190.0000     0.4207    81.0210
 1190.5000     0.4390    81.0210
 1191.0000     0.4491    81.0211
 1191.5000     0.4513    81.0211
 1192.0000     0.4502    81.0212
 1192.5000     0.4489    81.0212
 1193.0000     0.4479    81.0213
 1193.5000     0.4468    81.0213
 1194.0000     0.4458    81.0214
 1194.5000     0.4447    81.0214
 1195.0000     0.4437    81.0214
 1195.5000     0.4426    81.0215
 1196.0000     0.4416    81.0215
 1196.5000     0.4405    81.0216
 1197.0000     0.4394    81.0216
 1197.5000     0.4383    81.0217
 1198.0000     0.4372    81.0217
 1198.5000     0.4386    81.0218
 1199.0000     0.4459    81.0218
 1199.5000     0.4448    81.0219
 1200.0000     0.4437    81.0219
 1200.5000     0.4548    81.0658
 1201.0000     0.4551    81.1098
 1201.5000     0.4557    81.1537
 1202.0000     0.4665    81.1977
 1202.5000     0.4656    81.2416
 1203.0000     0.4561    81.2856
 1203.5000     0.4564    81.3295
 1204.0000     0.4567    81.3735
 1204.5000     0.4570    81.4174
 1205.0000     0.4541    81.4614
 1205.5000     0.4467    81.5053
 1206.0000     0.4470    81.5493
 1206.5000     0.4472    81.5932
 1207.0000     0.4475    81.6371
 1207.5000     0.4478    81.6811
 1208.0000     0.4481    81.7250
 1208.5000     0.4483    81.7690
 1209.0000     0.4486    81.8129
 1209.5000     0.4489    81.8569
 1210.0000     0.4563    81.9008
 1210.5000     0.4602    81.9448
 1211.0000     0.4605    81.9887
 1211.5000     0.4692    82.0327
 1212.0000     0.4719    82.0766
 1212.5000     0.4722    82.1206
 1213.0000     0.4724    82.1645
 1213.5000     0.4835    82.2085
 1214.0000     0.4946    82.2524
 1214.5000     0.4949    82.2963
 1215.0000     0.4951    82.3403
 1215.5000     0.4954    82.3842
 1216.0000     0.4957    82.4282
 1216.5000     0.4959    82.4721
 1217.0000     0.4941    82.5161
 1217.5000     0.4857    82.5600
 1218.0000     0.4859    82.6040
 1218.5000     0.4895    82.6479
 1219.0000     0.4973    82.6919
 1219.5000     0.5058    82.7358
 1220.0000     0.5194    82.7798
 1220.5000     0.5616    82.8089
 1221.0000     0.6363    82.8191
 1221.5000     0.7651    82.8294
 1222.0000     0.7965    82.8397
 1222.5000     0.7941    82.8500
 1223.0000     0.7487    82.8603
 1223.5000     0.7025    82.8706
 1224.0000     0.6483    82.8809
 1224.5000     0.6153    82.8911
 1225.0000     0.5889    82.9014
 1225.5000     0.5472    82.9117
 1226.0000     0.5240    82.9220
 1226.5000     0.5031    82.9323
 1227.0000     0.4858    82.9426
 1227.5000     0.4571    82.9529
 1228.0000     0.4450    82.9631
 1228.5000     0.4361    82.9734
 1229.0000     0.4351    82.9837
 1229.5000     0.4340    82.9940
 1230.0000     0.4288    83.0043
 1230.5000     0.4167    83.0146
 1231.0000     0.4091    83.0248
 1231.5000     0.4080    83.0351
 1232.0000     0.4120    83.0454
 1232.5000     0.4167    83.0557
 1233.0000     0.4156    83.0660
 1233.5000     0.4145    83.0763
 1234.0000     0.4134    83.0866
 1234.5000     0.4123    83.0968
 1235.0000     0.4113    83.1071
 1235.5000     0.4034    83.1174
 1236.0000     0.3983    83.1277
 1236.5000     0.3972    83.1380
 1237.0000     0.4036    83.1483
 1237.5000     0.4058    83.1586
 1238.0000     0.4048    83.1688
 1238.5000     0.4120    83.1791
 1239.0000     0.4134    83.1894
 1239.5000     0.4013    83.1997
 1240.0000     0.4003    83.2117
 1240.5000     0.4108    83.1933
 1241.0000     0.4119    83.1712
 1241.5000     0.4206    83.1492
 1242.0000     0.4174    83.1272
 1242.5000     0.4085    83.1051
 1243.0000     0.4113    83.0831
 1243.5000     0.4220    83.0611
 1244.0000     0.4327    83.0390
 1244.5000     0.4571    83.0170
 1245.0000     0.4866    82.9950
 1245.5000     0.5080    82.9729
 1246.0000     0.5238    82.9509
 1246.5000     0.5233    82.9289
 1247.0000     0.5227    82.9068
 1247.5000     0.5222    82.8848
 1248.0000     0.5290    82.8628
 1248.5000     0.5319    82.8407
 1249.0000     0.5232    82.8187
 1249.5000     0.5199    82.7967
 1250.0000     0.5194    82.7746
 1250.5000     0.5080    82.7526
 1251.0000     0.4859    82.7306
 1251.5000     0.4637    82.7085
 1252.0000     0.4199    82.6865
 1252.5000     0.3862    82.6645
 1253.0000     0.3533    82.6424
 1253.5000     0.3425    82.6204
 1254.0000     0.3405    82.5984
 1254.5000     0.3307    82.5763
 1255.0000     0.3409    82.5543
 1255.5000     0.3404    82.5323
 1256.0000     0.3368    82.5102
 1256.5000     0.3285    82.4882
 1257.0000     0.3279    82.4662
 1257.5000     0.3317    82.4441
 1258.0000     0.3377    82.4221
 1258.5000     0.3371    82.4001
 1259.0000     0.3311    82.3781
 1259.5000     0.3252    82.3560
 1260.0000     0.3030    82.3331
 1260.5000     0.3135    82.3003
 1261.0000     0.3133    82.2674
 1261.5000     0.3238    82.2346
 1262.0000     0.3236    82.2017
 1262.5000     0.3233    82.1689
 1263.0000     0.3231    82.1360
 1263.5000     0.3237    82.1032
 1264.0000     0.3334    82.0703
 1264.5000     0.3331    82.0375
 1265.0000     0.3328    82.0046
