~VERSION INFORMATION
 VERS.                2.0:   CWLS LOG ASCII STANDARD - VERSION 2.0
 WRAP.                 NO:   ONE LINE PER DEPTH STEP
~WELL INFORMATION
#MNEM.UNIT      DATA TYPE    INFORMATION
#----------   ------------   ------------------------------
 STRT.F           16.0000:   START DEPTH
 STOP.F         1334.0000:   STOP DEPTH
 STEP.F            0.5000:   STEP LENGTH
 NULL.          -999.2500:   NO VALUE
 COMP. U S NAVY/INTEX OIL CO:   COMPANY
 WELL.  S-11 NPR 3 #87-11:   WELL
 FLD .             TEAPOT:   FIELD
 LOC .      S11 T38N R78W:   LOCATION
 CNTY.            NATRONA:   COUNTY
 STAT.            WYOMING:   STATE
 CTRY. UNITED STATES OF AMERICA:   COUNTRY
 SRVC.       Schlumberger:   SERVICE COMPANY
 DATE.        17-JUN-1966:   LOGDATE
 API .       490250958900:   API NUMBER
~CURVE INFORMATION
#MNEM.UNIT       API CODE    CURVE DESCRIPTION
#----------   ------------   ------------------------------
 DEPT.F                  :   
 GRD .GAPI   45 310 01 00:   GAMMA RAY FROM DENSITY LOG
 CALD.IN     45 280 60 00:   CALIPER
 RHOB.G/C3   45 350 01 00:   BULK DENSITY
 DPOR.DEC    45 890 12 00:   DENSITY POROSITY SANDSTONE
 DRHO.G/C3   45 356 01 00:   DENSITY CORRECTION
 ASN .OHMM   05 041 16 00:   AMPLIFIED SHORT NORMAL 16"
 ILD .OHMM   05 120 46 00:   INDUCTION LOG DEEP
 CILD.MMHO   05 110 46 00:   CONDUCTIVITY INDUCTION LOG DEEP
 SPR .MV     05 010 01 00:   SPONTANEOUS POTENTIAL FROM RES.
~PARAMETER INFORMATION
#MNEM.UNIT          VALUE    DESCRIPTION
#----------   ------------   ------------------------------
 PD  .                 GL:   PERMANENT DATUM
 EPD .F              5284:   ELEVATION PERMANENT DATUM
 LMF .                 KB:   LOG MEASURED FROM
 DAPD.F                 5:   FEET ABOVE PERMANENT DATUM
 DMF .                 KB:   DRILLING MEASURED FROM
 EKB .F              5289:   KELLING BUSHING
 EGL .F              5284:   GROUND LEVEL
 DATE.          8-17-1966:   RUN DATE
 RUN .                  1:   RUN NUMBER
 DD  .F              1335:   DEPTH DRILLER
 DL  .F              1335:   DEPTH LOGGER
 BLI .F              1334:   BOTTOM LOG INTERVAL
 TLI .F                50:   TOP LOG INTERVAL
 CS  .IN            8.625:   CASING SIZE
 CBD .F                10:   CASING BOTTOM DRILLER
 BS  .IN            7.875:   BIT SIZE
 BSD .F              1335:   BIT SIZE AT DEPTH
 DFT .           GEL-CHEM:   DRILLING FLUID TYPE
 DFD .                9.3:   DRILLING FLUID DENSITY
 DFV .                 50:   DRILLING FLUID VISCOSITY
 MSS .          FLOW LINE:   MUD SAMPLE SOURCE
 RMS .OHMM           1.38:   RESISTIVITY MUD SAMPLE
 MST .F                80:   MUD SAMPLE TEMPERATURE
 RMF .OHMM           1.09:   RESISTIVITY MUD FILTRATE SAMPLE
 MFST.F                77:   MUD FILTRATE SAMPLE TEMPERATURE
 MFSS.                  M:   MUD FILTRATE SAMPLE SOURCE
 RMB .OHMM           1.70:   RESISTIVITY MUD AT BHT
 BHT .F               108:   BOTTOM HOLE TEMPERATURE
 TCS .HRS               1:   TIME CURCULATED STOPPED
 MRT .F               108:   MAXIMUM RECORDED TEMPERATURE
 LUN .               4507:   LOGGING UNIT NUMBER
 LUL .               CSPR:   LOGGING UNIT LOCATION
 ENGI.            MANGOLD:   RECORDING ENGINEER
 WITN.                MAY:   WITNESSED BY
 CLNT.            A2DTECH:   CLIENT CODE
 ORIG.       2", 5" PRINT:   ORIGIN OF DATA
 UWI .       490250958900:   UNIQUE WELL ID
 DICO. A2D Technologies, Inc.:   DIGITIZING COMPANY
~OTHER INFORMATION
~A   DEPT       GRD      CALD       RHOB       DPOR       DRHO        ASN        ILD       CILD        SPR   
# ...
  198.5000   103.2897     8.4566     2.4550     0.1205     0.0118     6.6447     6.1315   163.0389   -57.3216
  199.0000   106.0224     8.4639     2.4563     0.1227     0.0178     6.6768     6.0821   165.1951   -57.2504
  199.5000   108.7196     8.4712     2.4578     0.1247     0.0238     6.7078     6.0326   167.3513   -57.1791
  200.0000   110.1817     8.4785     2.4680     0.1192     0.0297     6.7167     5.9583   169.5076   -57.1077
  200.5000   108.1372     8.4846     2.4780     0.1143     0.0356     6.7031     5.8584   171.6953   -57.0368
  201.0000   106.1810     8.4760     2.4880     0.1108     0.0415     6.6177     5.7582   170.8169   -56.9650
  201.5000   103.6203     8.4676     2.4966     0.1081     0.0474     6.5230     5.7395   168.7450   -56.9929
  202.0000   100.3355     8.4593     2.4898     0.1090     0.0523     6.4303     5.7941   166.6584   -57.1118
  202.5000    97.0982     8.4510     2.4835     0.1116     0.0436     6.4028     5.8495   164.5771   -57.2313
  203.0000    95.0534     8.4427     2.4896     0.1086     0.0325     6.5263     5.9053   162.3635   -57.3507
  203.5000    96.5327     8.4344     2.4878     0.1060     0.0216     6.6478     5.9608   162.6096   -57.4704
  204.0000    97.9255     8.4261     2.4599     0.1242     0.0279     6.6313     6.0090   162.8725   -57.4948
  204.5000    97.9000     8.4272     2.4329     0.1400     0.0332     6.5507     5.9882   163.1354   -57.4082
  205.0000    97.8623     8.4297     2.4051     0.1521     0.0202     6.7565     5.9289   163.9618   -57.3217
  205.5000   106.0475     8.4321     2.4139     0.1442     0.0109     6.9303     5.8705   167.7675   -57.2348
  206.0000   109.8943     8.4345     2.4273     0.1366     0.0170     6.7424     5.8120   171.5733   -57.1464
  206.5000   108.0392     8.4369     2.4408     0.1294     0.0263     6.5114     5.7536   175.3938   -57.1138
  207.0000   106.0080     8.4393     2.4542     0.1250     0.0357     6.2804     5.6951   179.2340   -57.0942
  207.5000   103.9472     8.4417     2.4604     0.1207     0.0450     6.1206     5.6367   179.9620   -57.0751
  208.0000   101.9146     8.4441     2.4626     0.1183     0.0543     6.0298     5.5782   180.6618   -57.0557
  208.5000   102.2245     8.4465     2.4541     0.1240     0.0573     6.0589     5.5198   181.3758   -57.0364
  209.0000   104.8353     8.4489     2.4458     0.1280     0.0440     6.0889     5.4613   182.0592   -57.0171
  209.5000   107.4291     8.4513     2.4376     0.1345     0.0335     6.1189     5.4029   185.7692   -56.9977
  210.0000   106.7377     8.4537     2.4295     0.1404     0.0229     6.1445     5.3444   190.1316   -56.9784
  210.5000   106.3150     8.4561     2.4214     0.1374     0.0186     6.0836     5.2860   194.5022   -56.9590
  211.0000   108.0438     8.4585     2.4152     0.1419     0.0347     5.9642     5.2275   197.1731   -56.9397
  211.5000   107.0639     8.4609     2.4103     0.1470     0.0460     5.8469     5.1690   198.8381   -56.9203
  212.0000   105.6791     8.4633     2.4256     0.1426     0.0575     5.7299     5.1106   200.8262   -56.9010
  212.5000   103.8549     8.4631     2.4228     0.1374     0.0611     5.6128     5.0521   203.8232   -56.8817
  213.0000   100.2578     8.4536     2.4190     0.1442     0.0454     5.4953     4.9938   206.8203   -56.8623
  213.5000    96.7444     8.4444     2.4160     0.1420     0.0344     5.3792     4.9336   209.0367   -56.8430
  214.0000    93.2350     8.4352     2.4300     0.1398     0.0256     5.3179     4.9758   208.0437   -56.8237
  214.5000    89.6647     8.4260     2.4452     0.1271     0.0411     5.4406     5.0634   205.9487   -56.8043
  215.0000    88.9537     8.4168     2.4485     0.1345     0.0535     5.5563     5.1525   203.5373   -56.7850
  215.5000    93.1638     8.4076     2.4223     0.1420     0.0424     5.5996     5.2415   201.1259   -56.7655
  216.0000    97.4367     8.3984     2.4068     0.1496     0.0314     5.6317     5.3305   198.7145   -56.7464
  216.5000   100.2933     8.3892     2.3946     0.1573     0.0204     5.6638     5.4194   196.3031   -56.7358
  217.0000   100.7943     8.3800     2.4133     0.1467     0.0096     5.6960     5.5084   193.7107   -56.7503
  217.5000    99.8700     8.3708     2.4330     0.1357     0.0021     5.7281     5.5973   189.5482   -56.7640
  218.0000   104.0153     8.3617     2.4526     0.1243     0.0116     5.7595     5.6863   185.3856   -56.7776
  218.5000   108.6337     8.3524     2.4690     0.1186     0.0208     5.8818     5.7752   181.2231   -56.7913
  219.0000   106.9226     8.3416     2.4640     0.1178     0.0300     6.0371     5.8642   177.0606   -56.8049
  219.5000   104.9990     8.3237     2.4593     0.1209     0.0394     6.1931     5.9532   173.3472   -56.8186
  220.0000   103.7566     8.3059     2.4642     0.1173     0.0485     6.3493     6.0424   170.5375   -56.8322
  220.5000   102.4776     8.2882     2.4791     0.1138     0.0532     6.5104     6.1313   167.7349   -56.8459
  221.0000   101.5784     8.2705     2.4729     0.1160     0.0443     6.5290     6.2024   165.5113   -56.8595
  221.5000   102.8340     8.2528     2.4679     0.1181     0.0517     6.5097     6.1570   166.8862   -56.8732
  222.0000   106.8263     8.2351     2.4866     0.1138     0.0575     6.4883     6.1132   168.2254   -56.8868
  222.5000   110.8482     8.2172     2.4984     0.1052     0.0458     6.5059     6.0697   169.5655   -56.9005
  223.0000   110.8717     8.1997     2.4818     0.1122     0.0539     6.5337     6.0262   170.9056   -56.9142
  223.5000   110.3189     8.1950     2.4615     0.1220     0.0573     6.5614     5.9828   172.2457   -56.9285
  224.0000   111.9595     8.2491     2.4478     0.1232     0.0361     6.5741     5.9394   173.5859   -56.9148
  224.5000   113.6245     8.3021     2.4539     0.1222     0.0271     6.5117     5.8958   174.9260   -56.8945
  225.0000   111.0461     8.3558     2.4456     0.1292     0.0349     6.4505     5.8519   176.2661   -56.8741
  225.5000   105.7969     8.3653     2.4360     0.1363     0.0276     6.3888     5.8123   175.1561   -56.8538
  226.0000   104.6069     8.3654     2.4262     0.1392     0.0185     6.3778     5.8645   174.0461   -56.8335
  226.5000   104.6862     8.3653     2.4278     0.1382     0.0092     6.4223     5.9205   172.9361   -56.8131
  227.0000   102.2914     8.3653     2.4341     0.1362     0.0152     6.4821     5.9762   171.1243   -56.7928
  227.5000   103.1681     8.3653     2.4172     0.1410     0.0225     6.5414     6.0317   168.3493   -56.7727
  228.0000   106.0393     8.3653     2.4139     0.1470     0.0235     6.6415     6.0872   165.5743   -56.7532
  228.5000   106.2356     8.3653     2.4236     0.1394     0.0165     6.7624     6.1427   162.7993   -56.7264
  229.0000   106.3076     8.3658     2.4159     0.1435     0.0155     6.8821     6.1984   162.3635   -56.5608
  229.5000   106.3789     8.3663     2.4088     0.1489     0.0214     6.9539     6.2544   162.3635   -56.3939
  230.0000   106.1020     8.3668     2.4154     0.1460     0.0165     6.8888     6.3021   162.8659   -56.2277
  230.5000   105.2143     8.3673     2.4225     0.1425     0.0026     6.7406     6.2353   163.9648   -56.1182
  231.0000   105.0432     8.3678     2.4381     0.1355     0.0118     6.6788     6.1673   165.0638   -56.0752
  231.5000   106.0646     8.3683     2.4648     0.1251     0.0231     6.7134     6.0998   166.1627   -56.0318
  232.0000   104.5994     8.3689     2.4456     0.1297     0.0343     6.7350     6.0325   167.2616   -55.9885
  232.5000   102.9857     8.3694     2.4270     0.1350     0.0437     6.6053     5.9651   168.3605   -55.9448
  233.0000   101.3957     8.3699     2.4307     0.1356     0.0289     6.5838     5.8977   169.4594   -55.9728
  233.5000   101.0102     8.3704     2.4350     0.1333     0.0264     6.5644     5.8304   170.5578   -56.0182
  234.0000   100.9187     8.3709     2.4368     0.1311     0.0325     6.5038     5.7631   171.6567   -56.0643
  234.5000   102.5041     8.3714     2.4298     0.1331     0.0387     6.4433     5.6957   172.7462   -56.1103
