~VERSION INFORMATION
 VERS.                2.0:   CWLS LOG ASCII STANDARD - VERSION 2.0
 WRAP.                 NO:   ONE LINE PER DEPTH STEP
~WELL INFORMATION
#MNEM.UNIT      DATA TYPE    INFORMATION
#----------   ------------   ------------------------------
 STRT.F           20.0000:   START DEPTH
 STOP.F          610.0000:   STOP DEPTH
 STEP.F            0.5000:   STEP LENGTH
 NULL.          -999.2500:   NO VALUE
 COMP. LAWRENCE/ALLISON INC:   COMPANY
 WELL.    44-55 SX #10-10:   WELL
 FLD .             TEAPOT:   FIELD
 LOC .      S10 T38N R78W:   LOCATION
 CNTY.            NATRONA:   COUNTY
 STAT.            WYOMING:   STATE
 CTRY. UNITED STATES OF AMERICA:   COUNTRY
 SRVC.            Unknown:   SERVICE COMPANY
 DATE.        29-AUG-1984:   LOGDATE
 API .       490251098300:   API NUMBER
~CURVE INFORMATION
#MNEM.UNIT       API CODE    CURVE DESCRIPTION
#----------   ------------   ------------------------------
 DEPT.F                  :   
 AC  .US/F   60 520 00 00:   ACOUSTIC SONIC
 SPR .MV     07 010 01 00:   SPONTANEOUS POTENTIAL
 RILD.OHMM   07 120 46 00:   INDUCTION LOG DEEP RESISTIVITY
 RILM.OHMM   07 120 44 00:   INDUCTION LOG MEDIUM RESISTIVITY
 RFOC.OHMM   07 220 04 00:   RESISTIVITY FOCUSED LOG
 GRD .GAPI   45 310 01 00:   GAMMA RAY FROM DENSITY LOG
 CALD.IN     45 280 60 00:   CALIPER
 DEN .G/C3   45 350 01 00:   COMPENSATED BULK DENSTIY
 CNC .DEC    42 890 03 00:   NEUTRON POROSITY SANDSTONE
 PORD.DEC    45 890 12 00:   DENSITY POROSITY SANDSTONE
 CORR.G/C3   45 356 01 00:   DENSITY CORRECTION
~PARAMETER INFORMATION
#MNEM.UNIT          VALUE    DESCRIPTION
#----------   ------------   ------------------------------
 PD  .                 GL:   PERMANENT DATUM
 EPD .F              5247:   ELEVATION PERMANENT DATUM
 LMF .                 KB:   LOG MEASURED FROM
 DAPD.F                13:   FEET ABOVE PERMANENT DATUM
 DMF .                 KB:   DRILLING MEASURED FROM
 EKB .F              5260:   KELLING BUSHING
 EGL .F              5247:   GROUND LEVEL
 DATE.        29-AUG-1984:   RUN DATE
 RUN .                  1:   RUN NUMBER
 DD  .F               613:   DEPTH DRILLER
 DL  .F               607:   DEPTH LOGGER
 BLI .F               607:   BOTTOM LOG INTERVAL
 TLI .F                42:   TOP LOG INTERVAL
 CBL .F                42:   CASING BOTTOM LOGGER
 BS  .IN            7.875:   BIT SIZE
 BSD .F               613:   BIT SIZE AT DEPTH
 DFT .          KCL WATER:   DRILLING FLUID TYPE
 MSS .               TANK:   MUD SAMPLE SOURCE
 RMS .OHMM           .295:   RESISTIVITY MUD SAMPLE
 MST .F                75:   MUD SAMPLE TEMPERATURE
 TCS .HRS               3:   TIME CURCULATED STOPPED
 MRT .F               100:   MAXIMUM RECORDED TEMPERATURE
 LUN .               4082:   LOGGING UNIT NUMBER
 LUL .               ROOS:   LOGGING UNIT LOCATION
 ENGI.             MILLER:   RECORDING ENGINEER
 WITN.            JOHNSON:   WITNESSED BY
 CLNT.            A2DTECH:   CLIENT CODE
 ORIG.       2", 5" PRINT:   ORIGIN OF DATA
 UWI .       490251098300:   UNIQUE WELL ID
 DICO. A2D Technologies, Inc.:   DIGITIZING COMPANY
~OTHER INFORMATION
~A   DEPT       AC        SPR       RILD       RILM       RFOC         GRD      CALD        DEN        CNC       PORD       CORR   
# ...
  416.5000    89.2538   -36.0431    22.3604    23.4848    20.0921    57.6929     7.7982     2.4281     0.2810     0.1492     0.0772
  417.0000    91.9569   -36.1948    22.3999    22.3337    20.4449    57.8515     7.7974     2.3995     0.2726     0.1656     0.0624
  417.5000    94.6599   -36.2881    22.4366    21.3922    21.2314    56.9472     7.7966     2.3905     0.2748     0.1721     0.0541
  418.0000    96.5266   -36.4151    22.0207    21.1858    20.7574    56.0374     7.7958     2.3982     0.2800     0.1686     0.0461
  418.5000    96.9361   -36.5449    21.7411    20.9803    20.1579    55.1277     7.7950     2.4076     0.2833     0.1638     0.0381
  419.0000    96.7343   -36.6738    21.6253    20.7743    19.9083    54.2119     7.7942     2.4143     0.2847     0.1589     0.0362
  419.5000    96.4554   -36.8027    21.6848    20.6555    20.4766    54.1547     7.7934     2.4153     0.2871     0.1581     0.0393
  420.0000    96.1765   -36.9329    21.7884    21.5443    20.7590    58.2036     7.7926     2.4124     0.2896     0.1585     0.0548
  420.5000    95.8861   -37.0676    21.8924    22.2170    20.9419    62.4457     7.7918     2.4087     0.2925     0.1608     0.0700
  421.0000    95.5275   -36.8313    21.9970    23.0698    21.1264    66.2249     7.7909     2.4050     0.2955     0.1632     0.0852
  421.5000    95.1690   -36.5458    22.1020    23.0600    21.3126    65.6196     7.7901     2.4012     0.2985     0.1655     0.1002
  422.0000    95.0297   -36.2869    22.2299    22.8330    21.4274    64.2813     7.7893     2.3984     0.3016     0.1663     0.1152
  422.5000    95.2812   -36.3629    21.8771    22.4396    20.9750    65.3685     7.7885     2.4047     0.3048     0.1633     0.0923
  423.0000    95.5087   -36.5368    21.4376    22.0549    20.6014    66.5305     7.7877     2.4112     0.3078     0.1605     0.0603
  423.5000    95.6899   -36.7086    21.0069    21.6773    20.2344    65.8751     7.7869     2.4077     0.2911     0.1617     0.0308
  424.0000    95.8383   -36.8808    20.5849    21.3062    19.8740    63.1335     7.7861     2.3989     0.2716     0.1675     0.0405
  424.5000    95.7268   -37.0529    20.1714    20.9414    19.5201    62.1709     7.7853     2.3899     0.2678     0.1733     0.0600
  425.0000    95.4591   -37.2249    19.7661    20.5229    19.1727    66.0246     7.7845     2.3888     0.2755     0.1725     0.0533
  425.5000    95.1914   -37.3970    19.3690    19.8789    18.8322    69.8653     7.7837     2.4063     0.2794     0.1666     0.0443
  426.0000    94.6400   -37.5691    18.9799    19.0140    18.4968    72.1825     7.7829     2.4246     0.2620     0.1574     0.0353
  426.5000    93.8185   -37.7411    18.5986    19.1469    17.8435    69.3591     7.7821     2.4268     0.2457     0.1505     0.0265
  427.0000    93.1740   -37.9148    18.2250    19.9156    17.3170    64.4231     7.7813     2.4178     0.2538     0.1600     0.0367
  427.5000    92.9083   -38.0902    17.8589    21.0371    17.1868    59.1968     7.7805     2.3996     0.2673     0.1710     0.0503
  428.0000    92.8247   -38.2139    17.5043    20.0057    17.0575    57.3761     7.7797     2.3860     0.2702     0.1753     0.0648
  428.5000    92.7445   -37.7533    17.3660    17.2068    16.9292    61.5396     7.7831     2.3802     0.2582     0.1779     0.0995
  429.0000    92.8443   -37.1277    17.2302    14.8169    16.8019    65.6373     7.7931     2.3743     0.2617     0.1822     0.1528
  429.5000    93.0697   -36.5105    17.0959    15.2224    16.6755    68.6938     7.8030     2.3685     0.2690     0.1861     0.1683
  430.0000    93.2849   -35.8985    16.9624    15.9057    16.5501    67.5512     7.8129     2.3780     0.2659     0.1823     0.1409
  430.5000    93.5429   -35.4320    16.8300    16.6094    16.4256    66.1821     7.8244     2.3926     0.2574     0.1733     0.0613
  431.0000    93.5429   -35.2952    16.6986    17.0282    16.3021    66.4751     7.8386     2.4071     0.2570     0.1643     0.0171
  431.5000    93.4753   -35.2870    16.5682    16.9681    16.1795    68.2415     7.8528     2.4215     0.2663     0.1553     0.0264
  432.0000    93.1506   -35.2881    16.4388    16.9096    16.0578    68.3642     7.8558     2.4315     0.2761     0.1496     0.0431
  432.5000    92.7991   -35.2883    16.3105    16.8513    15.9370    65.4958     7.8508     2.4306     0.2682     0.1503     0.0600
  433.0000    92.6422   -35.2883    16.1831    16.7932    15.8210    62.6580     7.8458     2.4261     0.2600     0.1516     0.0770
  433.5000    92.4853   -35.2883    16.0568    16.7353    15.6780    62.1020     7.8407     2.4227     0.2586     0.1530     0.0816
  434.0000    92.3285   -35.2883    15.9314    16.6777    15.5407    63.2057     7.8356     2.4217     0.2674     0.1540     0.0584
  434.5000    92.1716   -35.2883    15.8070    16.6206    15.4046    64.3456     7.8305     2.4151     0.2746     0.1578     0.0023
  435.0000    92.0147   -35.2880    15.6836    16.5645    15.2697    63.1450     7.8254     2.4071     0.2681     0.1629    -0.0052
  435.5000    91.8463   -35.2872    15.5611    16.4215    15.1360    60.6406     7.8202     2.4068     0.2533     0.1631     0.0004
  436.0000    91.6138   -35.2933    15.4396    16.2845    15.0034    58.0497     7.8191     2.4113     0.2501     0.1597     0.0057
  436.5000    91.2475   -35.4672    15.3191    16.1488    14.8720    60.3305     7.8191     2.4110     0.2585     0.1606     0.0109
  437.0000    90.8873   -35.9826    15.1995    16.0141    14.7418    65.4511     7.8191     2.4091     0.2645     0.1609     0.0161
  437.5000    90.5034   -36.6042    15.0831    15.8806    14.6127    66.5776     7.8191     2.4163     0.2603     0.1557     0.0218
  438.0000    90.1195   -37.2298    14.9745    15.7482    14.4847    66.6200     7.8191     2.4256     0.2546     0.1503     0.0279
  438.5000    89.7356   -37.8566    14.8668    15.6169    14.3578    67.3088     7.8191     2.4350     0.2488     0.1448     0.0339
  439.0000    89.3515   -38.4529    14.7598    15.4867    14.2321    68.5564     7.8191     2.4444     0.2431     0.1394     0.0400
  439.5000    88.9678   -38.4740    14.6535    15.3907    14.1074    69.4979     7.8191     2.4539     0.2389     0.1336     0.0460
  440.0000    88.5531   -38.4648    14.5480    15.3177    13.9839    69.6465     7.8191     2.4558     0.2442     0.1332     0.0506
  440.5000    88.4848   -38.3175    14.4433    15.2490    13.8614    68.6601     7.8191     2.4511     0.2495     0.1359     0.0522
  441.0000    88.4149   -38.1667    14.3393    15.1807    13.7400    68.5635     7.8203     2.4482     0.2548     0.1372     0.0459
  441.5000    88.3450   -38.0162    14.2360    15.1126    13.6197    69.2151     7.8217     2.4553     0.2590     0.1332     0.0377
  442.0000    88.2754   -37.8748    14.1333    15.0449    13.5322    69.4343     7.8230     2.4629     0.2561     0.1272     0.0298
  442.5000    88.2059   -37.9090    14.0392    14.9773    13.5440    66.8695     7.8244     2.4687     0.2530     0.1260     0.0243
  443.0000    88.1359   -37.9539    14.0760    14.9103    13.5533    63.9059     7.8257     2.4705     0.2604     0.1248     0.0274
  443.5000    88.0662   -37.9986    14.1115    14.8351    13.5626    64.6563     7.8271     2.4720     0.2684     0.1236     0.0330
  444.0000    87.9036   -38.0429    14.1467    15.0229    13.5720    68.9052     7.8284     2.4704     0.2764     0.1240     0.0317
  444.5000    87.7211   -38.0873    14.1820    15.2407    13.5813    72.7081     7.8297     2.4650     0.2798     0.1273     0.0268
  445.0000    87.3919   -38.1316    14.2173    15.4616    13.5906    73.3500     7.8311     2.4621     0.2731     0.1287     0.0247
  445.5000    86.9777   -38.1760    14.2528    15.6857    13.6000    72.7670     7.8324     2.4644     0.2639     0.1275     0.0369
  446.0000    86.5634   -38.2195    14.2992    15.9130    13.6093    71.6578     7.8337     2.4667     0.2554     0.1264     0.0516
  446.5000    86.1910   -38.2582    14.2616    16.1437    13.6187    67.5135     7.8351     2.4617     0.2598     0.1297     0.0651
