~VERSION INFORMATION
 VERS.                2.0:   CWLS LOG ASCII STANDARD - VERSION 2.0
 WRAP.                 NO:   ONE LINE PER DEPTH STEP
~WELL INFORMATION
#MNEM.UNIT      DATA TYPE    INFORMATION
#----------   ------------   ------------------------------
 STRT.F           34.0000:   START DEPTH
 STOP.F          445.0000:   STOP DEPTH
 STEP.F            0.5000:   STEP LENGTH
 NULL.          -999.2500:   NO VALUE
 COMP. FENIX & SCISSON U.S. NAVY:   COMPANY
 WELL.       NPR #64-S-10:   WELL
 FLD .             TEAPOT:   FIELD
 LOC .      S10 T38N R78W:   LOCATION
 CNTY.            NATRONA:   COUNTY
 STAT.            WYOMING:   STATE
 CTRY. UNITED STATES OF AMERICA:   COUNTRY
 SRVC.              Welex:   SERVICE COMPANY
 DATE.        08-APR-1977:   LOGDATE
 API .       490251033400:   API NUMBER
~CURVE INFORMATION
#MNEM.UNIT       API CODE    CURVE DESCRIPTION
#----------   ------------   ------------------------------
 DEPT.F                  :   
 SPR .MV     07 010 01 00:   SPONTANEOUS POTENTIAL
 ILD .OHMM   07 120 46 00:   INDUCTION LOG DEEP
 ILM .OHMM   07 120 44 00:   INDUCTION LOG MEDIUM
 SGRD.OHMM   07 221 05 00:   SHALLOW SHORT GUARD RESISTIVITY
 CALD.IN     45 280 60 00:   CALIPER FROM DENSITY LOG
 GRD .GAPI   45 310 01 00:   GAMMA RAY FROM DENSITY LOG
 CORR.G/C3   45 356 01 00:   DENSITY CORRECTION
 RHOB.G/C3   45 350 01 00:   BULK DENSITY
 DPHI.DEC    45 890 12 00:   DENSITY POROSITY SANDSTONE
~PARAMETER INFORMATION
#MNEM.UNIT          VALUE    DESCRIPTION
#----------   ------------   ------------------------------
 PD  .                 GL:   PERMANENT DATUM
 EPD .F              5183:   ELEVATION PERMANENT DATUM
 LMF .                 GL:   LOG MEASURED FROM
 DMF .                 GL:   DRILLING MEASURED FROM
 EGL .F              5183:   GROUND LEVEL
 DATE.        08-APR-1977:   RUN DATE
 RUN .                  1:   RUN NUMBER
 DD  .F               455:   DEPTH DRILLER
 DL  .F               447:   DEPTH LOGGER
 BLI .F               445:   BOTTOM LOG INTERVAL
 TLI .F                34:   TOP LOG INTERVAL
 CS  .IN            8.625:   CASING SIZE
 BS  .IN            7.875:   BIT SIZE
 BSD .F               455:   BIT SIZE AT DEPTH
 DFT .           KCL- GEL:   DRILLING FLUID TYPE
 DFD .                8.3:   DRILLING FLUID DENSITY
 TCS .HRS            0100:   TIME CURCULATED STOPPED
 MRT .F                62:   MAXIMUM RECORDED TEMPERATURE
 ENGI.        E. CALLAHAN:   RECORDING ENGINEER
 WITN.            R. LYON:   WITNESSED BY
 CLNT.            A2DTECH:   CLIENT CODE
 ORIG.           5" PRINT:   ORIGIN OF DATA
 UWI .       490251033400:   UNIQUE WELL ID
 DICO. A2D Technologies, Inc.:   DIGITIZING COMPANY
~OTHER INFORMATION
~A   DEPT      SPR        ILD        ILM       SGRD       CALD        GRD        CORR        RHOB     DPHI   
# ...
  216.5000   -37.1418     7.3509     7.9702    10.6579     7.4843   123.1874     0.0528     2.4828     0.1080
  217.0000   -37.1461     7.6344     8.1350    10.9545     7.5307   124.1007     0.0545     2.4919     0.1085
  217.5000   -37.3008     7.8741     8.3611    11.2595     7.5770   122.4771     0.0562     2.4965     0.1079
  218.0000   -37.3053     8.0375     8.5989    11.3347     7.6084   120.9987     0.0578     2.5010     0.1061
  218.5000   -37.3106     8.1476     8.7712    11.0978     7.6249   120.2678     0.0595     2.5026     0.1052
  219.0000   -37.3149     8.2021     8.8293    10.9421     7.6114   120.1307     0.0612     2.5034     0.1069
  219.5000   -37.1678     8.2570     8.7646    10.9392     7.6129   120.3007     0.0598     2.5020     0.1072
  220.0000   -37.1732     8.3122     8.7617    11.0897     7.5994   119.9551     0.0548     2.4975     0.1072
  220.5000   -37.1776     8.3675     8.7587    11.1714     7.5859   117.9706     0.0474     2.4728     0.1114
  221.0000   -37.1820     8.4233     8.6953    11.0830     7.5725   115.5627     0.0423     2.4601     0.1155
  221.5000   -37.3377     8.4210     8.6917    11.3121     7.5441   116.1771     0.0470     2.4714     0.1131
  222.0000   -37.4924     8.3606     8.7500    11.2310     7.5307   114.8483     0.0576     2.4797     0.1041
  222.5000   -37.6471     8.3583     8.8072    11.0734     7.5172   116.3204     0.0616     2.4813     0.1019
  223.0000   -37.6515     8.3561     8.8655    11.3817     7.5187   117.6263     0.0587     2.4776     0.1040
  223.5000   -37.9566     8.3827     9.0490    11.5375     7.5202   119.1365     0.0483     2.4611     0.1127
  224.0000   -37.9609     8.4092     8.9826    11.5333     7.5217   118.5481     0.0411     2.4417     0.1202
  224.5000   -37.9663     8.4070     8.7947    11.4509     7.5531   116.5247     0.0435     2.4515     0.1229
  225.0000   -37.9706     8.4047     8.7918    11.2123     7.5995   115.6944     0.0549     2.4606     0.1183
  225.5000   -37.9750     8.4025     8.7889    10.9028     7.6309   117.5052     0.0641     2.4584     0.1162
  226.0000   -37.9793     8.4003     8.9707    10.7499     7.6622   117.3244     0.0718     2.4532     0.1204
  226.5000   -37.9837     8.4270     9.2199    11.0491     7.6637   115.9965     0.0727     2.4487     0.1213
  227.0000   -37.9880     8.3952     9.3456    11.7571     7.6802   115.1171     0.0698     2.4450     0.1212
  227.5000   -37.8221     8.3350     9.4075    12.5336     7.6817   114.4096     0.0685     2.4338     0.1224
  228.0000   -37.3952     8.2751     9.3386    12.8586     7.6832   114.4484     0.0747     2.4286     0.1299
  228.5000   -37.0988     7.9910     9.2710    12.5029     7.6697   115.2765     0.0899     2.4227     0.1371
  229.0000   -36.8023     7.6103     8.9520    12.5873     7.6562   116.5949     0.0983     2.4107     0.1395
  229.5000   -36.5070     7.1478     8.4075    12.6715     7.6279   117.1883     0.0962     2.3942     0.1436
  230.0000   -36.3610     6.7131     7.7335    12.5798     7.5994   116.6169     0.0836     2.3695     0.1580
  230.5000   -36.2149     6.3491     6.4470     9.6405     7.4814   113.4260     0.0747     2.3605     0.1724
  231.0000   -36.2204     6.1737     6.4086     5.2868     7.4231   111.3513     0.0711     2.3963     0.1487
  231.5000   -36.3751     6.2150     6.9137     6.1559     7.4093   108.9039     0.0713     2.4407     0.1252
  232.0000   -36.6802     6.4326     7.4078     8.8244     7.4859   106.2088     0.0715     2.4689     0.1095
  232.5000   -36.6845     6.7508     7.9924    12.2188     7.5472   106.6916     0.0724     2.4818     0.1017
  233.0000   -36.6888     7.1091     8.6231    13.1930     7.6085   106.0419     0.0740     2.4874     0.0984
  233.5000   -36.6933     7.4864     9.2462    13.3685     7.6697   102.2900     0.0765     2.4848     0.0965
  234.0000   -36.8490     7.8025     9.8987    13.8301     7.6858   103.0184     0.0797     2.4831     0.1004
  234.5000   -36.8533     8.1318    10.3159    14.1169     7.6279   103.7658     0.0829     2.4842     0.0974
  235.0000   -37.1584     8.5935    10.6026    14.2123     7.5991   103.6024     0.0853     2.4843     0.0995
  235.5000   -37.3131     9.0813    10.7480    14.1094     7.6309   102.3801     0.0870     2.4821     0.1006
  236.0000   -37.4678     9.6299    10.8184    14.1056     7.6922    99.4659     0.0879     2.4769     0.1000
  236.5000   -37.6225    10.1410    11.0420    14.1019     7.7086    96.9412     0.0903     2.4702     0.1060
  237.0000   -37.9287    10.4960    11.3479    14.0972     7.6503    92.9218     0.0942     2.4623     0.1135
  237.5000   -38.3842    10.8635    11.6632    14.0934     7.6215    88.1550     0.0958     2.4504     0.1204
  238.0000   -38.3872    11.1773    12.2394    14.0897     7.5786    81.2955     0.0968     2.4369     0.1257
  238.5000   -38.3908    11.9989    13.3289    14.0859     7.5647    74.8845     0.0985     2.4118     0.1338
  239.0000   -38.3944    12.8204    15.4282    16.7166     7.5513    67.5766     0.1009     2.3879     0.1467
  239.5000   -38.3979    14.0827    17.5274    22.1032     7.5980    61.4645     0.1025     2.3710     0.1635
  240.0000   -38.4015    15.3450    19.6267    28.7360     7.6294    58.1883     0.1027     2.3530     0.1761
  240.5000   -38.4051    16.6073    21.7259    30.7899     7.6458    60.0026     0.1014     2.3355     0.1830
  241.0000   -38.4087    17.8696    23.8252    32.5365     7.6623    61.0613     0.0925     2.3288     0.1878
  241.5000   -38.4122    19.1418    26.0029    33.9089     7.6485    59.4376     0.0836     2.3213     0.1974
  242.0000   -38.4158    20.0887    27.6685    32.2946     7.6201    59.6035     0.0733     2.3003     0.2076
  242.5000   -38.4194    20.9367    29.6457    40.2993     7.5771    62.9085     0.0719     2.3026     0.2078
  243.0000   -38.4230    21.6697    30.7213    38.9164     7.5188    66.8113     0.0766     2.3151     0.2024
  243.5000   -38.4265    21.9665    31.7509    36.3035     7.4605    69.8173     0.0783     2.3230     0.1988
  244.0000   -38.4301    22.1134    32.4076    39.4386     7.4317    64.7516     0.0724     2.3133     0.1981
  244.5000   -38.4337    22.2607    32.1729    40.2566     7.4485    62.3723     0.0666     2.2968     0.2092
  245.0000   -38.4373    22.1002    31.4999    34.5069     7.4799    69.2688     0.0577     2.2875     0.2125
  245.5000   -38.4408    21.9416    29.7899    36.2600     7.5263    70.4770     0.0534     2.2819     0.2182
  246.0000   -38.4444    21.9357    27.0044    36.7587     7.5427    59.2868     0.0551     2.2767     0.2245
  246.5000   -38.4480    21.6278    27.0153    33.5806     7.5741    62.7412     0.0582     2.2791     0.2233
  247.0000   -38.4516    21.6220    27.7637    35.7323     7.5906    65.8967     0.0629     2.2799     0.2214
  247.5000   -38.4552    21.4662    27.9499    32.1957     7.5920    68.6037     0.0661     2.2822     0.2208
  248.0000   -38.4602    21.3114    28.7242    30.8762     7.5786    67.5738     0.0708     2.2875     0.2193
  248.5000   -38.4709    21.3057    29.7278    35.4548     7.5203    63.5544     0.0754     2.3041     0.2123
  249.0000   -38.3270    21.3000    29.3085    40.1546     7.3873    67.1583     0.0771     2.3252     0.1994
  249.5000   -38.0371    21.2943    29.7055    41.2723     7.2841    69.5664     0.0788     2.3313     0.1912
  250.0000   -37.5947    21.6111    30.8429    42.1309     7.2703    63.1540     0.0789     2.3336     0.1900
  250.5000   -37.4509    22.0434    32.0523    37.6984     7.3173    65.2721     0.0776     2.3247     0.1930
  251.0000   -37.3114    22.4757    33.2618    46.7239     7.3940    67.5366     0.0702     2.3082     0.2005
  251.5000   -37.3203    22.9081    34.4712    60.7889     7.4105    68.2943     0.0613     2.2970     0.2089
  252.0000   -37.1784    23.2512    35.2715    42.6814     7.3369    61.4378     0.0539     2.2844     0.2148
  252.5000   -37.0367    23.4020    35.2567    43.9753     7.2339    63.7818     0.0496     2.2702     0.2259
