~VERSION INFORMATION
 VERS.                2.0:   CWLS LOG ASCII STANDARD - VERSION 2.0
 WRAP.                 NO:   ONE LINE PER DEPTH STEP
~WELL INFORMATION
#MNEM.UNIT      DATA TYPE    INFORMATION
#----------   ------------   ------------------------------
 STRT.F           30.0000:   START DEPTH
 STOP.F          691.0000:   STOP DEPTH
 STEP.F            0.5000:   STEP LENGTH
 NULL.          -999.2500:   NO VALUE
 COMP. U.S. DEPARTMENT OF ENERGY:   COMPANY
 WELL. NAVAL PETROLEUM RESERVE #3 #77-S-34:   WELL
 FLD .        TEAPOT DOME:   FIELD
 LOC .      S34 T39N R78W:   LOCATION
 CNTY.            NATRONA:   COUNTY
 STAT.            WYOMING:   STATE
 CTRY. UNITED STATES OF AMERICA:   COUNTRY
 SRVC.              Welex:   SERVICE COMPANY
 DATE.        26-APR-1977:   LOGDATE
 API .       490251034700:   API NUMBER
~CURVE INFORMATION
#MNEM.UNIT       API CODE    CURVE DESCRIPTION
#----------   ------------   ------------------------------
 DEPT.F                  :   
 CALD.IN     45 280 60 00:   CALIPER FROM DENSITY LOG
 CORR.G/C3   45 356 01 00:   DENSITY CORRECTION
 DPHI.DEC    45 890 12 00:   DENSITY POROSITY SANDSTONE
 RHOB.G/C3   45 350 01 00:   BULK DENSITY
 GRD .GAPI   45 310 01 00:   GAMMA RAY FROM DENSITY LOG
 ILD .OHMM   07 120 46 00:   INDUCTION LOG DEEP
 ILM .OHMM   07 120 44 00:   INDUCTION LOG MEDIUM
 SGRD.OHMM   07 220 05 00:   SHALLOW GUARD RESISTIVITY
 SPR .MV     07 010 01 00:   SPONTANEOUS POTENTIAL FROM RES.
~PARAMETER INFORMATION
#MNEM.UNIT          VALUE    DESCRIPTION
#----------   ------------   ------------------------------
 PD  .                 GL:   PERMANENT DATUM
 EPD .F              5075:   ELEVATION PERMANENT DATUM
 LMF .                 GL:   LOG MEASURED FROM
 DMF .                 GL:   DRILLING MEASURED FROM
 EGL .F              5075:   GROUND LEVEL
 DATE.          4-26-1977:   RUN DATE
 RUN .                  1:   RUN NUMBER
 DD  .F               700:   DEPTH DRILLER
 DL  .F               693:   DEPTH LOGGER
 BLI .F               691:   BOTTOM LOG INTERVAL
 TLI .F                35:   TOP LOG INTERVAL
 CS  .IN            8.625:   CASING SIZE
 CBD .F                40:   CASING BOTTOM DRILLER
 CBL .F                39:   CASING BOTTOM LOGGER
 BS  .IN            7.875:   BIT SIZE
 BSD .F               700:   BIT SIZE AT DEPTH
 DFT .            KCL MUD:   DRILLING FLUID TYPE
 DFD .                9.5:   DRILLING FLUID DENSITY
 DFV .                 35:   DRILLING FLUID VISCOSITY
 DFPH.               10.5:   DRILLING FLUID PH
 DFL .                 12:   DRILLING FLUID LOSS
 MSS .           FLOWLINE:   MUD SAMPLE SOURCE
 RMS .OHMM            .32:   RESISTIVITY MUD SAMPLE
 MST .F                66:   MUD SAMPLE TEMPERATURE
 RMF .OHMM            .28:   RESISTIVITY MUD FILTRATE SAMPLE
 MFST.F                66:   MUD FILTRATE SAMPLE TEMPERATURE
 RMC .OHMM            .49:   RESISTIVITY MUD CAKE
 MCST.F                66:   MUD CAKE SAMPLE TEMPERATURE
 RMB .OHMM            .28:   RESISTIVITY MUD AT BHT
 BHT .F                74:   BOTTOM HOLE TEMPERATURE
 TCS .HRS             1.5:   TIME CURCULATED STOPPED
 MRT .F                74:   MAXIMUM RECORDED TEMPERATURE
 LUN .               8611:   LOGGING UNIT NUMBER
 LUL .           GILLETTE:   LOGGING UNIT LOCATION
 ENGI.            C. DOAK:   RECORDING ENGINEER
 WITN.       MR. ROB LYON:   WITNESSED BY
 CLNT.            A2DTECH:   CLIENT CODE
 ORIG.           5" PRINT:   ORIGIN OF DATA
 UWI .       490251034700:   UNIQUE WELL ID
 DICO. A2D Technologies, Inc.:   DIGITIZING COMPANY
~OTHER INFORMATION
~A   DEPT       CALD      CORR      DPHI         RHOB       GRD       ILD        ILM       SGRD        SPR   
# ...
  103.0000     7.9600     0.0376     0.1677     2.3943    98.7294     4.4013     5.2782     8.0974   -37.2197
  103.5000     7.9603     0.0376     0.1662     2.3958    99.3274     5.7145     6.1006     8.1555   -36.9208
  104.0000     7.9637     0.0362     0.1636     2.3988    99.6263     6.7911     6.9068     8.5018   -36.9208
  104.5000     7.9758     0.0362     0.1624     2.4011   100.0747     7.5329     7.8199     9.2375   -37.3692
  105.0000     7.9761     0.0347     0.1623     2.4019   100.8321     8.1961     8.3787     9.8989   -37.6682
  105.5000     7.9615     0.0347     0.1660     2.4011   101.7190     8.4163     8.7334    10.4624   -37.9671
  106.0000     7.9617     0.0347     0.1749     2.3907   102.4664     8.1895     8.7345    10.9067   -38.2661
  106.5000     7.9770     0.0347     0.1797     2.3817   103.3632     7.3361     8.4402    11.3700   -38.4335
  107.0000     7.9773     0.0377     0.1842     2.3681   104.7593     6.7453     7.8252     9.7742   -38.7145
  107.5000     7.9776     0.0408     0.1911     2.3594   108.4454     5.9690     7.1558     8.8779   -39.0135
  108.0000     7.9779     0.0393     0.1976     2.3497   111.7339     5.4965     6.5437     8.4040   -39.0135
  108.5000     7.9782     0.0348     0.2048     2.3340   113.5277     5.1672     5.7024     8.1221   -39.0135
  109.0000     7.9785     0.0318     0.2132     2.3078   113.0792     4.9219     5.1788     5.7968   -38.5650
  109.5000     7.9937     0.0303     0.2210     2.3131   109.4918     4.7594     5.0040     4.1657   -37.9671
  110.0000     7.9940     0.0318     0.1997     2.3385   102.3169     4.7938     5.2520     3.1344   -37.2197
  110.5000     7.9944     0.0349     0.1898     2.3498    95.1400     4.9633     5.9463     6.2154   -36.4664
  111.0000     7.9946     0.0409     0.1856     2.3618    93.4978     5.2115     6.5492     9.3991   -35.5755
  111.5000     7.9949     0.0469     0.1830     2.3685    94.9925     5.6612     7.1146     9.7983   -34.8281
  112.0000     8.0102     0.0484     0.1821     2.3723    95.5904     6.2364     7.5706     9.7336   -34.2302
  112.5000     8.0105     0.0469     0.1823     2.3722    93.4604     6.8229     8.1679     9.7367   -33.9312
  113.0000     8.0257     0.0409     0.1859     2.3671    93.0493     7.2616     8.6915     9.6718   -33.4828
  113.5000     8.0709     0.0349     0.1889     2.3611    93.6472     8.1110     9.0594     9.8091   -33.0344
  114.0000     8.0861     0.0319     0.1907     2.3559    93.0493     8.5143     9.3781     9.8795   -32.7354
  114.5000     8.0715     0.0305     0.1910     2.3597    92.1525     8.9375     9.8430    10.3709   -32.1375
  115.0000     8.0568     0.0320     0.1880     2.3634    92.8998     9.1898    10.1193    11.0371   -31.8386
  115.5000     8.0187     0.0335     0.1862     2.3642    94.3946     9.7140    10.4034    11.5854   -31.5396
  116.0000     7.9976     0.0350     0.1853     2.3642    96.0389     9.9196    10.7693    11.9122   -31.2407
  116.5000     7.9979     0.0382     0.1853     2.3650    98.2810    10.0599    11.1486    11.7411   -31.0912
  117.0000     7.9982     0.0396     0.1844     2.3688    98.8789    10.2023    11.3828    11.9192   -30.9417
  117.5000     7.9986     0.0411     0.1808     2.3740    95.1420    10.3473    11.6220    12.3401   -30.9417
  118.0000     7.9988     0.0426     0.1775     2.3793    94.2451    10.4216    11.8662    12.7758   -30.9417
  118.5000     7.9991     0.0456     0.1742     2.3830    96.1179    10.4243    12.1997    13.0461   -30.6427
  119.0000     7.9994     0.0456     0.1703     2.3883    97.9048    10.5717    12.3706    13.0502   -30.4933
  119.5000     7.9997     0.0456     0.1670     2.3950    99.6263    10.6483    12.6306    13.0536   -30.3438
  120.0000     8.0000     0.0441     0.1640     2.4005    98.3707    10.6511    12.7195    12.9672   -30.0448
  120.5000     7.9854     0.0412     0.1617     2.4063    96.7862    10.7276    12.8981    12.9708   -30.0448
  121.0000     7.9707     0.0352     0.1611     2.4041    96.3378    10.7304    13.0787    13.0646   -29.8954
  121.5000     7.9710     0.0322     0.1676     2.3989    98.2810    10.8172    13.0804    13.1583   -29.8954
  122.0000     7.9713     0.0292     0.1697     2.3937   100.0747    10.9610    13.1725    13.3443   -29.7459
  122.5000     7.9716     0.0247     0.1706     2.3922   100.8221    11.1161    13.2657    13.5331   -29.5964
  123.0000     7.9720     0.0217     0.1736     2.3892   100.5232    11.1190    13.2674    13.5374   -29.4469
  123.5000     7.9722     0.0172     0.1808     2.3690    99.0179    11.1219    13.2692    13.5409   -29.1480
  124.0000     7.9725     0.0157     0.1883     2.3593    96.9357    11.2024    13.2709    13.5444   -28.8490
  124.5000     7.9877     0.0203     0.1910     2.3556    95.5904    11.3609    13.2730    13.6498   -28.6996
  125.0000     8.0030     0.0218     0.1912     2.3527    94.6936    11.5216    13.3665    14.0272   -28.5501
  125.5000     8.0183     0.0233     0.1897     2.3550    95.1574    11.6044    13.3683    14.3239   -28.4006
  126.0000     8.0335     0.0203     0.1906     2.3557    96.1883    11.6081    13.4624    14.5264   -28.2511
  126.5000     8.0488     0.0173     0.1921     2.3542    97.3842    11.6111    13.4646    14.6306   -28.1016
  127.0000     8.0491     0.0158     0.1906     2.3542    98.4305    11.6945    13.4663    14.6353   -27.9522
  127.5000     8.0643     0.0143     0.1894     2.3528    99.6263    11.8641    13.4681    14.6391   -27.8027
  128.0000     8.0646     0.0144     0.1951     2.3468   101.4200    12.0285    13.4698    14.8461   -27.6532
  128.5000     8.0649     0.0159     0.2005     2.3416   103.0643    12.1987    13.4720    15.2649   -27.6532
  129.0000     8.0652     0.0204     0.2002     2.3379   103.9611    12.2863    13.4738    15.3753   -27.6532
  129.5000     8.0505     0.0219     0.1957     2.3461   103.2138    12.3745    13.4755    15.3793   -27.5037
  130.0000     8.0359     0.0219     0.1924     2.3491   102.9148    12.5503    13.4773    15.1718   -27.2048
  130.5000     8.0213     0.0219     0.1924     2.3499   102.9148    12.9046    13.4794    15.3923   -27.0553
  131.0000     8.0065     0.0250     0.1879     2.3577   102.7544    13.0872    13.5744    15.6058   -27.0553
  131.5000     8.0069     0.0265     0.1813     2.3716   101.7190    13.1811    13.6700    15.6099   -26.9058
  132.0000     7.9922     0.0295     0.1736     2.3866   100.6726    13.2766    13.8614    15.7218   -26.9058
  132.5000     7.9775     0.0310     0.1664     2.3979    99.3274    13.6514    14.1532    16.1690   -26.9058
  133.0000     7.9479     0.0310     0.1622     2.4039    97.6831    13.9403    14.4506    16.7372   -26.9058
  133.5000     7.9483     0.0295     0.1625     2.4032    96.6368    14.2353    14.6530    16.9727   -26.9058
  134.0000     7.9486     0.0296     0.1628     2.4009    98.1315    14.4376    14.9609    16.1779   -27.0553
  134.5000     7.9489     0.0281     0.1621     2.4032    98.9509    14.4414    15.4877    17.5901   -27.0553
  135.0000     7.9492     0.0266     0.1619     2.4055    99.1779    14.4451    16.0325    19.7681   -27.0553
  135.5000     7.9495     0.0281     0.1652     2.4062    99.6263    14.5488    16.3694    18.7130   -27.0553
  136.0000     7.9498     0.0281     0.1762     2.3733   102.0179    14.5536    16.4847    17.7142   -27.0553
  136.5000     7.9501     0.0251     0.1915     2.3545   103.8181    14.5573    16.6013    20.3460   -27.2048
  137.0000     7.9504     0.0236     0.1969     2.3457   104.1106    14.5611    16.8338    24.6706   -27.2048
  137.5000     7.9507     0.0221     0.1993     2.3413   104.1106    14.4648    16.9518    20.6304   -27.3543
  138.0000     7.9510     0.0207     0.2011     2.3405   105.0075    14.2705    15.9353    16.5532   -27.3543
  138.5000     7.9363     0.0192     0.2031     2.3390   105.9228    14.0787    15.2921    15.3492   -27.5037
  139.0000     7.9440     0.0177     0.2064     2.3323   106.2033    13.8905    14.9817    15.4603   -27.6532
