~VERSION INFORMATION
 VERS.                2.0:   CWLS LOG ASCII STANDARD - VERSION 2.0
 WRAP.                 NO:   ONE LINE PER DEPTH STEP
~WELL INFORMATION
#MNEM.UNIT      DATA TYPE    INFORMATION
#----------   ------------   ------------------------------
 STRT.F           16.0000:   START DEPTH
 STOP.F          634.0000:   STOP DEPTH
 STEP.F            0.5000:   STEP LENGTH
 NULL.          -999.2500:   NO VALUE
 COMP. LAWRENCE/ALLISON INC:   COMPANY
 WELL.    14-15 SX #11-11:   WELL
 FLD .             TEAPOT:   FIELD
 LOC .      S11 T38N R78W:   LOCATION
 CNTY.            NATRONA:   COUNTY
 STAT.            WYOMING:   STATE
 CTRY. UNITED STATES OF AMERICA:   COUNTRY
 SRVC.      Dresser Atlas:   SERVICE COMPANY
 DATE.        06-JAN-1985:   LOGDATE
 API .       490251101700:   API NUMBER
~CURVE INFORMATION
#MNEM.UNIT       API CODE    CURVE DESCRIPTION
#----------   ------------   ------------------------------
 DEPT.F                  :   
 SPR .MV     11 010 01 00:   SPONTANEOUS POTENTIAL FROM RES.
 RD  .OHMM   11 220 10 00:   RESISTIVITY DEEP
 RS  .OHMM   11 220 09 00:   RESISTIVITY SHALLOW
 RMLL.OHMM   20 270 04 00:   RESISTIVITY MICROLATEROLOG
 AC  .US/F   60 520 00 00:   ACCOUSTIC SONIC
 CNC .DEC    42 890 03 00:   COMPENSATED NEUTRON POROSITY SANDSTONE
 PORD.DEC    45 890 12 00:   POROSITY DENSITY SANDSTONE
 GRD .GAPI   45 310 01 00:   GAMMA RAY FROM DENSITY LOG
 CALD.IN     45 280 60 00:   CALIPER FROM DENSITY
 CORR.G/C3   45 356 01 00:   DENSITY CORRECTION
 DEN .G/C3   45 350 01 00:   COMPENSATED BULK DENSTIY
~PARAMETER INFORMATION
#MNEM.UNIT          VALUE    DESCRIPTION
#----------   ------------   ------------------------------
 PD  .                 GL:   PERMANENT DATUM
 EPD .F            5196.8:   ELEVATION PERMANENT DATUM
 LMF .                 KB:   LOG MEASURED FROM
 DMF .                 KB:   DRILLING MEASURED FROM
 EKB .F            5196.8:   KELLING BUSHING
 EGL .F            5196.8:   GROUND LEVEL
 DATE.        06-JAN-1985:   RUN DATE
 RUN .                  1:   RUN NUMBER
 DD  .F               650:   DEPTH DRILLER
 DL  .F               636:   DEPTH LOGGER
 BLI .F               634:   BOTTOM LOG INTERVAL
 CS  .IN            8.625:   CASING SIZE
 CBD .F                20:   CASING BOTTOM DRILLER
 CBL .F                22:   CASING BOTTOM LOGGER
 BS  .IN             6.25:   BIT SIZE
 BSD .F               650:   BIT SIZE AT DEPTH
 DFT .        KCL POLYMER:   DRILLING FLUID TYPE
 RMS .OHMM           .105:   RESISTIVITY MUD SAMPLE
 MST .F                72:   MUD SAMPLE TEMPERATURE
 RMF .OHMM            .08:   RESISTIVITY MUD FILTRATE SAMPLE
 MFST.F                72:   MUD FILTRATE SAMPLE TEMPERATURE
 RMC .OHMM            .13:   RESISTIVITY MUD CAKE
 MCST.F                72:   MUD CAKE SAMPLE TEMPERATURE
 MFSS.               CALC:   MUD FILTRATE SAMPLE SOURCE
 MCSS.               CALC:   MUD CAKE SAMPLE SOURCE
 TCS .HRS               3:   TIME CURCULATED STOPPED
 LUN .               6307:   LOGGING UNIT NUMBER
 LUL .               GLTE:   LOGGING UNIT LOCATION
 ENGI.               MACK:   RECORDING ENGINEER
 WITN.               PAGE:   WITNESSED BY
 CLNT.            A2DTECH:   CLIENT CODE
 ORIG.           5" PRINT:   ORIGIN OF DATA
 UWI .       490251101700:   UNIQUE WELL ID
 DICO. A2D Technologies, Inc.:   DIGITIZING COMPANY
 R1  . POROSITY WITH SANDSTONE:   REMARKS 1
~OTHER INFORMATION
~A   DEPT      SPR         RD         RS       RMLL         AC        CNC       PORD        GRD       CALD       CORR        DEN   
# ...
  290.5000   -66.8900     8.3576     6.9878  -999.2500   101.0848     0.3030     0.1155   114.1229     6.6223     0.2178     2.4900
  291.0000   -66.8915     9.0823     7.5411  -999.2500   101.1628     0.3005     0.1179   112.7688     6.6216     0.2012     2.4900
  291.5000   -67.0441     9.6666     8.0303  -999.2500   101.5410     0.2982     0.1215   108.2377     6.6208     0.1953     2.4862
  292.0000   -67.0456    10.0766     8.4281  -999.2500   102.3703     0.2913     0.1339   102.4964     6.6201     0.1971     2.4568
  292.5000   -67.0471    10.3594     8.6592  -999.2500   102.6732     0.2988     0.1330   102.0398     6.6192     0.1985     2.4553
  293.0000   -67.1996    10.4309     8.7276  -999.2500   102.1492     0.3064     0.1225   103.1166     6.6184     0.1910     2.4667
  293.5000   -67.3522    10.4300     8.7777  -999.2500    99.7454     0.3061     0.1147   105.2421     6.6177     0.1760     2.4864
  294.0000   -67.5047    10.4293     8.8373  -999.2500    98.0183     0.2929     0.1099   110.4054     6.6169     0.1595     2.4993
  294.5000   -67.6573    10.3565     8.8979  -999.2500    97.4190     0.2889     0.1057   112.5250     6.6162     0.1656     2.5076
  295.0000   -67.9609    10.4281     8.8964  -999.2500    98.7746     0.2950     0.0933   112.1937     6.6154     0.1793     2.5235
  295.5000   -68.1134    10.6466     8.8951  -999.2500   101.4085     0.3019     0.0665   110.3736     6.6147     0.1673     2.5629
  296.0000   -68.4170    10.9451     8.9561  -999.2500   105.2453     0.3077     0.0361   106.7020     6.6139     0.1583     2.6129
  296.5000   -68.7206    10.9444     8.9546  -999.2500   106.1498     0.3062     0.0310   105.7410     6.6132     0.1629     2.6326
  297.0000   -68.7221    10.9436     9.0784  -999.2500   105.7009     0.3004     0.0557   107.2677     6.6124     0.1750     2.6054
  297.5000   -68.5726    10.8672     9.1406  -999.2500   105.1016     0.2926     0.0803   112.7171     6.6117     0.2083     2.5547
  298.0000   -68.2719    10.6427     9.0132  -999.2500   105.4046     0.2894     0.1048   113.4810     6.6109     0.2220     2.5275
  298.5000   -68.1224    10.5684     8.9497  -999.2500   106.0083     0.2923     0.1079   111.0680     6.6102     0.2024     2.5026
  299.0000   -68.1239    10.4947     8.9484  -999.2500   105.2587     0.2942     0.1043   107.2933     6.6094     0.1617     2.5033
  299.5000   -67.9743    10.5670     9.1989  -999.2500   103.8324     0.2979     0.1032   103.3674     6.6087     0.1679     2.5079
  300.0000   -68.1269    10.6398     9.3412  -999.2500   103.0075     0.2988     0.0902   101.2177     6.6079     0.1906     2.5178
  300.5000   -68.1329    10.8486     9.4309  -999.2500   102.7366     0.2955     0.0785   100.8087     6.6076     0.2360     2.5376
  301.0000   -68.1400    11.0853     9.5170  -999.2500   102.4657     0.2943     0.0767   100.2110     6.6073     0.2270     2.5505
  301.5000   -68.1460    11.2370     9.5806  -999.2500   101.7864     0.2841     0.0806   100.9768     6.6070     0.1848     2.5536
  302.0000   -68.1520    11.3128     9.6455  -999.2500   101.1900     0.2829     0.0855   103.2536     6.6067     0.1411     2.5370
  302.5000   -68.1581    11.4677     9.7090  -999.2500   100.9134     0.2778     0.0807   103.2611     6.6064     0.1382     2.5393
  303.0000   -68.1641    11.5443     9.7063  -999.2500   101.4425     0.2775     0.0674   103.8737     6.6061     0.1564     2.5644
  303.5000   -68.1701    11.5403     9.7036  -999.2500   101.8207     0.2803     0.0578   105.9992     6.6058     0.1746     2.5856
  304.0000   -68.3272    11.4574     9.7009  -999.2500   101.8981     0.2918     0.0563   114.7813     6.6055     0.2079     2.5880
  304.5000   -68.3332    11.2183     9.5647  -999.2500   101.9004     0.3020     0.0705   114.6375     6.6052     0.2276     2.5691
  305.0000   -68.4903    10.9843     9.4303  -999.2500   101.8269     0.2989     0.0850   111.3167     6.6049     0.2383     2.5457
  305.5000   -68.6474    10.6808     9.2954  -999.2500   101.9048     0.2915     0.0926   108.1472     6.6045     0.2323     2.5314
  306.0000   -68.8045    10.3139     9.1672  -999.2500   102.5838     0.2897     0.1047   107.8235     6.6042     0.1871     2.5126
  306.5000   -68.8105    10.2398     9.0357  -999.2500   103.4883     0.2858     0.1149   108.9186     6.6039     0.1751     2.4967
  307.0000   -68.9676    10.1662     8.9114  -999.2500   104.2424     0.2774     0.1192   113.4647     6.6036     0.1918     2.4794
  307.5000   -69.4268    10.1634     8.8443  -999.2500   104.8461     0.2799     0.1192   117.2543     6.6186     0.2131     2.4795
  308.0000   -69.5839    10.2320     8.6628  -999.2500   105.8565     0.2895     0.1152   118.0182     6.6182     0.2222     2.4902
  308.5000   -70.0431    10.2285     8.4234  -999.2500   107.1978     0.3170     0.1071   115.4377     6.6179     0.1574     2.5009
  309.0000   -70.7838     9.8088     8.1873  -999.2500   108.7628     0.3306     0.1060   111.3203     6.6176     0.1499     2.5046
  309.5000   -71.5679     9.2769     7.8478  -999.2500   110.5695     0.3372     0.1112   107.5880     6.6173     0.1621     2.5007
  310.0000   -72.0250     8.8348     7.4219  1996.5173   113.8800     0.3397     0.1229   107.4582     6.6170     0.1713     2.4870
  310.5000   -72.4842     8.4724     7.0190  9805.3447   118.8447     0.3415     0.1344   109.4589     6.6167     0.1774     2.4642
  311.0000   -72.7923     8.0129     6.5921  1387.0295   123.0574     0.3515     0.1378   110.0469     6.6164     0.1639     2.4518
  311.5000   -73.2515     7.3200     6.1452   292.2828   128.0973     0.3593     0.1423   108.8441     6.6161     0.1655     2.4467
  312.0000   -73.7107     6.6408     5.6495   233.3685   130.5055     0.3639     0.1616   105.9752     6.6158     0.1746     2.4309
  312.5000   -74.1699     6.1088     5.0165   220.7324   128.7784     0.3856     0.1809   106.5897     6.6155     0.1868     2.3991
  313.0000   -74.4781     5.2429     4.2975   267.7873   125.7731     0.4079     0.1997   106.7467     6.6152     0.1914     2.3500
  313.5000   -74.7862     4.0834     3.4406   452.9091   122.4671     0.4224     0.2220   103.1252     6.6149     0.1794     2.3009
  314.0000   -74.9433     3.5782     2.8824   502.2916   119.3115     0.4026     0.2524    94.6606     6.6146     0.1569     2.2502
  314.5000   -74.9494     3.5038     2.7677   298.7708   116.0806     0.3944     0.2413    94.9707     6.6295     0.1464     2.2571
  315.0000   -75.1064     3.8066     2.8686   288.5213   113.3009     0.3881     0.2166    99.8193     6.6444     0.1540     2.2844
  315.5000   -75.2635     4.2228     3.0526   519.2799   109.9949     0.3761     0.1968   106.7860     6.6440     0.1572     2.3329
  316.0000   -75.2696     4.6844     3.2710  1150.3439   108.6437     0.3517     0.1808   108.3063     6.6437     0.1452     2.3603
  316.5000   -75.4267     5.0195     3.5596  4194.1821   107.7437     0.3415     0.1667   109.0702     6.6434     0.1256     2.3868
  317.0000   -75.4327     5.5298     4.0321  9892.6084   107.7328     0.3361     0.1417   110.5906     6.6431     0.0909     2.4232
  317.5000   -75.4387     6.2200     4.4735  9895.1357   108.5752     0.3394     0.1218   116.1957     6.6428     0.0668     2.4763
  318.0000   -75.4447     7.6036     5.0718  9897.6631   108.5774     0.3340     0.1061   120.4391     6.6425     0.0674     2.4960
  318.5000   -75.4508     8.3766     5.8254  9900.1914   108.2772     0.3169     0.1034   119.5389     6.6422     0.0809     2.5059
  319.0000   -75.3058     8.7301     6.4963  9902.7188   107.9759     0.3109     0.0980   117.7307     6.6419     0.1000     2.5113
  319.5000   -75.3118     8.8502     6.7059  9905.2461   107.7499     0.3226     0.0972   119.4026     6.6416     0.1279     2.5167
  320.0000   -75.3178     8.7253     6.6116  9907.7734   107.6841     0.3272     0.0978   122.4358     6.6413     0.1372     2.5183
  320.5000   -75.1713     8.6626     6.6160  9910.3018   109.0413     0.3203     0.0984   121.3843     6.6410     0.1495     2.5191
