~VERSION INFORMATION
 VERS.                2.0:   CWLS LOG ASCII STANDARD - VERSION 2.0
 WRAP.                 NO:   ONE LINE PER DEPTH STEP
~WELL INFORMATION
#MNEM.UNIT      DATA TYPE    INFORMATION
#----------   ------------   ------------------------------
 STRT.F           65.0000:   START DEPTH
 STOP.F          860.0000:   STOP DEPTH
 STEP.F            0.5000:   STEP LENGTH
 NULL.          -999.2500:   NO VALUE
 COMP.          U.S. NAVY:   COMPANY
 WELL. NPR 3 TEAPOT DOM #71-S-34:   WELL
 FLD .             TEAPOT:   FIELD
 LOC .      S34 T39N R78W:   LOCATION
 CNTY.            NATRONA:   COUNTY
 STAT.            WYOMING:   STATE
 CTRY. UNITED STATES OF AMERICA:   COUNTRY
 SRVC. Schlumberger Well Surveying Corp:   SERVICE COMPANY
 DATE.        22-FEB-1961:   LOGDATE
 API .       490250657300:   API NUMBER
~CURVE INFORMATION
#MNEM.UNIT       API CODE    CURVE DESCRIPTION
#----------   ------------   ------------------------------
 DEPT.F                  :   
 GR  .GAPI   30 310 01 00:   GAMMA RAY
 ASN .OHMM   05 041 16 00:   AMPLIFIED SHORT NORMAL 16"
 CILD.MMHO   05 110 46 00:   CONDUCTIVITY INDUCTION LOG DEEP
 ILD .OHMM   05 120 46 00:   INDUCTION LOG DEEP
 SPR .MV     05 010 01 00:   SPONTANEOUS POTENTIAL FROM RES.
~PARAMETER INFORMATION
#MNEM.UNIT          VALUE    DESCRIPTION
#----------   ------------   ------------------------------
 LMF .                 KB:   LOG MEASURED FROM
 DMF .                 KB:   DRILLING MEASURED FROM
 EKB .F              5067:   KELLING BUSHING
 EGL .F              5063:   GROUND LEVEL
 DATE.        22-FEB-1961:   RUN DATE
 RUN .                  1:   RUN NUMBER
 DD  .F               861:   DEPTH DRILLER
 DL  .F               861:   DEPTH LOGGER
 BLI .F               860:   BOTTOM LOG INTERVAL
 TLI .F                80:   TOP LOG INTERVAL
 CBD .F                12:   CASING BOTTOM DRILLER
 BS  .IN            7.875:   BIT SIZE
 BSD .F               861:   BIT SIZE AT DEPTH
 DFT .       GEL-OIL EMUL:   DRILLING FLUID TYPE
 DFD .                9.6:   DRILLING FLUID DENSITY
 DFV .                 38:   DRILLING FLUID VISCOSITY
 DFPH.                  9:   DRILLING FLUID PH
 DFL .               15.4:   DRILLING FLUID LOSS
 MSS .           FLOWLINE:   MUD SAMPLE SOURCE
 RMS .OHMM           0.86:   RESISTIVITY MUD SAMPLE
 MST .F                68:   MUD SAMPLE TEMPERATURE
 RMF .OHMM           0.52:   RESISTIVITY MUD FILTRATE SAMPLE
 MFST.F                68:   MUD FILTRATE SAMPLE TEMPERATURE
 RMC .OHMM           1.98:   RESISTIVITY MUD CAKE
 MCST.F                68:   MUD CAKE SAMPLE TEMPERATURE
 MFSS.               MEAS:   MUD FILTRATE SAMPLE SOURCE
 MCSS.               MEAS:   MUD CAKE SAMPLE SOURCE
 RMB .OHMM           0.77:   RESISTIVITY MUD AT BHT
 BHT .F                78:   BOTTOM HOLE TEMPERATURE
 TCS .HRS               1:   TIME CURCULATED STOPPED
 MRT .F                78:   MAXIMUM RECORDED TEMPERATURE
 LUN .               2523:   LOGGING UNIT NUMBER
 LUL .               CSPR:   LOGGING UNIT LOCATION
 ENGI.             KNOBEL:   RECORDING ENGINEER
 WITN.          JORGENSEN:   WITNESSED BY
 CLNT.            A2DTECH:   CLIENT CODE
 ORIG.      2" , 5" PRINT:   ORIGIN OF DATA
 UWI .       490250657300:   UNIQUE WELL ID
 DICO. A2D Technologies, Inc.:   DIGITIZING COMPANY
~OTHER INFORMATION
~A   DEPT       GR          ASN       CILD        ILD      SPR   
# ...
  614.0000    53.6842     3.3718   500.4562     2.1290   -20.7146
  614.5000    54.7181     3.5043   475.0330     2.4460   -20.8668
  615.0000    58.3314     3.7493   418.3477     2.7904   -21.0190
  615.5000    62.2455     4.4082   353.7884     3.2394   -21.0141
  616.0000    63.7755     5.2239   306.5519     3.6232   -21.1864
  616.5000    64.5378     5.7104   262.4651     4.1073   -21.4744
  617.0000    67.5226     6.4790   216.8034     4.4113   -21.5559
  617.5000    66.1735     6.8872   187.6772     4.9768   -21.6231
  618.0000    67.9824     7.1081   172.3898     5.4508   -21.6176
  618.5000    71.7461     7.3004   157.7731     5.7678   -21.6129
  619.0000    72.9534     7.4377   154.6292     6.2418   -21.5967
  619.5000    68.2971     7.4854   154.6388     6.4019   -21.4459
  620.0000    65.1435     7.4545   155.4338     6.4056   -21.3479
  620.5000    66.5012     7.4395   156.2289     6.2509   -21.2806
  621.0000    67.5581     7.4715   157.8113     5.9408   -21.2759
  621.5000    66.0587     7.5191   160.1812     5.6298   -21.2709
  622.0000    62.1543     7.5676   168.2830     5.3189   -21.1092
  622.5000    61.2552     7.6616   179.8834     5.0981   -21.1590
  623.0000    66.3734     7.5838   190.1272     4.7755   -21.2572
  623.5000    69.5356     7.4120   202.7333     4.5345   -21.2515
  624.0000    73.0777     7.0208   216.9142     4.3114   -21.2470
  624.5000    71.1983     6.4884   226.3706     4.2352   -21.2429
  625.0000    75.2639     6.2226   232.6775     4.0813   -21.2731
  625.5000    78.2757     5.9881   235.8347     4.0066   -21.3903
  626.0000    80.2349     5.9260   238.9921     4.0096   -21.3855
  626.5000    75.8783     5.9738   240.5763     4.0911   -21.3809
  627.0000    71.6234     6.0998   242.1569     4.1743   -21.2194
  627.5000    68.2386     6.2258   232.7176     4.3446   -21.2147
  628.0000    65.2156     6.3675   224.0638     4.5934   -21.0526
  628.5000    63.5658     6.5405   216.1974     4.8890   -20.8910
  629.0000    62.0663     6.6822   207.5436     5.2060   -20.8338
  629.5000    63.6298     6.8397   196.5277     5.4445   -20.7255
  630.0000    66.5862     7.1620   186.1411     5.7636   -20.7209
  630.5000    65.0878     7.4365   173.7102     6.0973   -20.5596
  631.0000    64.4895     7.7506   164.2690     6.4003   -20.5549
  631.5000    67.5024     8.0333   155.6152     6.6348   -20.5502
  632.0000    65.3835     8.4101   148.5363     6.9519   -20.5448
  632.5000    63.1512     8.6145   143.0321     7.0334   -20.5408
  633.0000    65.7119     8.7875   141.4630     7.1149   -20.5723
  633.5000    64.2124     8.8038   141.4726     7.0395   -20.6881
  634.0000    63.6142     8.7703   143.0971     6.9639   -20.7677
  634.5000    67.0842     8.7111   146.2142     6.7316   -20.8363
  635.0000    71.4445     8.6176   148.5840     6.4914   -20.8302
  635.5000    71.7485     8.3988   152.5287     6.1890   -20.8260
  636.0000    70.2501     8.1800   155.6859     5.9565   -20.8568
  636.5000    73.7130     7.9925   161.9928     5.7233   -21.1296
  637.0000    72.3639     7.7267   173.0240     5.3347   -21.1254
  637.5000    68.9107     7.4556   184.8427     4.9452   -21.1207
  638.0000    67.8613     7.1794   199.1489     4.6343   -21.1159
  638.5000    68.3167     6.8352   211.3577     4.4019   -21.1113
  639.0000    71.4800     6.4126   227.3872     4.1694   -21.1233
  639.5000    74.6422     6.1154   232.9066     4.0155   -21.2586
  640.0000    74.1353     5.9123   237.6387     4.0193   -21.0966
  640.5000    72.5466     5.8502   237.6463     4.2578   -21.2499
  641.0000    74.3554     5.9448   236.0773     4.4963   -21.2445
  641.5000    75.4113     6.2059   232.9372     4.8133   -21.2393
  642.0000    73.7625     6.5418   219.4540     5.0519   -21.2351
  642.5000    73.1653     6.8245   202.5591     5.3728   -21.2304
  643.0000    76.4790     7.3581   187.2927     5.6867   -21.2435
  643.5000    78.2878     7.6722   172.3397     6.0822   -21.3781
  644.0000    79.6455     7.8295   162.1112     6.3992   -21.3724
  644.5000    77.8453     7.9868   154.2448     6.6377   -21.3683
  645.0000    73.1275     8.1923   149.5280     6.7192   -21.3633
  645.5000    69.5843     8.3224   146.3858     6.8008   -21.3588
  646.0000    66.5810     8.5217   144.8189     6.8823   -21.3542
  646.5000    64.6305     8.7731   144.8268     6.9639   -21.3495
  647.0000    65.9881     9.0245   144.8361     6.9676   -21.3440
  647.5000    65.9214     9.0720   144.8437     6.9707   -21.3401
  648.0000    59.2309     8.6966   144.8513     6.9737   -21.3348
  648.5000    57.4296     8.7129   144.8590     6.9767   -21.3303
  649.0000    61.1944     8.8423   144.0773     6.9798   -21.3257
  649.5000    64.5070     8.9650   144.0869     6.9043   -21.3212
  650.0000    70.3263     8.9028   144.8819     6.9314   -21.3166
  650.5000    72.1833     8.9506   144.9382     6.9677   -21.3119
  651.0000    71.2838     9.0273   146.5672     6.9926   -21.3072
  651.5000    74.5956     9.0981   147.9863     6.9957   -21.3025
  652.0000    74.0972     8.8183   147.9669     6.9203   -21.2978
  652.5000    70.5418     8.6011   147.1640     6.8441   -21.1356
  653.0000    74.4544     8.3840   145.5737     6.7692   -20.8175
  653.5000    76.2617     8.4804   144.7708     6.6148   -20.3426
  654.0000    77.9589     8.4343   145.5433     6.3047   -20.3380
  654.5000    78.5230     8.5413   147.8894     6.0723   -20.1766
  655.0000    71.4589     8.8798   152.5983     5.9498   -20.0153
  655.5000    69.3363     8.7881   164.4651     5.8430   -20.0110
  656.0000    68.7585     8.4769   171.5380     5.6096   -20.1639
  656.5000    74.0244     8.1344   174.5990     5.4568   -20.3148
  657.0000    80.3430     7.8546   176.1583     5.4600   -20.3103
  657.5000    79.1429     7.4964   177.7176     5.5416   -20.3056
  658.0000    79.8983     7.2479   179.2769     5.5453   -20.5366
  658.5000    80.0508     7.2340   180.8362     5.5484   -20.6098
  659.0000    77.6483     7.5034   183.9665     5.3938   -20.8511
  659.5000    74.3128     7.6938   184.7422     5.0510   -20.9140
  660.0000    73.5938     7.6804   187.0851     4.6158   -20.9091
  660.5000    75.2507     7.6357   196.5184     4.3041   -20.9044
  661.0000    72.9986     7.3716   216.9753     3.9940   -20.8990
  661.5000    72.0992     7.0134   233.4952     3.9179   -20.9711
  662.0000    73.7568     6.3887   242.9286     4.0002   -20.8897
  662.5000    70.3010     5.8425   244.5538     4.0818   -20.8851
  663.0000    68.8000     5.6567   243.6850     4.1634   -20.8555
  663.5000    67.9013     5.7738   241.2731     4.3912   -20.6638
  664.0000    71.8139     6.1649   235.5276     4.7127   -20.5577
  664.5000    77.3806     6.6674   225.7791     5.0361   -20.5531
  665.0000    79.9398     7.2967   212.9104     5.3558   -20.5486
  665.5000    76.4847     7.6125   193.9973     5.6774   -20.5438
  666.0000    75.7350     7.8969   175.0841     5.9989   -20.8569
  666.5000    79.6483     8.0403   161.6828     6.2267   -21.0189
  667.0000    85.3754     8.1367   153.0059     6.3868   -21.1569
  667.5000    90.1809     8.1703   152.2068     5.7619   -21.1511
  668.0000    88.2289     8.2040   163.9985     5.5272   -21.1473
  668.5000    80.4121     8.1436   177.3688     5.2964   -21.1419
  669.0000    74.5503     8.0362   185.2273     5.1425   -20.9805
  669.5000    77.5613     7.7564   189.9362     4.9894   -20.9765
  670.0000    75.6093     7.1788   193.0709     4.9140   -20.8150
  670.5000    80.4241     6.8990   194.6299     4.9956   -20.8099
  671.0000    81.1788     6.8542   195.4016     5.2341   -20.8053
  671.5000    74.4154     6.8880   191.3597     5.5512   -20.9077
  672.0000    71.8618     7.0169   183.2755     5.7898   -20.9539
  672.5000    76.0752     7.6052   173.5164     6.0538   -20.9481
  673.0000    77.5818     8.0367   163.0522     6.4192   -20.9078
  673.5000    71.8710     8.4470   153.5879     6.6625   -20.7821
  674.0000    69.1671     8.9378   145.6984     6.9838   -20.7774
  674.5000    63.8266     9.1282   139.3837     7.2182   -20.7727
