~VERSION INFORMATION
 VERS.                2.0:   CWLS LOG ASCII STANDARD - VERSION 2.0
 WRAP.                 NO:   ONE LINE PER DEPTH STEP
~WELL INFORMATION
#MNEM.UNIT      DATA TYPE    INFORMATION
#----------   ------------   ------------------------------
 STRT.F          566.5000:   START DEPTH
 STOP.F         2065.5000:   STOP DEPTH
 STEP.F            0.5000:   STEP LENGTH
 NULL.          -999.2500:   NO VALUE
 COMP. LAWRENCE/ALLISON INC:   COMPANY
 WELL.      NPR 3 #25-X-3:   WELL
 FLD .             TEAPOT:   FIELD
 LOC .       S3 T38N R78W:   LOCATION
 CNTY.            NATRONA:   COUNTY
 STAT.            WYOMING:   STATE
 CTRY. UNITED STATES OF AMERICA:   COUNTRY
 SRVC.            Unknown:   SERVICE COMPANY
 DATE.        26-SEP-1987:   LOGDATE
 API .       490251119000:   API NUMBER
~CURVE INFORMATION
#MNEM.UNIT       API CODE    CURVE DESCRIPTION
#----------   ------------   ------------------------------
 DEPT.F                  :   
 ROP .MIN/FT 91 810 01 00:   RATE OF DRILLING PENETRATION
 TGAS.UNITS  91 830 01 00:   TOTAL GAS FROM HOTWIRE
~PARAMETER INFORMATION
#MNEM.UNIT          VALUE    DESCRIPTION
#----------   ------------   ------------------------------
 DATE.        26-SEP-1987:   RUN DATE
 RUN .                  1:   RUN NUMBER
 DD  .F              2066:   DEPTH DRILLER
 TLI .F               566:   TOP LOG INTERVAL
 WITN. R. HUSK/R. PETERSON:   WITNESSED BY
 CLNT.            A2DTECH:   CLIENT CODE
 ORIG.           5" PRINT:   ORIGIN OF DATA
 UWI .       490251119000:   UNIQUE WELL ID
 DICO. A2D Technologies, Inc.:   DIGITIZING COMPANY
~OTHER INFORMATION
~A   DEPT        ROP       TGAS 
# ...
 1538.5000     0.6440   220.5757
 1539.0000     0.6549   220.5485
 1539.5000     0.6552   220.5213
 1540.0000     0.6450   220.4942
 1540.5000     0.6454   220.4670
 1541.0000     0.6450   220.4398
 1541.5000     0.6446   220.4127
 1542.0000     0.6441   220.3855
 1542.5000     0.6437   220.3583
 1543.0000     0.6433   220.3311
 1543.5000     0.6428   220.3040
 1544.0000     0.6424   220.2768
 1544.5000     0.6420   220.2496
 1545.0000     0.6415   220.2225
 1545.5000     0.6411   220.1953
 1546.0000     0.6407   220.1681
 1546.5000     0.6402   220.1410
 1547.0000     0.6398   220.1138
 1547.5000     0.6394   220.0866
 1548.0000     0.6389   220.0594
 1548.5000     0.6385   220.0323
 1549.0000     0.6381   220.0051
 1549.5000     0.6376   219.9779
 1550.0000     0.6372   219.9508
 1550.5000     0.6368   219.9236
 1551.0000     0.6363   219.8964
 1551.5000     0.6359   219.8693
 1552.0000     0.6355   219.8421
 1552.5000     0.6350   219.8149
 1553.0000     0.6346   219.7878
 1553.5000     0.6342   219.7606
 1554.0000     0.6337   219.7334
 1554.5000     0.6333   219.7062
 1555.0000     0.6329   219.6791
 1555.5000     0.6324   219.6519
 1556.0000     0.6320   219.6247
 1556.5000     0.6316   219.5976
 1557.0000     0.6311   219.5704
 1557.5000     0.6307   219.5432
 1558.0000     0.6303   219.5161
 1558.5000     0.6298   219.4889
 1559.0000     0.6294   219.4617
 1559.5000     0.6290   219.4345
 1560.0000     0.6285   219.4074
 1560.5000     0.6281   219.3802
 1561.0000     0.6277   219.3530
 1561.5000     0.6272   219.3259
 1562.0000     0.6268   219.2987
 1562.5000     0.6264   219.2715
 1563.0000     0.6259   219.2444
 1563.5000     0.6255   219.2172
 1564.0000     0.6251   219.1900
 1564.5000     0.6246   219.1628
 1565.0000     0.6242   219.1357
 1565.5000     0.6238   219.1085
 1566.0000     0.6233   219.0813
 1566.5000     0.6229   219.0542
 1567.0000     0.6225   219.0270
 1567.5000     0.6220   218.9998
 1568.0000     0.6216   218.9726
 1568.5000     0.6212   218.9455
 1569.0000     0.6207   218.9183
 1569.5000     0.6203   218.8911
 1570.0000     0.6199   218.8640
 1570.5000     0.6194   218.8368
 1571.0000     0.6190   218.8096
 1571.5000     0.6186   218.7825
 1572.0000     0.6181   218.7553
 1572.5000     0.6177   218.7281
 1573.0000     0.6173   218.7009
 1573.5000     0.6168   218.6738
 1574.0000     0.6164   218.6466
 1574.5000     0.6160   218.6194
 1575.0000     0.6155   218.5923
 1575.5000     0.6151   218.5651
 1576.0000     0.6147   218.5379
 1576.5000     0.6142   218.5108
 1577.0000     0.6138   218.4836
 1577.5000     0.6134   218.4564
 1578.0000     0.6129   218.4292
 1578.5000     0.6125   218.4021
 1579.0000     0.6121   218.3749
 1579.5000     0.6116   218.3477
 1580.0000     0.6112   218.3206
 1580.5000     0.6108   218.2934
 1581.0000     0.6103   218.2662
 1581.5000     0.6099   218.2391
 1582.0000     0.6095   218.2119
 1582.5000     0.6090   218.1847
 1583.0000     0.6086   218.1575
 1583.5000     0.6082   218.1304
 1584.0000     0.6077   218.1032
 1584.5000     0.6073   218.0760
 1585.0000     0.6069   218.0489
 1585.5000     0.6064   218.0217
 1586.0000     0.6060   217.9945
 1586.5000     0.6056   217.9674
 1587.0000     0.6051   217.9402
 1587.5000     0.6047   217.9130
 1588.0000     0.6043   217.8858
 1588.5000     0.6038   217.8587
 1589.0000     0.6034   217.8315
 1589.5000     0.6030   217.8043
 1590.0000     0.6025   217.7772
 1590.5000     0.6021   217.7500
 1591.0000     0.6017   217.7228
 1591.5000     0.6012   217.6956
 1592.0000     0.6008   217.6685
 1592.5000     0.6004   217.6413
 1593.0000     0.5999   217.6142
 1593.5000     0.5995   217.5870
 1594.0000     0.5991   217.5598
 1594.5000     0.5986   217.5326
 1595.0000     0.5982   217.5055
 1595.5000     0.5978   217.4783
 1596.0000     0.5973   217.4511
 1596.5000     0.5969   217.4240
 1597.0000     0.5965   217.3968
 1597.5000     0.5960   217.3696
 1598.0000     0.5956   217.3424
 1598.5000     0.5952   217.3153
 1599.0000     0.5949   217.2881
 1599.5000     0.5845   217.2609
 1600.0000     0.5846   217.2338
 1600.5000     0.5742   217.2066
 1601.0000     0.5847   217.1794
 1601.5000     0.5952   217.1523
 1602.0000     0.6265   217.1251
 1602.5000     0.6683   217.0979
 1603.0000     0.6684   217.0707
 1603.5000     0.6684   217.0436
 1604.0000     0.6685   217.0164
 1604.5000     0.6790   216.9892
 1605.0000     0.6790   216.9621
 1605.5000     0.6791   216.9349
 1606.0000     0.6791   216.9077
 1606.5000     0.6792   216.8806
 1607.0000     0.6792   216.8534
 1607.5000     0.6897   216.8262
 1608.0000     0.7001   216.7990
 1608.5000     0.7000   216.7719
 1609.0000     0.6998   216.7447
 1609.5000     0.6996   216.7175
 1610.0000     0.6994   216.6904
 1610.5000     0.6992   216.6632
 1611.0000     0.6990   216.6360
 1611.5000     0.6988   216.6089
 1612.0000     0.6986   216.5817
 1612.5000     0.6984   216.5545
 1613.0000     0.6982   216.5273
 1613.5000     0.6981   216.5002
 1614.0000     0.6979   216.4730
 1614.5000     0.6977   216.4458
 1615.0000     0.6975   216.4187
 1615.5000     0.6973   216.3915
 1616.0000     0.6971   216.3643
 1616.5000     0.6969   216.3372
 1617.0000     0.6967   216.3100
 1617.5000     0.6965   216.2828
 1618.0000     0.6964   216.2556
 1618.5000     0.6962   216.2285
 1619.0000     0.6960   216.2013
 1619.5000     0.6958   216.1741
 1620.0000     0.6956   216.1470
 1620.5000     0.6954   216.1198
 1621.0000     0.6952   216.0926
 1621.5000     0.6950   216.0654
 1622.0000     0.6948   216.0383
 1622.5000     0.6946   216.0111
 1623.0000     0.6945   215.9839
 1623.5000     0.6943   215.9568
 1624.0000     0.6941   215.9296
 1624.5000     0.6939   215.9024
 1625.0000     0.6937   215.8753
 1625.5000     0.6935   215.8481
 1626.0000     0.6933   215.8209
 1626.5000     0.6931   215.7937
 1627.0000     0.6929   215.7666
 1627.5000     0.6928   215.7394
 1628.0000     0.6926   215.7122
 1628.5000     0.6924   215.6851
 1629.0000     0.6922   215.6579
 1629.5000     0.6920   215.6307
 1630.0000     0.6918   215.6036
 1630.5000     0.6916   215.5764
 1631.0000     0.6914   215.5492
 1631.5000     0.6912   215.5220
 1632.0000     0.6910   215.4949
 1632.5000     0.6909   215.4677
 1633.0000     0.6907   215.4405
 1633.5000     0.6905   215.4134
 1634.0000     0.6903   215.3862
 1634.5000     0.6901   215.3590
 1635.0000     0.6899   215.3319
 1635.5000     0.6897   215.3047
 1636.0000     0.6895   215.2775
 1636.5000     0.6893   215.2504
 1637.0000     0.6892   215.2232
 1637.5000     0.6890   215.1960
 1638.0000     0.6888   215.1688
 1638.5000     0.6886   215.1417
 1639.0000     0.6884   215.1145
 1639.5000     0.6882   215.0873
 1640.0000     0.6880   215.0602
 1640.5000     0.6878   215.0330
 1641.0000     0.6876   215.0058
 1641.5000     0.6874   214.9787
 1642.0000     0.6873   214.9515
 1642.5000     0.6871   214.9243
 1643.0000     0.6869   214.8971
 1643.5000     0.6867   214.8700
 1644.0000     0.6865   214.8428
 1644.5000     0.6863   214.8156
 1645.0000     0.6861   214.7885
 1645.5000     0.6859   214.7613
 1646.0000     0.6857   214.7341
 1646.5000     0.6856   214.7070
 1647.0000     0.6854   214.6798
 1647.5000     0.6852   214.6526
 1648.0000     0.6850   214.6254
 1648.5000     0.6848   214.5983
 1649.0000     0.6846   214.5711
 1649.5000     0.6844   214.5439
 1650.0000     0.6842   214.5168
 1650.5000     0.6840   214.4896
 1651.0000     0.6839   214.4624
 1651.5000     0.6837   214.4352
 1652.0000     0.6835   214.4081
 1652.5000     0.6833   214.3809
 1653.0000     0.6831   214.3537
 1653.5000     0.6829   214.3266
 1654.0000     0.6827   214.2994
 1654.5000     0.6825   214.2722
 1655.0000     0.6823   214.2451
 1655.5000     0.6821   214.2179
 1656.0000     0.6820   214.1907
 1656.5000     0.6818   214.1635
 1657.0000     0.6816   214.1364
 1657.5000     0.6814   214.1092
 1658.0000     0.6812   214.0820
 1658.5000     0.6810   214.0549
 1659.0000     0.6808   214.0277
 1659.5000     0.6806   214.0005
