~VERSION INFORMATION
 VERS.                2.0:   CWLS LOG ASCII STANDARD - VERSION 2.0
 WRAP.                 NO:   ONE LINE PER DEPTH STEP
~WELL INFORMATION
#MNEM.UNIT      DATA TYPE    INFORMATION
#----------   ------------   ------------------------------
 STRT.F           35.0000:   START DEPTH
 STOP.F          474.0000:   STOP DEPTH
 STEP.F            0.5000:   STEP LENGTH
 NULL.          -999.2500:   NO VALUE
 COMP.    FENIX & SCISSON:   COMPANY
 WELL.        NPR #53-S-3:   WELL
 FLD .             TEAPOT:   FIELD
 LOC .       S3 T38N R78W:   LOCATION
 CNTY.            NATRONA:   COUNTY
 STAT.            WYOMING:   STATE
 CTRY. UNITED STATES OF AMERICA:   COUNTRY
 SRVC.       Schlumberger:   SERVICE COMPANY
 DATE.        21-FEB-1977:   LOGDATE
 API .       490251027800:   API NUMBER
~CURVE INFORMATION
#MNEM.UNIT       API CODE    CURVE DESCRIPTION
#----------   ------------   ------------------------------
 DEPT.F                  :   
 SPR .MV     07 010 01 00:   SPONTANEOUS POTENTIAL
 ILD .OHMM   07 120 46 00:   INDUCTION LOG DEEP
 ILM .OHMM   07 120 44 00:   INDUCTION LOG MEDIUM
 LL8 .OHMM   07 220 08 00:   LATEROLOG-8 RES.
 CALD.IN     45 280 60 00:   CALIPER FROM DENSITY LOG
 CORR.G/C3   45 356 01 00:   DENSITY CORRECTION
 RHOB.G/C3   45 350 01 00:   BULK DENSITY
 DPHI.DEC    45 890 12 00:   DENSITY POROSITY SANDSTONE
 GRD .GAPI   45 310 01 00:   GAMMA RAY FROM DENSITY LOG
~PARAMETER INFORMATION
#MNEM.UNIT          VALUE    DESCRIPTION
#----------   ------------   ------------------------------
 PD  .                 GL:   PERMANENT DATUM
 EPD .F              5163:   ELEVATION PERMANENT DATUM
 LMF .                 GL:   LOG MEASURED FROM
 DMF .                 KB:   DRILLING MEASURED FROM
 EKB .F              5167:   KELLING BUSHING
 EGL .F              5163:   GROUND LEVEL
 DATE.        21-FEB-1977:   RUN DATE
 RUN .                  1:   RUN NUMBER
 DD  .F               480:   DEPTH DRILLER
 DL  .F               475:   DEPTH LOGGER
 BLI .F               474:   BOTTOM LOG INTERVAL
 TLI .F                39:   TOP LOG INTERVAL
 CS  .IN            8.625:   CASING SIZE
 CBD .F                40:   CASING BOTTOM DRILLER
 CBL .F                39:   CASING BOTTOM LOGGER
 BS  .IN            7.875:   BIT SIZE
 BSD .F               480:   BIT SIZE AT DEPTH
 DFT .            KCL MUD:   DRILLING FLUID TYPE
 DFD .                8.6:   DRILLING FLUID DENSITY
 DFV .                 35:   DRILLING FLUID VISCOSITY
 DFPH.                8.0:   DRILLING FLUID PH
 DFL .                6.8:   DRILLING FLUID LOSS
 MSS .           FLOWLINE:   MUD SAMPLE SOURCE
 RMS .OHMM            .41:   RESISTIVITY MUD SAMPLE
 MST .F                70:   MUD SAMPLE TEMPERATURE
 RMF .OHMM            .46:   RESISTIVITY MUD FILTRATE SAMPLE
 MFST.F                70:   MUD FILTRATE SAMPLE TEMPERATURE
 MFSS.               MEAS:   MUD FILTRATE SAMPLE SOURCE
 TCS .HRS               1:   TIME CURCULATED STOPPED
 LUN .               7680:   LOGGING UNIT NUMBER
 LUL .               CSPR:   LOGGING UNIT LOCATION
 ENGI.             TAYLOR:   RECORDING ENGINEER
 WITN.               JAPP:   WITNESSED BY
 CLNT.            A2DTECH:   CLIENT CODE
 ORIG.           5" PRINT:   ORIGIN OF DATA
 UWI .       490251027800:   UNIQUE WELL ID
 DICO. A2D Technologies, Inc.:   DIGITIZING COMPANY
~OTHER INFORMATION
~A   DEPT      SPR        ILD        ILM        LL8       CALD       CORR       RHOB       DPHI         GRD  
# ...
  181.0000   -55.2866     7.7219     8.2181     9.4915     8.2281     0.0399     2.4851     0.0968    92.8709
  181.5000   -54.8085     7.5674     8.2226     9.1120     8.2298     0.0468     2.4897     0.0947    93.7891
  182.0000   -54.6368     7.3648     8.2271     9.1182     8.2160     0.0279     2.4963     0.1088    95.6055
  182.5000   -54.2023     7.1182     8.1184     9.3803     8.2180     0.0212     2.4678     0.1142    96.9727
  183.0000   -54.6368     6.8799     7.9559     9.4518     8.2197     0.0327     2.4754     0.1097    96.5436
  183.5000   -54.9188     6.6037     7.6365     9.1368     8.2213     0.0324     2.4709     0.1094    93.4124
  184.0000   -55.2073     6.3826     7.1794     8.7111     8.2229     0.0162     2.4424     0.1232    91.4042
  184.5000   -55.9371     6.2548     6.7964     8.1285     8.2092     0.0191     2.4560     0.1165    90.5406
  185.0000   -56.3749     6.1722     6.5689     7.4767     8.2112     0.0312     2.4530     0.1211    95.8757
  185.5000   -56.3584     6.1330     6.4821     6.7903     8.2278     0.0132     2.4199     0.1334    98.6693
  186.0000   -56.3451     6.1807     6.5307     6.3550     8.2294     0.0170     2.4411     0.1232    95.7701
  186.5000   -56.3319     6.2734     6.6254     7.5607     8.2460     0.0313     2.4374     0.1291    94.2182
  187.0000   -56.1694     6.4116     6.8151     9.1188     8.2476     0.0238     2.4254     0.1387    93.3400
  187.5000   -55.8577     6.6795     7.1580     9.0621     8.2493     0.0171     2.4292     0.1299    90.8899
  188.0000   -55.6952     6.7762     7.3629     8.8209     8.2659     0.0104     2.4496     0.1212    89.3380
  188.5000   -55.6819     6.9221     7.4696     8.8269     8.2675     0.0224     2.4558     0.1172    89.5825
  189.0000   -55.6687     7.0224     7.6304     8.9559     8.2692     0.0157     2.4512     0.1196    90.5007
  189.5000   -55.4950     7.1242     7.8489     9.1499     8.2861     0.0135     2.4520     0.1184    92.7661
  190.0000   -55.3433     7.1775     7.9077     9.1561     8.2874     0.0210     2.4611     0.1162    95.0316
  190.5000   -55.1779     7.2313     7.9669     9.1623     8.2893     0.0361     2.4757     0.1120    97.2971
  191.0000   -55.0154     7.2352     7.9163     9.1686     8.3059     0.0414     2.4854     0.1005    98.6643
  191.5000   -55.0022     7.2392     7.8649     9.1748     8.3076     0.0459     2.4769     0.0980    98.0106
  192.0000   -54.9890     7.1930     7.7621     9.1811     8.3092     0.0535     2.4757     0.1050    96.2342
  192.5000   -55.1283     7.1474     7.6596     9.1240     8.3108     0.0490     2.4645     0.1092    95.1314
  193.0000   -54.9658     7.1513     7.6637     9.0673     8.3124     0.0348     2.4525     0.1194    94.9266
  193.5000   -55.1018     7.0082     7.8288     8.9382     8.3141     0.0348     2.4608     0.1145    95.1714
  194.0000   -55.0853     6.9561     7.8332     8.4161     8.3157     0.0363     2.4360     0.1172    95.6557
  194.5000   -55.0721     6.7782     7.6243     8.3047     8.3173     0.0259     2.4338     0.1276    96.1886
  195.0000   -55.2081     6.5967     7.1679     8.6042     8.3189     0.0190     2.4444     0.1214    98.4506
  195.5000   -55.6426     6.4201     7.0723     8.7300     8.3206     0.0229     2.4543     0.1259   100.6454
  196.0000   -56.0771     6.2052     7.0283     8.4390     8.3222     0.0170     2.4340     0.1310    97.7462
  196.5000   -56.2134     5.9560     6.8401     8.2700     8.3088     0.0095     2.4288     0.1337    97.9907
  197.0000   -56.6478     5.7958     6.5202     8.1071     8.3105     0.0073     2.4266     0.1349    99.8071
  197.5000   -57.0871     5.6025     6.0456     7.9461     8.3121     0.0156     2.4252     0.1401    97.3570
  198.0000   -57.2182     5.4897     5.7232     6.8294     8.3287     0.0086     2.4071     0.1514    95.8001
  198.5000   -57.2045     5.5315     5.5308     5.8696     8.3304     0.0029     2.4033     0.1492    96.4987
  199.0000   -57.1884     5.6506     5.6506     5.6887     8.3324     0.0142     2.4005     0.1534    94.7222
  199.5000   -56.8767     5.7723     5.8528     7.5390     8.3340     0.0232     2.3968     0.1465    93.3899
  200.0000   -56.5325     5.9788     6.1042     8.4266     8.3352     0.0186     2.4006     0.1369    95.6605
  200.5000   -56.1015     6.1101     6.4016     8.3870     8.3190     0.0166     2.4341     0.1309    96.3503
  201.0000   -56.0836     6.3256     6.7331     8.6728     8.3040     0.0235     2.4495     0.1217    95.9183
  201.5000   -56.0657     6.5514     6.9739     9.0451     8.2890     0.0271     2.4556     0.1162    96.6138
  202.0000   -56.0199     6.7853     7.2234     9.3038     8.2806     0.0339     2.4684     0.1126    97.3050
  202.5000   -55.8772     6.9791     7.3790     9.3735     8.2822     0.0370     2.4819     0.1081    97.5427
  203.0000   -55.5610     7.1289     7.5902     9.3787     8.2836     0.0331     2.4797     0.1079    95.0946
  203.5000   -55.2448     7.3324     7.7536     9.3839     8.2849     0.0250     2.4699     0.1141    93.9893
  204.0000   -55.2271     7.4898     7.9206     9.4003     8.2862     0.0146     2.4503     0.1202    95.8033
  204.5000   -55.0601     7.6506     8.0912     9.6587     8.2878     0.0116     2.4533     0.1179    97.6172
  205.0000   -54.7439     7.7609     8.2084     9.8665     8.2892     0.0199     2.4518     0.1189    99.8802
  205.5000   -54.5770     7.8202     8.2129     9.8719     8.2905     0.0154     2.4581     0.1116   101.4925
  206.0000   -54.5592     7.9313     8.2174     9.8773     8.2918     0.0095     2.4676     0.1107   101.9406
  206.5000   -54.5415     7.9352     8.2219     9.9512     8.2931     0.0185     2.4608     0.1152   102.1827
  207.0000   -54.5238     7.9949     8.2337    10.0257     8.2944     0.0103     2.4593     0.1155   102.4248
  207.5000   -54.5061     8.1102     8.4037    10.2415     8.2957     0.0313     2.4827     0.1082   102.4423
  208.0000   -54.4884     8.1704     8.4676    10.3897     8.2970     0.0479     2.4992     0.0989   102.0064
  208.5000   -54.4707     8.1743     8.7100    10.4675     8.2984     0.0202     2.4819     0.1064    99.7828
  209.0000   -54.6030     8.1782     8.7753    10.4732     8.2997     0.0134     2.4639     0.1124    95.7584
  209.5000   -54.7343     8.1821     8.9643    10.5516     8.3010     0.0105     2.4495     0.1176    92.4076
  210.0000   -55.1639     8.1860     8.9692    10.5574     8.3026     0.0083     2.4435     0.1212    93.9970
  210.5000   -55.2954     8.1899     9.1623    10.5631     8.3040     0.0068     2.4579     0.1175    96.5075
  211.0000   -55.4270     8.1938     9.2310    10.5690     8.3053     0.0077     2.4601     0.1147    98.5275
  211.5000   -55.5585     8.1412     9.2360    10.5746     8.3066     0.0139     2.4834     0.1105   101.0150
  212.0000   -55.5403     8.1451     9.2411    10.3501     8.3079     0.0204     2.4970     0.0996   102.3799
  212.5000   -55.5224     8.0370     9.1811    10.2264     8.3092     0.0160     2.4691     0.1090   101.7237
  213.0000   -55.5010     7.9853     9.0611    10.2334     8.3105     0.0130     2.4759     0.1120    99.0467
  213.5000   -55.4833     7.9892     8.9414    10.2390     8.3120     0.0333     2.4985     0.0993    97.7125
  214.0000   -55.4656     7.9378     8.8232    10.0329     8.3132     0.0438     2.5151     0.0836    97.5055
  214.5000   -55.4479     7.8869     8.7672     9.8322     8.3145     0.0544     2.5090     0.0823    97.3024
  215.0000   -55.2809     7.7831     8.7116    10.1149     8.3161     0.0469     2.5098     0.0851    96.8713
  215.5000   -55.1140     7.7331     8.5913    10.3325     8.3174     0.0327     2.5030     0.0864    94.5539
  216.0000   -55.0963     7.6296     8.5334    10.2669     8.3188     0.0117     2.5067     0.0856    91.5215
  216.5000   -55.0786     7.5292     8.3132     9.7871     8.3201     0.0050     2.5194     0.0784    89.7426
  217.0000   -55.0609     7.3771     8.0918     9.5251     8.3214     0.0215     2.5329     0.0684    89.9847
