~VERSION INFORMATION
 VERS.                2.0:   CWLS LOG ASCII STANDARD - VERSION 2.0
 WRAP.                 NO:   ONE LINE PER DEPTH STEP
~WELL INFORMATION
#MNEM.UNIT      DATA TYPE    INFORMATION
#----------   ------------   ------------------------------
 STRT.F            1.0000:   START DEPTH
 STOP.F          886.0000:   STOP DEPTH
 STEP.F            0.5000:   STEP LENGTH
 NULL.          -999.2500:   NO VALUE
 COMP. BROWN JOHN E&C INC:   COMPANY
 WELL. NAVAL PETROLEUM RESERVE 3 SHX-1 #33-2:   WELL
 FLD .             NPR #3:   FIELD
 LOC .       S2 T38N R78W:   LOCATION
 CNTY.            NATRONA:   COUNTY
 STAT.            WYOMING:   STATE
 CTRY. UNITED STATES OF AMERICA:   COUNTRY
 SRVC.      Western Atlas:   SERVICE COMPANY
 DATE.        26-NOV-1991:   LOGDATE
 API .       490252248300:   API NUMBER
~CURVE INFORMATION
#MNEM.UNIT       API CODE    CURVE DESCRIPTION
#----------   ------------   ------------------------------
 DEPT.F                  :   
 RILD.OHMM   07 120 46 00:   INDUCTION LOG DEEP RESISTIVITY
 RILM.OHMM   07 120 44 00:   INDUCTION LOG MEDIUM RESISTIVITY
 RFOC.OHMM   07 220 04 00:   RESISTIVITY FOCUSED LOG
 SPR .MV     07 010 01 00:   SPONTANEOUS POTENTIAL
 GRR .GAPI   07 310 01 00:   GAMMA RAY
~PARAMETER INFORMATION
#MNEM.UNIT          VALUE    DESCRIPTION
#----------   ------------   ------------------------------
 PD  .                 GL:   PERMANENT DATUM
 EPD .F              5133:   ELEVATION PERMANENT DATUM
 LMF .                 KB:   LOG MEASURED FROM
 DAPD.F                10:   FEET ABOVE PERMANENT DATUM
 DMF .                 KB:   DRILLING MEASURED FROM
 EKB .F              5143:   KELLING BUSHING
 EGL .F              5133:   GROUND LEVEL
 DATE.        26-NOV-1991:   RUN DATE
 RUN .                  1:   RUN NUMBER
 DD  .F               892:   DEPTH DRILLER
 DL  .F               889:   DEPTH LOGGER
 BLI .F               837:   BOTTOM LOG INTERVAL
 CS  .IN            8.625:   CASING SIZE
 CBD .F                40:   CASING BOTTOM DRILLER
 CBL .F                55:   CASING BOTTOM LOGGER
 BS  .IN            7.875:   BIT SIZE
 BSD .F               892:   BIT SIZE AT DEPTH
 DFT .            POLYMER:   DRILLING FLUID TYPE
 DFD .                9.8:   DRILLING FLUID DENSITY
 DFV .                 38:   DRILLING FLUID VISCOSITY
 DFPH.                9.5:   DRILLING FLUID PH
 DFL .               10.6:   DRILLING FLUID LOSS
 MSS .           FLOWLINE:   MUD SAMPLE SOURCE
 RMS .OHMM           2.08:   RESISTIVITY MUD SAMPLE
 MST .F                78:   MUD SAMPLE TEMPERATURE
 RMF .OHMM           1.66:   RESISTIVITY MUD FILTRATE SAMPLE
 MFST.F                78:   MUD FILTRATE SAMPLE TEMPERATURE
 RMC .OHMM           2.60:   RESISTIVITY MUD CAKE
 MCST.F                78:   MUD CAKE SAMPLE TEMPERATURE
 MFSS.               MEAS:   MUD FILTRATE SAMPLE SOURCE
 MCSS.               CALC:   MUD CAKE SAMPLE SOURCE
 RMB .OHMM           1.08:   RESISTIVITY MUD AT BHT
 BHT .F               150:   BOTTOM HOLE TEMPERATURE
 TCS .HRS               2:   TIME CURCULATED STOPPED
 MRT .F               150:   MAXIMUM RECORDED TEMPERATURE
 LUN .            HL-6307:   LOGGING UNIT NUMBER
 LUL .         CASPER, WY:   LOGGING UNIT LOCATION
 ENGI.             ZIEGER:   RECORDING ENGINEER
 WITN.             STRONG:   WITNESSED BY
 CLNT.            A2DTECH:   CLIENT CODE
 ORIG.           5" PRINT:   ORIGIN OF DATA
 UWI .       490252248300:   UNIQUE WELL ID
 DICO. A2D Technologies, Inc.:   DIGITIZING COMPANY
~OTHER INFORMATION
~A    DEPT    RILD       RILM       RFOC        SPR         GRR  
# ...
  794.0000    12.5214    12.7647    14.3196   -96.0250    90.7143
  794.5000    12.4315    12.5951    14.7738   -95.4261    94.9200
  795.0000    12.4281    12.5055    14.3835   -95.1277    97.9190
  795.5000    12.3381    12.2455    13.8951   -94.9813    96.0871
  796.0000    12.0808    12.0744    13.4469   -94.6851    94.8629
  796.5000    11.8288    11.9057    13.3029   -94.3878    94.5437
  797.0000    11.6628    11.7393    13.0115   -93.9397    94.8322
  797.5000    11.4990    11.4939    12.8258   -93.3408    94.5086
  798.0000    11.4165    11.2562    12.5772   -92.8927    92.6810
  798.5000    11.1011    11.0984    12.3154   -92.5965    92.6415
  799.0000    10.8630    11.0195    12.0393   -92.4490    93.2492
  799.5000    10.5686    10.9411    11.9509   -92.4545    92.0207
  800.0000    10.4202    11.1687    12.3936   -92.0051    89.8905
  800.5000    10.2029    11.0104    12.2006   -92.6231    91.0737
  801.0000    10.0597    10.7793    12.0941   -92.7856    90.4468
  801.5000     9.9874    10.7005    12.0470   -92.9482    88.0101
  802.0000     9.9848    10.5487    11.8785   -92.9599    88.2883
  802.5000     9.9821    10.3982    11.7802   -92.8205    88.5671
  803.0000     9.9104    10.2508    11.6774   -92.3801    87.9396
  803.5000     9.8392    10.1758    11.6267   -92.0902    86.0744
  804.0000     9.7004    10.1014    11.5437   -91.9511    84.8761
  804.5000     9.6978    10.0275    11.5416   -91.8120    89.3716
  805.0000     9.6282     9.9542    11.5392   -91.8267    92.0630
  805.5000     9.5591     9.8814    11.4910   -91.8384    93.5478
  806.0000     9.4905     9.8774    11.4543   -91.6994    92.0161
  806.5000     9.4223     9.8733    11.3731   -91.7111    93.1992
  807.0000     9.4198     9.8692    11.3491   -91.4212    92.8741
  807.5000     9.4118     9.7962    11.2500   -91.2821    91.6439
  808.0000     9.3490     9.7922    11.1518   -91.1430    90.4133
  808.5000     9.3465     9.7883    11.0527   -91.3085    91.8928
  809.0000     9.3440     9.7843    10.9580   -91.7728    93.6792
  809.5000     9.3415     9.7803    10.8959   -92.2370    94.8624
  810.0000     9.3389     9.7764    10.8425   -92.5504    95.7439
  810.5000     9.3364     9.7724    10.7410   -92.7130    95.4187
  811.0000     9.3339     9.7685    10.7391   -92.8755    93.8869
  811.5000     9.3963     9.8325    10.7369   -92.8873    92.9585
  812.0000     9.4592     9.8275    10.7807   -93.0499    94.1416
  812.5000     9.5881     9.8235    10.8071   -93.0618    94.1176
  813.0000     9.6528     9.8195    10.8049   -93.0763    92.5805
  813.5000     9.6496     9.8155    10.8026   -93.0880    92.2612
  814.0000     9.6470     9.8116    10.8004   -93.0998    92.5394
  814.5000     9.6444     9.8076    10.7978   -92.8098    91.6050
  815.0000     9.5752     9.8036    10.7213   -92.5199    90.3749
  815.5000     9.5064     9.7996    10.7191   -92.3808    92.1614
  816.0000     9.4381     9.7956    10.7168   -91.9401    92.7421
  816.5000     9.3698     9.7907    10.7146   -91.8010    92.7177
  817.0000     9.3025     9.7867    10.7868   -91.5111    93.6209
  817.5000     9.1719     9.7151    10.7705   -91.5258    95.0782
  818.0000     9.1060     9.6441    10.7079   -91.6883    96.8646
  818.5000     9.1038     9.5074    10.6570   -91.7001    98.9528
  819.0000     9.1011     9.5035    10.5558   -91.7118   100.7392
  819.5000     9.0358     9.4997    10.4717   -91.5728   102.2240
  820.0000     8.9709     9.4958    10.3804   -91.5845   103.1055
  820.5000     8.9065     9.4919    10.2898   -91.5962   103.6863
  821.0000     8.9035     9.4880    10.2584   -91.6080   103.6619
  821.5000     8.9011     9.4833    10.2609   -91.4689   101.1866
  822.0000     8.8987     9.5464    10.3470   -91.1533    98.0270
  822.5000     8.9588     9.5416    10.4724   -90.8891    95.1391
  823.0000     9.0188     9.5377    10.6114   -90.9037    94.2106
  823.5000     9.0785     9.5339    10.6834   -91.0663    95.0921
  824.0000     9.0760     9.5300    10.5735   -91.3797    97.1802
  824.5000     9.0735     9.5261    10.4254   -91.5423    99.5700
  825.0000     9.0606     9.5223    10.3344   -91.8557   101.9598
  825.5000     9.0054     9.5183    10.1686   -91.7164   104.9529
  826.0000     9.0030     9.5136    10.0963   -91.5696   107.0731
  826.5000     8.8766     9.4440    10.0942   -91.2876   108.2242
  827.0000     8.8742     9.4402    10.0477   -91.3023   102.4633
  827.5000     8.8105     9.3064     9.9508   -91.1632    98.2166
  828.0000     8.6868     9.1745     9.8731   -91.1749    95.7798
  828.5000     8.5648     9.1074     9.8099   -91.1867    94.5497
  829.0000     8.3861     9.0407     9.7690   -91.1984    96.0345
  829.5000     8.3258     8.9746     9.7377   -91.2102    96.6686
  830.0000     8.2656     8.9089     9.6660   -91.5236    95.9875
  830.5000     8.2063     8.9052     9.5999   -91.6863    95.9638
  831.0000     8.2041     8.9009     9.5642   -91.8492    97.2849
  831.5000     8.1452     8.8358     9.5295   -92.0142   100.7378
  832.0000     8.0867     8.6503     9.5275   -92.1768   103.7309
  832.5000     7.9732     8.4102     9.3807   -92.1885   105.2215
  833.0000     7.8612     8.2337     9.2630   -92.2003   103.6839
  833.5000     7.6972     8.1170     9.1746   -92.2120   102.1521
  834.0000     7.5887     7.9466     9.0057   -92.3746   101.5312
  834.5000     7.4821     7.7246     8.8097   -92.2353   105.4234
  835.0000     7.4284     7.5046     8.7328   -92.2474   107.8230
  835.5000     7.2232     7.3024     8.5604   -92.2594   107.4872
  836.0000     7.1218     7.1491     8.5125   -91.9720   107.7603
  836.5000     6.8297     6.8076     8.4425   -91.8300   108.3460
  837.0000     5.9024     6.0480     8.2976   -91.6939   108.3167
  837.5000     5.1277     5.3361     8.0481   -91.5518   107.6899
  838.0000     4.6275     4.7407     7.8261   -91.4127   108.2697
  838.5000     4.4070     4.3003     7.5057   -91.4274   115.7877
  839.0000     4.3151     4.0948     6.0946   -91.5900   123.9090
  839.5000     4.4353     4.2431     4.6170   -91.6053   130.5428
  840.0000     4.5588     4.6673     4.5350   -91.9155   132.6496
  840.5000     4.6858     5.2130     6.0906   -92.5331   127.7542
  841.0000     4.8163     5.7821     8.0362   -93.1482   115.6644
  841.5000     5.1275     6.3691     8.8273   -93.7633   104.7812
  842.0000     5.9607     6.9191     8.8762   -94.3783   100.8361
  842.5000     6.9498     7.3109     8.6680   -94.3901   103.2259
  843.0000     7.3954     7.6715     8.6067   -94.4018   103.5099
  843.5000     7.6543     7.8296     8.7298   -93.9611   102.2739
  844.0000     7.8137     7.9386     8.9550   -93.6691   103.4652
  844.5000     7.8110     8.0993     9.1548   -93.2304   104.6402
  845.0000     7.8633     8.2091     9.1494   -92.9434   104.6109
  845.5000     7.9710     8.2629     9.0696   -92.9552   103.9900
  846.0000     8.0801     8.3170     9.0899   -92.9669   106.3739
  846.5000     8.2472     8.4876     9.4699   -92.8249   106.6579
  847.0000     8.3029     8.5440     9.8704   -92.8396   105.7236
  847.5000     8.4752     8.5397    10.0068   -92.6975   106.3093
  848.0000     8.5313     8.7157    10.0366   -92.7122   105.9783
  848.5000     8.7083     8.9581    10.1208   -92.5731   105.3514
  849.0000     8.7672     9.2131    10.2813   -92.5852   105.6296
  849.5000     8.8867     9.3943    10.3749   -92.7504   107.4102
  850.0000     8.9461     9.5226    10.5663   -92.6094   107.9959
  850.5000     8.9448     9.5215    10.7153   -93.0930   107.0769
  851.0000     9.0683     9.6540    10.8063   -93.8390   107.0627
  851.5000     9.1940     9.7881    10.8590   -94.3017   105.5428
  852.0000     9.3857     9.7874    11.0088   -94.6135   103.4195
  852.5000     9.5156     9.8549    11.0842   -94.6237   104.0111
  853.0000     9.6472     9.8542    11.1780   -94.4806   107.6194
  853.5000     9.6459     9.8534    11.2404   -94.1917   109.1161
  854.0000     9.7117     9.9214    10.9394   -94.0372   105.0416
  854.5000     9.6430     9.9206    10.6265   -93.7596    99.4367
