~VERSION INFORMATION
 VERS.                2.0:   CWLS LOG ASCII STANDARD - VERSION 2.0
 WRAP.                 NO:   ONE LINE PER DEPTH STEP
~WELL INFORMATION
#MNEM.UNIT      DATA TYPE    INFORMATION
#----------   ------------   ------------------------------
 STRT.F           90.0000:   START DEPTH
 STOP.F         1032.5000:   STOP DEPTH
 STEP.F            0.5000:   STEP LENGTH
 NULL.          -999.2500:   NO VALUE
 COMP. U S NAVY/INTEX OIL CO:   COMPANY
 WELL. NAVAL PETROLEUM RESERVE 3  #62-S-14:   WELL
 FLD .        TEAPOT DOME:   FIELD
 LOC .      S14 T38N R78W:   LOCATION
 CNTY.            NATRONA:   COUNTY
 STAT.            WYOMING:   STATE
 CTRY. UNITED STATES OF AMERICA:   COUNTRY
 SRVC.       Schlumberger:   SERVICE COMPANY
 DATE.        04-JUL-1962:   LOGDATE
 API .       490250631700:   API NUMBER
~CURVE INFORMATION
#MNEM.UNIT       API CODE    CURVE DESCRIPTION
#----------   ------------   ------------------------------
 DEPT.F                  :   
 GR  .GAPI   30 310 01 00:   GAMMA RAY
 CALM.IN     15 280 01 00:   CALIPER FROM MICRO LOG
 SPR .MV     06 010 01 00:   SPONTANEOUS POTENTIAL FROM RES.
 ASN .OHMM   06 041 16 00:   AMPLIFIED SHORT NORMAL 16"
 ILD .OHMM   06 120 46 00:   INDUCTION LOG DEEP
 CILD.MMHO   06 110 46 00:   CONDUCTIVITY INDUCTION LOG DEEP
~PARAMETER INFORMATION
#MNEM.UNIT          VALUE    DESCRIPTION
#----------   ------------   ------------------------------
 PD  .                 GL:   PERMANENT DATUM
 EPD .F              5246:   ELEVATION PERMANENT DATUM
 LMF .                 KB:   LOG MEASURED FROM
 DAPD.F                 5:   FEET ABOVE PERMANENT DATUM
 DMF .                 KB:   DRILLING MEASURED FROM
 EKB .F              5251:   KELLING BUSHING
 EGL .F              5246:   GROUND LEVEL
 DATE.             7-4-62:   RUN DATE
 RUN .                  1:   RUN NUMBER
 DD  .F              1036:   DEPTH DRILLER
 DL  .F              1033:   DEPTH LOGGER
 BLI .F              1032:   BOTTOM LOG INTERVAL
 TLI .F                90:   TOP LOG INTERVAL
 CBD .F                10:   CASING BOTTOM DRILLER
 BS  .IN             6.75:   BIT SIZE
 BSD .F              1036:   BIT SIZE AT DEPTH
 DFT .                GEL:   DRILLING FLUID TYPE
 DFD .               10.2:   DRILLING FLUID DENSITY
 DFV .                 48:   DRILLING FLUID VISCOSITY
 DFL .                4.8:   DRILLING FLUID LOSS
 MSS .          FLOW LINE:   MUD SAMPLE SOURCE
 RMS .OHMM            5.6:   RESISTIVITY MUD SAMPLE
 MST .F                70:   MUD SAMPLE TEMPERATURE
 RMF .OHMM           5.57:   RESISTIVITY MUD FILTRATE SAMPLE
 MFST.F                70:   MUD FILTRATE SAMPLE TEMPERATURE
 RMC .OHMM           5.32:   RESISTIVITY MUD CAKE
 MCST.F                70:   MUD CAKE SAMPLE TEMPERATURE
 MFSS.                  M:   MUD FILTRATE SAMPLE SOURCE
 MCSS.                  M:   MUD CAKE SAMPLE SOURCE
 RMB .OHMM            4.3:   RESISTIVITY MUD AT BHT
 BHT .F                90:   BOTTOM HOLE TEMPERATURE
 TCS .HRS               1:   TIME CURCULATED STOPPED
 MRT .F                90:   MAXIMUM RECORDED TEMPERATURE
 LUN .               2503:   LOGGING UNIT NUMBER
 LUL .               CSPR:   LOGGING UNIT LOCATION
 ENGI.             KNOBEL:   RECORDING ENGINEER
 WITN.          JORGENSEN:   WITNESSED BY
 CLNT.            A2DTECH:   CLIENT CODE
 ORIG.   1", 2", 5" PRINT:   ORIGIN OF DATA
 UWI .       490250631700:   UNIQUE WELL ID
 DICO. A2D Technologies, Inc.:   DIGITIZING COMPANY
~OTHER INFORMATION
~A   DEPT       GR       CALM        SPR          ASN        ILD      CILD  
# ...
  922.0000    47.5576     6.6766   -41.2110    13.0130    11.6966    81.6633
  922.5000    43.2830     6.6613   -40.7088    12.9400    11.7045    81.6633
  923.0000    44.0096     6.6460   -40.2004    12.8785    11.7124    81.6633
  923.5000    38.4284     6.6303   -39.9456    12.9195    11.7204    81.6633
  924.0000    42.5907     6.6256   -39.6961    12.9595    11.7283    81.6633
  924.5000    43.6318     6.6225   -39.6312    12.9992    11.7362    81.6633
  925.0000    51.8163     6.6194   -39.9009    13.0388    11.7441    81.6633
  925.5000    59.7556     6.6163   -40.1446    13.0784    11.7521    81.0010
  926.0000    56.3884     6.6132   -40.6694    13.1180    11.7597    80.2648
  926.5000    62.5758     6.6100   -41.3557    13.1576    11.7667    79.5286
  927.0000    53.1852     6.6069   -42.0510    13.1972    11.7812    78.7923
  927.5000    45.6523     6.6038   -42.7560    13.2368    11.9326    78.0561
  928.0000    48.9719     6.6007   -42.9226    13.2763    12.0816    77.3199
  928.5000    47.8372     6.5976   -42.8371    13.3160    12.2297    76.5837
  929.0000    41.1605     6.5944   -42.7463    13.3563    12.3773    75.8474
  929.5000    36.4994     6.5914   -42.6555    13.4202    12.5280    75.1112
  930.0000    38.8118     6.5886   -42.5651    13.5143    12.5074    74.3750
  930.5000    45.3265     6.5695   -42.4748    13.6074    12.4095    73.6387
  931.0000    41.9760     6.5473   -42.3843    13.6790    12.3096    72.9025
  931.5000    47.9634     6.5251   -42.2850    13.6762    12.2096    72.0755
  932.0000    41.7663     6.5029   -42.1856    13.5986    12.1097    73.8111
  932.5000    42.7581     6.4811   -42.0862    13.4194    12.0103    75.5468
  933.0000    46.5254     6.4851   -41.9849    13.2416    11.8937    77.2824
  933.5000    46.8557     6.5254   -41.8657    13.0633    11.7696    79.0180
  934.0000    44.9066     6.5650   -41.7440    12.8851    11.6448    80.7537
  934.5000    52.6082     6.5852   -41.6223    12.7068    11.5199    82.4893
  935.0000    57.5458     6.5788   -41.5005    12.5286    11.3947    84.2250
  935.5000    50.6327     6.5728   -41.3788    12.3504    11.2750    85.9606
  936.0000    47.1203     6.5666   -41.2571    12.1721    11.2499    87.6753
  936.5000    37.8700     6.5605   -41.1354    11.9934    11.2287    87.5818
  937.0000    31.8185     6.5544   -41.0128    11.8158    11.2071    87.0736
  937.5000    45.5359     6.5483   -40.8884    11.6853    11.1854    86.5734
  938.0000    41.2067     6.5422   -40.8033    11.7760    11.1637    86.0742
  938.5000    37.4923     6.5361   -41.2119    11.8626    11.1420    85.5751
  939.0000    36.3424     6.5300   -41.6142    11.9489    11.1203    85.0761
  939.5000    43.7667     6.5318   -42.0145    12.0350    11.0987    84.6693
  940.0000    45.7007     6.5404   -42.3695    12.1194    11.0771    84.9923
  940.5000    37.7668     6.5489   -42.1755    12.1225    11.0410    85.3206
  941.0000    40.9009     6.5575   -41.9959    11.9778    11.0012    85.6489
  941.5000    41.8141     6.5660   -42.1520    11.8355    10.9612    85.9772
  942.0000    44.8148     6.5746   -42.3111    11.6928    10.9213    86.3055
  942.5000    47.0704     6.5834   -41.8865    11.5500    10.8814    86.6338
  943.0000    41.2337     6.5780   -41.5404    11.4036    10.8414    86.9621
  943.5000    39.0569     6.5269   -41.1893    11.3564    10.8015    87.2904
  944.0000    34.9614     6.3478   -40.8292    11.3339    10.7616    87.6187
  944.5000    36.4595     6.1909   -40.4728    11.3123    10.7217    87.9470
  945.0000    33.2801     6.1884   -40.2468    11.2904    10.6815    88.2752
  945.5000    41.9561     6.1891   -40.7066    11.2685    10.6198    88.6035
  946.0000    53.1920     6.1892   -41.1574    11.2466    10.5503    88.9318
  946.5000    46.8772     6.1889   -41.6054    11.2247    10.4806    89.2601
  947.0000    44.6277     6.1871   -42.0074    11.2027    10.4110    89.5884
  947.5000    43.9191     6.2608   -41.4076    11.1808    10.3414    89.0930
  948.0000    49.5697     6.3416   -40.6357    11.1589    10.2717    90.3867
  948.5000    43.8879     6.4223   -39.8608    11.1370    10.2018    91.6804
  949.0000    46.4216     6.5058   -39.0868    11.1150    10.1322    92.9741
  949.5000    46.9208     6.4391   -38.3236    11.0931    10.0724    94.2678
  950.0000    51.9554     6.4842   -37.7591    11.0712    10.1120    95.5615
  950.5000    44.5904     6.5532   -37.9786    11.0493    10.1508    95.4143
  951.0000    55.1650     6.5820   -38.2017    11.0271    10.1891    94.8665
  951.5000    49.6366     6.5658   -38.4276    11.0054    10.2278    94.3104
  952.0000    46.7944     6.5490   -38.6529    10.9859    10.2643    93.7564
  952.5000    41.2743     6.5330   -38.8769    11.1060    10.3638    93.2031
  953.0000    40.6178     6.5152   -39.1042    11.3918    10.4979    92.6497
  953.5000    42.0224     6.4247   -38.9302    11.6772    10.5693    92.0964
  954.0000    39.8015     6.2370   -38.1775    11.7378    10.5188    91.6834
  954.5000    38.5222     6.2281   -37.4168    11.5302    10.4688    92.2999
  955.0000    40.1136     6.2454   -36.6536    11.3830    10.4188    92.8858
  955.5000    42.1705     6.3605   -35.8819    11.5297    10.3691    93.4716
  956.0000    34.7281     6.5024   -36.0388    11.6546    10.3194    93.6874
  956.5000    33.5766     6.5091   -36.3597    11.2570    10.2692    95.3941
  957.0000    40.3164     6.4856   -36.6841    10.8411    10.1980    97.0541
  957.5000    41.8916     6.4468   -37.0067    10.7614    10.1267    98.6974
  958.0000    41.2963     6.4091   -37.3288    10.7486    10.0555    98.4694
  958.5000    37.6692     6.4253   -37.6559    10.7372     9.9843    98.1875
  959.0000    37.7528     6.4472   -37.9959    10.7252     9.9139    97.9056
  959.5000    43.0835     6.4667   -37.5538    10.7131     9.8810    97.6237
  960.0000    41.0479     6.4417   -36.9779    10.7009     9.9131    97.3419
  960.5000    45.2784     6.4149   -36.3628    10.6888     9.9440    97.0600
  961.0000    40.3614     6.3881   -35.9081    10.6766     9.9752    96.7781
  961.5000    44.8490     6.3713   -35.7514    10.6645    10.0063    96.4962
  962.0000    45.1562     6.4580   -35.5890    10.6523    10.0374    96.2143
  962.5000    49.9804     6.4684   -35.4276    10.6402    10.0686    95.9324
  963.0000    46.6220     6.4507   -35.2661    10.6280    10.0997    95.6914
  963.5000    48.2798     6.5152   -35.1040    10.6159    10.1309    96.0155
  964.0000    50.3224     6.5799   -34.9391    10.6038    10.1642    96.3589
  964.5000    45.5235     6.5622   -34.7832    10.5916    10.1210    96.7024
  965.0000    45.9799     6.5251   -35.2548    10.5795    10.0541    97.0458
  965.5000    47.3921     6.4881   -35.7821    10.5619     9.9866    97.3893
  966.0000    38.7485     6.4993   -36.3129    10.5319     9.9193    97.6954
  966.5000    38.9496     6.5402   -36.3316    10.5020     9.8520    98.2959
  967.0000    42.2002     6.5791   -35.8662    10.4721     9.7846    99.1461
  967.5000    43.2061     6.5896   -35.3955    10.4422     9.7175    99.9963
  968.0000    44.0872     6.5231   -34.9911    10.4123     9.6644   100.8466
  968.5000    45.6524     6.5082   -35.3241    10.3824     9.6486   101.6968
  969.0000    38.9412     6.5078   -35.6714    10.3525     9.6326   102.5471
  969.5000    38.1238     6.5079   -35.4082    10.3224     9.6166   103.3973
  970.0000    49.6420     6.5080   -34.8855    10.2930     9.6004   104.2475
  970.5000    47.1148     6.5079   -34.3503    10.2877     9.5841   105.7114
  971.0000    47.4954     6.5081   -34.2879    10.3704     9.5710   105.0551
  971.5000    51.9313     6.4913   -34.5487    10.4502     9.6089   104.4326
  972.0000    41.9547     6.4609   -34.8099    10.5296     9.6475   103.8101
  972.5000    46.7873     6.4675   -35.0764    10.6095     9.6859   101.7479
  973.0000    42.5249     6.5005   -35.0740    10.6994     9.7231    99.5346
  973.5000    39.3622     6.5341   -34.9273    10.9180     9.7540    97.3213
