~VERSION INFORMATION
 VERS.                2.0:   CWLS LOG ASCII STANDARD - VERSION 2.0
 WRAP.                 NO:   ONE LINE PER DEPTH STEP
~WELL INFORMATION
#MNEM.UNIT      DATA TYPE    INFORMATION
#----------   ------------   ------------------------------
 STRT.F           65.0000:   START DEPTH
 STOP.F          860.0000:   STOP DEPTH
 STEP.F            0.5000:   STEP LENGTH
 NULL.          -999.2500:   NO VALUE
 COMP.          U.S. NAVY:   COMPANY
 WELL. NPR 3 TEAPOT DOM #71-S-34:   WELL
 FLD .             TEAPOT:   FIELD
 LOC .      S34 T39N R78W:   LOCATION
 CNTY.            NATRONA:   COUNTY
 STAT.            WYOMING:   STATE
 CTRY. UNITED STATES OF AMERICA:   COUNTRY
 SRVC. Schlumberger Well Surveying Corp:   SERVICE COMPANY
 DATE.        22-FEB-1961:   LOGDATE
 API .       490250657300:   API NUMBER
~CURVE INFORMATION
#MNEM.UNIT       API CODE    CURVE DESCRIPTION
#----------   ------------   ------------------------------
 DEPT.F                  :   
 GR  .GAPI   30 310 01 00:   GAMMA RAY
 ASN .OHMM   05 041 16 00:   AMPLIFIED SHORT NORMAL 16"
 CILD.MMHO   05 110 46 00:   CONDUCTIVITY INDUCTION LOG DEEP
 ILD .OHMM   05 120 46 00:   INDUCTION LOG DEEP
 SPR .MV     05 010 01 00:   SPONTANEOUS POTENTIAL FROM RES.
~PARAMETER INFORMATION
#MNEM.UNIT          VALUE    DESCRIPTION
#----------   ------------   ------------------------------
 LMF .                 KB:   LOG MEASURED FROM
 DMF .                 KB:   DRILLING MEASURED FROM
 EKB .F              5067:   KELLING BUSHING
 EGL .F              5063:   GROUND LEVEL
 DATE.        22-FEB-1961:   RUN DATE
 RUN .                  1:   RUN NUMBER
 DD  .F               861:   DEPTH DRILLER
 DL  .F               861:   DEPTH LOGGER
 BLI .F               860:   BOTTOM LOG INTERVAL
 TLI .F                80:   TOP LOG INTERVAL
 CBD .F                12:   CASING BOTTOM DRILLER
 BS  .IN            7.875:   BIT SIZE
 BSD .F               861:   BIT SIZE AT DEPTH
 DFT .       GEL-OIL EMUL:   DRILLING FLUID TYPE
 DFD .                9.6:   DRILLING FLUID DENSITY
 DFV .                 38:   DRILLING FLUID VISCOSITY
 DFPH.                  9:   DRILLING FLUID PH
 DFL .               15.4:   DRILLING FLUID LOSS
 MSS .           FLOWLINE:   MUD SAMPLE SOURCE
 RMS .OHMM           0.86:   RESISTIVITY MUD SAMPLE
 MST .F                68:   MUD SAMPLE TEMPERATURE
 RMF .OHMM           0.52:   RESISTIVITY MUD FILTRATE SAMPLE
 MFST.F                68:   MUD FILTRATE SAMPLE TEMPERATURE
 RMC .OHMM           1.98:   RESISTIVITY MUD CAKE
 MCST.F                68:   MUD CAKE SAMPLE TEMPERATURE
 MFSS.               MEAS:   MUD FILTRATE SAMPLE SOURCE
 MCSS.               MEAS:   MUD CAKE SAMPLE SOURCE
 RMB .OHMM           0.77:   RESISTIVITY MUD AT BHT
 BHT .F                78:   BOTTOM HOLE TEMPERATURE
 TCS .HRS               1:   TIME CURCULATED STOPPED
 MRT .F                78:   MAXIMUM RECORDED TEMPERATURE
 LUN .               2523:   LOGGING UNIT NUMBER
 LUL .               CSPR:   LOGGING UNIT LOCATION
 ENGI.             KNOBEL:   RECORDING ENGINEER
 WITN.          JORGENSEN:   WITNESSED BY
 CLNT.            A2DTECH:   CLIENT CODE
 ORIG.      2" , 5" PRINT:   ORIGIN OF DATA
 UWI .       490250657300:   UNIQUE WELL ID
 DICO. A2D Technologies, Inc.:   DIGITIZING COMPANY
~OTHER INFORMATION
~A   DEPT       GR          ASN       CILD        ILD      SPR   
# ...
  431.0000  -999.2500    11.5903   100.8540     9.9233   -22.6787
  431.5000  -999.2500    11.6687   100.8503     9.8456   -22.6779
  432.0000  -999.2500    11.6689   100.0627     9.7680   -22.6770
  432.5000  -999.2500    11.6690   100.0582     9.7179   -22.6763
  433.0000  -999.2500    11.6692   100.0549     9.6127   -22.6755
  433.5000  -999.2500    11.7476   100.0509     9.6137   -22.6748
  434.0000  -999.2500    11.7477   100.0470     9.5360   -22.6740
  434.5000  -999.2500    11.7479   100.0431     9.5439   -22.6731
  435.0000  -999.2500    11.6698   100.8224     9.6161   -22.6723
  435.5000  -999.2500    11.6700   100.8190     9.6168   -22.6716
  436.0000  -999.2500    11.6701   100.8150     9.6176   -22.6708
  436.5000  -999.2500    11.6358   100.8111     9.6183   -22.6701
  437.0000  -999.2500    11.5922   100.8072     9.6191   -22.6693
  437.5000  -999.2500    11.5923   100.8030     9.6200   -22.6685
  438.0000  -999.2500    11.5706   101.5831     9.6207   -22.6677
  438.5000  -999.2500    11.5144   102.3631     9.6215   -22.6669
  439.0000  -999.2500    11.4363   102.7763     9.6223   -22.6661
  439.5000  -999.2500    11.4271   103.7196     9.6230   -22.6653
  440.0000  -999.2500    11.2802   104.7020     9.6239   -22.6646
  440.5000  -999.2500    11.2803   105.3037     9.5141   -22.6317
  441.0000  -999.2500    11.2022   106.3846     9.4686   -22.5063
  441.5000  -999.2500    11.1241   107.8247     9.4201   -22.5055
  442.0000  -999.2500    11.0314   109.2006     9.2947   -22.5047
  442.5000  -999.2500    10.9679   110.9522     9.1576   -22.5039
  443.0000  -999.2500    10.8575   113.4613     8.9655   -22.5031
  443.5000  -999.2500    10.8117   115.8151     8.7508   -22.4969
  444.0000  -999.2500    10.7618   117.9933     8.3763   -22.3447
  444.5000  -999.2500    10.6555   118.6769     8.1975   -22.3440
  445.0000  -999.2500    10.6557   119.5925     8.0643   -22.3433
  445.5000  -999.2500    10.5401   120.8516     7.9467   -22.3424
  446.0000  -999.2500    10.4156   122.8944     7.8213   -22.3417
  446.5000  -999.2500    10.3173   125.8109     7.5965   -22.3409
  447.0000  -999.2500    10.2190   128.5423     7.4922   -22.3401
  447.5000  -999.2500    10.1207   132.2427     7.2845   -22.3393
  448.0000  -999.2500    10.0150   135.2031     7.1191   -22.3385
  448.5000  -999.2500     9.8297   137.5471     6.9725   -22.3378
  449.0000  -999.2500     9.3257   139.8980     7.0518   -22.3370
  449.5000  -999.2500     9.0922   138.6756     7.1538   -22.3362
  450.0000  -999.2500     9.0402   135.7106     7.2492   -22.3354
  450.5000  -999.2500     9.1238   132.8325     7.3446   -22.3346
  451.0000  -999.2500     9.2548   130.6504     7.4639   -22.3339
  451.5000  -999.2500     9.4826   128.9041     7.6043   -22.3330
  452.0000  -999.2500     9.7503   126.6144     7.6395   -22.3323
  452.5000  -999.2500     9.8349   124.8040     7.7625   -22.3315
  453.0000  -999.2500     9.9324   122.6250     7.8150   -22.3307
  453.5000  -999.2500    10.0324   122.2702     7.9420   -22.3299
  454.0000  -999.2500    10.1890   121.0502     8.0784   -22.3292
  454.5000  -999.2500    10.2674   121.0462     8.0792   -22.3284
  455.0000  -999.2500    10.2676   122.0480     8.0799   -22.3276
  455.5000  -999.2500    10.1707   122.6058     8.0809   -22.3268
  456.0000  -999.2500    10.0144   123.3856     8.0815   -22.3260
  456.5000  -999.2500     9.9851   124.1656     8.0823   -22.3252
  457.0000  -999.2500     9.9558   124.1608     8.0831   -22.3245
  457.5000  -999.2500     9.9241   124.1575     8.0839   -22.3237
  458.0000  -999.2500     9.8854   123.3698     8.0848   -22.3229
  458.5000  -999.2500     9.8618   121.7307     8.1928   -22.3221
  459.0000  -999.2500     9.8933   120.0888     8.3213   -22.3213
  459.5000  -999.2500     9.9761   118.6554     8.4467   -22.3205
  460.0000  -999.2500    10.0344   117.5548     8.5580   -22.3197
  460.5000  -999.2500    10.2766   116.2970     8.5589   -22.3190
  461.0000  -999.2500    10.3477   116.2931     8.5596   -22.3182
  461.5000  -999.2500    10.4262   117.0734     8.4796   -22.3174
  462.0000  -999.2500    10.5045   117.0686     8.4044   -22.3166
  462.5000  -999.2500    10.5047   117.0650     8.3072   -22.3158
  463.0000  -999.2500    10.5049   117.0611     8.2492   -22.3150
  463.5000  -999.2500    10.5050   117.8401     8.2500   -22.3143
  464.0000  -999.2500    10.4269   117.8370     8.2085   -22.3135
  464.5000  -999.2500    10.4271   118.0104     8.1462   -22.3127
  465.0000  -999.2500    10.3490   118.3222     8.0955   -22.3119
  465.5000  -999.2500    10.3492   118.6092     8.0964   -22.3111
  466.0000  -999.2500    10.2710   118.8950     8.0768   -22.3103
  466.5000  -999.2500    10.1930   119.4537     8.0094   -22.3096
  467.0000  -999.2500    10.1931   119.7655     7.9420   -22.3088
  467.5000  -999.2500    10.1933   120.0774     7.9428   -22.3080
  468.0000  -999.2500    10.1935   120.9409     7.9436   -22.3072
  468.5000  -999.2500    10.1936   120.9360     7.9444   -22.3064
  469.0000  -999.2500    10.1155   121.4851     7.8667   -22.3056
  469.5000  -999.2500    10.0697   122.1127     7.8676   -22.3048
  470.0000  -999.2500    10.0219   122.4922     7.8683   -22.3041
  470.5000  -999.2500     9.9595   122.4882     7.8691   -22.3033
  471.0000  -999.2500     9.8777   123.2677     7.8699   -22.3025
  471.5000  -999.2500     9.8637   123.4476     7.8466   -22.3017
  472.0000  -999.2500     9.8498   124.0441     7.8158   -22.3009
  472.5000  -999.2500     9.8359   124.0392     7.7939   -22.3002
  473.0000  -999.2500     9.8220   124.8990     7.7947   -22.2994
  473.5000  -999.2500     9.8081   125.3161     7.7955   -22.2986
  474.0000  -999.2500     9.7942   126.0084     7.7962   -22.2978
  474.5000  -999.2500     9.7803   127.1594     7.7187   -22.2970
  475.0000  -999.2500     9.7664   127.9383     7.7194   -22.2962
  475.5000  -999.2500     9.7525   128.4685     7.7202   -22.2955
  476.0000  -999.2500     9.7386   128.7147     7.6428   -22.2945
  476.5000  -999.2500     9.7246   129.1693     7.6434   -22.2939
  477.0000  -999.2500     9.7107   129.4911     7.6442   -22.2931
  477.5000  -999.2500     9.6968   130.2699     7.6450   -22.2316
  478.0000  -999.2500     9.6802   130.2665     7.6458   -22.1677
  478.5000  -999.2500     9.6352   130.2625     7.6467   -22.1340
  479.0000  -999.2500     9.5709   130.7628     7.6473   -22.1332
  479.5000  -999.2500     9.5391   131.2382     7.6481   -22.1324
  480.0000  -999.2500     9.5086   131.8182     7.6489   -22.0846
  480.5000  -999.2500     9.5088   131.8143     7.6497   -21.9741
  481.0000  -999.2500     9.5202   131.8103     7.6826   -21.9733
  481.5000  -999.2500     9.6030   131.8057     7.7633   -21.9726
  482.0000  -999.2500     9.6528   131.5570     7.8088   -21.9718
  482.5000  -999.2500     9.7003   131.0147     7.8605   -21.9710
  483.0000  -999.2500     9.7287   130.2273     7.9381   -21.9702
  483.5000  -999.2500     9.7958   129.3234     7.9679   -21.9694
  484.0000  -999.2500     9.8855   127.8678     8.0470   -21.9687
  484.5000  -999.2500     9.9357   127.0807     8.1262   -21.9679
  485.0000  -999.2500    10.0423   125.5094     8.1271   -21.9669
  485.5000  -999.2500    10.1207   124.5729     8.1520   -21.9663
  486.0000  -999.2500    10.0426   123.7722     8.2069   -21.9655
  486.5000  -999.2500    10.0427   122.3624     8.2077   -21.9647
  487.0000  -999.2500    10.0126   122.0219     8.2085   -21.9639
  487.5000  -999.2500     9.9648   121.5713     8.1310   -21.9630
  488.0000  -999.2500     9.8867   122.0794     8.1317   -21.9624
  488.5000  -999.2500     9.8691   122.5549     8.1325   -21.9616
  489.0000  -999.2500     9.7305   123.4705     8.0094   -21.9608
  489.5000  -999.2500     9.6952   123.9067     7.9624   -21.9600
  490.0000  -999.2500     9.6513   124.7649     8.0691   -20.5329
  490.5000  -999.2500     9.9784   128.4584     7.9914   -20.6897
  491.0000  -999.2500     9.9474   129.1879     7.8352   -20.8464
  491.5000  -999.2500     9.8536   130.7280     7.6005   -21.0031
