~VERSION INFORMATION
 VERS.                2.0:   CWLS LOG ASCII STANDARD - VERSION 2.0
 WRAP.                 NO:   ONE LINE PER DEPTH STEP
~WELL INFORMATION
#MNEM.UNIT      DATA TYPE    INFORMATION
#----------   ------------   ------------------------------
 STRT.F         1208.5000:   START DEPTH
 STOP.F         3816.0000:   STOP DEPTH
 STEP.F            0.5000:   STEP LENGTH
 NULL.          -999.2500:   NO VALUE
 COMP. BROWN JOHN E&C INC:   COMPANY
 WELL. NPR 3 STX-11 #13-11:   WELL
 FLD .             TEAPOT:   FIELD
 LOC .      S11 T38N R78W:   LOCATION
 CNTY.            NATRONA:   COUNTY
 STAT.            WYOMING:   STATE
 CTRY. UNITED STATES OF AMERICA:   COUNTRY
 SRVC.            Unknown:   SERVICE COMPANY
 DATE.        08-APR-1986:   LOGDATE
 API .       490251105000:   API NUMBER
~CURVE INFORMATION
#MNEM.UNIT       API CODE    CURVE DESCRIPTION
#----------   ------------   ------------------------------
 DEPT.F                  :   
 ROP .MIN/FT 91 810 01 00:   RATE OF DRILLING PENETRATION
 TGAS.UNITS  91 830 01 00:   TOTAL GAS FROM HOTWIRE
 GR  .GAPI   81 310 01 00:   GAMMA RAY
 TT  .US/F   81 520 00 00:   TRANSIT TIME
~PARAMETER INFORMATION
#MNEM.UNIT          VALUE    DESCRIPTION
#----------   ------------   ------------------------------
 PD  .                 GL:   PERMANENT DATUM
 EPD .F              5176:   ELEVATION PERMANENT DATUM
 LMF .                 KB:   LOG MEASURED FROM
 DAPD.F              11.8:   FEET ABOVE PERMANENT DATUM
 DMF .                 KB:   DRILLING MEASURED FROM
 EKB .F            5187.8:   KELLING BUSHING
 EGL .F              5176:   GROUND LEVEL
 DATE.             4-8-86:   RUN DATE
 RUN .                  1:   RUN NUMBER
 DD  .F              4051:   DEPTH DRILLER
 DL  .F              3815:   DEPTH LOGGER
 BLI .F              3815:   BOTTOM LOG INTERVAL
 TLI .F              2200:   TOP LOG INTERVAL
 CS  .IN              5.5:   CASING SIZE
 CBD .F              3861:   CASING BOTTOM DRILLER
 DFT .              WATER:   DRILLING FLUID TYPE
 BHT .F               167:   BOTTOM HOLE TEMPERATURE
 MRT .F               167:   MAXIMUM RECORDED TEMPERATURE
 LUN .            558/374:   LOGGING UNIT NUMBER
 LUL .             CASPER:   LOGGING UNIT LOCATION
 ENGI.             BAILEY:   RECORDING ENGINEER
 WITN.             BARRON:   WITNESSED BY
 CLNT.            A2DTECH:   CLIENT CODE
 ORIG.     2.5", 5" PRINT:   ORIGIN OF DATA
 UWI .       490251105000:   UNIQUE WELL ID
 DICO. A2D Technologies, Inc.:   DIGITIZING COMPANY
~OTHER INFORMATION
~A  DEPT         ROP     TGAS         GR         TT   
# ...
 1354.5000     0.6522     0.3879  -999.2500  -999.2500
 1355.0000     0.6625     0.3879  -999.2500  -999.2500
 1355.5000     0.6624     0.3879  -999.2500  -999.2500
 1356.0000     0.6623     0.3879  -999.2500  -999.2500
 1356.5000     0.6430     0.3879  -999.2500  -999.2500
 1357.0000     0.6044     0.3879  -999.2500  -999.2500
 1357.5000     0.5431     0.3879  -999.2500  -999.2500
 1358.0000     0.4641     0.3879  -999.2500  -999.2500
 1358.5000     0.4450     0.3879  -999.2500  -999.2500
 1359.0000     0.5147     0.3879  -999.2500  -999.2500
 1359.5000     0.5906     0.3879  -999.2500  -999.2500
 1360.0000     0.6436     0.3879  -999.2500  -999.2500
 1360.5000     0.6614     0.3879  -999.2500  -999.2500
 1361.0000     0.6613     0.3879  -999.2500  -999.2500
 1361.5000     0.6612     0.3879  -999.2500  -999.2500
 1362.0000     0.6419     0.3879  -999.2500  -999.2500
 1362.5000     0.6218     0.3879  -999.2500  -999.2500
 1363.0000     0.5840     0.3879  -999.2500  -999.2500
 1363.5000     0.5839     0.3879  -999.2500  -999.2500
 1364.0000     0.5899     0.3879  -999.2500  -999.2500
 1364.5000     0.6030     0.3879  -999.2500  -999.2500
 1365.0000     0.5931     0.3879  -999.2500  -999.2500
 1365.5000     0.5836     0.3879  -999.2500  -999.2500
 1366.0000     0.5699     0.3879  -999.2500  -999.2500
 1366.5000     0.5257     0.3879  -999.2500  -999.2500
 1367.0000     0.4871     0.3879  -999.2500  -999.2500
 1367.5000     0.4678     0.3879  -999.2500  -999.2500
 1368.0000     0.4449     0.3879  -999.2500  -999.2500
 1368.5000     0.4099     0.3879  -999.2500  -999.2500
 1369.0000     0.4952     0.3879  -999.2500  -999.2500
 1369.5000     0.5858     0.3879  -999.2500  -999.2500
 1370.0000     0.6212     0.3879  -999.2500  -999.2500
 1370.5000     0.6211     0.3879  -999.2500  -999.2500
 1371.0000     0.6210     0.3879  -999.2500  -999.2500
 1371.5000     0.6209     0.3879  -999.2500  -999.2500
 1372.0000     0.6208     0.3879  -999.2500  -999.2500
 1372.5000     0.6207     0.3879  -999.2500  -999.2500
 1373.0000     0.6206     0.3879  -999.2500  -999.2500
 1373.5000     0.6205     0.3879  -999.2500  -999.2500
 1374.0000     0.6508     0.3879  -999.2500  -999.2500
 1374.5000     0.7495     0.3879  -999.2500  -999.2500
 1375.0000     0.7740     0.3879  -999.2500  -999.2500
 1375.5000     0.7739     0.3879  -999.2500  -999.2500
 1376.0000     0.7738     0.3879  -999.2500  -999.2500
 1376.5000     0.7738     0.3879  -999.2500  -999.2500
 1377.0000     0.7736     0.3879  -999.2500  -999.2500
 1377.5000     0.7159     0.3879  -999.2500  -999.2500
 1378.0000     0.6564     0.3879  -999.2500  -999.2500
 1378.5000     0.6168     0.3879  -999.2500  -999.2500
 1379.0000     0.6002     0.3879  -999.2500  -999.2500
 1379.5000     0.6034     0.3879  -999.2500  -999.2500
 1380.0000     0.6192     0.3879  -999.2500  -999.2500
 1380.5000     0.6191     0.3879  -999.2500  -999.2500
 1381.0000     0.6190     0.3879  -999.2500  -999.2500
 1381.5000     0.6189     0.3879  -999.2500  -999.2500
 1382.0000     0.6188     0.3879  -999.2500  -999.2500
 1382.5000     0.6187     0.3879  -999.2500  -999.2500
 1383.0000     0.5802     0.3879  -999.2500  -999.2500
 1383.5000     0.5224     0.3879  -999.2500  -999.2500
 1384.0000     0.4637     0.3879  -999.2500  -999.2500
 1384.5000     0.4425     0.3879  -999.2500  -999.2500
 1385.0000     0.4260     0.3879  -999.2500  -999.2500
 1385.5000     0.4259     0.3879  -999.2500  -999.2500
 1386.0000     0.4342     0.3879  -999.2500  -999.2500
 1386.5000     0.4654     0.3879  -999.2500  -999.2500
 1387.0000     0.5197     0.3879  -999.2500  -999.2500
 1387.5000     0.5689     0.3879  -999.2500  -999.2500
 1388.0000     0.6177     0.3879  -999.2500  -999.2500
 1388.5000     0.6176     0.3879  -999.2500  -999.2500
 1389.0000     0.6175     0.3879  -999.2500  -999.2500
 1389.5000     0.6174     0.3879  -999.2500  -999.2500
 1390.0000     0.6173     0.3879  -999.2500  -999.2500
 1390.5000     0.6172     0.3879  -999.2500  -999.2500
 1391.0000     0.6171     0.3879  -999.2500  -999.2500
 1391.5000     0.6072     0.3879  -999.2500  -999.2500
 1392.0000     0.5977     0.3879  -999.2500  -999.2500
 1392.5000     0.5976     0.3879  -999.2500  -999.2500
 1393.0000     0.5975     0.3879  -999.2500  -999.2500
 1393.5000     0.6166     0.3879  -999.2500  -999.2500
 1394.0000     0.6165     0.3879  -999.2500  -999.2500
 1394.5000     0.6164     0.3879  -999.2500  -999.2500
 1395.0000     0.6163     0.3879  -999.2500  -999.2500
 1395.5000     0.6739     0.3879  -999.2500  -999.2500
 1396.0000     0.7700     0.3879  -999.2500  -999.2500
 1396.5000     0.7699     0.3879  -999.2500  -999.2500
 1397.0000     0.7698     0.3879  -999.2500  -999.2500
 1397.5000     0.7697     0.3879  -999.2500  -999.2500
 1398.0000     0.7696     0.3879  -999.2500  -999.2500
 1398.5000     0.7695     0.3879  -999.2500  -999.2500
 1399.0000     0.7817     0.3879  -999.2500  -999.2500
 1399.5000     0.8027     0.3879  -999.2500  -999.2500
 1400.0000     0.8077     0.3879  -999.2500  -999.2500
 1400.5000     0.8076     0.3879  -999.2500  -999.2500
 1401.0000     0.8064     0.3879  -999.2500  -999.2500
 1401.5000     0.7641     0.3879  -999.2500  -999.2500
 1402.0000     0.7218     0.3879  -999.2500  -999.2500
 1402.5000     0.6857     0.3879  -999.2500  -999.2500
 1403.0000     0.6725     0.3879  -999.2500  -999.2500
 1403.5000     0.6724     0.3879  -999.2500  -999.2500
 1404.0000     0.6723     0.3879  -999.2500  -999.2500
 1404.5000     0.6722     0.3879  -999.2500  -999.2500
 1405.0000     0.6913     0.3879  -999.2500  -999.2500
 1405.5000     0.6912     0.3879  -999.2500  -999.2500
 1406.0000     0.7683     0.3879  -999.2500  -999.2500
 1406.5000     0.8276     0.3879  -999.2500  -999.2500
 1407.0000     0.8448     0.3879  -999.2500  -999.2500
 1407.5000     0.8390     0.3879  -999.2500  -999.2500
 1408.0000     0.8254     0.3879  -999.2500  -999.2500
 1408.5000     0.8158     0.3879  -999.2500  -999.2500
 1409.0000     0.8060     0.3879  -999.2500  -999.2500
 1409.5000     0.7795     0.3879  -999.2500  -999.2500
 1410.0000     0.7096     0.3879  -999.2500  -999.2500
 1410.5000     0.6903     0.3879  -999.2500  -999.2500
 1411.0000     0.6902     0.3879  -999.2500  -999.2500
 1411.5000     0.6901     0.3879  -999.2500  -999.2500
 1412.0000     0.6830     0.3879  -999.2500  -999.2500
 1412.5000     0.6394     0.3879  -999.2500  -999.2500
 1413.0000     0.5965     0.3879  -999.2500  -999.2500
 1413.5000     0.5537     0.3879  -999.2500  -999.2500
 1414.0000     0.5030     0.3879  -999.2500  -999.2500
 1414.5000     0.5024     0.3879  -999.2500  -999.2500
 1415.0000     0.5019     0.3879  -999.2500  -999.2500
 1415.5000     0.5013     0.3879  -999.2500  -999.2500
 1416.0000     0.5008     0.3879  -999.2500  -999.2500
 1416.5000     0.5002     0.3879  -999.2500  -999.2500
 1417.0000     0.4996     0.3879  -999.2500  -999.2500
 1417.5000     0.4990     1.0911  -999.2500  -999.2500
 1418.0000     0.5100     3.0465  -999.2500  -999.2500
 1418.5000     0.5171     4.9735  -999.2500  -999.2500
 1419.0000     0.4587     6.8507  -999.2500  -999.2500
 1419.5000     0.4005     8.8558  -999.2500  -999.2500
 1420.0000     0.3615    10.8621  -999.2500  -999.2500
 1420.5000     0.3417    13.1897  -999.2500  -999.2500
 1421.0000     0.3412    16.0913  -999.2500  -999.2500
 1421.5000     0.3406    19.0148  -999.2500  -999.2500
 1422.0000     0.3400    21.2626  -999.2500  -999.2500
 1422.5000     0.3394    22.5437  -999.2500  -999.2500
 1423.0000     0.3504    24.0077  -999.2500  -999.2500
 1423.5000     0.3710    25.7158  -999.2500  -999.2500
 1424.0000     0.3953    27.6854  -999.2500  -999.2500
 1424.5000     0.4332    29.5204  -999.2500  -999.2500
 1425.0000     0.4712    31.8103  -999.2500  -999.2500
 1425.5000     0.5340    33.3621  -999.2500  -999.2500
 1426.0000     0.5931    35.8679  -999.2500  -999.2500
 1426.5000     0.6290    38.3613  -999.2500  -999.2500
 1427.0000     0.6419    40.4966  -999.2500  -999.2500
