~VERSION INFORMATION
 VERS.                2.0:   CWLS LOG ASCII STANDARD - VERSION 2.0
 WRAP.                 NO:   ONE LINE PER DEPTH STEP
~WELL INFORMATION
#MNEM.UNIT      DATA TYPE    INFORMATION
#----------   ------------   ------------------------------
 STRT.F           28.0000:   START DEPTH
 STOP.F          630.0000:   STOP DEPTH
 STEP.F            0.5000:   STEP LENGTH
 NULL.          -999.2500:   NO VALUE
 COMP. FENIX & SCISSON INC:   COMPANY
 WELL. NAVAL PETROLEUM RESERVE 3 SX-1 #81-15:   WELL
 FLD .             TEAPOT:   FIELD
 LOC .      S15 T38N R78W:   LOCATION
 CNTY.            NATRONA:   COUNTY
 STAT.            WYOMING:   STATE
 CTRY. UNITED STATES OF AMERICA:   COUNTRY
 SRVC.           BIRDWELL:   SERVICE COMPANY
 DATE.        03-JUN-1978:   LOGDATE
 API .       490251063900:   API NUMBER
~CURVE INFORMATION
#MNEM.UNIT       API CODE    CURVE DESCRIPTION
#----------   ------------   ------------------------------
 DEPT.F                  :   
 SPR .MV     05 010 01 00:   SPONTANEOUS POTENTIAL FROM RES.
 SN  .OHMM   05 040 16 00:   SHORT NORMAL 16"
 ILD .OHMM   05 120 46 00:   INDUCTION LOG DEEP
 CALD.IN     45 280 60 00:   CALIPER FROM DENSITY LOG
 GRD .GAPI   45 310 01 00:   GAMMA RAY FROM DENSITY LOG
 CORR.G/C3   45 356 01 00:   DENSITY CORRECTION
 DPHI.DEC    45 890 12 00:   DENSITY POROSITY SANDSTONE
 DEN .G/C3   45 350 01 00:   COMPENSATED BULK DENSITY
~PARAMETER INFORMATION
#MNEM.UNIT          VALUE    DESCRIPTION
#----------   ------------   ------------------------------
 PD  .                 GL:   PERMANENT DATUM
 EPD .F              5263:   ELEVATION PERMANENT DATUM
 LMF .                 KB:   LOG MEASURED FROM
 DAPD.F                 4:   FEET ABOVE PERMANENT DATUM
 DMF .                 KB:   DRILLING MEASURED FROM
 EKB .F              5267:   KELLING BUSHING
 EGL .F              5263:   GROUND LEVEL
 DATE.        03-JUN-1978:   RUN DATE
 RUN .                  1:   RUN NUMBER
 DD  .F               632:   DEPTH DRILLER
 DL  .F               636:   DEPTH LOGGER
 BLI .F               630:   BOTTOM LOG INTERVAL
 TLI .F                40:   TOP LOG INTERVAL
 CS  .IN            8.625:   CASING SIZE
 CBD .F                40:   CASING BOTTOM DRILLER
 CBL .F                40:   CASING BOTTOM LOGGER
 BS  .IN            7.875:   BIT SIZE
 BSD .F               632:   BIT SIZE AT DEPTH
 DFT .                KCL:   DRILLING FLUID TYPE
 DFD .                8.7:   DRILLING FLUID DENSITY
 DFV .                 31:   DRILLING FLUID VISCOSITY
 DFPH.                 10:   DRILLING FLUID PH
 DFL .                9.2:   DRILLING FLUID LOSS
 MSS .           FLOWLINE:   MUD SAMPLE SOURCE
 RMS .OHMM            .26:   RESISTIVITY MUD SAMPLE
 MST .F                66:   MUD SAMPLE TEMPERATURE
 RMF .OHMM            .24:   RESISTIVITY MUD FILTRATE SAMPLE
 MFST.F                74:   MUD FILTRATE SAMPLE TEMPERATURE
 RMC .OHMM            .34:   RESISTIVITY MUD CAKE
 MCST.F                75:   MUD CAKE SAMPLE TEMPERATURE
 MFSS.               MEAS:   MUD FILTRATE SAMPLE SOURCE
 MCSS.               MEAS:   MUD CAKE SAMPLE SOURCE
 RMB .OHMM            .23:   RESISTIVITY MUD AT BHT
 BHT .F                74:   BOTTOM HOLE TEMPERATURE
 TCS .HRS            0100:   TIME CURCULATED STOPPED
 MRT .F                74:   MAXIMUM RECORDED TEMPERATURE
 LUN .               2958:   LOGGING UNIT NUMBER
 LUL .               CASP:   LOGGING UNIT LOCATION
 ENGI.             MILLER:   RECORDING ENGINEER
 WITN.           MCGINLEY:   WITNESSED BY
 CLNT.            A2DTECH:   CLIENT CODE
 ORIG.           5" PRINT:   ORIGIN OF DATA
 UWI .       490251063900:   UNIQUE WELL ID
 DICO. A2D Technologies, Inc.:   DIGITIZING COMPANY
~OTHER INFORMATION
~A   DEPT      SPR         SN        ILD       CALD         GRD      CORR       DPHI        DEN   
# ...
  109.0000   -23.6006     7.5047     7.4452     8.1990    71.1043     0.0427     0.1367     2.4535
  109.5000   -23.6024     7.4000     7.3488     8.2434    71.2490     0.0425     0.1373     2.4509
  110.0000   -23.7540     7.2968     7.2967     8.2546    71.2358     0.0439     0.1382     2.4450
  110.5000   -23.7554     7.2449     7.2448     8.2374    71.6832     0.0436     0.1404     2.4472
  111.0000   -23.9070     7.1935     7.1934     8.2358    73.1993     0.0480     0.1368     2.4539
  111.5000   -23.9085     7.1917     7.1920     8.2341    77.1582     0.0433     0.1335     2.4599
  112.0000   -23.9099     7.1406     7.1409     8.2480    74.7022     0.0370     0.1360     2.4537
  112.5000   -23.9114     7.1392     7.1391     8.3066    74.3915     0.0353     0.1384     2.4506
  113.0000   -23.9132     7.1378     7.1377     8.5474    75.1416     0.0305     0.1369     2.4528
  113.5000   -23.9146     7.1364     7.1363     8.7578    73.7543     0.0302     0.1382     2.4466
  114.0000   -24.0662     7.1349     7.1348     8.8020    72.8277     0.0301     0.1443     2.4351
  114.5000   -24.0676     7.1831     7.1830     8.8000    72.5144     0.0375     0.1468     2.4388
  115.0000   -24.2192     7.2312     7.1815     8.8139    73.4172     0.0434     0.1444     2.4433
  115.5000   -24.5210     7.2297     7.2300     8.8118    73.7146     0.0478     0.1420     2.4470
  116.0000   -24.6729     7.2789     7.2788     8.7647    70.4952     0.0586     0.1387     2.4500
  116.5000   -24.6744     7.3789     7.3785     8.6873    66.8205     0.0701     0.1360     2.4529
  117.0000   -24.6758     7.4800     7.4803     8.5948    68.6420     0.0699     0.1363     2.4513
  117.5000   -24.5268     7.6372     7.5831     8.4113    70.4661     0.0697     0.1398     2.4459
  118.0000   -24.6787     7.9025     7.6869     8.1672    70.4528     0.0665     0.1431     2.4397
  118.5000   -24.8313     8.1228     7.7925     7.9232    69.8316     0.0647     0.1456     2.4351
  119.0000   -25.2823     8.3493     7.8447     7.7851    69.0576     0.0630     0.1475     2.4335
  119.5000   -25.4342     8.6417     7.8432     7.7532    68.4363     0.0537     0.1484     2.4318
  120.0000   -25.5858     8.8214     7.8416     7.7667    67.9704     0.0475     0.1475     2.4341
  120.5000   -25.5872     8.8809     7.7859     7.7953    68.1124     0.0519     0.1448     2.4400
  121.0000   -25.5887     8.8113     7.7307     7.8392    67.1831     0.0501     0.1351     2.4529
  121.5000   -25.7403     8.4569     7.7291     7.8825    63.9664     0.0438     0.1339     2.4581
  122.0000   -25.7417     8.1674     7.6738     7.9116    64.4139     0.0330     0.1352     2.4527
  122.5000   -25.7435     8.0535     7.6194     7.9251    67.1514     0.0314     0.1401     2.4488
  123.0000   -25.8951     7.9411     7.6178     7.9382    68.3621     0.0417     0.1440     2.4419
  123.5000   -25.8966     7.8847     7.6163     7.9669    68.5069     0.0507     0.1332     2.4570
  124.0000   -25.8980     7.8287     7.6148     8.0107    68.4936     0.0505     0.1259     2.4728
  124.5000   -26.0496     7.7191     7.6133     8.0696    69.2464     0.0487     0.1238     2.4750
  125.0000   -26.0511     7.7176     7.6646     8.1437    75.1900     0.0455     0.1269     2.4726
  125.5000   -26.0526     7.7160     7.6627     8.1724    77.1641     0.0453     0.1281     2.4665
  126.0000   -26.2045     7.7685     7.6612     8.2162    74.5581     0.0451     0.1276     2.4641
  126.5000   -26.2058     7.7666     7.6597     8.2448    71.3414     0.0480     0.1261     2.4672
  127.0000   -26.3576     7.8190     7.6581     8.2887    71.9388     0.0493     0.1249     2.4732
  127.5000   -26.3591     7.8717     7.7098     8.3931    73.9129     0.0552     0.1234     2.4728
  128.0000   -26.3605     7.8698     7.7618     8.5581    75.2790     0.0595     0.1195     2.4721
  128.5000   -26.3621     7.9233     7.8685     8.5720    75.5738     0.0578     0.1174     2.4806
  129.0000   -26.3634     8.0321     7.9216     8.5852    73.2731     0.0500     0.1187     2.4841
  129.5000   -26.3651     8.1421     8.0301     8.5834    72.3465     0.0422     0.1187     2.4802
  130.0000   -26.3665     8.2540     8.0847     8.5818    72.7939     0.0344     0.1319     2.4634
  130.5000   -26.3681     8.3097     8.1954     8.5801    72.4780     0.0282     0.1358     2.4503
  131.0000   -26.3694     8.3658     8.2507     8.5803    69.7193     0.0357     0.1342     2.4563
  131.5000   -26.2208     8.3060     8.3064     8.5804    69.5560     0.0414     0.1277     2.4654
  132.0000   -26.3724     8.3043     8.2470     8.5805    70.1561     0.0378     0.1262     2.4706
  132.5000   -26.3739     8.2454     8.1319     8.5807    71.3669     0.0289     0.1274     2.4690
  133.0000   -26.3754     8.1303     8.0742     8.5808    72.1196     0.0226     0.1308     2.4621
  133.5000   -26.2269     8.0726     7.9615     8.5810    72.5670     0.0224     0.1287     2.4673
  134.0000   -26.2284     7.9599     7.9050     8.5811    72.0984     0.0222     0.1263     2.4649
  134.5000   -26.2297     7.8485     7.7947     8.5812    69.7977     0.0342     0.1300     2.4618
  135.0000   -26.2313     7.7390     7.7390     8.5814    68.2604     0.0446     0.1261     2.4678
  135.5000   -26.2328     7.6841     7.6840     8.5815    67.6391     0.0460     0.1228     2.4738
  136.0000   -26.2285     7.7178     7.6825     8.5816    67.6285     0.0457     0.1253     2.4714
  136.5000   -26.2183     7.7556     7.6280     8.5818    69.7540     0.0440     0.1265     2.4675
  137.0000   -26.2081     7.7934     7.6795     8.5819    73.6366     0.0392     0.1244     2.4651
  137.5000   -26.1979     7.8311     7.6823     8.5820    77.0611     0.0360     0.1254     2.4711
  138.0000   -26.1877     8.0017     7.8371     8.5822    78.0428     0.0328     0.1281     2.4657
  138.5000   -26.1775     8.2248     7.9452     8.5823    77.8795     0.0311     0.1315     2.4580
  139.0000   -26.1673     8.3958     8.1100     8.5820    74.8905     0.0309     0.1315     2.4587
  139.5000   -26.1572     8.5703     8.2786     8.5804    74.8799     0.0337     0.1304     2.4609
  140.0000   -26.1470     8.6881     8.3924     8.5787    75.3274     0.0381     0.1283     2.4661
  140.5000   -26.1368     8.8075     8.5091     8.5619    74.7061     0.0424     0.1232     2.4736
  141.0000   -26.1266     8.8669     8.6246     8.5451    73.0161     0.0422     0.1195     2.4804
  141.5000   -26.1164     8.8647     8.6828     8.5283    69.7994     0.0420     0.1162     2.4848
  142.0000   -26.1062     8.8017     8.7414     8.4964    67.6514     0.0388     0.1172     2.4856
  142.5000   -26.1033     8.8000     8.7392     8.4641    66.2667     0.0310     0.1195     2.4816
  143.0000   -26.1052     8.7982     8.7375     8.4315    66.7141     0.0232     0.1263     2.4747
  143.5000   -26.1066     8.7358     8.7357     8.4005    66.8562     0.0230     0.1334     2.4624
  144.0000   -25.9579     8.6737     8.6737     8.3685    66.2349     0.0244     0.1292     2.4563
  144.5000   -25.9597     8.5523     8.6117     8.3517    64.8503     0.0242     0.1271     2.4601
  145.0000   -25.9612     8.4330     8.5506     8.3345    65.1450     0.0285     0.1211     2.4705
  145.5000   -25.9626     8.3731     8.5489     8.3177    67.8825     0.0298     0.1205     2.4818
  146.0000   -25.8139     8.2563     8.4882     8.3161    69.2460     0.0357     0.1251     2.4745
  146.5000   -25.8153     8.2546     8.4865     8.3300    69.6934     0.0401     0.1260     2.4680
  147.0000   -25.8168     8.1960     8.4262     8.3279    69.6828     0.0414     0.1215     2.4745
  147.5000   -25.9687     8.1374     8.3660     8.3414    70.2829     0.0412     0.1191     2.4815
  148.0000   -25.9702     8.1358     8.3643     8.3398    71.0356     0.0410     0.1252     2.4677
  148.5000   -25.9716     8.1342     8.3049     8.3381    70.2617     0.0392     0.1310     2.4600
  149.0000   -25.9731     8.0764     8.3033     8.3521    67.3503     0.0360     0.1347     2.4614
