~VERSION INFORMATION
 VERS.                2.0:   CWLS LOG ASCII STANDARD - VERSION 2.0
 WRAP.                 NO:   ONE LINE PER DEPTH STEP
~WELL INFORMATION
#MNEM.UNIT      DATA TYPE    INFORMATION
#----------   ------------   ------------------------------
 STRT.F           46.0000:   START DEPTH
 STOP.F         2100.0000:   STOP DEPTH
 STEP.F            0.5000:   STEP LENGTH
 NULL.          -999.2500:   NO VALUE
 COMP. LAWRENCE/ALLISON INC:   COMPANY
 WELL.    58-21 SX #10-10:   WELL
 FLD .             TEAPOT:   FIELD
 LOC .      S10 T38N R78W:   LOCATION
 CNTY.            NATRONA:   COUNTY
 STAT.            WYOMING:   STATE
 CTRY. UNITED STATES OF AMERICA:   COUNTRY
 SRVC.           Gearhart:   SERVICE COMPANY
 DATE.        06-JUL-1987:   LOGDATE
 API .       490251114400:   API NUMBER
~CURVE INFORMATION
#MNEM.UNIT       API CODE    CURVE DESCRIPTION
#----------   ------------   ------------------------------
 DEPT.F                  :   
 GR  .GAPI   81 310 01 00:   GAMMA RAY
 TGAS.UNITS  91 830 01 00:   TOTAL GAS FROM HOTWIRE
 ROP .MIN/FT 91 810 01 00:   RAT OF DRILLING PENETRATION
~PARAMETER INFORMATION
#MNEM.UNIT          VALUE    DESCRIPTION
#----------   ------------   ------------------------------
 PD  .                 GL:   PERMANENT DATUM
 EPD .F              5219:   ELEVATION PERMANENT DATUM
 LMF .                 KB:   LOG MEASURED FROM
 DAPD.F                 8:   FEET ABOVE PERMANENT DATUM
 DMF .                 KB:   DRILLING MEASURED FROM
 EKB .F              5227:   KELLING BUSHING
 EDF .F              5225:   DRILLING FLOOR
 EGL .F              5219:   GROUND LEVEL
 DATE.             7-6-87:   RUN DATE
 RUN .                  1:   RUN NUMBER
 DD  .F               610:   DEPTH DRILLER
 DL  .F             531.5:   DEPTH LOGGER
 BLI .F               526:   BOTTOM LOG INTERVAL
 TLI .F                50:   TOP LOG INTERVAL
 BS  .IN            7.875:   BIT SIZE
 BSD .F               610:   BIT SIZE AT DEPTH
 DFT .              WATER:   DRILLING FLUID TYPE
 LUN .               6084:   LOGGING UNIT NUMBER
 LUL .           GILLETTE:   LOGGING UNIT LOCATION
 ENGI.                COX:   RECORDING ENGINEER
 WITN.               LOWE:   WITNESSED BY
 CLNT.            A2DTECH:   CLIENT CODE
 ORIG.           5" PRINT:   ORIGIN OF DATA
 UWI .       490251114400:   UNIQUE WELL ID
 DICO. A2D Technologies, Inc.:   DIGITIZING COMPANY
~OTHER INFORMATION
~A   DEPT        GR      TGAS        ROP   
# ...
 1866.0000  -999.2500    36.6407     0.6694
 1866.5000  -999.2500    37.6494     0.6700
 1867.0000  -999.2500    38.6983     0.6706
 1867.5000  -999.2500    39.7520     0.6711
 1868.0000  -999.2500    40.8059     0.6717
 1868.5000  -999.2500    41.8584     0.6723
 1869.0000  -999.2500    42.8358     0.6729
 1869.5000  -999.2500    43.0148     0.6735
 1870.0000  -999.2500    43.7327     0.6741
 1870.5000  -999.2500    43.9458     0.6747
 1871.0000  -999.2500    44.2412     0.6752
 1871.5000  -999.2500    44.5334     0.6758
 1872.0000  -999.2500    44.8286     0.6764
 1872.5000  -999.2500    45.1241     0.6770
 1873.0000  -999.2500    45.4192     0.6776
 1873.5000  -999.2500    45.7134     0.6781
 1874.0000  -999.2500    45.8788     0.6787
 1874.5000  -999.2500    45.8761     0.6793
 1875.0000  -999.2500    45.9527     0.6799
 1875.5000  -999.2500    46.0655     0.6805
 1876.0000  -999.2500    46.1798     0.6811
 1876.5000  -999.2500    46.2933     0.6817
 1877.0000  -999.2500    46.3798     0.6822
 1877.5000  -999.2500    46.3846     0.6828
 1878.0000  -999.2500    46.5148     0.6834
 1878.5000  -999.2500    46.6454     0.6840
 1879.0000  -999.2500    46.7754     0.6846
 1879.5000  -999.2500    46.9052     0.6852
 1880.0000  -999.2500    47.0350     0.6858
 1880.5000  -999.2500    47.1648     0.6863
 1881.0000  -999.2500    47.2946     0.6869
 1881.5000  -999.2500    47.4244     0.6875
 1882.0000  -999.2500    47.5542     0.6881
 1882.5000  -999.2500    47.6829     0.6887
 1883.0000  -999.2500    47.8042     0.6892
 1883.5000  -999.2500    47.8681     0.6898
 1884.0000  -999.2500    49.3779     0.6904
 1884.5000  -999.2500    51.5702     0.6910
 1885.0000  -999.2500    53.7396     0.6916
 1885.5000  -999.2500    55.9102     0.6922
 1886.0000  -999.2500    58.0808     0.6928
 1886.5000  -999.2500    60.2519     0.6933
 1887.0000  -999.2500    62.4142     0.6928
 1887.5000  -999.2500    64.4780     0.6887
 1888.0000  -999.2500    66.5075     0.6848
 1888.5000  -999.2500    68.1058     0.6809
 1889.0000  -999.2500    69.7049     0.6769
 1889.5000  -999.2500    71.2992     0.6730
 1890.0000  -999.2500    72.6756     0.6691
 1890.5000  -999.2500    73.5226     0.6652
 1891.0000  -999.2500    74.3585     0.6612
 1891.5000  -999.2500    75.1996     0.6564
 1892.0000  -999.2500    76.0362     0.6999
 1892.5000  -999.2500    76.9622     0.7710
 1893.0000  -999.2500    77.4729     0.8400
 1893.5000  -999.2500    77.8297     0.9095
 1894.0000  -999.2500    78.2233     0.9535
 1894.5000  -999.2500    78.4951     0.9910
 1895.0000  -999.2500    78.7707     1.0193
 1895.5000  -999.2500    78.9734     1.0186
 1896.0000  -999.2500    78.9705     1.0180
 1896.5000  -999.2500    79.0169     1.0172
 1897.0000  -999.2500    79.1138     1.0165
 1897.5000  -999.2500    79.2101     1.0158
 1898.0000  -999.2500    79.3068     1.0151
 1898.5000  -999.2500    79.4034     1.0144
 1899.0000  -999.2500    79.5000     1.0136
 1899.5000  -999.2500    79.5966     1.0129
 1900.0000  -999.2500    79.6933     1.0122
 1900.5000  -999.2500    79.7899     1.0115
 1901.0000  -999.2500    79.8865     1.0108
 1901.5000  -999.2500    79.9831     1.0101
 1902.0000  -999.2500    80.0797     1.0093
 1902.5000  -999.2500    80.1764     1.0086
 1903.0000  -999.2500    80.2743     1.0079
 1903.5000  -999.2500    80.3786     1.0072
 1904.0000  -999.2500    80.4551     1.0073
 1904.5000  -999.2500    79.1598     0.9642
 1905.0000  -999.2500    76.4884     0.9060
 1905.5000  -999.2500    72.7170     0.8452
 1906.0000  -999.2500    66.3024     0.8305
 1906.5000  -999.2500    57.5884     0.8228
 1907.0000  -999.2500    48.8412     0.8156
 1907.5000  -999.2500    42.8384     0.8080
 1908.0000  -999.2500    38.9244     0.8064
 1908.5000  -999.2500    35.0617     0.8071
 1909.0000  -999.2500    31.9809     0.8079
 1909.5000  -999.2500    30.3317     0.8087
 1910.0000  -999.2500    28.6649     0.8094
 1910.5000  -999.2500    27.7311     0.8102
 1911.0000  -999.2500    27.3392     0.8110
 1911.5000  -999.2500    27.1837     0.8117
 1912.0000  -999.2500    27.0081     0.8125
 1912.5000  -999.2500    26.8290     0.8133
 1913.0000  -999.2500    26.6489     0.8140
 1913.5000  -999.2500    26.4701     0.8148
 1914.0000  -999.2500    26.3213     0.8156
 1914.5000  -999.2500    26.3139     0.8163
 1915.0000  -999.2500    26.0013     0.8171
 1915.5000  -999.2500    25.6716     0.8179
 1916.0000  -999.2500    25.3431     0.8187
 1916.5000  -999.2500    25.0175     0.8194
 1917.0000  -999.2500    24.8237     0.8202
 1917.5000  -999.2500    24.8664     0.8209
 1918.0000  -999.2500    24.9053     0.8217
 1918.5000  -999.2500    24.9447     0.8225
 1919.0000  -999.2500    24.9840     0.8233
 1919.5000  -999.2500    25.0233     0.8240
 1920.0000  -999.2500    25.0626     0.8248
 1920.5000  -999.2500    25.1019     0.8256
 1921.0000  -999.2500    25.1412     0.8263
 1921.5000  -999.2500    25.1805     0.8271
 1922.0000  -999.2500    25.2189     0.8279
 1922.5000  -999.2500    25.2661     0.8286
 1923.0000  -999.2500    25.3221     0.8294
 1923.5000  -999.2500    25.7253     0.8302
 1924.0000  -999.2500    25.5117     0.8307
 1924.5000  -999.2500    25.6820     0.8520
 1925.0000  -999.2500    25.8835     0.8862
 1925.5000  -999.2500    26.0829     0.9206
 1926.0000  -999.2500    26.2814     0.9554
 1926.5000  -999.2500    26.4799     0.9686
 1927.0000  -999.2500    26.6784     0.9690
 1927.5000  -999.2500    26.8770     0.9693
 1928.0000  -999.2500    27.0755     0.9695
 1928.5000  -999.2500    27.2740     0.9697
 1929.0000  -999.2500    27.4725     0.9700
 1929.5000  -999.2500    27.6710     0.9702
 1930.0000  -999.2500    27.8696     0.9705
 1930.5000  -999.2500    28.0681     0.9707
 1931.0000  -999.2500    28.2691     0.9709
 1931.5000  -999.2500    28.3280     0.9712
 1932.0000  -999.2500    28.3290     0.9714
 1932.5000  -999.2500    28.3288     0.9717
 1933.0000  -999.2500    28.3287     0.9719
 1933.5000  -999.2500    28.3287     0.9722
 1934.0000  -999.2500    28.3287     0.9724
 1934.5000  -999.2500    28.3287     0.9726
 1935.0000  -999.2500    28.3287     0.9729
 1935.5000  -999.2500    28.3287     0.9731
 1936.0000  -999.2500    28.3287     0.9734
 1936.5000  -999.2500    28.3287     0.9736
 1937.0000  -999.2500    28.3287     0.9739
 1937.5000  -999.2500    28.3287     0.9741
 1938.0000  -999.2500    28.3287     0.9744
 1938.5000  -999.2500    28.3287     0.9746
 1939.0000  -999.2500    28.3286     0.9748
 1939.5000  -999.2500    28.3279     0.9751
 1940.0000  -999.2500    28.3280     0.9753
 1940.5000  -999.2500    28.3812     0.9756
 1941.0000  -999.2500    28.7667     0.9758
 1941.5000  -999.2500    29.1525     0.9761
 1942.0000  -999.2500    29.5372     0.9763
 1942.5000  -999.2500    29.9218     0.9765
 1943.0000  -999.2500    30.3064     0.9768
 1943.5000  -999.2500    30.6909     0.9770
 1944.0000  -999.2500    31.0755     0.9773
 1944.5000  -999.2500    31.4601     0.9775
 1945.0000  -999.2500    31.8446     0.9778
 1945.5000  -999.2500    32.2292     0.9780
 1946.0000  -999.2500    32.6138     0.9783
 1946.5000  -999.2500    32.9983     0.9785
 1947.0000  -999.2500    33.3829     0.9787
 1947.5000  -999.2500    33.7676     0.9790
 1948.0000  -999.2500    34.1530     0.9792
 1948.5000  -999.2500    34.5367     0.9795
 1949.0000  -999.2500    34.8548     0.9797
 1949.5000  -999.2500    34.8478     0.9800
 1950.0000  -999.2500    34.8469     0.9802
 1950.5000  -999.2500    34.8468     0.9804
 1951.0000  -999.2500    34.8468     0.9807
 1951.5000  -999.2500    34.8468     0.9809
 1952.0000  -999.2500    34.8468     0.9812
 1952.5000  -999.2500    34.8468     0.9812
 1953.0000  -999.2500    34.8468     0.9812
 1953.5000  -999.2500    34.8468     0.9812
 1954.0000  -999.2500    34.8468     0.9812
 1954.5000  -999.2500    34.8468     0.9812
 1955.0000  -999.2500    34.8468     0.9812
 1955.5000  -999.2500    34.8468     0.9812
 1956.0000  -999.2500    34.8468     0.9812
 1956.5000  -999.2500    34.8467     0.9812
