~VERSION INFORMATION
 VERS.                2.0:   CWLS LOG ASCII STANDARD - VERSION 2.0
 WRAP.                 NO:   ONE LINE PER DEPTH STEP
~WELL INFORMATION
#MNEM.UNIT      DATA TYPE    INFORMATION
#----------   ------------   ------------------------------
 STRT.F            0.0000:   START DEPTH
 STOP.F          612.5000:   STOP DEPTH
 STEP.F            0.5000:   STEP LENGTH
 NULL.          -999.2500:   NO VALUE
 COMP.   FLUOR DANIEL INC:   COMPANY
 WELL. NAVAL PETROLEUM RESERVE 3 SX-3 82 #2-3:   WELL
 FLD .             TEAPOT:   FIELD
 LOC .       S3 T38N R78W:   LOCATION
 CNTY.            NATRONA:   COUNTY
 STAT.            WYOMING:   STATE
 CTRY. UNITED STATES OF AMERICA:   COUNTRY
 SRVC.      Western Atlas:   SERVICE COMPANY
 DATE.        28-JUL-1995:   LOGDATE
 API .       490252274000:   API NUMBER
~CURVE INFORMATION
#MNEM.UNIT       API CODE    CURVE DESCRIPTION
#----------   ------------   ------------------------------
 DEPT.F                  :   
 GRR .GAPI   07 310 01 00:   GAMMA RAY FROM RES. LOG.
 RILD.OHMM   07 120 46 00:   INDUCTION LOG DEEP RESISTIVITY
 RILM.OHMM   07 120 44 00:   INDUCTION LOG MEDIUM RESISTIVITY
~PARAMETER INFORMATION
#MNEM.UNIT          VALUE    DESCRIPTION
#----------   ------------   ------------------------------
 PD  .                 GL:   PERMANENT DATUM
 EPD .F              5123:   ELEVATION PERMANENT DATUM
 LMF .                 KB:   LOG MEASURED FROM
 DAPD.F                10:   FEET ABOVE PERMANENT DATUM
 DMF .                 KB:   DRILLING MEASURED FROM
 EKB .F              5133:   KELLING BUSHING
 EDF .F              5132:   DRILLING FLOOR
 EGL .F              5123:   GROUND LEVEL
 DATE.            7-28-95:   RUN DATE
 RUN .                  1:   RUN NUMBER
 DD  .F               620:   DEPTH DRILLER
 DL  .F               620:   DEPTH LOGGER
 BLI .F               612:   BOTTOM LOG INTERVAL
 TLI .F                54:   TOP LOG INTERVAL
 CS  .IN            9.625:   CASING SIZE
 CBD .F                53:   CASING BOTTOM DRILLER
 CBL .F                54:   CASING BOTTOM LOGGER
 BS  .IN             8.75:   BIT SIZE
 BSD .F               620:   BIT SIZE AT DEPTH
 DFT .                AIR:   DRILLING FLUID TYPE
 BHT .F                91:   BOTTOM HOLE TEMPERATURE
 MRT .F                91:   MAXIMUM RECORDED TEMPERATURE
 LUN .            HL 6530:   LOGGING UNIT NUMBER
 LUL .             CASPER:   LOGGING UNIT LOCATION
 ENGI.          RASMUSSEN:   RECORDING ENGINEER
 WITN.              HARDY:   WITNESSED BY
 CLNT.            A2DTECH:   CLIENT CODE
 ORIG.       2", 5" PRINT:   ORIGIN OF DATA
 UWI .       490252274000:   UNIQUE WELL ID
 DICO. A2D Technologies, Inc.:   DIGITIZING COMPANY
~OTHER INFORMATION
~A    DEPT      GRR      RILD       RILM   
# ...
   91.0000   125.6564     7.0040     7.1835
   91.5000   126.4705     6.8851     7.0816
   92.0000   129.1612     6.7785     6.9711
   92.5000   132.7399     6.7142     6.9036
   93.0000   133.0339     6.6499     6.8366
   93.5000   127.6865     6.5856     6.7705
   94.0000   123.2823     6.5716     6.7561
   94.5000   122.7560     6.5499     6.7338
   95.0000   125.9225     6.5283     6.7116
   95.5000   126.9933     6.5067     6.6894
   96.0000   126.3842     6.4852     6.6674
   96.5000   126.5018     6.4568     6.6381
   97.0000   129.3404     6.4567     6.6379
   97.5000   132.3410     6.4908     6.6730
   98.0000   131.3604     6.5340     6.7174
   98.5000   129.5986     6.5950     6.7802
   99.0000   130.1819     6.6567     6.8435
   99.5000   130.8037     6.7187     6.9073
  100.0000   129.6507     6.7624     6.9523
  100.5000   126.7606     6.9038     7.0976
  101.0000   123.0228     7.0645     7.2629
  101.5000   121.0285     7.3490     7.4321
  102.0000   122.1980     7.4148     7.6242
  102.5000   123.7789     7.4036     7.6114
  103.0000   124.1990     7.3856     7.5930
  103.5000   123.7671     7.3678     7.5746
  104.0000   123.3769     7.3499     7.5563
  104.5000   123.2562     7.3478     7.4721
  105.0000   125.0554     7.2860     7.3803
  105.5000   127.3922     7.1963     7.2897
  106.0000   128.4150     7.1076     7.2002
  106.5000   129.5144     7.0200     7.1118
  107.0000   129.9511     6.9335     7.0243
  107.5000   129.1560     6.8245     6.9378
  108.0000   128.0789     6.7001     6.8526
  108.5000   127.1196     6.7362     6.8249
  109.0000   127.1134     6.8142     6.9186
  109.5000   127.8421     6.8931     7.0077
  110.0000   129.0990     6.9520     7.0979
  110.5000   127.7106     7.1049     7.2031
  111.0000   126.1524     7.3015     7.4232
  111.5000   124.5632     7.5035     7.6502
  112.0000   121.0390     7.7111     7.8840
  112.5000   117.5771     7.9244     8.1250
  113.0000   119.4165     8.1330     8.3613
  113.5000   122.6503     8.1330     8.3613
  114.0000   123.4628     8.0971     8.3244
  114.5000   124.1071     8.0685     8.2950
  115.0000   124.7069     8.0582     8.2479
  115.5000   124.5506     7.9151     8.0973
  116.0000   122.2936     7.6965     7.9501
  116.5000   121.8303     7.4841     7.7779
  117.0000   119.9568     7.2786     7.5230
  117.5000   116.7732     7.0846     7.2836
  118.0000   114.5824     6.9407     7.1355
  118.5000   118.6330     6.8249     7.0165
  119.0000   124.0722     6.8249     7.0165
  119.5000   129.7140     6.8249     7.0165
  120.0000   133.1320     6.8249     7.0971
  120.5000   131.5277     6.8249     7.2291
  121.0000   128.3161     6.9444     7.3636
  121.5000   125.6511     7.0639     7.5006
  122.0000   126.2515     7.1854     7.6401
  122.5000   124.7438     7.3090     7.7130
  123.0000   122.7190     7.4348     7.7426
  123.5000   125.8774     7.4847     7.7720
  124.0000   129.4750     7.5776     7.8022
  124.5000   130.3927     7.6164     7.8322
  125.0000   126.2451     7.7001     7.9163
  125.5000   124.9753     7.7264     7.9433
  126.0000   126.1382     7.7528     7.9703
  126.5000   125.9743     7.7793     7.9975
  127.0000   124.6733     7.8059     8.0237
  127.5000   124.3686     7.8326     8.0525
  128.0000   126.1071     7.9109     8.1330
  128.5000   127.9139     7.8348     8.0373
  129.0000   125.8538     7.7714     7.9577
  129.5000   121.6415     7.7085     7.8789
  130.0000   121.5426     7.6461     7.8007
  130.5000   121.9164     7.5842     7.7234
  131.0000   122.2763     7.5229     7.6466
  131.5000   122.5517     7.4847     7.5712
  132.0000   123.2296     7.4013     7.5394
  132.5000   123.3220     7.3165     7.5137
  133.0000   123.1174     7.2135     7.4881
  133.5000   124.3148     7.2209     7.4626
  134.0000   125.8345     7.2305     7.4372
  134.5000   125.4029     7.2402     7.4160
  135.0000   125.5191     7.2498     7.4590
  135.5000   128.2427     7.2595     7.5039
  136.0000   131.0537     7.2692     7.5491
  136.5000   130.3621     7.2789     7.5946
  137.0000   128.7252     7.2887     7.6259
  137.5000   127.0979     7.2984     7.6377
  138.0000   126.4859     7.3081     7.6494
  138.5000   125.0048     7.3179     7.6611
  139.0000   123.1743     7.3277     7.6729
  139.5000   121.8849     7.3375     7.6848
  140.0000   125.3709     7.3478     7.6949
  140.5000   129.6543     7.4377     7.7310
  141.0000   133.0010     7.4671     7.7695
  141.5000   133.1196     7.4966     7.8083
  142.0000   131.4143     7.5262     7.8473
  142.5000   128.2861     7.5560     7.8864
  143.0000   127.9925     7.5857     7.9260
  143.5000   128.0855     7.6157     7.9657
  144.0000   128.1956     7.7013     8.0471
  144.5000   128.3082     7.8090     8.1673
  145.0000   128.3464     7.8829     8.2894
  145.5000   126.8945     7.9693     8.4135
  146.0000   124.8510     8.0567     8.5394
  146.5000   124.8442     8.1451     8.6672
  147.0000   128.4837     8.2344     8.7561
  147.5000   132.3716     8.3247     8.7561
  148.0000   134.2887     8.4160     8.7561
  148.5000   138.3740     8.5170     8.7561
  149.0000   139.8196     8.5291     8.7686
  149.5000   137.7941     8.5462     8.7862
  150.0000   134.9167     8.5633     8.8039
  150.5000   132.9429     8.5805     8.8225
  151.0000   131.9456     8.5954     8.8373
  151.5000   129.7971     8.6940     9.0068
  152.0000   126.6464     8.8369     9.2547
  152.5000   123.3263     8.9818     9.5093
  153.0000   124.0555     9.1327     9.7800
  153.5000   126.9831     9.2921     9.8916
  154.0000   129.2981     9.4543     9.9943
  154.5000   130.9139     9.6193    10.0976
  155.0000   131.6113     9.7872    10.2016
  155.5000   129.5530     9.9580    10.3064
  156.0000   125.3540    10.1494    10.4119
  156.5000   122.4089    10.2435    10.5296
  157.0000   123.0354    10.2943    10.6533
  157.5000   125.3988    10.3966    10.8303
  158.0000   126.2721    10.4999    11.0284
  158.5000   127.1267    10.6287    11.0284
  159.0000   129.8431    10.5498    10.8460
  159.5000   133.0161    10.4380    10.7311
  160.0000   131.1303    10.3385    10.6287
  160.5000   127.1033    10.2769    10.5654
  161.0000   123.8941    10.2213    10.5082
  161.5000   123.4918    10.1659    10.4513
  162.0000   126.4448    10.1329    10.4174
  162.5000   130.7162    10.0780    10.3610
  163.0000   134.9548    10.0235    10.3039
  163.5000   137.8918     9.9638    10.2410
  164.0000   136.5276     9.8723    10.1520
  164.5000   132.6137     9.8268    10.1012
  165.0000   130.8219     9.7622    10.0363
  165.5000   132.7672     9.6917     9.9631
  166.0000   133.8536     9.6714     9.9642
  166.5000   132.3360     9.6309     9.9638
  167.0000   130.7625     9.5906     9.9638
  167.5000   131.1683     9.5505     9.9638
  168.0000   131.4557     9.5105     9.9638
  168.5000   129.9152     9.4707     9.8404
  169.0000   128.4069     9.4271     9.6917
  169.5000   129.8275     9.4165     9.7392
  170.0000   129.7787     9.4048     9.7922
  170.5000   129.6067     9.3930     9.8455
  171.0000   129.9071     9.3813     9.8723
  171.5000   131.7283     9.3697     9.7792
  172.0000   134.3929     9.3581     9.7082
  172.5000   136.3558     9.3467     9.6377
  173.0000   138.2676     9.3241     9.5854
  173.5000   138.7372     9.2680     9.5278
  174.0000   138.2155     9.2121     9.4707
  174.5000   136.1700     9.1562     9.4138
  175.0000   134.1293     9.1007     9.3574
  175.5000   134.3982     8.9764     9.2760
  176.0000   137.8204     8.7651     9.1477
  176.5000   141.7016     8.5579     8.9503
  177.0000   145.1429     8.3556     8.6868
  177.5000   144.7058     8.1580     8.4303
  178.0000   142.8386     7.9842     8.2084
  178.5000   141.7631     7.8021     8.0211
  179.0000   142.9739     7.6493     7.8641
  179.5000   143.0876     7.4847     7.6948
  180.0000   141.2583     7.4839     7.6948
  180.5000   142.0675     7.6079     7.9292
  181.0000   143.8612     7.6946     8.1330
  181.5000   143.2385     7.8098     8.2967
