~VERSION INFORMATION
 VERS.                2.0:   CWLS LOG ASCII STANDARD - VERSION 2.0
 WRAP.                 NO:   ONE LINE PER DEPTH STEP
~WELL INFORMATION
#MNEM.UNIT      DATA TYPE    INFORMATION
#----------   ------------   ------------------------------
 STRT.F           40.0000:   START DEPTH
 STOP.F          684.0000:   STOP DEPTH
 STEP.F            0.5000:   STEP LENGTH
 NULL.          -999.2500:   NO VALUE
 COMP.    FENIX & SCISSON:   COMPANY
 WELL.   N P R-3 #26SX2-2:   WELL
 FLD .             TEAPOT:   FIELD
 LOC .       S2 T38N R78W:   LOCATION
 CNTY.            NATRONA:   COUNTY
 STAT.            WYOMING:   STATE
 CTRY. UNITED STATES OF AMERICA:   COUNTRY
 SRVC.            Unknown:   SERVICE COMPANY
 DATE.        26-JAN-1978:   LOGDATE
 API .       490251056400:   API NUMBER
~CURVE INFORMATION
#MNEM.UNIT       API CODE    CURVE DESCRIPTION
#----------   ------------   ------------------------------
 DEPT.F                  :   
 ILD .OHMM   05 120 46 00:   INDUCTION LOG DEEP
 SN  .OHMM   05 040 16 00:   SHORT NORMAL 16"
 SPR .MV     05 010 01 00:   SPONTANEOUS POTENTIAL FROM RES.
 CALD.IN     45 280 60 00:   CALIPER FROM DENSITY LOG
 CORR.G/C3   45 356 01 00:   DENSITY CORRECTION
 DPHI.DEC    45 890 12 00:   DENSITY POROSITY SANDSTONE
 GRD .GAPI   45 310 01 00:   GAMMA RAY FROM DENSITY LOG
 RHOB.G/C3   45 350 01 00:   BULK DENSITY
~PARAMETER INFORMATION
#MNEM.UNIT          VALUE    DESCRIPTION
#----------   ------------   ------------------------------
 PD  .                 GL:   PERMANENT DATUM
 EPD .F              5142:   ELEVATION PERMANENT DATUM
 LMF .                 KB:   LOG MEASURED FROM
 DMF .                 KB:   DRILLING MEASURED FROM
 EKB .F              5146:   KELLING BUSHING
 EGL .F              5142:   GROUND LEVEL
 DATE.        26-JAN-1978:   RUN DATE
 RUN .                  1:   RUN NUMBER
 DD  .F               690:   DEPTH DRILLER
 DL  .F               684:   DEPTH LOGGER
 BLI .F               684:   BOTTOM LOG INTERVAL
 TLI .F                50:   TOP LOG INTERVAL
 CS  .IN            8.625:   CASING SIZE
 CBD .F                39:   CASING BOTTOM DRILLER
 CBL .F                40:   CASING BOTTOM LOGGER
 BS  .IN            7.875:   BIT SIZE
 BSD .F               690:   BIT SIZE AT DEPTH
 DFT .                KCL:   DRILLING FLUID TYPE
 DFD .                8.5:   DRILLING FLUID DENSITY
 DFV .                 33:   DRILLING FLUID VISCOSITY
 DFPH.                  9:   DRILLING FLUID PH
 MSS .           FLOWLINE:   MUD SAMPLE SOURCE
 RMS .OHMM           0.48:   RESISTIVITY MUD SAMPLE
 MST .F                75:   MUD SAMPLE TEMPERATURE
 RMF .OHMM           0.46:   RESISTIVITY MUD FILTRATE SAMPLE
 MFST.F                75:   MUD FILTRATE SAMPLE TEMPERATURE
 RMC .OHMM              1:   RESISTIVITY MUD CAKE
 MCST.F                75:   MUD CAKE SAMPLE TEMPERATURE
 MFSS.               MEAS:   MUD FILTRATE SAMPLE SOURCE
 MCSS.               MEAS:   MUD CAKE SAMPLE SOURCE
 RMB .OHMM           0.47:   RESISTIVITY MUD AT BHT
 BHT .F                76:   BOTTOM HOLE TEMPERATURE
 TCS .HRS               1:   TIME CURCULATED STOPPED
 MRT .F                76:   MAXIMUM RECORDED TEMPERATURE
 LUN .               2958:   LOGGING UNIT NUMBER
 LUL .             CASPER:   LOGGING UNIT LOCATION
 ENGI.           REYNOLDS:   RECORDING ENGINEER
 WITN.       MR. MCGINLEY:   WITNESSED BY
 CLNT.            A2DTECH:   CLIENT CODE
 ORIG.      2.5" 5" PRINT:   ORIGIN OF DATA
 UWI .       490251056400:   UNIQUE WELL ID
 DICO. A2D Technologies, Inc.:   DIGITIZING COMPANY
~OTHER INFORMATION
~A   DEPT      ILD         SN        SPR       CALD       CORR       DPHI         GRD        RHOB 
# ...
  445.0000     6.2844     7.5877   -58.0463     9.2918     0.1606     0.1227    98.0122     2.4639
  445.5000     6.2447     7.6971   -57.8908     9.2912     0.1842     0.1332    97.7064     2.4427
  446.0000     6.2053     7.7544   -57.8835     9.2906     0.1782     0.1297    97.6555     2.4260
  446.5000     6.1247     7.7586   -57.8762     9.2596     0.1691     0.1154    98.6239     2.4669
  447.0000     6.0851     7.6051   -57.8699     9.2590     0.1677     0.1221   100.7645     2.4704
  447.5000     6.0467     7.5560   -57.7134     9.2584     0.1677     0.1272   103.2110     2.4517
  448.0000     6.0508     7.5082   -57.7062     9.2274     0.1616     0.1281   105.0459     2.4365
  448.5000     6.0541     7.4096   -57.6989     9.2267     0.1375     0.1261   103.7972     2.4349
  449.0000     6.0573     7.3627   -57.8402     9.2261     0.1254     0.1204   102.5994     2.4623
  449.5000     6.0606     7.1676   -57.8326     9.2255     0.1163     0.1264   102.2554     2.4555
  450.0000     6.1058     7.0734   -57.9916     9.2249     0.1133     0.1318   101.6820     2.4449
  450.5000     5.9030     6.8850   -58.0574     9.2243     0.1103     0.1358   101.7457     2.4387
  451.0000     5.7461     6.7973   -58.1233     9.2237     0.1103     0.1390   102.3700     2.4321
  451.5000     5.5159     6.7038   -58.1891     9.2231     0.1103     0.1463   102.7777     2.4259
  452.0000     5.1044     6.5760   -58.2549     9.2225     0.1103     0.1542   103.8226     2.4181
  452.5000     4.7816     6.1851   -58.3208     9.2219     0.1133     0.1590   104.4342     2.4072
  453.0000     4.7184     5.7775   -58.3578     9.2218     0.1133     0.1621   103.4404     2.3970
  453.5000     4.7219     5.4716   -58.9382     9.2231     0.1133     0.1645   101.8731     2.3908
  454.0000     4.7574     5.3634   -59.6695     9.2243     0.1133     0.1669   100.7645     2.3854
  454.5000     4.7602     5.3302   -59.9559     9.2256     0.1133     0.1687   100.1529     2.3799
  455.0000     4.8291     5.3338   -59.7974     9.2268     0.1133     0.1706   100.1529     2.3752
  455.5000     4.8989     5.3382   -59.8127     9.2281     0.1133     0.1630   102.5994     2.3743
  456.0000     5.0781     5.8018   -59.7748     9.2293     0.1163     0.1511   104.7401     2.4011
  456.5000     5.4387     6.6169   -59.6164     9.2306     0.1216     0.1542   105.6575     2.4087
  457.0000     5.9510     7.0445   -59.4580     9.2318     0.1339     0.1631   107.4924     2.4071
  457.5000     6.2484     7.2961   -59.2996     9.2331     0.1493     0.1672   110.8563     2.4011
  458.0000     6.3825     7.4533   -58.9930     9.2343     0.1616     0.1582   112.9969     2.3965
  458.5000     6.4748     7.6139   -58.8346     9.2356     0.1479     0.1295   113.6086     2.4025
  459.0000     6.4787     7.6716   -58.5280     9.2368     0.1387     0.1282   112.9969     2.4298
  459.5000     6.4825     7.7347   -58.5178     9.2381     0.1375     0.1439   112.3853     2.4494
  460.0000     6.4865     7.7887   -58.3591     9.2393     0.1375     0.1511   111.1621     2.4388
  460.5000     6.4905     7.7949   -58.4951     9.2406     0.1375     0.1567   109.9261     2.4203
  461.0000     6.4953     7.8002   -58.4850     9.2418     0.1405     0.1614   108.9959     2.4083
  461.5000     6.4992     7.8054   -58.6232     9.2431     0.1495     0.1694   108.0657     2.3963
  462.0000     6.5031     7.7570   -58.9096     9.2443     0.1707     0.1755   107.4924     2.3849
  462.5000     6.5070     7.7090   -59.0503     9.2456     0.1918     0.1779   107.7982     2.3756
  463.0000     6.5109     7.7142   -59.1884     9.2468     0.1979     0.1664   107.7982     2.3671
  463.5000     6.5148     7.6663   -59.0275     9.2481     0.1949     0.1440   107.1356     2.4083
  464.0000     6.5187     7.6148   -58.8692     9.2493     0.1888     0.1380   104.6381     2.4416
  464.5000     6.5227     7.5197   -58.7105     9.2506     0.1889     0.1392   102.2553     2.4355
  465.0000     6.5267     7.5260   -58.6981     9.2519     0.1888     0.1386   100.5097     2.4264
  465.5000     6.5315     7.5311   -58.6880     9.2531     0.1858     0.1338    98.9551     2.4248
  466.0000     6.5354     7.5361   -58.6779     9.2544     0.1828     0.1320    97.7065     2.4475
  466.5000     6.5394     7.5412   -58.6678     9.2556     0.1785     0.1321    98.8405     2.4384
  467.0000     6.5433     7.5462   -58.6577     9.2569     0.1737     0.1347   101.6055     2.4293
  467.5000     6.5472     7.5513   -58.7984     9.2581     0.1707     0.1393   104.1284     2.4323
  468.0000     6.4615     7.5564   -58.7858     9.2594     0.1677     0.1502   105.9633     2.4338
  468.5000     6.2901     7.5095   -58.9240     9.2606     0.1711     0.1579   107.1865     2.4152
  469.0000     6.0729     7.4131   -58.9137     9.2619     0.1986     0.1610   107.7982     2.4047
  469.5000     5.6035     7.3659   -58.9033     9.2626     0.2171     0.1621   108.1040     2.3969
  470.0000     5.2703     7.2214   -59.1876     9.2629     0.2402     0.1640   107.7982     2.3887
  470.5000     5.1296     6.9339   -59.1775     9.2632     0.2569     0.1680   107.7982     2.3769
  471.0000     5.0975     6.6121   -59.4665     9.2635     0.2679     0.1736   107.7982     2.3699
  471.5000     5.0656     6.2620   -59.7504     9.2638     0.2764     0.1794   108.1040     2.3614
  472.0000     5.0339     6.0959   -59.8910     9.2641     0.2704     0.1750   108.4098     2.3562
  472.5000     5.0031     5.9344   -60.0292     9.2645     0.2190     0.1478   108.7284     2.4053
  473.0000     5.0062     6.0675   -60.1651     9.2648     0.1949     0.1345   109.3527     2.4241
  473.5000     5.0439     6.3661   -60.3030     9.2651     0.1798     0.1314   109.9771     2.4303
  474.0000     5.0475     6.4595   -60.2929     9.2654     0.1707     0.1302   110.6014     2.4326
  474.5000     5.0152     6.4195   -60.5768     9.2657     0.1616     0.1321   111.2258     2.4342
  475.0000     4.7177     6.4238   -60.5667     9.2661     0.1526     0.1430   111.9266     2.4348
  475.5000     4.6234     6.2967   -61.1497     9.2664     0.1586     0.1635   112.7803     2.4045
  476.0000     4.5945     5.7616   -55.8043     9.2667     0.1767     0.1733   113.7105     2.3802
  476.5000     4.5979     5.4565   -57.2744     9.2670     0.1859     0.1782   114.6407     2.3711
  477.0000     4.6007     5.3485   -57.5634     9.2673     0.1918     0.1805   115.2650     2.3665
  477.5000     4.6353     5.3155   -57.8473     9.2676     0.1888     0.1783   115.1631     2.3665
  478.0000     4.6708     5.3250   -57.8372     9.2680     0.1511     0.1616   114.6789     2.3968
  478.5000     4.8371     6.1092   -57.6786     9.2683     0.1326     0.1230   114.0545     2.4498
  479.0000     5.2565     6.8723   -57.5179     9.2686     0.1125     0.1049   113.4302     2.4907
  479.5000     5.8313     6.9722   -57.5078     9.2689     0.1073     0.1302   111.7737     2.4679
  480.0000     6.1226     7.0251   -57.4977     9.2692     0.1163     0.1394   109.9388     2.4558
  480.5000     6.2540     7.0298   -57.4876     9.2695     0.1276     0.1291   110.2447     2.4480
  481.0000     6.3010     6.9850   -57.7740     9.2699     0.1400     0.1309   112.0795     2.4419
  481.5000     6.2616     6.9909   -57.7639     9.2702     0.1509     0.1325   113.6086     2.4422
  482.0000     5.7983     6.9457   -55.9745     9.2705     0.1571     0.1322   112.6911     2.4435
  482.5000     5.3159     6.9046   -55.9644     9.2708     0.1616     0.1316   111.7737     2.4453
  483.0000     5.0690     6.7691   -55.9542     9.2711     0.1382     0.1316   111.1621     2.4465
  483.5000     5.0366     6.5445   -55.9438     9.2715     0.1133     0.1370   111.1621     2.4406
  484.0000     5.0050     6.0296   -55.9316     9.2718     0.1012     0.1443   112.0795     2.4303
  484.5000     4.9737     5.7895   -55.9214     9.2721     0.0952     0.1709   113.3282     2.4013
  485.0000     4.9775     5.7133   -55.9113     9.2724     0.1012     0.1782   114.5515     2.3817
