~VERSION INFORMATION
 VERS.                2.0:   CWLS LOG ASCII STANDARD - VERSION 2.0
 WRAP.                 NO:   ONE LINE PER DEPTH STEP
~WELL INFORMATION
#MNEM.UNIT      DATA TYPE    INFORMATION
#----------   ------------   ------------------------------
 STRT.F            0.0000:   START DEPTH
 STOP.F          717.5000:   STOP DEPTH
 STEP.F            0.5000:   STEP LENGTH
 NULL.          -999.2500:   NO VALUE
 COMP. LAWRENCE/ALLISON INC:   COMPANY
 WELL. NPR 3 #27-64-SX-11-WP:   WELL
 FLD .             TEAPOT:   FIELD
 LOC .      S11 T38N R78W:   LOCATION
 CNTY.            NATRONA:   COUNTY
 STAT.            WYOMING:   STATE
 CTRY. UNITED STATES OF AMERICA:   COUNTRY
 SRVC.      Dresser Atlas:   SERVICE COMPANY
 DATE.        15-SEP-1984:   LOGDATE
 API .       490251097500:   API NUMBER
~CURVE INFORMATION
#MNEM.UNIT       API CODE    CURVE DESCRIPTION
#----------   ------------   ------------------------------
 DEPT.F                  :   
 CALD.IN     45 280 60 00:   CALIPER FROM DENSITY LOG
 CNC .DEC    42 890 03 00:   COMPENSATED NEUTRON POROSITY SANDSTONE
 CORR.G/C3   45 356 01 00:   DENSITY CORRECTION
 DEN .G/C3   45 350 01 00:   BULK DENSTIY
 PORD.DEC    45 890 12 00:   POROSITY DENSITY SANDSTONE
 GRR .GAPI   07 310 01 00:   GAMMA RAY FROM RESISTIVITY
 RFOC.OHMM   07 220 01 00:   RESISTIVITY FOCUSED LOG
 RILD.OHMM   07 120 46 00:   RESISTIVITY INDUCTION LOG DEEP
 RILM.OHMM   07 120 44 00:   RESITIVITY INDUCTION LOG MEDIUM
 SPR .MV     07 010 01 00:   SPONTANEOUS POTENTIAL FROM RES.
~PARAMETER INFORMATION
#MNEM.UNIT          VALUE    DESCRIPTION
#----------   ------------   ------------------------------
 PD  .                 GL:   PERMANENT DATUM
 EPD .F              5198:   ELEVATION PERMANENT DATUM
 LMF .                 GL:   LOG MEASURED FROM
 DMF .                 GL:   DRILLING MEASURED FROM
 EGL .F              5198:   GROUND LEVEL
 DATE.        15-SEP-1984:   RUN DATE
 RUN .                  1:   RUN NUMBER
 DD  .F               736:   DEPTH DRILLER
 DL  .F               722:   DEPTH LOGGER
 BLI .F               704:   BOTTOM LOG INTERVAL
 TLI .F                42:   TOP LOG INTERVAL
 CS  .IN            8.625:   CASING SIZE
 CBD .F                42:   CASING BOTTOM DRILLER
 CBL .F                42:   CASING BOTTOM LOGGER
 BS  .IN            7.875:   BIT SIZE
 BSD .F               736:   BIT SIZE AT DEPTH
 DFT .          KCL WATER:   DRILLING FLUID TYPE
 MSS .           FLOWLINE:   MUD SAMPLE SOURCE
 RMS .OHMM           0.22:   RESISTIVITY MUD SAMPLE
 MST .F                70:   MUD SAMPLE TEMPERATURE
 RMB .OHMM           0.17:   RESISTIVITY MUD AT BHT
 BHT .F                90:   BOTTOM HOLE TEMPERATURE
 TCS .HRS               5:   TIME CURCULATED STOPPED
 MRT .F                90:   MAXIMUM RECORDED TEMPERATURE
 LUN .               6274:   LOGGING UNIT NUMBER
 LUL .               GLTE:   LOGGING UNIT LOCATION
 ENGI.             RAUTIO:   RECORDING ENGINEER
 WITN.            JOHNSON:   WITNESSED BY
 CLNT.            A2DTECH:   CLIENT CODE
 ORIG.         2.5" PRINT:   ORIGIN OF DATA
 UWI .       490251097500:   UNIQUE WELL ID
 DICO. A2D Technologies, Inc.:   DIGITIZING COMPANY
~OTHER INFORMATION
~A    DEPT    CALD        CNC       CORR        DEN       PORD         GRR      RFOC       RILD       RILM        SPR   
# ...
  335.0000     8.1938     0.2669    -0.0026     2.4402     0.1382    78.1263     9.7948     9.2578     9.0871     1.4004
  335.5000     8.1922     0.2587     0.0095     2.4388     0.1418    76.5293     9.7888     9.1230     8.8343     1.5932
  336.0000     8.1905     0.2600     0.0130     2.4372     0.1430    84.1577     9.7825     8.9922     8.8025     1.8674
  336.5000     8.1889     0.2600     0.0113     2.4341     0.1432    90.0323     9.7758     8.7314     8.5306     2.1459
  337.0000     8.1873     0.2612     0.0068     2.4296     0.1452    89.8225     9.7691     8.4989     8.3396     2.1272
  337.5000     8.1857     0.2660     0.0007     2.4266     0.1483    85.8728     9.7616     8.3146     8.1077     1.8121
  338.0000     8.1840     0.2761     0.0006     2.4265     0.1510    83.3688     9.2344     8.0316     7.8818     1.4935
  338.5000     8.1824     0.2814     0.0035     2.4371     0.1503    81.5565     8.8087     8.0257     7.7332     1.1803
  339.0000     8.1808     0.2693     0.0063     2.4478     0.1475    80.9222     8.3770     7.8023     7.5977     0.8669
  339.5000     8.1791     0.2550     0.0122     2.4594     0.1423    80.9812     8.7222     7.7958     7.4407     0.5538
  340.0000     8.1775     0.2505     0.0150     2.4670     0.1359    81.6568     9.0832     7.6825     7.4348    -0.7889
  340.5000     8.1759     0.2484     0.0115     2.4705     0.1285    82.5562     9.2031     7.6768     7.4282    -0.9687
  341.0000     8.1743     0.2479     0.0059     2.4669     0.1245    80.1387     9.1965     7.6831     7.5240    -0.3943
  341.5000     8.1726     0.2485     0.0123     2.4557     0.1291    77.6894     8.9332     7.7712     7.5163    -0.4127
  342.0000     8.1710     0.2564     0.0175     2.4472     0.1357    78.0197     8.5741     7.7626     7.7190    -0.4320
  342.5000     8.1694     0.2693     0.0134     2.4464     0.1388    82.3864     8.3368     7.8639     7.8192    -0.1553
  343.0000     8.1678     0.2711    -0.0018     2.4478     0.1388    85.8641     8.3790     7.9666     7.8496    -0.1765
  343.5000     8.1661     0.2735     0.0007     2.4507     0.1392    87.5966     8.7269     7.9600     8.0205    -0.1938
  344.0000     8.1645     0.2789     0.0083     2.4595     0.1354    86.9586     9.0329     7.9534     8.0141    -0.2130
  344.5000     8.1629     0.2665     0.0169     2.4609     0.1312    87.1450     9.1521     7.9460     8.1181    -0.5281
  345.0000     8.1612     0.2594     0.0168     2.4549     0.1295    86.8557     9.0215     7.9401     8.2236    -0.5504
  345.5000     8.1596     0.2601     0.0137     2.4488     0.1295    86.8131     8.7712     7.9338     8.2693     0.0240
  346.0000     8.1580     0.2654     0.0106     2.4458     0.1343    86.7692     8.5278     7.9273     8.4362     0.1712
  346.5000     8.1564     0.2796     0.0135     2.4457     0.1403    86.7219     8.2906     8.0289     8.4285     0.4895
  347.0000     8.1547     0.2766     0.0282     2.4456     0.1415    87.2663     8.2855     8.0229     8.4386     0.8079
  347.5000     8.1531     0.2761     0.0370     2.4465     0.1415    87.8107     8.5616     8.1277     8.5311     1.1262
  348.0000     8.1515     0.2776     0.0399     2.4555     0.1349    85.3953     9.4053     8.1507     8.6385     1.4445
  348.5000     8.1499     0.2786     0.0274     2.4624     0.1296    81.5997    10.0193     8.2820     8.5141     1.8363
  349.0000     8.1482     0.2798     0.0206     2.4615     0.1274    80.5764    10.2921     8.3328     8.5071     1.9615
  349.5000     8.1466     0.2810     0.0149     2.4541     0.1305    83.4710     9.9767     8.3258     8.4995     1.6460
  350.0000     8.1448     0.2657     0.0097     2.4530     0.1348    82.8367     9.3801     8.3191     8.4919     1.6272
  350.5000     8.1433     0.2650     0.0054     2.4658     0.1315    82.2012     8.9524     8.3123     8.4834     1.6080
  351.0000     8.1417     0.2669     0.0021     2.4716     0.1260    82.3175     8.8249     8.3043     8.3613     1.5853
  351.5000     8.1401     0.2671    -0.0026     2.4715     0.1211    83.2880     8.9413     8.2981     8.3540     1.5680
  352.0000     8.1385     0.2587    -0.0027     2.4625     0.1238    86.1952     8.9352     8.2918     8.3465     1.5503
  352.5000     8.1368     0.2522    -0.0028     2.4535     0.1285    88.5195     8.9291     8.2850     8.3378     1.8292
  353.0000     8.1352     0.2550    -0.0030     2.4443     0.1337    90.3451     8.9220     8.2782     8.3312     2.1036
  353.5000     8.1336     0.2647    -0.0031     2.4356     0.1408    91.6124     8.9165     8.2706     8.3243     1.7858
  354.0000     8.1320     0.2575    -0.0032     2.4355     0.1456    93.1040     8.9107     8.2645     8.4326     1.4726
  354.5000     8.1303     0.2495    -0.0033     2.4335     0.1456    93.6531     8.9046     8.2578     8.4241     1.1193
  355.0000     8.1287     0.2520    -0.0034     2.4283     0.1480    93.5947     9.0215     8.2510     8.4158     0.8432
  355.5000     8.1567     0.2708    -0.0035     2.4257     0.1516    92.6489     9.1393     8.2431     8.4090     0.8202
  356.0000     8.1548     0.2907    -0.0037     2.4233     0.1528    91.4477     9.1336     8.2370     8.4016     0.5070
  356.5000     8.1533     0.2903    -0.0038     2.4255     0.1541    89.9111     9.1273     8.2307     8.2799     0.7855
  357.0000     8.1813     0.2786    -0.0039     2.4305     0.1541    90.4602     8.9967     8.2239     8.2713     1.3599
  357.5000     8.1797     0.2633    -0.0010     2.4334     0.1539    91.6913     8.9897     8.2171     8.2647     1.4694
  358.0000     8.1781     0.2532     0.0018     2.4348     0.1469    92.9586     8.8617     8.2097     8.2578     1.3166
  358.5000     8.1765     0.2462     0.0045     2.4362     0.1452    93.8698     8.8558     8.2036     8.2139     1.0034
  359.0000     8.1749     0.2456     0.0121     2.4405     0.1445    95.0022     8.8498     8.1969     8.1309     0.6893
  359.5000     8.1732     0.2533     0.0193     2.4493     0.1413    94.9055     8.8425     8.1902     8.0123     0.6701
  360.0000     8.1716     0.2654     0.0221     2.4554     0.1368    93.4122     8.8371     8.1824     8.0059     0.6509
  360.5000     8.1700     0.2706     0.0250     2.4581     0.1331    90.4469     8.8316     8.1764     7.9988     0.6295
  361.0000     8.1683     0.2698     0.0308     2.4574     0.1307    87.7098     8.9482     8.1700     7.9427     0.6122
  361.5000     8.1667     0.2704     0.0268     2.4511     0.1355    90.0340     8.9994     8.1633     7.7676     0.5919
  362.0000     8.1947     0.2732     0.0157     2.4489     0.1391    91.1749     9.0587     8.1552     7.6558     0.5740
  362.5000     8.1928     0.2737     0.0067     2.4467     0.1391    89.4971     9.0522     8.0383     7.5323     0.5547
  363.0000     8.1913     0.2737     0.0006     2.4450     0.1392    85.7429     9.0463     7.9212     7.3346     0.5355
  363.5000     8.2194     0.2753     0.0005     2.4381     0.1416    83.9251     9.0401     7.7024     7.1287     0.5139
  364.0000     8.2177     0.2838     0.0004     2.4337     0.1434    82.1065     9.0327     7.5431     7.0260     0.4966
  364.5000     8.1865     0.2886     0.0040     2.4351     0.1446    82.0592     8.9041     7.3791     6.8282     0.5266
  365.0000     8.1849     0.2863     0.0061     2.4365     0.1452    82.0118     8.8944     7.1743     6.7086     0.4561
  365.5000     8.1880     0.2828     0.0060     2.4364     0.1453    81.9582     8.7405     7.0439     6.5014     0.4388
  366.0000     8.2114     0.2810     0.0072     2.4348     0.1453    84.8742     8.4169     6.8060     6.3603     0.4031
  366.5000     8.2096     0.2822     0.0087     2.4273     0.1455    91.0089     7.8475     6.5908     6.3552     0.1025
  367.0000     8.2080     0.2843     0.0086     2.4213     0.1477    93.6647     7.3225     6.3207     6.3497    -0.8024
  367.5000     8.2064     0.2939     0.0085     2.4214     0.1539    93.6008     6.6983     6.2264     6.4649    -1.4127
  368.0000     8.2047     0.3027     0.0083     2.4241     0.1567    91.7830     6.4299     6.1401     6.6034    -1.4320
