~VERSION INFORMATION
 VERS.                2.0:   CWLS LOG ASCII STANDARD - VERSION 2.0
 WRAP.                 NO:   ONE LINE PER DEPTH STEP
~WELL INFORMATION
#MNEM.UNIT      DATA TYPE    INFORMATION
#----------   ------------   ------------------------------
 STRT.F           90.0000:   START DEPTH
 STOP.F         1032.5000:   STOP DEPTH
 STEP.F            0.5000:   STEP LENGTH
 NULL.          -999.2500:   NO VALUE
 COMP. U S NAVY/INTEX OIL CO:   COMPANY
 WELL. NAVAL PETROLEUM RESERVE 3  #62-S-14:   WELL
 FLD .        TEAPOT DOME:   FIELD
 LOC .      S14 T38N R78W:   LOCATION
 CNTY.            NATRONA:   COUNTY
 STAT.            WYOMING:   STATE
 CTRY. UNITED STATES OF AMERICA:   COUNTRY
 SRVC.       Schlumberger:   SERVICE COMPANY
 DATE.        04-JUL-1962:   LOGDATE
 API .       490250631700:   API NUMBER
~CURVE INFORMATION
#MNEM.UNIT       API CODE    CURVE DESCRIPTION
#----------   ------------   ------------------------------
 DEPT.F                  :   
 GR  .GAPI   30 310 01 00:   GAMMA RAY
 CALM.IN     15 280 01 00:   CALIPER FROM MICRO LOG
 SPR .MV     06 010 01 00:   SPONTANEOUS POTENTIAL FROM RES.
 ASN .OHMM   06 041 16 00:   AMPLIFIED SHORT NORMAL 16"
 ILD .OHMM   06 120 46 00:   INDUCTION LOG DEEP
 CILD.MMHO   06 110 46 00:   CONDUCTIVITY INDUCTION LOG DEEP
~PARAMETER INFORMATION
#MNEM.UNIT          VALUE    DESCRIPTION
#----------   ------------   ------------------------------
 PD  .                 GL:   PERMANENT DATUM
 EPD .F              5246:   ELEVATION PERMANENT DATUM
 LMF .                 KB:   LOG MEASURED FROM
 DAPD.F                 5:   FEET ABOVE PERMANENT DATUM
 DMF .                 KB:   DRILLING MEASURED FROM
 EKB .F              5251:   KELLING BUSHING
 EGL .F              5246:   GROUND LEVEL
 DATE.             7-4-62:   RUN DATE
 RUN .                  1:   RUN NUMBER
 DD  .F              1036:   DEPTH DRILLER
 DL  .F              1033:   DEPTH LOGGER
 BLI .F              1032:   BOTTOM LOG INTERVAL
 TLI .F                90:   TOP LOG INTERVAL
 CBD .F                10:   CASING BOTTOM DRILLER
 BS  .IN             6.75:   BIT SIZE
 BSD .F              1036:   BIT SIZE AT DEPTH
 DFT .                GEL:   DRILLING FLUID TYPE
 DFD .               10.2:   DRILLING FLUID DENSITY
 DFV .                 48:   DRILLING FLUID VISCOSITY
 DFL .                4.8:   DRILLING FLUID LOSS
 MSS .          FLOW LINE:   MUD SAMPLE SOURCE
 RMS .OHMM            5.6:   RESISTIVITY MUD SAMPLE
 MST .F                70:   MUD SAMPLE TEMPERATURE
 RMF .OHMM           5.57:   RESISTIVITY MUD FILTRATE SAMPLE
 MFST.F                70:   MUD FILTRATE SAMPLE TEMPERATURE
 RMC .OHMM           5.32:   RESISTIVITY MUD CAKE
 MCST.F                70:   MUD CAKE SAMPLE TEMPERATURE
 MFSS.                  M:   MUD FILTRATE SAMPLE SOURCE
 MCSS.                  M:   MUD CAKE SAMPLE SOURCE
 RMB .OHMM            4.3:   RESISTIVITY MUD AT BHT
 BHT .F                90:   BOTTOM HOLE TEMPERATURE
 TCS .HRS               1:   TIME CURCULATED STOPPED
 MRT .F                90:   MAXIMUM RECORDED TEMPERATURE
 LUN .               2503:   LOGGING UNIT NUMBER
 LUL .               CSPR:   LOGGING UNIT LOCATION
 ENGI.             KNOBEL:   RECORDING ENGINEER
 WITN.          JORGENSEN:   WITNESSED BY
 CLNT.            A2DTECH:   CLIENT CODE
 ORIG.   1", 2", 5" PRINT:   ORIGIN OF DATA
 UWI .       490250631700:   UNIQUE WELL ID
 DICO. A2D Technologies, Inc.:   DIGITIZING COMPANY
~OTHER INFORMATION
~A   DEPT       GR       CALM        SPR          ASN        ILD      CILD  
# ...
  558.0000  -999.2500  -999.2500   -46.9331     6.6712     6.5458   163.1445
  558.5000  -999.2500  -999.2500   -47.1473     6.7222     6.4791   163.5811
  559.0000  -999.2500  -999.2500   -47.1580     6.7166     6.4059   164.0176
  559.5000  -999.2500  -999.2500   -47.0920     6.7118     6.3288   164.4541
  560.0000  -999.2500  -999.2500   -47.0243     6.7067     6.2626   164.8907
  560.5000  -999.2500  -999.2500   -47.0184     6.6960     6.2790   165.3272
  561.0000  -999.2500  -999.2500   -47.1939     6.6736     6.2941   165.7637
  561.5000  -999.2500  -999.2500   -47.3702     6.6360     6.3089   166.2064
  562.0000  -999.2500  -999.2500   -47.5460     6.5856     6.3236   166.6342
  562.5000  -999.2500  -999.2500   -47.7217     6.5337     6.3383   165.5179
  563.0000  -999.2500  -999.2500   -47.8975     6.5053     6.3538   163.0878
  563.5000  -999.2500  -999.2500   -48.0739     6.5821     6.4167   160.6655
  564.0000  -999.2500  -999.2500   -48.2492     6.7221     6.5750   158.2440
  564.5000  -999.2500  -999.2500   -48.3788     6.8906     6.7319   155.8236
  565.0000  -999.2500  -999.2500   -48.2257     7.0594     6.8888   153.4032
  565.5000  -999.2500  -999.2500   -48.0759     7.1613     7.0459   150.9829
  566.0000  -999.2500  -999.2500   -47.9271     7.2629     7.2039   148.5625
  566.5000  -999.2500  -999.2500   -47.7779     7.3324     7.3578   146.1421
  567.0000  -999.2500  -999.2500   -47.6239     7.3895     7.3209   143.7217
  567.5000  -999.2500  -999.2500   -47.6597     7.4192     7.2732   141.3013
  568.0000  -999.2500  -999.2500   -47.7426     7.5020     7.2262   140.1344
  568.5000  -999.2500  -999.2500   -47.8270     7.5049     7.1795   142.2015
  569.0000  -999.2500  -999.2500   -47.9119     7.4735     7.1328   144.2685
  569.5000  -999.2500  -999.2500   -47.9896     7.3976     7.0862   146.3356
  570.0000  -999.2500  -999.2500   -47.8571     7.3110     7.0395   148.4027
  570.5000  -999.2500  -999.2500   -47.7126     7.2242     6.9925   150.4698
  571.0000  -999.2500  -999.2500   -47.5689     7.1375     6.9293   152.5368
  571.5000  -999.2500  -999.2500   -47.4254     7.0459     6.8377   154.0739
  572.0000  -999.2500  -999.2500   -47.2818     6.9324     6.7461   155.5082
  572.5000  -999.2500  -999.2500   -47.1374     6.9059     6.6537   156.9425
  573.0000  -999.2500  -999.2500   -46.9997     6.9408     6.5697   158.3768
  573.5000  -999.2500  -999.2500   -47.0343     6.9780     6.6958   159.8196
  574.0000  -999.2500  -999.2500   -47.0771     6.9442     6.8321   156.4930
  574.5000  -999.2500  -999.2500   -47.1191     6.9168     6.9675   153.1463
  575.0000  -999.2500  -999.2500   -47.1610     6.9813     7.1027   149.7996
  575.5000  -999.2500  -999.2500   -47.2028     7.1409     7.2378   146.4529
  576.0000  -999.2500  -999.2500   -47.2447     7.3360     7.3730   143.1062
  576.5000  -999.2500  -999.2500   -47.2865     7.5322     7.5081   139.7595
  577.0000  -999.2500  -999.2500   -47.3283     7.7282     7.6434   136.4128
  577.5000  -999.2500  -999.2500   -47.3702     7.9009     7.7782   133.0661
  578.0000  -999.2500  -999.2500   -47.4120     8.0676     7.9154   129.7194
  578.5000  -999.2500  -999.2500   -47.4538     8.1811     7.9053   122.1070
  579.0000  -999.2500  -999.2500   -47.4959     8.2065     7.8104   130.1744
  579.5000  -999.2500  -999.2500   -47.5376     8.1617     7.7139   132.0745
  580.0000  -999.2500  -999.2500   -47.5776     8.0225     7.6172   135.2505
  580.5000  -999.2500  -999.2500   -47.4698     7.8723     7.5199   139.2665
  581.0000  -999.2500  -999.2500   -47.1667     7.7105     7.3945   143.2826
  581.5000  -999.2500  -999.2500   -46.8661     7.4976     7.2266   147.2986
  582.0000  -999.2500  -999.2500   -46.5644     7.2834     7.0594   151.3146
  582.5000  -999.2500  -999.2500   -46.2633     7.1043     6.8921   153.9196
  583.0000  -999.2500  -999.2500   -45.9653     7.0280     6.7235   155.6914
  583.5000  -999.2500  -999.2500   -45.8944     6.9772     6.6349   157.4632
  584.0000  -999.2500  -999.2500   -46.1410     6.9632     6.5898   158.3036
  584.5000  -999.2500  -999.2500   -46.3835     6.9986     6.6160   156.1209
  585.0000  -999.2500  -999.2500   -46.6272     7.0315     6.7400   153.9383
  585.5000  -999.2500  -999.2500   -46.8707     7.0737     6.8627   151.7557
  586.0000  -999.2500  -999.2500   -47.1157     7.2050     6.9857   149.5731
  586.5000  -999.2500  -999.2500   -47.3653     7.3486     7.1086   147.3904
  587.0000  -999.2500  -999.2500   -47.1831     7.4834     7.2316   145.2076
  587.5000  -999.2500  -999.2500   -46.9326     7.5108     7.3545   143.0252
  588.0000  -999.2500  -999.2500   -46.6803     7.5344     7.4775   140.8425
  588.5000  -999.2500  -999.2500   -46.4282     7.5584     7.6004   138.7776
  589.0000  -999.2500  -999.2500   -46.1792     7.5822     7.7246   137.8958
  589.5000  -999.2500  -999.2500   -46.0438     7.6058     7.7650   137.0591
  590.0000  -999.2500  -999.2500   -46.3069     7.6509     7.7657   136.2224
  590.5000  -999.2500  -999.2500   -46.5586     7.7934     7.7656   135.3858
  591.0000  -999.2500  -999.2500   -46.8096     7.9276     7.7656   134.5491
  591.5000  -999.2500  -999.2500   -47.0608     8.0063     7.7659   133.7124
  592.0000  -999.2500  -999.2500   -47.3128     8.0371     7.7635   132.8757
  592.5000  -999.2500  -999.2500   -47.5648     8.0494     7.7204   132.0391
  593.0000  -999.2500  -999.2500   -47.5445     8.0545     7.6776   132.2702
  593.5000  -999.2500  -999.2500   -47.4854     8.0595     7.6350   133.3460
  594.0000  -999.2500  -999.2500   -47.4257     8.0654     7.5925   134.4217
  594.5000  -999.2500  -999.2500   -47.3666     8.0190     7.5499   135.4704
  595.0000  -999.2500  -999.2500   -47.3072     7.9140     7.5074   136.9397
  595.5000  -999.2500  -999.2500   -47.2471     7.7709     7.4648   138.4090
  596.0000  -999.2500  -999.2500   -47.2028     7.6408     7.4223   139.8783
  596.5000  -999.2500  -999.2500   -47.3628     7.5475     7.3797   141.3476
  597.0000  -999.2500  -999.2500   -47.5211     7.5747     7.3371   142.8173
  597.5000  -999.2500  -999.2500   -47.6782     7.6031     7.2948   144.2881
  598.0000  -999.2500  -999.2500   -47.8352     7.6306     7.2675   145.7600
  598.5000  -999.2500  -999.2500   -47.9914     7.6170     7.2829   146.7936
  599.0000  -999.2500  -999.2500   -48.1557     7.5639     7.2973   146.4811
  599.5000  -999.2500  -999.2500   -47.9424     7.5409     7.3116   145.4232
  600.0000  -999.2500  -999.2500   -47.5892     7.5375     7.3259   144.3652
  600.5000  -999.2500  -999.2500   -47.2313     7.5896     7.3400   143.3073
  601.0000  -999.2500  -999.2500   -47.3037     7.6449     7.3538   142.2494
  601.5000  -999.2500  -999.2500   -47.4283     7.7013     7.3684   141.1906
  602.0000  -999.2500  -999.2500   -47.5539     7.7573     7.4405   140.1443
  602.5000  -999.2500  -999.2500   -47.6794     7.7940     7.5121   139.1281
  603.0000  -999.2500  -999.2500   -47.7873     7.8282     7.5836   137.7589
  603.5000  -999.2500  -999.2500   -47.6470     7.9000     7.6635   136.3783
  604.0000  -999.2500  -999.2500   -47.5048     7.9758     7.7420   134.9978
  604.5000  -999.2500  -999.2500   -47.4423     8.0523     7.8205   133.6172
  605.0000  -999.2500  -999.2500   -47.7011     8.1138     7.8990   132.2367
  605.5000  -999.2500  -999.2500   -47.8385     8.2280     7.9774   130.8562
  606.0000  -999.2500  -999.2500   -47.9109     8.3471     8.0557   129.4756
  606.5000  -999.2500  -999.2500   -47.9845     8.4406     8.1357   128.0951
  607.0000  -999.2500  -999.2500   -47.9383     8.5071     8.2173   126.7145
  607.5000  -999.2500  -999.2500   -47.8642     8.6288     8.3531   125.3340
  608.0000  -999.2500  -999.2500   -47.8432     8.8323     8.4870   123.1352
  608.5000  -999.2500  -999.2500   -48.2039     9.0032     8.6211   118.8888
  609.0000  -999.2500  -999.2500   -48.4891     9.1901     8.7552   114.6623
  609.5000  -999.2500  -999.2500   -48.7672     9.4510     8.8893   112.0716
