~VERSION INFORMATION
 VERS.                2.0:   CWLS LOG ASCII STANDARD - VERSION 2.0
 WRAP.                 NO:   ONE LINE PER DEPTH STEP
~WELL INFORMATION
#MNEM.UNIT      DATA TYPE    INFORMATION
#----------   ------------   ------------------------------
 STRT.F         1208.5000:   START DEPTH
 STOP.F         3816.0000:   STOP DEPTH
 STEP.F            0.5000:   STEP LENGTH
 NULL.          -999.2500:   NO VALUE
 COMP. BROWN JOHN E&C INC:   COMPANY
 WELL. NPR 3 STX-11 #13-11:   WELL
 FLD .             TEAPOT:   FIELD
 LOC .      S11 T38N R78W:   LOCATION
 CNTY.            NATRONA:   COUNTY
 STAT.            WYOMING:   STATE
 CTRY. UNITED STATES OF AMERICA:   COUNTRY
 SRVC.            Unknown:   SERVICE COMPANY
 DATE.        08-APR-1986:   LOGDATE
 API .       490251105000:   API NUMBER
~CURVE INFORMATION
#MNEM.UNIT       API CODE    CURVE DESCRIPTION
#----------   ------------   ------------------------------
 DEPT.F                  :   
 ROP .MIN/FT 91 810 01 00:   RATE OF DRILLING PENETRATION
 TGAS.UNITS  91 830 01 00:   TOTAL GAS FROM HOTWIRE
 GR  .GAPI   81 310 01 00:   GAMMA RAY
 TT  .US/F   81 520 00 00:   TRANSIT TIME
~PARAMETER INFORMATION
#MNEM.UNIT          VALUE    DESCRIPTION
#----------   ------------   ------------------------------
 PD  .                 GL:   PERMANENT DATUM
 EPD .F              5176:   ELEVATION PERMANENT DATUM
 LMF .                 KB:   LOG MEASURED FROM
 DAPD.F              11.8:   FEET ABOVE PERMANENT DATUM
 DMF .                 KB:   DRILLING MEASURED FROM
 EKB .F            5187.8:   KELLING BUSHING
 EGL .F              5176:   GROUND LEVEL
 DATE.             4-8-86:   RUN DATE
 RUN .                  1:   RUN NUMBER
 DD  .F              4051:   DEPTH DRILLER
 DL  .F              3815:   DEPTH LOGGER
 BLI .F              3815:   BOTTOM LOG INTERVAL
 TLI .F              2200:   TOP LOG INTERVAL
 CS  .IN              5.5:   CASING SIZE
 CBD .F              3861:   CASING BOTTOM DRILLER
 DFT .              WATER:   DRILLING FLUID TYPE
 BHT .F               167:   BOTTOM HOLE TEMPERATURE
 MRT .F               167:   MAXIMUM RECORDED TEMPERATURE
 LUN .            558/374:   LOGGING UNIT NUMBER
 LUL .             CASPER:   LOGGING UNIT LOCATION
 ENGI.             BAILEY:   RECORDING ENGINEER
 WITN.             BARRON:   WITNESSED BY
 CLNT.            A2DTECH:   CLIENT CODE
 ORIG.     2.5", 5" PRINT:   ORIGIN OF DATA
 UWI .       490251105000:   UNIQUE WELL ID
 DICO. A2D Technologies, Inc.:   DIGITIZING COMPANY
~OTHER INFORMATION
~A  DEPT         ROP     TGAS         GR         TT   
# ...
 2303.5000  -999.2500  -999.2500    56.2298   268.8462
 2304.0000  -999.2500  -999.2500    52.7275   268.8608
 2304.5000  -999.2500  -999.2500    51.0231   269.4853
 2305.0000  -999.2500  -999.2500    49.9849   269.4998
 2305.5000  -999.2500  -999.2500    50.5149   269.5144
 2306.0000  -999.2500  -999.2500    52.6851   269.5898
 2306.5000  -999.2500  -999.2500    54.6403   269.9238
 2307.0000  -999.2500  -999.2500    56.6822   270.4108
 2307.5000  -999.2500  -999.2500    57.9021   274.3093
 2308.0000  -999.2500  -999.2500    58.2537   280.4550
 2308.5000  -999.2500  -999.2500    57.5134   281.1376
 2309.0000  -999.2500  -999.2500    54.3409   279.4843
 2309.5000  -999.2500  -999.2500    49.5857   279.1058
 2310.0000  -999.2500  -999.2500    47.5546   280.0916
 2310.5000  -999.2500  -999.2500    48.0761   281.3202
 2311.0000  -999.2500  -999.2500    49.2338   281.4560
 2311.5000  -999.2500  -999.2500    48.8834   277.1337
 2312.0000  -999.2500  -999.2500    48.2506   273.5979
 2312.5000  -999.2500  -999.2500    48.4400   271.6093
 2313.0000  -999.2500  -999.2500    48.9134   271.0166
 2313.5000  -999.2500  -999.2500    49.0457   270.9704
 2314.0000  -999.2500  -999.2500    46.7691   270.7422
 2314.5000  -999.2500  -999.2500    44.6033   270.6990
 2315.0000  -999.2500  -999.2500    44.0335   270.4101
 2315.5000  -999.2500  -999.2500    44.5172   270.4247
 2316.0000  -999.2500  -999.2500    46.1341   270.4392
 2316.5000  -999.2500  -999.2500    47.2810   270.7580
 2317.0000  -999.2500  -999.2500    47.3577   270.5471
 2317.5000  -999.2500  -999.2500    47.1829   270.4865
 2318.0000  -999.2500  -999.2500    46.3981   270.5011
 2318.5000  -999.2500  -999.2500    45.3738   270.7583
 2319.0000  -999.2500  -999.2500    45.0502   270.5909
 2319.5000  -999.2500  -999.2500    45.7295   270.5476
 2320.0000  -999.2500  -999.2500    48.2332   270.2587
 2320.5000  -999.2500  -999.2500    52.6414   270.2733
 2321.0000  -999.2500  -999.2500    55.0709   270.2878
 2321.5000  -999.2500  -999.2500    59.1747   270.3024
 2322.0000  -999.2500  -999.2500    60.3866   270.3198
 2322.5000  -999.2500  -999.2500    60.0621   270.3344
 2323.0000  -999.2500  -999.2500    59.7076   270.3489
 2323.5000  -999.2500  -999.2500    59.0847   270.3635
 2324.0000  -999.2500  -999.2500    58.6880   270.3788
 2324.5000  -999.2500  -999.2500    58.7557   270.3955
 2325.0000  -999.2500  -999.2500    59.4683   270.4101
 2325.5000  -999.2500  -999.2500    61.8410   270.4247
 2326.0000  -999.2500  -999.2500    67.5847   270.5606
 2326.5000  -999.2500  -999.2500    73.0986   270.6069
 2327.0000  -999.2500  -999.2500    73.1147   270.4713
 2327.5000  -999.2500  -999.2500    72.2167   270.4858
 2328.0000  -999.2500  -999.2500    70.0591   270.5004
 2328.5000  -999.2500  -999.2500    67.7253   270.5149
 2329.0000  -999.2500  -999.2500    65.9554   270.5316
 2329.5000  -999.2500  -999.2500    64.5762   270.5469
 2330.0000  -999.2500  -999.2500    65.7965   270.5615
 2330.5000  -999.2500  -999.2500    69.4146   270.5760
 2331.0000  -999.2500  -999.2500    72.1485   270.8333
 2331.5000  -999.2500  -999.2500    74.4258   271.5185
 2332.0000  -999.2500  -999.2500    77.1597   271.5331
 2332.5000  -999.2500  -999.2500    80.1123   271.8511
 2333.0000  -999.2500  -999.2500    82.4658   271.8657
 2333.5000  -999.2500  -999.2500    84.1625   272.1837
 2334.0000  -999.2500  -999.2500    84.2902   272.2011
 2334.5000  -999.2500  -999.2500    84.0277   272.2157
 2335.0000  -999.2500  -999.2500    82.4545   272.2303
 2335.5000  -999.2500  -999.2500    77.2769   272.1841
 2336.0000  -999.2500  -999.2500    71.5075   272.0326
 2336.5000  -999.2500  -999.2500    67.3194   272.2769
 2337.0000  -999.2500  -999.2500    66.0253   272.2914
 2337.5000  -999.2500  -999.2500    66.8221   272.3059
 2338.0000  -999.2500  -999.2500    66.3682   272.3220
 2338.5000  -999.2500  -999.2500    65.4039   272.3380
 2339.0000  -999.2500  -999.2500    64.1344   272.3526
 2339.5000  -999.2500  -999.2500    62.5818   272.3671
 2340.0000  -999.2500  -999.2500    61.4458   272.1995
 2340.5000  -999.2500  -999.2500    60.9213   272.0949
 2341.0000  -999.2500  -999.2500    60.4589   272.1102
 2341.5000  -999.2500  -999.2500    58.4744   271.8820
 2342.0000  -999.2500  -999.2500    53.4458   271.3504
 2342.5000  -999.2500  -999.2500    53.5922   271.2434
 2343.0000  -999.2500  -999.2500    53.5864   270.9574
 2343.5000  -999.2500  -999.2500    53.7328   270.9720
 2344.0000  -999.2500  -999.2500    53.7990   270.9865
 2344.5000  -999.2500  -999.2500    54.3039   271.0011
 2345.0000  -999.2500  -999.2500    55.8425   271.0156
 2345.5000  -999.2500  -999.2500    60.3355   271.0331
 2346.0000  -999.2500  -999.2500    64.5186   271.0476
 2346.5000  -999.2500  -999.2500    66.3618   271.0014
 2347.0000  -999.2500  -999.2500    66.4886   270.7732
 2347.5000  -999.2500  -999.2500    65.0890   270.7885
 2348.0000  -999.2500  -999.2500    62.8646   270.9266
 2348.5000  -999.2500  -999.2500    61.6758   271.3660
 2349.0000  -999.2500  -999.2500    61.1301   272.1089
 2349.5000  -999.2500  -999.2500    60.8583   273.5194
 2350.0000  -999.2500  -999.2500    60.5784   275.4173
 2350.5000  -999.2500  -999.2500    60.6472   276.9510
 2351.0000  -999.2500  -999.2500    61.4025   278.3008
 2351.5000  -999.2500  -999.2500    63.9842   279.1651
 2352.0000  -999.2500  -999.2500    66.2615   278.8760
 2352.5000  -999.2500  -999.2500    65.4947   277.3907
 2353.0000  -999.2500  -999.2500    63.7388   275.3273
 2353.5000  -999.2500  -999.2500    61.9761   273.7029
 2354.0000  -999.2500  -999.2500    60.2134   271.9572
 2354.5000  -999.2500  -999.2500    58.3627   270.8791
 2355.0000  -999.2500  -999.2500    56.1210   270.7143
 2355.5000  -999.2500  -999.2500    54.0121   270.7289
 2356.0000  -999.2500  -999.2500    52.5600   270.7434
 2356.5000  -999.2500  -999.2500    52.1110   270.7580
 2357.0000  -999.2500  -999.2500    54.1325   270.7725
 2357.5000  -999.2500  -999.2500    58.3855   271.0935
 2358.0000  -999.2500  -999.2500    63.1101   271.1080
 2358.5000  -999.2500  -999.2500    68.6041   271.1833
 2359.0000  -999.2500  -999.2500    71.2258   271.4406
 2359.5000  -999.2500  -999.2500    70.3527   271.4560
 2360.0000  -999.2500  -999.2500    67.4741   272.0180
 2360.5000  -999.2500  -999.2500    64.2323   272.0296
 2361.0000  -999.2500  -999.2500    61.8894   272.0417
 2361.5000  -999.2500  -999.2500    64.9278   272.0551
 2362.0000  -999.2500  -999.2500    67.2051   272.0667
 2362.5000  -999.2500  -999.2500    67.3515   272.0782
 2363.0000  -999.2500  -999.2500    67.1461   272.2427
 2363.5000  -999.2500  -999.2500    65.4658   272.4072
 2364.0000  -999.2500  -999.2500    64.8988   272.4188
 2364.5000  -999.2500  -999.2500    65.8402   272.4304
 2365.0000  -999.2500  -999.2500    66.9177   272.4437
 2365.5000  -999.2500  -999.2500    67.8698   272.4559
 2366.0000  -999.2500  -999.2500    68.3200   272.4674
 2366.5000  -999.2500  -999.2500    68.2347   272.4790
 2367.0000  -999.2500  -999.2500    67.2402   272.2478
 2367.5000  -999.2500  -999.2500    64.2902   272.2010
 2368.0000  -999.2500  -999.2500    60.7657   272.2126
 2368.5000  -999.2500  -999.2500    57.7336   272.2242
 2369.0000  -999.2500  -999.2500    57.5289   271.9322
 2369.5000  -999.2500  -999.2500    61.7352   271.6426
 2370.0000  -999.2500  -999.2500    69.2085   271.5934
 2370.5000  -999.2500  -999.2500    72.2774   271.3623
 2371.0000  -999.2500  -999.2500    72.6410   271.3745
 2371.5000  -999.2500  -999.2500    72.5061   271.0237
 2372.0000  -999.2500  -999.2500    71.8729   270.0034
 2372.5000  -999.2500  -999.2500    67.1892   268.6797
 2373.0000  -999.2500  -999.2500    64.8293   267.0524
 2373.5000  -999.2500  -999.2500    64.3161   265.8207
 2374.0000  -999.2500  -999.2500    63.8565   267.5029
 2374.5000  -999.2500  -999.2500    63.8536   269.2746
 2375.0000  -999.2500  -999.2500    64.0029   269.8323
 2375.5000  -999.2500  -999.2500    64.6113   269.9670
 2376.0000  -999.2500  -999.2500    65.2148   269.9792
