~VERSION INFORMATION
 VERS.                2.0:   CWLS LOG ASCII STANDARD - VERSION 2.0
 WRAP.                 NO:   ONE LINE PER DEPTH STEP
~WELL INFORMATION
#MNEM.UNIT      DATA TYPE    INFORMATION
#----------   ------------   ------------------------------
 STRT.F           14.0000:   START DEPTH
 STOP.F          432.0000:   STOP DEPTH
 STEP.F            0.5000:   STEP LENGTH
 NULL.          -999.2500:   NO VALUE
 COMP.    FENIX & SCISSON:   COMPANY
 WELL.   NPR-3 #63SX10-10:   WELL
 FLD .             TEAPOT:   FIELD
 LOC .      S10 T38N R78W:   LOCATION
 CNTY.            NATRONA:   COUNTY
 STAT.            WYOMING:   STATE
 CTRY. UNITED STATES OF AMERICA:   COUNTRY
 SRVC.           BIRDWELL:   SERVICE COMPANY
 DATE.        10-FEB-1978:   LOGDATE
 API .       490251066800:   API NUMBER
~CURVE INFORMATION
#MNEM.UNIT       API CODE    CURVE DESCRIPTION
#----------   ------------   ------------------------------
 DEPT.F                  :   
 CALD.IN     45 280 60 00:   CALIPER FROM DENSITY LOG
 CORR.G/C3   45 356 01 00:   DENSITY CORRECTION
 DPHI.DEC    45 890 12 00:   DENSITY POROSITY SANDSTONE
 GRD .GAPI   45 310 01 00:   GAMMA RAY FROM DENSITY LOG
 RHOB.G/C3   45 350 01 00:   BULK DENSITY
 ILD .OHMM   05 120 46 00:   INDUCTION LOG DEEP
 SN  .OHMM   05 040 16 00:   SHORT NORMAL 16"
 SPR .MV     05 010 01 00:   SPONTANEOUS POTENTIAL FROM RES.
~PARAMETER INFORMATION
#MNEM.UNIT          VALUE    DESCRIPTION
#----------   ------------   ------------------------------
 PD  .                 GL:   PERMANENT DATUM
 EPD .F              5186:   ELEVATION PERMANENT DATUM
 LMF .                 KB:   LOG MEASURED FROM
 DAPD.F                 4:   FEET ABOVE PERMANENT DATUM
 DMF .                 KB:   DRILLING MEASURED FROM
 EKB .F              5190:   KELLING BUSHING
 EGL .F              5186:   GROUND LEVEL
 DATE.        10-FEB-1978:   RUN DATE
 RUN .                  1:   RUN NUMBER
 DD  .F               429:   DEPTH DRILLER
 DL  .F               432:   DEPTH LOGGER
 BLI .F               424:   BOTTOM LOG INTERVAL
 TLI .F                20:   TOP LOG INTERVAL
 CS  .IN            8.625:   CASING SIZE
 CBD .F                29:   CASING BOTTOM DRILLER
 CBL .F                29:   CASING BOTTOM LOGGER
 BS  .IN            7.875:   BIT SIZE
 BSD .F               429:   BIT SIZE AT DEPTH
 DFT .    LIGNO SULF/FULL:   DRILLING FLUID TYPE
 DFD .                8.6:   DRILLING FLUID DENSITY
 DFV .                 34:   DRILLING FLUID VISCOSITY
 DFPH.                9.8:   DRILLING FLUID PH
 DFL .                5.6:   DRILLING FLUID LOSS
 MSS .           FLOWLINE:   MUD SAMPLE SOURCE
 RMS .OHMM            1.2:   RESISTIVITY MUD SAMPLE
 MST .F                62:   MUD SAMPLE TEMPERATURE
 RMF .OHMM            1.4:   RESISTIVITY MUD FILTRATE SAMPLE
 MFST.F                62:   MUD FILTRATE SAMPLE TEMPERATURE
 RMC .OHMM            1.0:   RESISTIVITY MUD CAKE
 MCST.F                62:   MUD CAKE SAMPLE TEMPERATURE
 MFSS.               MEAS:   MUD FILTRATE SAMPLE SOURCE
 RMB .OHMM            1.2:   RESISTIVITY MUD AT BHT
 BHT .F                62:   BOTTOM HOLE TEMPERATURE
 TCS .HRS               4:   TIME CURCULATED STOPPED
 MRT .F                62:   MAXIMUM RECORDED TEMPERATURE
 LUN .               2958:   LOGGING UNIT NUMBER
 LUL .                CAS:   LOGGING UNIT LOCATION
 ENGI.            POINTER:   RECORDING ENGINEER
 WITN.          MC GINLEY:   WITNESSED BY
 CLNT.            A2DTECH:   CLIENT CODE
 ORIG.           5" PRINT:   ORIGIN OF DATA
 UWI .       490251066800:   UNIQUE WELL ID
 DICO. A2D Technologies, Inc.:   DIGITIZING COMPANY
~OTHER INFORMATION
~A   DEPT     CALD       CORR       DPHI         GRD      RHOB        ILD         SN        SPR   
# ...
  257.0000     7.7922     0.1075     0.2080    58.0821     2.3657    28.3936    29.5971   -37.3845
  257.5000     7.7776     0.1137     0.2089    58.6916     2.3299    28.3955    29.8046   -37.5339
  258.0000     7.7783     0.1256     0.1965    57.5966     2.3036    28.5945    29.8070   -38.1355
  258.5000     7.7788     0.1136     0.1986    54.3139     2.3262    28.5964    29.8089   -38.1341
  259.0000     7.7642     0.1092     0.1959    51.7463     2.3246    28.7973    30.0179   -38.1326
  259.5000     7.7800     0.1077     0.1818    51.9019     2.3224    28.6001    30.0199   -38.1312
  260.0000     7.7805     0.1063     0.1832    52.5113     2.3442    28.6025    30.4407   -38.1295
  260.5000     7.7962     0.0959     0.1908    52.5167     2.3502    28.6043    31.0812   -38.2792
  261.0000     7.8118     0.0884     0.1904    52.6723     2.3382    28.8053    31.7353   -38.4286
  261.5000     7.8427     0.0840     0.1889    52.3740     2.3360    30.0284    32.4218   -38.5777
  262.0000     7.8583     0.0825     0.1950    50.1090     2.3368    31.3034    33.3152   -38.8776
  262.5000     7.8588     0.0841     0.2006    47.9960     2.3331    32.6326    34.0163   -39.3287
  263.0000     7.8744     0.0917     0.2054    46.4874     2.3219    34.0188    34.4926   -39.6289
  263.5000     7.8750     0.1067     0.2087    45.2814     2.3039    34.4951    35.2184   -39.7783
  264.0000     7.8756     0.1398     0.1816    44.6806     2.3257    34.2589    35.2213   -39.7766
  264.5000     7.8609     0.1444     0.1870    46.0475     2.3497    34.0254    35.2235   -39.9260
  265.0000     7.8463     0.1459     0.1894    49.6827     2.3482    33.7930    35.2258   -39.9245
  265.5000     7.8311     0.1520     0.1925    53.4687     2.3370    33.3307    35.2080   -39.9228
  266.0000     7.8022     0.1641     0.1948    51.9612     2.3325    33.1031    34.7468   -39.9214
  266.5000     7.8028     0.1536     0.1981    50.7552     2.3273    32.8774    34.2709   -39.7691
  267.0000     7.7881     0.1417     0.2149    50.1543     2.3169    32.4275    34.0368   -39.3152
  267.5000     7.7888     0.1222     0.2309    49.8561     2.2906    33.1104    33.3402   -39.1626
  268.0000     7.7894     0.1028     0.2391    50.1640     2.2531    34.5164    32.8846   -39.0104
  268.5000     7.7900     0.1073     0.2400    50.9247     2.2599    35.7344    32.6594   -39.0090
  269.0000     7.8056     0.1089     0.2139    52.7445     2.2809    35.7367    32.6621   -39.1584
  269.5000     7.8061     0.1029     0.2002    53.9743     2.3298    35.7391    32.6643   -39.4583
  270.0000     7.8389     0.0910     0.1635    53.9633     2.3485    35.0071    32.6669   -39.7589
  270.5000     7.8526     0.0941     0.1589    53.9687     2.3546    34.5288    32.4432   -40.0588
  271.0000     7.8077     0.0911     0.1586    53.9730     2.3678    34.0564    31.9999   -40.3590
  271.5000     7.7933     0.0837     0.1697    53.9823     2.3846    33.5905    31.5440   -40.6589
  272.0000     7.7938     0.0837     0.1862    55.6468     2.3532    32.9025    30.7025   -40.9595
  272.5000     7.8094     0.0943     0.1883    55.8024     2.3389    32.1991    29.8662   -41.1089
  273.0000     7.8554     0.1019     0.1865    54.7476     2.3405    31.1351    29.0528   -41.4088
  273.5000     7.8860     0.1019     0.1754    53.3904     2.3435    30.4969    28.2620   -41.5582
  274.0000     7.7356     0.0960     0.1552    52.9408     2.3533    30.0802    27.6835   -41.4056
  274.5000     7.6908     0.0750     0.1504    53.8539     2.3706    29.6497    27.1165   -40.9517
  275.0000     7.6913     0.0586     0.1564    55.8249     2.3691    28.8611    26.1961   -40.1958
  275.5000     7.7222     0.0616     0.1597    56.8882     2.3526    28.0746    25.8229   -39.7419
  276.0000     7.7529     0.0692     0.1595    57.3666     2.3496    27.3100    25.3085   -39.1371
  276.5000     7.7081     0.0678     0.1528    57.9568     2.3624    26.5568    24.7905   -38.6832
  277.0000     7.6936     0.0648     0.1468    58.8688     2.3880    25.8430    24.4514   -38.0782
  277.5000     7.6942     0.0647     0.1434    59.1746     2.3947    25.1395    23.9506   -37.9259
  278.0000     7.6947     0.0681     0.1425    58.7261     2.3918    24.4548    23.2986   -37.4720
  278.5000     7.7104     0.0770     0.1428    60.0930     2.3903    24.1181    23.1395   -37.4706
  279.0000     7.7411     0.0861     0.1422    62.0640     2.3948    23.7903    22.9810   -37.7705
  279.5000     7.8022     0.0891     0.1410    63.8838     2.4001    23.6278    22.6670   -38.0711
  280.0000     7.8480     0.0877     0.1394    65.4009     2.4009    23.3046    22.6689   -38.5218
  280.5000     7.8787     0.0848     0.1394    65.5575     2.4017    23.7956    22.6703   -38.5299
  281.0000     7.8793     0.0818     0.1403    64.5028     2.4010    23.6327    22.6718   -38.6698
  281.5000     7.9100     0.0849     0.1424    63.5994     2.3969    23.7987    22.6603   -38.5172
  282.0000     7.9258     0.0926     0.1676    62.8473     2.3808    23.8003    22.2089   -38.5158
  282.5000     7.9414     0.1015     0.1658    62.7003     2.3793    23.8022    21.9054   -38.6652
  283.0000     7.9419     0.1076     0.1670    62.8569     2.3786    23.8038    21.9069   -38.8146
  283.5000     7.9273     0.1106     0.1706    64.2228     2.3770    23.8053    21.9210   -38.8128
  284.0000     7.9280     0.1154     0.1709    66.0425     2.3704    23.9722    22.0622   -38.6606
  284.5000     7.9134     0.1198     0.1699    66.9697     2.3682    24.1406    22.2169   -38.8097
  285.0000     7.9139     0.1228     0.1699    67.1112     2.3712    24.1422    22.2183   -38.9594
  285.5000     7.8993     0.1274     0.1678    64.5436     2.3735    24.1438    21.7632   -39.1088
  286.0000     7.9000     0.1289     0.1627    62.5812     2.3803    23.9788    21.7650   -39.1071
  286.5000     7.9005     0.1290     0.1642    62.1316     2.3848    23.8150    21.6160   -38.9545
  287.0000     7.9011     0.1291     0.1645    62.2882     2.3826    23.6527    21.3206   -38.6514
  287.5000     7.9016     0.1291     0.1629    65.0157     2.3788    23.4908    21.0169   -38.4992
  288.0000     7.9021     0.1277     0.1605    65.6251     2.3774    23.1698    20.7413   -38.3449
  288.5000     7.9000     0.1247     0.1608    65.4781     2.3857    22.9883    20.4575   -38.0435
  289.0000     7.8880     0.1233     0.1617    65.9373     2.3857    22.5402    20.3178   -38.0421
  289.5000     7.8887     0.1219     0.1590    66.8493     2.3865    22.3862    20.1793   -37.7390
  290.0000     7.8892     0.1204     0.1566    68.5178     2.3903    22.0803    20.0415   -37.4359
  290.5000     7.8899     0.1205     0.1547    69.2785     2.3955    21.9295    19.9045   -37.2833
  291.0000     7.8904     0.1205     0.1532    69.5853     2.3978    21.7801    19.7686   -36.9802
  291.5000     7.8757     0.1221     0.1526    64.9008     2.3977    21.7815    19.7702   -36.9788
  292.0000     7.8612     0.1222     0.1553    62.9384     2.4009    21.4835    19.7718   -37.1463
  292.5000     7.8315     0.1222     0.1552    63.3965     2.3987    21.3368    19.7731   -37.4281
  293.0000     7.8322     0.1223     0.1538    63.8548     2.3979    21.3385    19.9117   -37.7284
  293.5000     7.8327     0.1238     0.1547    64.4652     2.3972    21.1927    20.0513   -37.8778
  294.0000     7.8332     0.1239     0.1651    66.7388     2.3964    21.1941    20.0529   -38.3289
  294.5000     7.8187     0.1255     0.1714    67.3482     2.3905    21.1955    20.0542   -38.4783
  295.0000     7.8193     0.1285     0.1723    66.8986     2.3748    21.1972    20.1948   -38.6277
  295.5000     7.8046     0.1286     0.1702    66.2978     2.3681    21.3458    20.1961   -38.6259
  296.0000     7.8053     0.1225     0.1687    67.3621     2.3697    21.3472    20.1977   -38.7750
  296.5000     7.7907     0.1092     0.1687    68.4254     2.3719    21.2014    20.0594   -38.7736
  297.0000     7.7761     0.1063     0.1678    68.7323     2.3742    21.2031    19.7853   -38.4705
