~VERSION INFORMATION
 VERS.                2.0:   CWLS LOG ASCII STANDARD - VERSION 2.0
 WRAP.                 NO:   ONE LINE PER DEPTH STEP
~WELL INFORMATION
#MNEM.UNIT      DATA TYPE    INFORMATION
#----------   ------------   ------------------------------
 STRT.F           20.0000:   START DEPTH
 STOP.F          541.0000:   STOP DEPTH
 STEP.F            0.5000:   STEP LENGTH
 NULL.          -999.2500:   NO VALUE
 COMP. LAWRENCE/ALLISON INC:   COMPANY
 WELL.   NPR3 #58-66SHX10:   WELL
 FLD .             TEAPOT:   FIELD
 LOC .      S10 T38N R78W:   LOCATION
 CNTY.            NATRONA:   COUNTY
 STAT.            WYOMING:   STATE
 CTRY. UNITED STATES OF AMERICA:   COUNTRY
 SRVC.           Gearhart:   SERVICE COMPANY
 DATE.        15-JUN-1986:   LOGDATE
 API .       490251108800:   API NUMBER
~CURVE INFORMATION
#MNEM.UNIT       API CODE    CURVE DESCRIPTION
#----------   ------------   ------------------------------
 DEPT.F                  :   
 GRR .GAPI   07 310 01 00:   GAMMA RAY FROM RES. LOG.
 RILD.OHMM   07 120 46 00:   INDUCTION LOG DEEP RESISTIVITY
 RILM.OHMM   07 120 44 00:   INDUCTION LOG MEDIUM
~PARAMETER INFORMATION
#MNEM.UNIT          VALUE    DESCRIPTION
#----------   ------------   ------------------------------
 PD  .                 GL:   PERMANENT DATUM
 EPD .F              5196:   ELEVATION PERMANENT DATUM
 LMF .                 KB:   LOG MEASURED FROM
 DAPD.F                 5:   FEET ABOVE PERMANENT DATUM
 DMF .                 KB:   DRILLING MEASURED FROM
 EKB .F              5201:   KELLING BUSHING
 EGL .F              5196:   GROUND LEVEL
 DATE.          6-15-1986:   RUN DATE
 RUN .                  1:   RUN NUMBER
 DD  .F               554:   DEPTH DRILLER
 DL  .F               550:   DEPTH LOGGER
 BLI .F               549:   BOTTOM LOG INTERVAL
 TLI .F                47:   TOP LOG INTERVAL
 CS  .IN            8.625:   CASING SIZE
 CBD .F                47:   CASING BOTTOM DRILLER
 BS  .IN            7.875:   BIT SIZE
 BSD .F               554:   BIT SIZE AT DEPTH
 DFT .        AIR DRILLED:   DRILLING FLUID TYPE
 TLAB.HRS            0600:   TIME LOGGER AT BOTTOM
 MRT .F                65:   MAXIMUM RECORDED TEMPERATURE
 LUN .               7609:   LOGGING UNIT NUMBER
 LUL .           GILLETTE:   LOGGING UNIT LOCATION
 ENGI.         WEATHERMON:   RECORDING ENGINEER
 WITN.              FIVAS:   WITNESSED BY
 CLNT.            A2DTECH:   CLIENT CODE
 ORIG.       2", 5" PRINT:   ORIGIN OF DATA
 UWI .       490251108800:   UNIQUE WELL ID
 DICO. A2D Technologies, Inc.:   DIGITIZING COMPANY
~OTHER INFORMATION
~A   DEPT       GRR      RILD       RILM   
# ...
  111.0000   124.2523     8.5656     8.7508
  111.5000   122.3438     8.6573     8.8556
  112.0000   122.0812     8.7495     8.9615
  112.5000   121.8113     8.8580     9.0688
  113.0000   121.8802     8.9691     9.1774
  113.5000   122.3393     9.0820     9.2872
  114.0000   124.7407     9.1962     9.3983
  114.5000   127.0661     9.3119     9.5108
  115.0000   128.7919     9.4291     9.6247
  115.5000   127.8503     9.5478     9.7399
  116.0000   124.7189     9.6679     9.8564
  116.5000   121.5929     9.8020     9.9864
  117.0000   119.6507     9.7110     9.8938
  117.5000   119.1823     9.7110     9.8938
  118.0000   121.8671     9.6193     9.8097
  118.5000   126.9595     9.5196     9.7181
  119.0000   130.8753     9.4209     9.6274
  119.5000   132.5268     9.3233     9.5375
  120.0000   131.4885     9.2266     9.4485
  120.5000   129.4525     9.1310     9.3603
  121.0000   129.5834     9.0363     9.2729
  121.5000   129.2507     8.9426     9.1836
  122.0000   125.8296     8.8499    10.0775
  122.5000   122.1887     8.7582    11.1160
  123.0000   121.4657     8.6674    12.0620
  123.5000   123.0478     8.5776    12.7601
  124.0000   124.3434     8.4887    13.2089
  124.5000   119.2536     8.4007    11.5617
  125.0000   113.1918     8.3654    10.5020
  125.5000   108.1649     8.4519     9.5395
  126.0000   108.5870     8.4916     8.9835
  126.5000   110.2320     8.5474     8.8467
  127.0000   111.8370     8.6614     8.9682
  127.5000   113.1543     8.7769     9.0693
  128.0000   113.8601     8.8940     9.1716
  128.5000   114.5431     9.0126     9.2750
  129.0000   114.5118     9.1329     9.3796
  129.5000   113.2306     9.2547     9.4853
  130.0000   112.4506     9.3782     9.5923
  130.5000   114.9379     9.5033     9.7005
  131.0000   117.3009     9.6209     9.8030
  131.5000   116.9126     9.5823     9.7634
  132.0000   115.4344     9.5253     9.7046
  132.5000   114.4637     9.4686     9.6468
  133.0000   114.9362     9.4123     9.5894
  133.5000   114.3989     9.3563     9.5323
  134.0000   112.7568     9.3006     9.4756
  134.5000   114.4907     9.2452     9.4192
  135.0000   119.4243     9.1902     9.3632
  135.5000   124.5274     9.1355     9.3075
  136.0000   124.4293     9.0812     9.2521
  136.5000   120.7329     9.0134     9.1828
  137.0000   118.8071     9.0258     9.1957
  137.5000   118.8196     9.0425     9.2127
  138.0000   118.3555     9.0594     9.2299
  138.5000   117.1737     9.0766     9.2474
  139.0000   117.1818     9.0936     9.2648
  139.5000   118.0105     9.1974     9.3705
  140.0000   118.1669     9.3752     9.5516
  140.5000   116.3079     9.5563     9.7362
  141.0000   114.7215     9.7410     9.9243
  141.5000   113.2292     9.9292    10.1161
  142.0000   114.7610    10.1211    10.3116
  142.5000   118.8986    10.3167    10.5108
  143.0000   121.6631    10.5160    10.7139
  143.5000   121.9191    10.7192    10.9209
  144.0000   119.1741    10.9263    11.1320
  144.5000   114.8310    11.1148    11.3259
  145.0000   109.8279    11.3665    11.5803
  145.5000   104.7712    11.6217    11.8404
  146.0000   101.9406    11.8827    12.1063
  146.5000   100.6326    12.1496    12.3782
  147.0000    99.8272    12.4226    12.6562
  147.5000    99.4948    12.7015    12.9405
  148.0000    99.9586    12.9649    13.2089
  148.5000    99.7859    13.0864    13.3327
  149.0000    98.8987    13.0868    13.3327
  149.5000    97.9891    13.0866    13.3329
  150.0000    98.1167    13.0864    13.3327
  150.5000   103.7979    13.0866    13.3329
  151.0000   103.6116    13.0862    13.3329
  151.5000   102.3281    13.0235    13.2689
  152.0000   101.4015    12.9000    13.1430
  152.5000   104.4644    12.7776    13.0181
  153.0000   110.3803    12.6564    12.8946
  153.5000   114.3959    12.5364    12.7723
  154.0000   112.6029    12.4174    12.6511
  154.5000   107.0892    12.2996    12.5311
  155.0000   101.5827    12.1830    12.4121
  155.5000    99.4435    12.0674    12.2947
  156.0000    99.8827    11.9216    12.1466
  156.5000   100.9975    11.9539    12.1792
  157.0000   100.2422    11.9984    12.2245
  157.5000    99.3732    12.0436    12.2702
  158.0000    98.2831    12.0886    12.3161
  158.5000    95.3887    12.1459    12.3745
  159.0000    92.4510    12.0734    12.3006
  159.5000    89.5224    11.9753    12.2007
  160.0000    89.1967    11.8781    12.1016
  160.5000    96.4390    11.7816    12.0033
  161.0000   100.6870    11.6859    11.9059
  161.5000   102.4976    11.5910    11.8092
  162.0000   104.0775    11.4969    11.7133
  162.5000   102.4352    11.4035    11.6181
  163.0000   100.3967    11.3109    11.5238
  163.5000    98.6097    11.2190    11.4302
  164.0000   100.0000    11.1279    11.3373
  164.5000   104.9819    11.0375    11.2453
  165.0000   105.6974    10.9424    11.1483
  165.5000   103.0340    10.8192    11.0228
  166.0000    99.7954    10.6974    10.8987
  166.5000    98.4089    10.5769    10.7760
  167.0000   100.8918    10.4579    10.6546
  167.5000   103.9695    10.3401    10.5344
  168.0000   107.0438    10.2237    10.4161
  168.5000   108.5499    10.1648    10.3561
  169.0000   108.5597    10.1482    10.3392
  169.5000   107.1210    10.1315    10.3222
  170.0000   105.6732    10.1150    10.3053
  170.5000   104.6119    10.0984    10.2885
  171.0000   104.5451    10.0819    10.2716
  171.5000   104.4634    10.0654    10.2548
  172.0000   104.3763    10.0489    10.2380
  172.5000   104.2888    10.0324    10.2212
  173.0000   102.5696    10.0159    10.2044
  173.5000   100.3958     9.9999    10.1881
  174.0000    98.3833     9.9668    10.1537
  174.5000    98.4227     9.8633    10.0489
  175.0000    99.7286     9.7617     9.9452
  175.5000   101.0342     9.6607     9.8425
  176.0000   102.7993     9.5211     9.7512
  176.5000   108.1418     9.3578     9.6636
  177.0000   111.5642     9.1973     9.6235
  177.5000   111.2077     9.0394    10.8967
  178.0000   105.8112     8.8847    11.9050
  178.5000   102.2322     8.7646    13.0065
  179.0000   101.9598     8.7646    13.5836
  179.5000   102.5317     8.7646    12.5482
  180.0000   101.7036     8.7646    11.3731
  180.5000   100.8259     8.7646    10.3080
  181.0000   101.4717     8.7646     9.3427
  181.5000   106.2676     8.7646     9.0823
  182.0000   111.0526     8.7645     9.0044
  182.5000   114.0068     8.7640     8.9663
  183.0000   111.5450     8.7627     8.9295
  183.5000   108.2802     8.8495     9.0160
  184.0000   106.3298     8.9325     9.1006
  184.5000   106.1411     9.0163     9.1860
  185.0000   107.3428     9.1010     9.2722
  185.5000   109.8658     9.1864     9.3592
  186.0000   111.9711     9.2726     9.4471
  186.5000   113.1827     9.3596     9.5357
  187.0000   111.4938     9.4474     9.6253
  187.5000   108.1484     9.5361     9.7160
  188.0000   104.7991     9.6209     9.8020
  188.5000   101.8506     9.5894     9.7699
  189.0000   104.6849     9.5596     9.7395
  189.5000   107.9270     9.5299     9.7093
  190.0000   111.1775     9.5003     9.6791
  190.5000   109.7373     9.4708     9.6490
  191.0000   107.6981     9.4413     9.6190
  191.5000   105.2311     9.4120     9.5891
  192.0000   101.6552     9.3827     9.5593
  192.5000    98.1609     9.3535     9.5296
  193.0000    97.3373     9.3245     9.4999
  193.5000    99.1289     9.2955     9.4704
  194.0000   103.9070     9.2688     9.4427
  194.5000   107.8422     9.3110     9.4862
  195.0000   110.9685     9.3556     9.5316
  195.5000   113.7889     9.2953     9.4698
  196.0000   114.5667     9.2390     9.4128
  196.5000   112.5472     9.1833     9.3562
  197.0000   111.0763     9.1281     9.2999
  197.5000   110.9361     9.0732     9.2440
  198.0000   111.4240     9.0186     9.1884
  198.5000   112.4458     8.9644     9.1331
  199.0000   113.4666     8.9105     9.0782
  199.5000   114.9319     8.8569     9.0236
  200.0000   116.4395     8.8036     8.9693
  200.5000   116.0575     8.7507     8.9153
  201.0000   112.1633     8.6980     8.8617
  201.5000   108.4129     8.5380     8.6986
