~VERSION INFORMATION
 VERS.                2.0:   CWLS LOG ASCII STANDARD - VERSION 2.0
 WRAP.                 NO:   ONE LINE PER DEPTH STEP
~WELL INFORMATION
#MNEM.UNIT      DATA TYPE    INFORMATION
#----------   ------------   ------------------------------
 STRT.F           33.0000:   START DEPTH
 STOP.F          957.0000:   STOP DEPTH
 STEP.F            0.5000:   STEP LENGTH
 NULL.          -999.2500:   NO VALUE
 COMP. TESORO PETROLEUM CORP:   COMPANY
 WELL.  NPR #3 46-S-14 #3:   WELL
 FLD .             TEAPOT:   FIELD
 LOC .      S14 T38N R78W:   LOCATION
 CNTY.            NATRONA:   COUNTY
 STAT.            WYOMING:   STATE
 CTRY. UNITED STATES OF AMERICA:   COUNTRY
 SRVC.       Schlumberger:   SERVICE COMPANY
 DATE.        25-JUN-1970:   LOGDATE
 API .       490251023100:   API NUMBER
~CURVE INFORMATION
#MNEM.UNIT       API CODE    CURVE DESCRIPTION
#----------   ------------   ------------------------------
 DEPT.F                  :   
 SPR .MV     05 010 01 00:   SPONTANEOUS POTENTIAL FROM RES.
 ILD .OHMM   05 120 46 00:   INDUCTION LOG DEEP
 CILD.MMHO   05 110 46 00:   CONDUCTIVITY INDUCTION LOG DEEP
 ASN .OHMM   05 041 16 00:   AMPLIFIED SHORT NORMAL 16"
 GR  .GAPI   30 310 01 00:   GAMMA RAY
 CALD.IN     45 280 60 00:   CALIPER FROM DENSITY LOG
 CORR.G/C3   45 356 01 00:   DENSITY CORRECTION
 DPHI.DEC    45 890 12 00:   DENSITY POROSITY SANDSTONE
 RHOB.G/C3   45 350 01 00:   BULK DENSITY
~PARAMETER INFORMATION
#MNEM.UNIT          VALUE    DESCRIPTION
#----------   ------------   ------------------------------
 PD  .                 GL:   PERMANENT DATUM
 EPD .F              5271:   ELEVATION PERMANENT DATUM
 LMF .                 KB:   LOG MEASURED FROM
 DAPD.F                10:   FEET ABOVE PERMANENT DATUM
 DMF .                 KB:   DRILLING MEASURED FROM
 EKB .F              5281:   KELLING BUSHING
 EDF .F              5280:   DRILLING FLOOR
 EGL .F              5271:   GROUND LEVEL
 DATE.        25-JUN-1970:   RUN DATE
 RUN .                  1:   RUN NUMBER
 DD  .F               950:   DEPTH DRILLER
 DL  .F               958:   DEPTH LOGGER
 BLI .F               957:   BOTTOM LOG INTERVAL
 TLI .F                33:   TOP LOG INTERVAL
 CS  .IN            10.75:   CASING SIZE
 CBD .F                30:   CASING BOTTOM DRILLER
 CBL .F                33:   CASING BOTTOM LOGGER
 BS  .IN                9:   BIT SIZE
 BSD .F               950:   BIT SIZE AT DEPTH
 DFT .         MO-MAR MUD:   DRILLING FLUID TYPE
 DFD .                9.7:   DRILLING FLUID DENSITY
 DFV .                 62:   DRILLING FLUID VISCOSITY
 DFPH.                7.4:   DRILLING FLUID PH
 DFL .                5.6:   DRILLING FLUID LOSS
 MSS .           FLOWLINE:   MUD SAMPLE SOURCE
 RMS .OHMM           1.40:   RESISTIVITY MUD SAMPLE
 MST .F                85:   MUD SAMPLE TEMPERATURE
 RMF .OHMM           0.85:   RESISTIVITY MUD FILTRATE SAMPLE
 MFST.F                87:   MUD FILTRATE SAMPLE TEMPERATURE
 MFSS.               MEAS:   MUD FILTRATE SAMPLE SOURCE
 RMB .OHMM           1.06:   RESISTIVITY MUD AT BHT
 BHT .F               112:   BOTTOM HOLE TEMPERATURE
 TCS .HRS               1:   TIME CURCULATED STOPPED
 MRT .F               112:   MAXIMUM RECORDED TEMPERATURE
 LUN .               7037:   LOGGING UNIT NUMBER
 LUL .                GLT:   LOGGING UNIT LOCATION
 ENGI.           KNOSTMAN:   RECORDING ENGINEER
 WITN.                MAY:   WITNESSED BY
 CLNT.            A2DTECH:   CLIENT CODE
 ORIG.         2.5" PRINT:   ORIGIN OF DATA
 UWI .       490251023100:   UNIQUE WELL ID
 DICO. A2D Technologies, Inc.:   DIGITIZING COMPANY
~OTHER INFORMATION
~A   DEPT       SPR        ILD       CILD       ASN         GR       CALD       CORR       DPHI       RHOB   
# ...
  288.5000   -41.5015     3.6192   344.8108     3.9086  -999.2500  -999.2500  -999.2500  -999.2500  -999.2500
  289.0000   -41.4931     3.2950   366.0945     3.2826  -999.2500  -999.2500  -999.2500  -999.2500  -999.2500
  289.5000   -41.2818     3.0303   378.4421     3.1610  -999.2500  -999.2500  -999.2500  -999.2500  -999.2500
  290.0000   -41.2158     3.0303   382.8260     3.0394  -999.2500  -999.2500  -999.2500  -999.2500  -999.2500
  290.5000   -41.2231     3.0303   377.7584     3.0389  -999.2500  -999.2500  -999.2500  -999.2500  -999.2500
  291.0000   -41.2280     3.1818   376.0334     3.0385  -999.2500  -999.2500  -999.2500  -999.2500  -999.2500
  291.5000   -41.2340     3.3333   372.2126     2.9990  -999.2500  -999.2500  -999.2500  -999.2500  -999.2500
  292.0000   -41.2401     3.8020   349.4233     3.0202  -999.2500  -999.2500  -999.2500  -999.2500  -999.2500
  292.5000   -41.2462     4.2778   303.8377     3.8261  -999.2500  -999.2500  -999.2500  -999.2500  -999.2500
  293.0000   -41.2523     4.6020   259.0432     4.4305  -999.2500  -999.2500  -999.2500  -999.2500  -999.2500
  293.5000   -41.2584     4.8485   224.1567     4.5513  -999.2500  -999.2500  -999.2500  -999.2500  -999.2500
  294.0000   -41.2644     5.0495   207.1429     4.6115  -999.2500  -999.2500  -999.2500  -999.2500  -999.2500
  294.5000   -41.2713     5.1515   201.3450     4.6452  -999.2500  -999.2500  -999.2500  -999.2500  -999.2500
  295.0000   -41.2769     5.1515   202.0531     4.6713  -999.2500  -999.2500  -999.2500  -999.2500  -999.2500
  295.5000   -41.2827     5.1515   205.0997     4.7134  -999.2500  -999.2500  -999.2500  -999.2500  -999.2500
  296.0000   -41.2888     5.1515   206.6266     4.7309  -999.2500  -999.2500  -999.2500  -999.2500  -999.2500
  296.5000   -41.2948     5.1515   208.1535     4.7608  -999.2500  -999.2500  -999.2500  -999.2500  -999.2500
  297.0000   -41.0785     5.0768   208.1611     4.7603  -999.2500  -999.2500  -999.2500  -999.2500  -999.2500
  297.5000   -41.0030     5.0000   208.1687     4.7598  -999.2500  -999.2500  -999.2500  -999.2500  -999.2500
  298.0000   -41.0098     4.8485   211.8846     4.7226  -999.2500  -999.2500  -999.2500  -999.2500  -999.2500
  298.5000   -41.0152     4.8485   220.3434     4.5850  -999.2500  -999.2500  -999.2500  -999.2500  -999.2500
  299.0000   -41.0213     4.5374   238.5876     4.3900  -999.2500  -999.2500  -999.2500  -999.2500  -999.2500
  299.5000   -41.0274     4.2109   256.8318     4.1950  -999.2500  -999.2500  -999.2500  -999.2500  -999.2500
  300.0000   -41.0334     3.8623   278.1155     3.9441  -999.2500     9.3535     0.0077     0.1745     2.3717
  300.5000   -41.0395     3.5137   305.8741     3.7555  -999.2500     9.3536     0.0093     0.1800     2.3631
  301.0000   -41.0456     3.1651   334.9072     3.5669  -999.2500     9.3538     0.0133     0.1848     2.3571
  301.5000   -41.0523     2.8164   388.1327     3.3783  -999.2500     9.3539     0.0168     0.1891     2.3442
  302.0000   -40.7540     2.5758   424.0121     3.2155  -999.2500     9.3541     0.0463     0.1935     2.3270
  302.5000   -40.7599     2.5758   430.3192     3.0194  -999.2500     9.3543     0.1452     0.1993     2.3330
  303.0000   -40.7660     2.7273   433.1307     2.8182  -999.2500     9.5357     0.1576     0.2192     2.3115
  303.5000   -40.7720     2.7348   429.9166     2.7576  -999.2500     9.7775     0.1700     0.2514     2.2605
  304.0000   -40.7781     3.0303   412.4013     2.9697  -999.2500    10.0894     0.1885     0.2719     2.2061
  304.5000   -40.7852     3.2348   384.4985     3.0303  -999.2500    10.3820     0.1046     0.2574     2.2213
  305.0000   -40.7909     3.4848   363.2219     3.0606  -999.2500     9.9018     0.0650     0.2210     2.2808
  305.5000   -40.7751     3.9394   334.3465     3.5954  -999.2500     9.6166     0.0210     0.1841     2.3412
  306.0000   -40.7322     4.2424   297.1537     4.1818  -999.2500     9.4762     0.0127     0.1501     2.3844
  306.5000   -40.6893     4.5455   253.5148     4.6824  -999.2500     9.4763     0.0121     0.1446     2.4151
  307.0000   -40.6464     5.0151   204.3922     4.8648  -999.2500     9.4764     0.0220     0.1328     2.4202
  307.5000   -40.6035     5.2273   184.3844     4.9697  -999.2500     9.4766     0.0282     0.1230     2.4092
  308.0000   -40.5605     5.4545   177.8116     5.0000  -999.2500     9.4465     0.0314     0.1493     2.3991
  308.5000   -40.3789     5.6894   176.2918     5.0909  -999.2500     9.4467     0.0160     0.1438     2.4274
  309.0000   -40.5360     5.7576   176.2918     5.1263  -999.2500     9.4468     0.0199     0.1408     2.4233
  309.5000   -40.5416     5.7576   179.7921     5.1515  -999.2500     9.4470     0.0037     0.1578     2.4103
  310.0000   -40.5471     5.4545   187.8419     5.1515  -999.2500     9.4472    -0.0009     0.1674     2.3919
  310.5000   -40.5532     5.1288   198.7737     5.0909  -999.2500     9.4473     0.0053     0.1614     2.3807
  311.0000   -40.5593     4.8485   224.9240     5.0303  -999.2500     9.4474     0.0084     0.1583     2.3883
  311.5000   -40.5653     4.4773   255.3192     4.7576  -999.2500     9.4476     0.0084     0.1752     2.3890
  312.0000   -40.4134     3.9394   287.2340     4.2963  -999.2500     9.4477     0.0039     0.2024     2.3460
  312.5000   -40.3749     3.7879   321.1756     3.6703  -999.2500     9.4781     0.0074     0.2212     2.3155
  313.0000   -40.5841     3.6364   340.0608     3.4113  -999.2500     9.4782     0.1104     0.2139     2.3037
  313.5000   -40.5898     3.6288   349.0526     3.3030  -999.2500     9.4784     0.1490     0.2412     2.2996
  314.0000   -40.5957     3.4848   353.3231     3.2727  -999.2500     9.6296     0.1475     0.2587     2.2584
  314.5000   -40.6018     3.3333   354.1033     3.3030  -999.2500    10.2642     0.0866     0.2468     2.2222
  315.0000   -40.6079     3.3333   352.5836     3.3030  -999.2500     9.7810     0.0005     0.2167     2.3100
  315.5000   -40.6140     3.3333   346.5045     3.4327  -999.2500     9.3582     0.0029     0.1660     2.3721
  316.0000   -40.6201     3.4848   328.0855     3.8743  -999.2500     9.3583     0.0078     0.1574     2.3857
  316.5000   -40.6266     3.6364   284.9373     4.0623  -999.2500     9.3585     0.0103     0.1525     2.3888
  317.0000   -40.5577     3.6515   255.2986     4.1818  -999.2500     9.3586     0.0134     0.1464     2.3926
  317.5000   -40.3340     3.9773   234.6126     4.2727  -999.2500     9.3588     0.0165     0.1422     2.4076
  318.0000   -40.3404     4.3030   217.3252     4.3636  -999.2500     9.3589     0.0227     0.1375     2.4246
  318.5000   -40.3465     4.5455   209.7264     4.4944  -999.2500     9.3591     0.0324     0.1285     2.4298
  319.0000   -40.3526     4.8485   208.2067     4.6459  -999.2500     9.3592     0.0405     0.1184     2.4405
  319.5000   -40.3587     4.8485   208.2067     4.7559  -999.2500     9.3594     0.0460     0.1148     2.4587
  320.0000   -40.0608     4.8485   208.2067     4.8788  -999.2500     9.3595     0.0203     0.1257     2.4411
  320.5000   -40.0669     4.8258   208.2067     4.9697  -999.2500     9.3597     0.0152     0.1329     2.3946
  321.0000   -40.0730     4.5455   206.6869     5.0303  -999.2500     9.3598     0.0167     0.1353     2.3831
  321.5000   -39.7742     4.3939   205.1672     5.0180  -999.2500     9.3600     0.0168     0.1426     2.3832
  322.0000   -39.7812     4.2424   205.1672     4.7183  -999.2500     9.3601     0.0095     0.1659     2.3832
  322.5000   -39.7884     3.9394   206.7379     4.4646  -999.2500     9.3603    -0.0079     0.1693     2.3817
  323.0000   -39.7940     3.7197   232.3407     4.1818  -999.2500     9.3604     0.0000     0.1757     2.3797
  323.5000   -39.7997     3.4773   262.6597     4.0303  -999.2500     9.3606     0.0084     0.1819     2.3652
  324.0000   -39.8055     3.3333   280.0404     3.8788  -999.2500     9.3607     0.0169     0.1806     2.3622
  324.5000   -39.8116     3.3068   293.3131     3.6667  -999.2500     9.3609     0.0262     0.1873     2.3532
