~VERSION INFORMATION
 VERS.                2.0:   CWLS LOG ASCII STANDARD - VERSION 2.0
 WRAP.                 NO:   ONE LINE PER DEPTH STEP
~WELL INFORMATION
#MNEM.UNIT      DATA TYPE    INFORMATION
#----------   ------------   ------------------------------
 STRT.F           85.5000:   START DEPTH
 STOP.F         1080.5000:   STOP DEPTH
 STEP.F            0.5000:   STEP LENGTH
 NULL.          -999.2500:   NO VALUE
 COMP.         U.S.  NAVY:   COMPANY
 WELL.  N.P.R. #3 #67-S-2:   WELL
 FLD .             TEAPOT:   FIELD
 LOC .       S2 T38N R78W:   LOCATION
 CNTY.            NATRONA:   COUNTY
 STAT.            WYOMING:   STATE
 CTRY. UNITED STATES OF AMERICA:   COUNTRY
 SRVC.       Schlumberger:   SERVICE COMPANY
 DATE.        20-JUL-1964:   LOGDATE
 API .       490250639700:   API NUMBER
~CURVE INFORMATION
#MNEM.UNIT       API CODE    CURVE DESCRIPTION
#----------   ------------   ------------------------------
 DEPT.F                  :   
 GR  .GAPI   30 310 01 00:   GAMMA RAY
 DT  .US/F   60 520 33 00:   INTERVAL TRANSIT TIME
 SPR .MV     06 010 01 00:   SPONTANEOUS POTENTIAL
 CILD.MMHO   06 110 46 00:   CONDUCTIVITY INDUCTION LOG DEEP
 ASN .OHMM   06 041 16 00:   AMPLIFIED SHORT NORMAL 16"
 ILD .OHMM   06 120 46 00:   INDUCTION LOG DEEP
~PARAMETER INFORMATION
#MNEM.UNIT          VALUE    DESCRIPTION
#----------   ------------   ------------------------------
 PD  .                 GL:   PERMANENT DATUM
 EPD .F              5207:   ELEVATION PERMANENT DATUM
 LMF .                 KB:   LOG MEASURED FROM
 DAPD.F                 5:   FEET ABOVE PERMANENT DATUM
 DMF .                 KB:   DRILLING MEASURED FROM
 EKB .F              5212:   KELLING BUSHING
 EGL .F              5207:   GROUND LEVEL
 DATE.          7-20-1964:   RUN DATE
 RUN .                  1:   RUN NUMBER
 DD  .F              1080:   DEPTH DRILLER
 DL  .F              1081:   DEPTH LOGGER
 BLI .F              1080:   BOTTOM LOG INTERVAL
 TLI .F                86:   TOP LOG INTERVAL
 CS  .IN            8.625:   CASING SIZE
 CBD .F                10:   CASING BOTTOM DRILLER
 BS  .IN             6.75:   BIT SIZE
 BSD .F              1080:   BIT SIZE AT DEPTH
 DFT .            GEL-OIL:   DRILLING FLUID TYPE
 DFD .                9.5:   DRILLING FLUID DENSITY
 DFV .                 43:   DRILLING FLUID VISCOSITY
 MSS .           FLOWLINE:   MUD SAMPLE SOURCE
 RMS .OHMM           1.85:   RESISTIVITY MUD SAMPLE
 MST .F                83:   MUD SAMPLE TEMPERATURE
 RMF .OHMM           1.29:   RESISTIVITY MUD FILTRATE SAMPLE
 MFST.F                83:   MUD FILTRATE SAMPLE TEMPERATURE
 RMC .OHMM           2.49:   RESISTIVITY MUD CAKE
 MCST.F                83:   MUD CAKE SAMPLE TEMPERATURE
 MFSS.                 FP:   MUD FILTRATE SAMPLE SOURCE
 MCSS.                 FP:   MUD CAKE SAMPLE SOURCE
 TCS .HRS               2:   TIME CURCULATED STOPPED
 LUN .               4507:   LOGGING UNIT NUMBER
 LUL .               CSPR:   LOGGING UNIT LOCATION
 ENGI.             DANNER:   RECORDING ENGINEER
 WITN.          JORGENSEN:   WITNESSED BY
 CLNT.            A2DTECH:   CLIENT CODE
 ORIG.           2" PRINT:   ORIGIN OF DATA
 UWI .       490250639700:   UNIQUE WELL ID
 DICO. A2D Technologies, Inc.:   DIGITIZING COMPANY
~OTHER INFORMATION
~A   DEPT       GR         DT        SPR       CILD        ASN        ILD   
# ...
  137.5000  -999.2500  -999.2500   -27.3368   164.0314     6.9685     6.1926
  138.0000  -999.2500  -999.2500   -27.3267   161.8526     7.0890     6.1997
  138.5000  -999.2500  -999.2500   -27.3177   163.7367     7.2304     6.1598
  139.0000  -999.2500  -999.2500   -27.2482   165.4050     7.4498     6.1197
  139.5000  -999.2500  -999.2500   -27.1866   166.8327     7.6795     6.0798
  140.0000  -999.2500  -999.2500   -27.1254   166.2600     7.4719     6.0395
  140.5000  -999.2500  -999.2500   -27.0638   165.8367     7.3211     5.9996
  141.0000  -999.2500  -999.2500   -27.0026   167.1571     7.5364     5.9595
  141.5000  -999.2500  -999.2500   -26.9410   168.3025     7.2920     5.9261
  142.0000  -999.2500  -999.2500   -26.8798   169.4464     7.0449     6.0109
  142.5000  -999.2500  -999.2500   -26.8181   168.3095     6.8430     6.0837
  143.0000  -999.2500  -999.2500   -26.7570   166.0561     6.9446     6.1566
  143.5000  -999.2500  -999.2500   -26.6953   163.8052     7.0329     6.2292
  144.0000  -999.2500  -999.2500   -26.6342   161.5508     7.1194     6.3024
  144.5000  -999.2500  -999.2500   -26.5725   161.2044     7.2075     6.3244
  145.0000  -999.2500  -999.2500   -26.5236   161.7014     7.2943     6.3250
  145.5000  -999.2500  -999.2500   -26.5785   162.5564     7.3806     6.3244
  146.0000  -999.2500  -999.2500   -26.6248   163.5529     7.1812     6.3252
  146.5000  -999.2500  -999.2500   -26.6706   164.5586     7.1935     6.3243
  147.0000  -999.2500  -999.2500   -26.7169   170.0959     7.2014     6.0216
  147.5000  -999.2500  -999.2500   -26.7627   177.4415     6.9085     5.7705
  148.0000  -999.2500  -999.2500   -26.8090   184.7757     6.7655     5.5212
  148.5000  -999.2500  -999.2500   -26.8547   188.2177     6.6583     5.3287
  149.0000  -999.2500  -999.2500   -26.9010   189.7357     6.5522     5.3295
  149.5000  -999.2500  -999.2500   -26.9468   189.7410     6.4446     5.5177
  150.0000  -999.2500  -999.2500   -26.9932   189.7410     6.3654     5.6707
  150.5000  -999.2500  -999.2500   -27.0391   182.4494     6.5678     5.8228
  151.0000  -999.2500  -999.2500   -27.0853   176.6102     6.7320     5.9756
  151.5000  -999.2500  -999.2500   -27.1024   170.7711     6.8937     6.1279
  152.0000  -999.2500  -999.2500   -27.0395   164.9319     7.0579     6.2803
  152.5000  -999.2500  -999.2500   -26.9763   159.0928     7.2194     6.4328
  153.0000  -999.2500  -999.2500   -26.9134   154.0996     7.3839     6.5851
  153.5000  -999.2500  -999.2500   -26.8502   151.2968     7.5029     6.7378
  154.0000  -999.2500  -999.2500   -26.7872   147.9084     7.5204     6.9218
  154.5000  -999.2500  -999.2500   -26.7243   148.2603     7.7381     6.9222
  155.0000  -999.2500  -999.2500   -26.6611   148.7052     7.7214     6.9217
  155.5000  -999.2500  -999.2500   -26.5984   149.1501     7.6601     6.9221
  156.0000  -999.2500  -999.2500   -26.5230   149.5950     7.6011     6.9216
  156.5000  -999.2500  -999.2500   -26.5235   150.0398     7.5590     6.9221
  157.0000  -999.2500  -999.2500   -26.5229   150.4847     7.5353     6.9216
  157.5000  -999.2500  -999.2500   -26.8513   150.9296     7.4994     6.9222
  158.0000  -999.2500  -999.2500   -27.3172   151.3745     7.5394     6.9217
  158.5000  -999.2500  -999.2500   -27.2234   151.8924     7.6591     6.8557
  159.0000  -999.2500  -999.2500   -27.1083   155.6574     7.6542     6.6550
  159.5000  -999.2500  -999.2500   -26.9953   160.1618     7.4040     6.4555
  160.0000  -999.2500  -999.2500   -26.8802   164.6663     7.2048     6.2548
  160.5000  -999.2500  -999.2500   -26.7672   169.8207     7.1008     6.0554
  161.0000  -999.2500  -999.2500   -26.6521   171.9621     6.9967     5.8545
  161.5000  -999.2500  -999.2500   -26.5236   174.8008     6.8928     5.6283
  162.0000  -999.2500  -999.2500   -26.5080   174.8008     6.7887     5.7279
  162.5000  -999.2500  -999.2500   -26.4918   174.8008     6.7435     5.8444
  163.0000  -999.2500  -999.2500   -26.4741   172.2298     6.7433     5.9596
  163.5000  -999.2500  -999.2500   -26.4577   169.2935     6.7432     6.0760
  164.0000  -999.2500  -999.2500   -26.4402   166.3572     6.7432     6.1913
  164.5000  -999.2500  -999.2500   -26.4236   163.4210     6.7432     6.3077
  165.0000  -999.2500  -999.2500   -26.4063   160.4847     6.9672     6.4230
  165.5000  -999.2500  -999.2500   -26.3897   157.5485     7.2410     6.5392
  166.0000  -999.2500  -999.2500   -26.3726   154.6122     7.2501     6.6548
  166.5000  -999.2500  -999.2500   -26.3557   152.4751     7.2609     6.7333
  167.0000  -999.2500  -999.2500   -26.3386   151.4741     7.3562     6.7582
  167.5000  -999.2500  -999.2500   -26.3216   150.4731     7.4601     6.7832
  168.0000  -999.2500  -999.2500   -26.3046   150.3287     7.5325     6.8082
  168.5000  -999.2500  -999.2500   -26.2876   151.3297     7.5625     6.7767
  169.0000  -999.2500  -999.2500   -26.2706   152.3307     7.5925     6.6714
  169.5000  -999.2500  -999.2500   -26.2536   154.3448     7.6225     6.5659
  170.0000  -999.2500  -999.2500   -26.2366   157.6337     7.6390     6.4608
  170.5000  -999.2500  -999.2500   -26.2196   160.9227     7.4035     6.3553
  171.0000  -999.2500  -999.2500   -26.2026   164.2117     6.8831     6.2502
  171.5000  -999.2500  -999.2500   -26.1856   167.5007     6.6222     6.1446
  172.0000  -999.2500  -999.2500   -26.1686   170.7897     6.6620     6.0396
  172.5000  -999.2500  -999.2500   -26.1516   174.0787     6.7022     5.9340
  173.0000  -999.2500  -999.2500   -26.1346   176.0359     6.7429     5.8269
  173.5000  -999.2500  -999.2500   -26.1176   176.5363     6.6255     5.8131
  174.0000  -999.2500  -999.2500   -26.1006   177.0368     6.5040     5.7996
  174.5000  -999.2500  -999.2500   -26.0836   177.5374     6.5043     5.7856
  175.0000  -999.2500  -999.2500   -26.0667   177.7888     6.4841     5.7720
  175.5000  -999.2500  -999.2500   -26.0497   177.1215     6.4645     5.7580
  176.0000  -999.2500  -999.2500   -26.0327   176.4542     6.5285     5.7443
  176.5000  -999.2500  -999.2500   -26.0157   175.7968     6.5929     5.7304
  177.0000  -999.2500  -999.2500   -25.9987   176.6999     6.6053     5.7167
  177.5000  -999.2500  -999.2500   -25.9817   177.5896     6.5706     5.7028
  178.0000  -999.2500  -999.2500   -25.9647   178.4794     6.5352     5.6890
  178.5000  -999.2500  -999.2500   -25.9477   179.3692     6.5005     5.6752
  179.0000  -999.2500  -999.2500   -25.9307   179.6733     6.4838     5.6613
  179.5000  -999.2500  -999.2500   -25.9137   179.4731     6.4094     5.6476
  180.0000  -999.2500  -999.2500   -25.8967   179.2729     6.3369     5.6337
  180.5000  -999.2500  -999.2500   -25.8797   179.0725     6.3191     5.6056
  181.0000  -999.2500  -999.2500   -25.8627   178.8721     6.3435     5.5653
  181.5000  -999.2500  -999.2500   -25.8457   180.2561     6.3691     5.5256
  182.0000  -999.2500  -999.2500   -25.8287   182.8740     6.3934     5.4852
  182.5000  -999.2500  -999.2500   -25.8118   185.4920     6.4048     5.4455
  183.0000  -999.2500  -999.2500   -25.7948   188.1099     6.4041     5.4281
  183.5000  -999.2500  -999.2500   -25.7779   190.7279     6.2665     5.3854
  184.0000  -999.2500  -999.2500   -25.7609   193.3455     6.1378     5.3448
  184.5000  -999.2500  -999.2500   -25.7439   195.7163     6.0103     5.3054
  185.0000  -999.2500  -999.2500   -25.7285   195.7158     5.8816     5.2647
  185.5000  -999.2500  -999.2500   -25.7055   193.5157     5.7674     5.2295
  186.0000  -999.2500  -999.2500   -25.6844   191.5130     5.8707     5.3394
  186.5000  -999.2500  -999.2500   -25.6635   189.5121     6.0421     5.4401
  187.0000  -999.2500  -999.2500   -25.6423   186.1195     6.2128     5.5396
  187.5000  -999.2500  -999.2500   -25.6215   181.8667     6.3840     5.6403
  188.0000  -999.2500  -999.2500   -25.6003   177.6113     6.5549     5.7398
  188.5000  -999.2500  -999.2500   -25.5794   173.3586     6.7031     5.8403
  189.0000  -999.2500  -999.2500   -25.5582   170.8161     6.6623     5.9261
