~VERSION INFORMATION
 VERS.                2.0:   CWLS LOG ASCII STANDARD - VERSION 2.0
 WRAP.                 NO:   ONE LINE PER DEPTH STEP
~WELL INFORMATION
#MNEM.UNIT      DATA TYPE    INFORMATION
#----------   ------------   ------------------------------
 STRT.F            5.0000:   START DEPTH
 STOP.F          668.0000:   STOP DEPTH
 STEP.F            0.5000:   STEP LENGTH
 NULL.          -999.2500:   NO VALUE
 COMP. LAWRENCE/ALLISON INC:   COMPANY
 WELL.    38-61 SX #38-34:   WELL
 FLD .             TEAPOT:   FIELD
 LOC .      S34 T39N R78W:   LOCATION
 CNTY.            NATRONA:   COUNTY
 STAT.            WYOMING:   STATE
 CTRY. UNITED STATES OF AMERICA:   COUNTRY
 SRVC.           Gearhart:   SERVICE COMPANY
 DATE.        18-AUG-1987:   LOGDATE
 API .       490251116700:   API NUMBER
~CURVE INFORMATION
#MNEM.UNIT       API CODE    CURVE DESCRIPTION
#----------   ------------   ------------------------------
 DEPT.F                  :   
 GRR .GAPI   07 310 01 00:   GAMMA RAY
 ILD .OHMM   07 120 46 00:   INDUCTION LOG DEEP
 ILM .OHMM   07 120 44 00:   INDUCTION LOG MEDIUM
~PARAMETER INFORMATION
#MNEM.UNIT          VALUE    DESCRIPTION
#----------   ------------   ------------------------------
 PD  .                 GL:   PERMANENT DATUM
 EPD .F              5175:   ELEVATION PERMANENT DATUM
 LMF .                 KB:   LOG MEASURED FROM
 DAPD.F                 8:   FEET ABOVE PERMANENT DATUM
 DMF .                 KB:   DRILLING MEASURED FROM
 EKB .F              5183:   KELLING BUSHING
 EGL .F              5175:   GROUND LEVEL
 DATE.        18-AUG-1987:   RUN DATE
 RUN .                  1:   RUN NUMBER
 DD  .F               665:   DEPTH DRILLER
 DL  .F               669:   DEPTH LOGGER
 BLI .F               667:   BOTTOM LOG INTERVAL
 CBD .F                47:   CASING BOTTOM DRILLER
 CBL .F                47:   CASING BOTTOM LOGGER
 BS  .IN            7.875:   BIT SIZE
 BSD .F               665:   BIT SIZE AT DEPTH
 DFT .           NONE AIR:   DRILLING FLUID TYPE
 TLAB.HRS            0830:   TIME LOGGER AT BOTTOM
 MRT .F                80:   MAXIMUM RECORDED TEMPERATURE
 LUN .               7597:   LOGGING UNIT NUMBER
 LUL .           GILLETTE:   LOGGING UNIT LOCATION
 ENGI.        K.HUCKFELDT:   RECORDING ENGINEER
 WITN.          G. STRONG:   WITNESSED BY
 CLNT.            A2DTECH:   CLIENT CODE
 ORIG.           5" PRINT:   ORIGIN OF DATA
 UWI .       490251116700:   UNIQUE WELL ID
 DICO. A2D Technologies, Inc.:   DIGITIZING COMPANY
~OTHER INFORMATION
~A    DEPT      GRR       ILD        ILM   
# ...
  551.0000    81.8062    19.7451    20.0141
  551.5000    84.5938    19.7541    20.0208
  552.0000    83.3710    19.7632    19.7525
  552.5000    82.1752    19.6353    19.4863
  553.0000    80.0675    19.5083    19.0907
  553.5000    78.8328    19.2181    18.7031
  554.0000    78.2838    18.8618    18.4526
  554.5000    80.1325    18.4813    18.3293
  555.0000    81.9762    18.2347    18.2098
  555.5000    82.6091    17.8688    18.3442
  556.0000    82.0212    17.7512    18.2217
  556.5000    81.4333    17.5163    18.1029
  557.0000    81.1489    17.4030    17.9753
  557.5000    82.6940    17.2924    17.6184
  558.0000    83.9298    17.4205    17.2621
  558.5000    83.9498    17.4290    16.7945
  559.0000    83.9698    17.4389    16.3396
  559.5000    87.6422    17.5684    17.0419
  560.0000    90.3978    17.4548    17.2860
  560.5000    88.5941    17.3419    17.1719
  561.0000    84.6627    16.8763    16.8246
  561.5000    80.4324    16.4214    16.2556
  562.0000    79.5355    15.9787    15.9243
  562.5000    81.9921    15.5392    15.4942
  563.0000    85.3618    15.1306    14.9715
  563.5000    88.4201    14.7227    14.4651
  564.0000    89.0430    14.4255    14.0722
  564.5000    87.2443    14.1295    13.6922
  565.0000    87.2644    13.9460    13.5077
  565.5000    88.8090    13.7615    13.4186
  566.0000    88.5251    13.7678    13.3309
  566.5000    86.7213    13.6787    13.2431
  567.0000    85.2037    13.6865    13.1557
  567.5000    84.3297    13.6928    13.1611
  568.0000    86.7863    13.6991    13.1654
  568.5000    88.9340    13.6107    13.1707
  569.0000    88.6500    13.5231    13.1750
  569.5000    89.2829    13.5085    13.1793
  570.0000    93.2543    13.4425    13.0924
  570.5000    96.6177    13.4491    13.0977
  571.0000    94.7457    13.4556    13.1020
  571.5000    91.4956    13.4622    13.1062
  572.0000    90.5987    13.4693    13.1106
  572.5000    90.6237    13.4765    13.0240
  573.0000    90.9909    13.4818    13.0293
  573.5000    91.8845    13.4884    13.0335
  574.0000    93.1203    13.4949    13.0379
  574.5000    94.3561    13.5026    13.0431
  575.0000    95.9473    13.5080    13.0473
  575.5000    97.4406    13.5146    12.9612
  576.0000    98.6764    13.4276    12.8757
  576.5000    99.9122    13.3407    12.7907
  577.0000   100.2411    13.2560    12.7074
  577.5000    98.1335    13.1687    12.7115
  578.0000    96.6287    13.1763    12.5402
  578.5000    98.1734    13.1827    12.4575
  579.0000    98.4974    13.1898    12.4626
  579.5000    96.3947    13.1042    12.3803
  580.0000    95.1989    13.1106    12.3854
  580.5000    94.0031    13.1169    12.3894
  581.0000    93.4152    13.1233    12.3075
  581.5000    93.1312    13.1299    12.4840
  582.0000    95.2839    13.1359    12.5760
  582.5000    96.5198    13.0515    12.6678
  583.0000    95.6328    13.0584    12.6719
  583.5000    94.1330    13.0644    12.5883
  584.0000    93.5401    12.9693    12.5934
  584.5000    94.1733    12.7195    12.5093
  585.0000    94.8059    12.5483    12.4278
  585.5000    95.7378    12.3823    12.3458
  586.0000    97.5815    12.2961    12.1804
  586.5000    97.9054    12.1394    12.0991
  587.0000    97.0136    12.0604    12.0202
  587.5000    96.7296    11.8998    11.9409
  588.0000    96.7538    11.8232    11.9457
  588.5000    97.1084    11.7083    11.8668
  589.0000    98.6233    11.5897    11.6963
  589.5000   100.4670    11.5161    11.5493
  590.0000   102.3107    11.4429    11.4731
  590.5000   103.2432    11.2902    11.3743
  591.0000   102.9636    11.1892    11.1503
  591.5000   102.9836    11.0674    10.5574
  592.0000   102.6991    10.9117    10.3524
  592.5000   102.1167    10.7007    10.2138
  593.0000   102.1367    10.4848    10.0762
  593.5000   102.7646    10.2740     9.7362
  594.0000   104.3044     9.8596     9.4069
  594.5000   106.7610     9.5938     9.0888
  595.0000   106.7809     9.0794     8.7814
  595.5000   105.8891     8.6496     8.2526
  596.0000   104.3893     8.0205     7.7550
  596.5000   107.1499     7.3314     7.2874
  597.0000   110.5133     6.8426     6.8387
  597.5000   112.3570     6.5640     6.3030
  598.0000   113.3129     6.4338     5.9229
  598.5000   108.4507     6.5275     5.4890
  599.0000   105.1272     6.6680     5.5395
  599.5000   101.8037     6.9105     5.9292
  600.0000    99.0881     7.5636     6.6745
  600.5000   102.1377     8.1103     6.9717
  601.0000   105.5160     8.5172     7.4816
  601.5000   106.7517     9.0075     7.9656
  602.0000   107.0756     9.3939     8.4222
  602.5000   105.5807     9.7290     8.9060
  603.0000   104.9878    10.1473     9.3505
  603.5000   106.8364    10.5092     9.6154
  604.0000   109.9008    10.8087     9.7513
  604.5000   111.4405    11.0399     9.9270
  605.0000   107.5091    11.2762    10.1696
  605.5000   102.9698    11.5181    10.2645
  606.0000   106.3381    11.7645    10.4590
  606.5000   107.2699    12.0161    10.6651
  607.0000   106.3780    12.2741    10.9077
  607.5000   106.0940    12.4725    11.1390
  608.0000   108.5505    12.7161    11.3752
  608.5000   110.6981    12.9067    11.6978
  609.0000   109.8062    13.0839    11.8849
  609.5000   106.0610    13.1794    12.1147
  610.0000   102.2522    13.3681    12.2888
  610.5000   101.0514    13.5606    12.4599
  611.0000   101.0763    13.6596    12.6360
  611.5000   102.0131    13.7590    12.7813
  612.0000   102.3320    13.7689    12.9961
  612.5000   101.4400    13.8653    13.1795
  613.0000    99.9329    13.8698    13.2732
  613.5000    97.5385    13.8742    13.4610
  614.0000    96.6416    13.8799    13.5571
  614.5000    96.0536    13.8844    13.5588
  615.0000    96.4438    13.7917    13.5605
  615.5000    99.4469    13.7973    13.4684
  616.0000   101.8985    13.6113    13.2846
  616.5000   102.5263    13.6164    13.1943
  617.0000   101.9433    13.5259    13.1042
  617.5000   100.7474    13.4377    12.9202
  618.0000   100.4584    13.4432    12.7490
  618.5000   102.3070    13.4472    12.6623
  619.0000   103.8517    13.3581    12.4892
  619.5000   103.2637    13.2706    12.3931
  620.0000   101.4600    13.1674    12.2348
  620.5000   100.2641    13.0064    12.1023
  621.0000   100.5929    12.8230    11.9850
  621.5000   101.5247    12.5717    11.8593
  622.0000   103.0644    12.3164    11.6602
  622.5000   105.5210    12.1111    11.5009
  623.0000   107.6685    11.8767    11.2605
  623.5000   108.2914    11.6630    10.9579
  624.0000   106.7966    11.5058    10.8076
  624.5000   107.1254    11.3469    10.5863
  625.0000   110.7928    11.1212    10.2977
  625.5000   112.9354    10.9496    10.1568
  626.0000   110.5168    10.8229    10.0179
  626.5000   108.4259    10.6785     9.8809
  627.0000   108.7498    10.5346     9.8054
  627.5000   111.2014    10.3918     9.7216
  628.0000   113.9939    10.3240     9.6810
  628.5000   115.5015    10.2559     9.6311
  629.0000   114.6096    10.1882     9.5499
  629.5000   113.4137    10.1210     9.5513
  630.0000   111.0070    10.1252     9.5527
  630.5000   108.5953    10.0583     9.4878
  631.0000   106.1837    10.0624     9.4893
  631.5000   104.0700    10.0317     9.4904
  632.0000   102.5761     9.9308     9.4918
  632.5000   105.0326     9.8653     9.4273
  633.0000   107.1802     9.8001     9.4288
  633.5000   109.3557     9.7663     9.3917
  634.0000   111.7843     9.6774     9.3010
  634.5000   113.0201     9.5862     9.2942
  635.0000   113.0400     9.4787     9.2390
  635.5000   112.4520     9.4161     9.1765
  636.0000   113.3888     9.3384     9.0510
  636.5000   114.9285     9.2280     8.9272
  637.0000   116.1642     9.1043     8.8054
  637.5000   115.8852     8.9824     8.7455
  638.0000   115.5962     8.8613     8.6387
  638.5000   114.7093     8.8028     8.5082
  639.0000   114.4252     8.6241     8.3918
  639.5000   116.5778     8.4497     8.2770
  640.0000   119.9412     8.2781     8.1641
  640.5000   124.2165     8.1100     8.0524
  641.0000   122.3282     8.0572     7.9423
  641.5000   120.0060     8.1160     7.7214
