~VERSION INFORMATION
 VERS.                2.0:   CWLS LOG ASCII STANDARD - VERSION 2.0
 WRAP.                 NO:   ONE LINE PER DEPTH STEP
~WELL INFORMATION
#MNEM.UNIT      DATA TYPE    INFORMATION
#----------   ------------   ------------------------------
 STRT.F           40.0000:   START DEPTH
 STOP.F          596.0000:   STOP DEPTH
 STEP.F            0.5000:   STEP LENGTH
 NULL.          -999.2500:   NO VALUE
 COMP. FENIX & SCISSON INC:   COMPANY
 WELL. SX-15 N.O.R. #3 #51-15:   WELL
 FLD .             TEAPOT:   FIELD
 LOC .      S15 T38N R78W:   LOCATION
 CNTY.            NATRONA:   COUNTY
 STAT.            WYOMING:   STATE
 CTRY. UNITED STATES OF AMERICA:   COUNTRY
 SRVC.              Welex:   SERVICE COMPANY
 DATE.        12-MAR-1977:   LOGDATE
 API .       490251031100:   API NUMBER
~CURVE INFORMATION
#MNEM.UNIT       API CODE    CURVE DESCRIPTION
#----------   ------------   ------------------------------
 DEPT.F                  :   
 GRD .GAPI   45 310 01 00:   GAMMA RAY FROM DENSITY LOG
 CALD.IN     45 280 60 00:   CALIPER FROM DENSITY LOG
 CORR.G/C3   45 356 01 00:   DENSITY CORRECTION
 RHOB.G/C3   45 350 01 00:   BULK DENSITY
 DPOR.DEC    45 890 12 00:   DENSITY POROSITY SANDSTONE
 SGRD.OHMM   07 220 05 00:   SHALLOW GUARD RESISTIVITY
 ILD .OHMM   07 120 46 00:   INDUCTION LOG DEEP
 ILM .OHMM   07 120 44 00:   INDUCTION LOG MEDIUM
 SPR .MV     07 010 01 00:   SPONTANEOUS POTENTIAL
~PARAMETER INFORMATION
#MNEM.UNIT          VALUE    DESCRIPTION
#----------   ------------   ------------------------------
 PD  .                 GL:   PERMANENT DATUM
 EPD .F              5221:   ELEVATION PERMANENT DATUM
 LMF .                 GL:   LOG MEASURED FROM
 DMF .                 GL:   DRILLING MEASURED FROM
 EGL .F              5221:   GROUND LEVEL
 DATE.            3-12-77:   RUN DATE
 RUN .                  1:   RUN NUMBER
 DD  .F               600:   DEPTH DRILLER
 DL  .F               597:   DEPTH LOGGER
 BLI .F               596:   BOTTOM LOG INTERVAL
 TLI .F                45:   TOP LOG INTERVAL
 CS  .IN            8.625:   CASING SIZE
 CBD .F                46:   CASING BOTTOM DRILLER
 CBL .F                45:   CASING BOTTOM LOGGER
 BS  .IN            7.875:   BIT SIZE
 BSD .F               600:   BIT SIZE AT DEPTH
 DFT .            KCL-MUD:   DRILLING FLUID TYPE
 DFD .                8.9:   DRILLING FLUID DENSITY
 DFV .                 34:   DRILLING FLUID VISCOSITY
 MSS .            MUD PIT:   MUD SAMPLE SOURCE
 RMS .OHMM            .68:   RESISTIVITY MUD SAMPLE
 MST .F                40:   MUD SAMPLE TEMPERATURE
 RMF .OHMM            .57:   RESISTIVITY MUD FILTRATE SAMPLE
 MFST.F                40:   MUD FILTRATE SAMPLE TEMPERATURE
 RMC .OHMM            .78:   RESISTIVITY MUD CAKE
 MCST.F                40:   MUD CAKE SAMPLE TEMPERATURE
 MFSS.           MEASURED:   MUD FILTRATE SAMPLE SOURCE
 MCSS.           MEASURED:   MUD CAKE SAMPLE SOURCE
 RMB .OHMM            .41:   RESISTIVITY MUD AT BHT
 BHT .F                65:   BOTTOM HOLE TEMPERATURE
 TCS .HRS               3:   TIME CURCULATED STOPPED
 MRT .F                65:   MAXIMUM RECORDED TEMPERATURE
 LUN .                716:   LOGGING UNIT NUMBER
 LUL .             VERNAL:   LOGGING UNIT LOCATION
 ENGI.           CALLAHAN:   RECORDING ENGINEER
 WITN.         STUEBINGER:   WITNESSED BY
 CLNT.            A2DTECH:   CLIENT CODE
 ORIG.       2", 5" PRINT:   ORIGIN OF DATA
 UWI .       490251031100:   UNIQUE WELL ID
 DICO. A2D Technologies, Inc.:   DIGITIZING COMPANY
~OTHER INFORMATION
~A   DEPT       GRD        CALD     CORR       RHOB       DPOR       SGRD        ILD        ILM        SPR   
# ...
  149.5000   127.0875     7.9149     0.0857     2.4972     0.0904    12.9655     8.8039    10.3538   -60.1616
  150.0000   126.3993     7.9151     0.0815     2.5016     0.0797    12.7027     8.8039    10.1018   -60.0606
  150.5000   125.9094     7.9153     0.0689     2.5055     0.0836    12.4976     8.8039     9.9252   -59.9595
  151.0000   126.5698     7.9155     0.0596     2.5018     0.0914    12.5795     8.8040    10.0423   -59.8585
  151.5000   127.3549     7.9157     0.0538     2.4977     0.0966    12.6443     8.8027    10.1342   -59.7575
  152.0000   126.5714     7.9159     0.0479     2.4968     0.0941    12.7278     8.7964    10.2270   -59.6564
  152.5000   125.5770     7.9161     0.0473     2.4996     0.0919    12.4854     8.8796    10.2977   -59.5554
  153.0000   124.7579     7.9163     0.0477     2.5023     0.0896    12.1089     8.8060    10.2978   -59.4545
  153.5000   124.4742     7.9165     0.0342     2.4917     0.0940    12.0451     8.7502    10.2978   -59.3540
  154.0000   124.1792     7.9167     0.0287     2.4831     0.1016    12.0451     8.6951    10.2978   -59.2528
  154.5000   123.8862     7.9169     0.0432     2.4860     0.1026    12.2032     8.6405    10.2977   -59.1124
  155.0000   124.2123     7.9171     0.0362     2.4861     0.0978    12.4033     8.5640    10.2977   -58.8361
  155.5000   124.4912     7.9173     0.0305     2.4831     0.0927    12.6133     8.5896    10.2396   -58.5694
  156.0000   124.5941     7.9175     0.0282     2.4804     0.0969    12.5168     8.6363    10.1653   -58.3032
  156.5000   124.8733     7.9177     0.0380     2.4850     0.1010    12.4151     8.6827    10.0913   -58.0370
  157.0000   125.3736     7.9179     0.0475     2.4903     0.0983    12.2697     8.7231    10.0181   -57.7753
  157.5000   125.8692     7.9181     0.0571     2.4937     0.0886    12.3363     8.6377     9.9251   -57.5761
  158.0000   126.3662     7.9183     0.0564     2.4896     0.0909    12.4681     8.5631    10.0582   -57.4833
  158.5000   126.7406     7.9185     0.0503     2.4856     0.0960    12.6150     8.4891    10.2473   -57.3883
  159.0000   127.1661     7.9187     0.0441     2.4816     0.1012    12.5232     8.4072    10.4405   -57.2948
  159.5000   127.5859     7.9189     0.0385     2.4777     0.1045    12.3910     8.4510    10.6365   -57.2013
  160.0000   128.0026     7.9191     0.0441     2.4737     0.1053    12.2692     8.5008    10.7836   -57.1073
  160.5000   128.4199     7.9193     0.0501     2.4713     0.1061    12.3232     8.5509    10.5265   -57.0118
  161.0000   128.8372     7.9195     0.0529     2.4708     0.1112    12.3744     8.6013    10.3274   -56.8847
  161.5000   129.2546     7.9197     0.0540     2.4705     0.1159    12.9671     8.6520    10.1320   -56.7436
  162.0000   129.6719     7.9199     0.0508     2.4753     0.1026    12.5051     8.7030     9.9403   -56.6012
  162.5000   130.0901     7.9201     0.0451     2.4792     0.0987    11.9345     8.7233     9.7523   -56.4585
  163.0000   130.5099     7.9203     0.0393     2.4773     0.1038    11.9345     8.6482     9.5655   -56.3159
  163.5000   130.9221     7.9205     0.0422     2.4796     0.1017    11.9345     8.5950     9.6687   -56.1734
  164.0000   131.1712     7.9207     0.0442     2.4822     0.0975    11.9345     8.5422     9.8338   -56.0308
  164.5000   130.5853     7.9209     0.0314     2.4782     0.1039    12.0625     8.4898     9.4896   -55.8882
  165.0000   130.0192     7.9211     0.0184     2.4738     0.1086    12.2327     8.4377     9.2192   -55.7457
  165.5000   129.9700     7.9213     0.0254     2.4705     0.1063    12.3829     8.3855     9.8338   -55.6031
  166.0000   130.8399     7.9215     0.0371     2.4822     0.1001    12.1723     8.3310     9.5349   -55.4602
  166.5000   131.6985     7.9217     0.0383     2.4902     0.0969    12.0451     8.3417     9.3046   -55.3180
  167.0000   132.5413     7.9219     0.0318     2.4737     0.1048    12.0486     8.3552     9.3046   -55.1827
  167.5000   133.2862     7.9221     0.0251     2.4619     0.1111    11.7086     8.3683     9.3046   -55.1270
  168.0000   132.2953     7.9223     0.0184     2.4546     0.1173    11.6075     8.3815     9.2645   -55.0703
  168.5000   130.5944     7.9225     0.0117     2.4470     0.1236    11.6073     8.3947     9.1807   -55.0135
  169.0000   128.8891     7.9227     0.0051     2.4396     0.1299    11.7477     8.4070     9.0961   -54.9566
  169.5000   127.1848     7.9229     0.0021     2.4408     0.1340    12.0451     8.4073     9.0513   -54.8998
  170.0000   126.1031     7.9231     0.0106     2.4564     0.1217    12.0069     8.4073     9.2267   -54.8430
  170.5000   126.6443     7.9233     0.0266     2.4664     0.1059    11.9345     8.4072     9.3511   -54.7862
  171.0000   127.1673     7.9235     0.0242     2.4602     0.1105    12.1754     8.4073     9.4778   -54.7293
  171.5000   127.6917     7.9237     0.0157     2.4489     0.1231    12.5885     8.4072     9.5090   -54.6725
  172.0000   128.2036     7.9239     0.0301     2.4576     0.1178    12.8461     8.4517     9.5484   -54.6157
  172.5000   128.5010     7.9241     0.0514     2.4750     0.1076    12.7038     8.5290     9.6430   -54.5588
  173.0000   127.8463     7.9243     0.0644     2.4911     0.0926    12.5977     8.6071     9.7812   -54.5020
  173.5000   127.2035     7.9245     0.0558     2.4891     0.0971    12.4938     8.6858     9.9215   -54.4452
  174.0000   127.4139     7.9247     0.0478     2.4769     0.1060    12.3829     8.7653    10.0768   -54.3884
  174.5000   127.9048     7.9249     0.0398     2.4681     0.1149    13.0405     8.8455    10.2621   -54.3316
  175.0000   128.4057     7.9251     0.0318     2.4653     0.1181    13.7923     8.9265    10.4508   -54.2747
  175.5000   128.9057     7.9253     0.0260     2.4626     0.1192    14.3511     8.9747    10.5865   -54.2179
  176.0000   129.3508     7.9255     0.0262     2.4599     0.1205    13.3603     8.9888    10.5090   -54.1611
  176.5000   129.6695     7.9257     0.0257     2.4572     0.1219    12.7282     9.0029    10.4493   -54.1043
  177.0000   129.9870     7.9259     0.0330     2.4564     0.1223    12.8002     9.0171    10.3931   -54.0474
  177.5000   130.3058     7.9261     0.0400     2.4613     0.1199    12.8465     9.0312    10.1354   -53.9906
  178.0000   130.6218     7.9263     0.0461     2.4661     0.1130    12.6511     9.0454     9.8964   -53.9338
  178.5000   130.6659     7.9265     0.0424     2.4708     0.1070    12.4646     9.0508     9.6631   -53.8769
  179.0000   130.6615     7.9267     0.0386     2.4726     0.1073    12.2808     8.7967     9.4337   -53.8201
  179.5000   129.7311     7.9269     0.0350     2.4696     0.1076    12.0998     8.6221     9.3908   -53.7633
  180.0000   128.6488     7.9271     0.0336     2.4667     0.1079    11.9214     8.4511     9.3908   -53.7065
  180.5000   127.7250     7.9273     0.0401     2.4694     0.1062    11.7457     8.2834     9.3539   -53.6496
  181.0000   129.2188     7.9275     0.0464     2.4740     0.1044    11.5725     8.1652     9.3067   -53.5928
  181.5000   130.7270     7.9277     0.0521     2.4787     0.1025    11.4019     8.0766     9.2598   -53.5360
  182.0000   132.2163     7.9279     0.0491     2.4806     0.1019    11.2338     7.9910     9.2187   -53.4792
  182.5000   133.0897     7.9281     0.0460     2.4826     0.1015    11.1549     7.8808     9.2398   -53.4223
  183.0000   132.2241     7.9283     0.0452     2.4841     0.1011    11.0860     7.9058     9.2620   -53.3655
  183.5000   131.2488     7.9285     0.0503     2.4916     0.0988    11.2318     7.9521     9.2842   -53.3087
  184.0000   130.6248     7.9287     0.0591     2.4999     0.0921    11.5031     7.9991     9.3046   -53.2519
  184.5000   130.5180     7.9289     0.0619     2.5065     0.0785    11.6111     8.0463     9.5672   -53.1950
  185.0000   130.0141     7.9291     0.0561     2.5050     0.0869    11.7118     8.0937     9.8736   -53.1382
  185.5000   128.9485     7.9293     0.0503     2.5031     0.0937    11.8144     8.1414    10.1241   -53.0814
