~VERSION INFORMATION
 VERS.                2.0:   CWLS LOG ASCII STANDARD - VERSION 2.0
 WRAP.                 NO:   ONE LINE PER DEPTH STEP
~WELL INFORMATION
#MNEM.UNIT      DATA TYPE    INFORMATION
#----------   ------------   ------------------------------
 STRT.F           27.0000:   START DEPTH
 STOP.F          566.0000:   STOP DEPTH
 STEP.F            0.5000:   STEP LENGTH
 NULL.          -999.2500:   NO VALUE
 COMP.    FENIX & SCISSON:   COMPANY
 WELL. S-3 NPR #3 #86-S-3:   WELL
 FLD .             TEAPOT:   FIELD
 LOC .       S3 T38N R78W:   LOCATION
 CNTY.            NATRONA:   COUNTY
 STAT.            WYOMING:   STATE
 CTRY. UNITED STATES OF AMERICA:   COUNTRY
 SRVC.       Schlumberger:   SERVICE COMPANY
 DATE.        08-APR-1977:   LOGDATE
 API .       490251032900:   API NUMBER
~CURVE INFORMATION
#MNEM.UNIT       API CODE    CURVE DESCRIPTION
#----------   ------------   ------------------------------
 DEPT.F                  :   
 CALD.IN     45 280 60 00:   CALIPER FROM DENSITY LOG
 GRD .GAPI   45 310 01 00:   GAMMA RAY FROM DENSITY LOG
 CORR.G/C3   45 356 01 00:   DENSITY CORRECTION
 RHOB.G/C3   45 350 01 00:   BULK DENSITY
 DPHI.DEC    45 890 12 00:   DENSITY POROSITY SANDSTONE
 SPR .MV     07 010 01 00:   SPONTANEOUS POTENTIAL
 ILD .OHMM   07 120 46 00:   INDUCTION LOG DEEP
 ILM .OHMM   07 120 44 00:   INDUCTION LOG MEDIUM
 LL8 .OHMM   07 220 08 00:   LATEROLOG-8 RES.
~PARAMETER INFORMATION
#MNEM.UNIT          VALUE    DESCRIPTION
#----------   ------------   ------------------------------
 PD  .                 GL:   PERMANENT DATUM
 EPD .F              5147:   ELEVATION PERMANENT DATUM
 LMF .                 KB:   LOG MEASURED FROM
 DMF .                 KB:   DRILLING MEASURED FROM
 EGL .F              5147:   GROUND LEVEL
 DATE.        08-APR-1977:   RUN DATE
 RUN .                  1:   RUN NUMBER
 DD  .F               570:   DEPTH DRILLER
 DL  .F               567:   DEPTH LOGGER
 BLI .F               566:   BOTTOM LOG INTERVAL
 TLI .F                27:   TOP LOG INTERVAL
 CS  .IN            8.625:   CASING SIZE
 CBD .F                40:   CASING BOTTOM DRILLER
 CBL .F                33:   CASING BOTTOM LOGGER
 BS  .IN            7.875:   BIT SIZE
 BSD .F               570:   BIT SIZE AT DEPTH
 DFT .                KCL:   DRILLING FLUID TYPE
 DFD .                8.6:   DRILLING FLUID DENSITY
 DFV .                 31:   DRILLING FLUID VISCOSITY
 DFPH.                9.5:   DRILLING FLUID PH
 DFL .                8.6:   DRILLING FLUID LOSS
 MSS .           FLOWLINE:   MUD SAMPLE SOURCE
 RMS .OHMM          0.306:   RESISTIVITY MUD SAMPLE
 MST .F                78:   MUD SAMPLE TEMPERATURE
 RMF .OHMM          0.230:   RESISTIVITY MUD FILTRATE SAMPLE
 MFST.F                78:   MUD FILTRATE SAMPLE TEMPERATURE
 MFSS.               MEAS:   MUD FILTRATE SAMPLE SOURCE
 RMB .OHMM          0.341:   RESISTIVITY MUD AT BHT
 BHT .F                70:   BOTTOM HOLE TEMPERATURE
 TCS .HRS              20:   TIME CURCULATED STOPPED
 MRT .F                70:   MAXIMUM RECORDED TEMPERATURE
 LUN .               5642:   LOGGING UNIT NUMBER
 LUL .               CSPR:   LOGGING UNIT LOCATION
 ENGI.             MARTIN:   RECORDING ENGINEER
 WITN.               LYON:   WITNESSED BY
 CLNT.            A2DTECH:   CLIENT CODE
 ORIG.       2", 5" PRINT:   ORIGIN OF DATA
 UWI .       490251032900:   UNIQUE WELL ID
 DICO. A2D Technologies, Inc.:   DIGITIZING COMPANY
~OTHER INFORMATION
~A   DEPT     CALD         GRD      CORR       RHOB       DPHI        SPR        ILD        ILM        LL8   
# ...
  100.0000     8.2200   122.0315     0.0234     2.4607     0.1135   -73.7106    10.2571    10.4208    11.6081
  100.5000     8.2235   122.5989     0.0298     2.4576     0.1237   -73.6245    10.2595    10.4223    11.1362
  101.0000     8.2270   120.5302     0.0231     2.4352     0.1276   -73.5585    10.1904    10.4237    11.0598
  101.5000     8.2143   119.9474     0.0186     2.4308     0.1273   -73.4009    10.2638    10.4252    11.1377
  102.0000     8.2180   119.5225     0.0119     2.4369     0.1230   -73.0931    10.2659    10.4266    11.2159
  102.5000     8.2210   118.9397     0.0075     2.4460     0.1176   -72.9355    10.2680    10.4281    11.4524
  103.0000     8.2389   117.7696     0.0226     2.4603     0.1170   -72.9279    10.2701    10.4295    11.4531
  103.5000     8.2270   116.7441     0.0189     2.4402     0.1248   -72.9204    10.2009    10.4309    11.6946
  104.0000     8.2448   115.2715     0.0385     2.4485     0.1167   -72.9289     9.9939    10.4324    11.7767
  104.5000     8.2478   114.5397     0.0461     2.4690     0.1102   -73.5239     9.9270    10.4338    11.7775
  105.0000     8.2508   116.6483     0.0439     2.4781     0.1066   -74.0993     9.7251    10.1494    11.4563
  105.5000     8.2381   117.8583     0.0335     2.4735     0.1265   -74.2638     9.7271     9.9421    10.9146
  106.0000     8.2418   116.9818     0.0200     2.4218     0.1322   -74.6850     9.7291     9.8744    10.5436
  106.5000     8.2448   116.6970     0.0185     2.4384     0.1256   -74.6772     9.7311     9.8762    10.5443
  107.0000     8.2477   116.8682     0.0171     2.4445     0.1259   -74.6696     9.7331    10.0155    10.8414
  107.5000     8.2351   117.3331     0.0134     2.4349     0.1316   -74.5105     9.8027    10.0866    10.9176
  108.0000     8.2231   118.3940     0.0151     2.4289     0.1345   -74.2027     9.8728    10.0880    11.1477
  108.5000     8.1821   120.3492     0.0182     2.4313     0.1348   -73.8950     9.7392     9.8816    11.0710
  109.0000     8.0957   122.4534     0.0204     2.4186     0.1255   -73.5872     9.5410     9.7469    10.8424
  109.5000     8.0681   124.1104     0.0280     2.4495     0.1174   -73.4295     9.2185     9.4160    10.5452
  110.0000     8.1762   123.5320     0.0378     2.4631     0.1141   -73.5722     8.9682     9.0963    10.1761
  110.5000     8.2238   123.9970     0.0334     2.4670     0.1134   -73.5647     8.6655     8.8485     9.6240
  111.0000     8.2268   124.4720     0.0319     2.4656     0.1141   -73.5572     8.3148     8.4891     9.1018
  111.5000     8.2298   123.9881     0.0268     2.4566     0.1236   -73.5498     8.0894     8.3154     8.9347
  112.0000     8.2327   121.1397     0.0110     2.4259     0.1329   -73.8444     8.0349     8.2020     8.9445
  112.5000     8.2357   119.6969     0.0073     2.4222     0.1239   -73.9871     8.0928     8.3178     9.2193
  113.0000     8.2230   118.7249     0.0127     2.4569     0.1169   -74.1298     8.2073     8.3768     9.6570
  113.5000     8.2268   117.5503     0.0142     2.4630     0.1160   -74.2724     8.2660     8.5542    10.0548
  114.0000     8.2297   114.8855     0.0166     2.4623     0.1157   -74.4151     8.4997     8.6149    10.4825
  114.5000     8.2327   111.3265     0.0264     2.4564     0.1178   -74.2556     8.6798     8.8584    10.7779
  115.0000     8.2357   110.8927     0.0273     2.4302     0.1265   -74.0980     8.9253     9.1089    10.8536
  115.5000     8.2386   111.6600     0.0100     2.4258     0.1277   -74.0905     9.0515     9.3017    10.8543
  116.0000     8.2416   111.5287     0.0394     2.4597     0.1123   -73.9329     9.2433     9.4329    10.8551
  116.5000     8.2446   111.3930     0.0485     2.4846     0.1051   -73.7752     9.2452     9.6326    10.8558
  117.0000     8.2326   112.7565     0.0364     2.4779     0.1147   -73.3173     9.2471     9.6339    10.8566
  117.5000     8.2200   114.1155     0.0297     2.4878     0.1048   -72.7092     9.3132     9.4368    10.7079
  118.0000     8.1790   114.5803     0.0243     2.4621     0.1189   -72.1011     9.3799     9.3729    10.2725
  118.5000     8.1520   112.8097     0.0201     2.4420     0.1246   -71.4930     9.2528     9.3094    10.1318
  119.0000     8.1103   112.5249     0.0187     2.4423     0.1224   -71.3354     9.2548     9.1825     9.9928
  119.5000     8.1134   112.9942     0.0196     2.4528     0.1191   -71.4800     9.1928     9.1203     9.9937
  120.0000     8.1760   112.1177     0.0189     2.4551     0.1200   -72.0731     9.1947     9.1215     9.9944
  120.5000     8.2385   110.7942     0.0190     2.4432     0.1227   -72.2157     9.1966     9.1228     9.9950
  121.0000     8.2713   108.4274     0.0168     2.4305     0.1287   -72.3584     9.2007     9.1875    10.0652
  121.5000     8.1849   107.9936     0.0153     2.4366     0.1235   -72.0488     9.2643     9.3172    10.2064
  122.0000     8.1120   111.1454     0.0116     2.4450     0.1277   -71.5908     9.2662     9.3833    10.2781
  122.5000     8.2206   113.8457     0.0079     2.4308     0.1261   -72.0357     9.2682     9.5157    10.4948
  123.0000     8.3130   113.8828     0.0125     2.4452     0.1218   -72.7771     9.2766     9.6499    10.7905
  123.5000     8.3160   113.7169     0.0141     2.4505     0.1172   -73.2219     9.4666     9.6513    11.2494
  124.0000     8.3193   114.1970     0.0127     2.4596     0.1208   -73.3646     9.5343     9.6526    11.7279
  124.5000     8.3219   113.7675     0.0105     2.4424     0.1225   -73.8075     9.5462     9.7211    11.5672
  125.0000     8.2951   113.4873     0.0075     2.4440     0.1276   -73.7982     9.7383     9.8583    11.1741
  125.5000     8.2682   113.6592     0.0008     2.4253     0.1366   -73.7907     9.7403     9.7238    11.0976
  126.0000     8.2559   114.7452     0.0084     2.4314     0.1249   -73.7832     9.5426     9.6580    11.1756
  126.5000     8.2295   117.0134     0.0137     2.4353     0.1225   -73.7757     9.4787     9.6593    11.2539
  127.0000     8.2175   117.4331     0.0146     2.4323     0.1300   -73.7682     9.2859     9.5922    10.6479
  127.5000     8.2355   115.5388     0.0170     2.4482     0.1182   -73.3103     9.2675     9.3976    10.3575
  128.0000     8.2546   110.7666     0.0200     2.4567     0.1191   -73.0025     9.1621     9.3340    10.2865
  128.5000     8.2862   111.6785     0.0160     2.4409     0.1311   -72.5446     9.0375     9.3352    10.4309
  129.0000     8.3040   113.3356     0.0126     2.4282     0.1240   -72.2368     9.0399     9.2079    10.5772
  129.5000     8.3070   114.3965     0.0127     2.4457     0.1167   -71.9290     9.0417     9.1455    10.8002
  130.0000     8.2950   113.9672     0.0127     2.4554     0.1229   -71.7714     9.0436     9.1468    10.8760
  130.5000     8.2980   113.2398     0.0128     2.4495     0.1199   -71.7639     9.0455     9.1481    10.5064
  131.0000     8.2711   113.4065     0.0144     2.4542     0.1169   -71.9069     9.0473     9.1494    10.0095
  131.5000     8.2592   113.5733     0.0137     2.4524     0.1241   -72.3495     9.0492     9.1452    10.3632
  132.0000     8.2623   114.1872     0.0092     2.4483     0.1190   -72.9427     9.0511     9.0886    10.8039
  132.5000     8.2659   115.2481     0.0123     2.4649     0.1129   -73.0855     9.0530     9.0899    10.7300
  133.0000     8.2688   115.4105     0.0124     2.4628     0.1207   -73.3782     9.0548     9.0911    10.2937
  133.5000     8.2562   113.1972     0.0102     2.4366     0.1270   -73.6712     9.0567     9.0924    10.0826
  134.0000     8.2599   113.6620     0.0087     2.4397     0.1249   -73.6635     9.1215     9.0937    10.2951
  134.5000     8.2628   114.7229     0.0088     2.4480     0.1210   -73.8062     9.2505     9.1582    10.5156
  135.0000     8.2502   115.7839     0.0104     2.4519     0.1252   -73.7987     9.3167     9.1595    10.6646
  135.5000     8.2390   117.8881     0.0127     2.4452     0.1173   -73.7912     9.2543     9.2887    10.8091
  136.0000     8.2420   120.1368     0.0098     2.4535     0.1239   -73.6336     9.0661     9.1620    10.5797
