~VERSION INFORMATION
 VERS.                2.0:   CWLS LOG ASCII STANDARD - VERSION 2.0
 WRAP.                 NO:   ONE LINE PER DEPTH STEP
~WELL INFORMATION
#MNEM.UNIT      DATA TYPE    INFORMATION
#----------   ------------   ------------------------------
 STRT.F            0.0000:   START DEPTH
 STOP.F          678.0000:   STOP DEPTH
 STEP.F            0.5000:   STEP LENGTH
 NULL.          -999.2500:   NO VALUE
 COMP. FENIX & SCISSON INC:   COMPANY
 WELL. 37-21 SX 11 WO #37-11:   WELL
 FLD .             TEAPOT:   FIELD
 LOC .      S11 T38N R78W:   LOCATION
 CNTY.            NATRONA:   COUNTY
 STAT.            WYOMING:   STATE
 CTRY. UNITED STATES OF AMERICA:   COUNTRY
 SRVC.      Dresser Atlas:   SERVICE COMPANY
 DATE.        14-OCT-1983:   LOGDATE
 API .       490251084300:   API NUMBER
~CURVE INFORMATION
#MNEM.UNIT       API CODE    CURVE DESCRIPTION
#----------   ------------   ------------------------------
 DEPT.F                  :   
 SPR .MV     07 010 01 00:   SPONTANEOUS POTENTIAL
 SFLU.OHMM   07 220 01 00:   SPHERICALLY FOCUSED LOG UNAVERAGED RESISTIVITY
 ILM .OHMM   07 120 44 00:   INDUCTION LOG MEDIUM
 ILD .OHMM   07 120 46 00:   INDUCTION LOG DEEP
 NPHI.DEC    42 890 03 00:   NEUTRON POROSITY SANDSTONE
 DPHI.DEC    45 890 12 00:   DENSITY POROSITY SANDSTONE
 RHOB.G/C3   45 350 01 00:   BULK DENSITY
 CORR.G/C3   45 356 01 00:   DENSITY CORRECTION
 GRD .GAPI   45 310 01 00:   GAMMA RAY FROM DENSITY LOG
 CALD.IN     45 280 60 00:   CALIPER
~PARAMETER INFORMATION
#MNEM.UNIT          VALUE    DESCRIPTION
#----------   ------------   ------------------------------
 PD  .                 GL:   PERMANENT DATUM
 EPD .F              5188:   ELEVATION PERMANENT DATUM
 LMF .                 KB:   LOG MEASURED FROM
 DAPD.F                 5:   FEET ABOVE PERMANENT DATUM
 DMF .                 KB:   DRILLING MEASURED FROM
 EKB .F              5193:   KELLING BUSHING
 EGL .F              5188:   GROUND LEVEL
 DATE.           10-14-83:   RUN DATE
 RUN .                  4:   RUN NUMBER
 DD  .F               629:   DEPTH DRILLER
 DL  .F               630:   DEPTH LOGGER
 BLI .F               624:   BOTTOM LOG INTERVAL
 TLI .F               335:   TOP LOG INTERVAL
 BS  .IN             8.75:   BIT SIZE
 BSD .F               629:   BIT SIZE AT DEPTH
 DFT .          KCL WATER:   DRILLING FLUID TYPE
 LUN .               6307:   LOGGING UNIT NUMBER
 LUL .               GLTE:   LOGGING UNIT LOCATION
 ENGI.            DEYOUNG:   RECORDING ENGINEER
 WITN.            SCHULTE:   WITNESSED BY
 CLNT.            A2DTECH:   CLIENT CODE
 ORIG.       2", 5" PRINT:   ORIGIN OF DATA
 UWI .       490251084300:   UNIQUE WELL ID
 DICO. A2D Technologies, Inc.:   DIGITIZING COMPANY
~OTHER INFORMATION
~A    DEPT     SPR       SFLU        ILM        ILD       NPHI       DPHI       RHOB       CORR        GRD       CALD   
# ...
  100.5000   -36.2827    11.7896    12.4023    10.9958     0.2244     0.1757     2.3555     0.0878    73.2246     9.2078
  101.0000   -36.1717    12.1555    12.5683    11.4913     0.2229     0.1812     2.3519     0.0868    76.5520     9.2390
  101.5000   -36.0606    12.4083    12.7366    11.8459     0.2232     0.1862     2.3470     0.0857    74.6540     9.2707
  102.0000   -35.9496    12.6665    12.9071    12.2115     0.2234     0.1958     2.3375     0.0847    76.8383     9.3024
  102.5000   -35.8386    12.9300    13.0664    12.5884     0.2230     0.1988     2.3283     0.0837    78.5190     9.3340
  103.0000   -35.7275    13.1990    13.1064    12.7119     0.2262     0.2025     2.3205     0.0827    77.0322     9.3655
  103.5000   -35.6164    13.4736    13.1437    12.6914     0.2295     0.2081     2.3356     0.0868    75.6208     9.3827
  104.0000   -35.5054    13.7115    13.1811    12.6753     0.2285     0.2137     2.3543     0.0926    74.2178     9.3826
  104.5000   -35.3951    13.8371    13.2187    12.6593     0.2271     0.2200     2.3657     0.1005    72.7782     9.3827
  105.0000   -35.3608    13.9957    13.2563    12.6432     0.2288     0.2098     2.3763     0.1084    73.4023     9.3744
  105.5000   -35.4191    14.2481    13.3079    12.6273     0.2338     0.1987     2.3854     0.1083    75.0507     9.3640
  106.0000   -35.4765    14.5041    13.3064    12.6117     0.2349     0.1921     2.3944     0.1023    76.5388     9.3841
  106.5000   -35.5343    14.7652    13.4555    12.5971     0.2356     0.1859     2.4027     0.0963    74.9366     9.4049
  107.0000   -35.5917    15.0310    13.5746    12.6788     0.2385     0.1796     2.4017     0.0908    75.7293     9.4255
  107.5000   -35.6516    15.3016    13.6949    12.7582     0.2402     0.1738     2.3994     0.0914    77.0345     9.4405
  108.0000   -35.7062    15.5770    13.8163    12.8382     0.2378     0.1692     2.3904     0.0922    76.0897     9.4311
  108.5000   -36.1074    15.8574    13.9388    12.9186     0.2424     0.1733     2.3830     0.0929    76.3365     9.4221
  109.0000   -35.9706    16.1422    14.0623    12.9995     0.2469     0.1725     2.3896     0.0978    76.9182     9.4132
  109.5000   -35.8160    16.4274    14.1869    13.0810     0.2487     0.1774     2.4066     0.1027    77.5389     9.4039
  110.0000   -35.6647    16.8144    14.3127    13.1629     0.2490     0.1820     2.4173     0.1038    76.8632     9.4162
  110.5000   -35.5135    17.2022    14.4396    13.2454     0.2454     0.1763     2.4028     0.0890    75.8879     9.4396
  111.0000   -35.3605    17.5988    14.5675    13.3284     0.2378     0.1595     2.3821     0.0751    74.9020     9.4632
  111.5000   -35.3346    18.0046    14.6967    13.4119     0.2303     0.1645     2.3676     0.0718    73.9071     9.4866
  112.0000   -35.3343    18.4198    14.8269    13.4959     0.2227     0.1727     2.3544     0.0793    72.2702     9.5104
  112.5000   -35.3345    18.8445    14.9584    13.5804     0.2232     0.1816     2.3507     0.0930    74.2793     9.5045
  113.0000   -35.3352    19.2791    15.0909    13.6654     0.2255     0.1907     2.3641     0.1069    74.7295     9.4761
  113.5000   -35.2755    19.7274    15.2247    13.7512     0.2261     0.1997     2.3605     0.1183    73.4673     9.4473
  114.0000   -35.1932    20.6367    15.3596    13.9445     0.2253     0.1993     2.3484     0.1282    72.1955     9.4087
  114.5000   -35.0128    21.9336    15.4958    14.3126     0.2272     0.1922     2.3293     0.1372    72.8360     9.3112
  115.0000   -35.1381    23.4015    15.6331    14.6904     0.2337     0.1916     2.3417     0.1447    71.8071     9.2134
  115.5000   -35.1393    25.0095    16.3676    15.3842     0.2319     0.2097     2.3575     0.1441    70.6163     9.1148
  116.0000   -35.2572    31.0201    17.6062    16.4988     0.2219     0.2153     2.3929     0.1408    69.1595     9.0996
  116.5000   -35.4626    39.2122    18.9765    17.9680     0.2132     0.2021     2.5119     0.1487    66.0066     9.1607
  117.0000   -35.6693   121.7174    21.3534    19.5680     0.1970     0.1904     2.5662     0.1695    62.7941     9.2223
  117.5000   -35.8818   392.3087    24.0279    21.3105     0.1808     0.1656     2.5842     0.1725    59.6289     9.2863
  118.0000   -35.9251  1130.1016    27.1788    23.2082     0.1646     0.1186     2.5623     0.1757    57.4606     9.2485
  118.5000   -35.9261  1751.3619    29.6540    25.2748     0.1476     0.0710     2.5410     0.1725    62.4119     9.1718
  119.0000   -35.9240  1432.8771    31.4666    27.1788     0.1453     0.0633     2.5403     0.1689    65.0453     9.0900
  119.5000   -35.8268   936.9216    30.2483    27.1788     0.1463     0.0742     2.5347     0.1554    68.5723     9.1909
  120.0000   -35.5295   403.4710    27.7055    24.9719     0.1484     0.0865     2.5197     0.1277    72.1690     9.3698
  120.5000   -35.2355   138.9657    25.3764    22.6312     0.1618     0.0877     2.4693     0.0902    74.0155     9.5376
  121.0000   -34.9412    45.0789    23.2431    21.4232     0.1848     0.0885     2.4174     0.0684    74.3960     9.5343
  121.5000   -34.6470    28.9186    21.2892    20.2035     0.2078     0.1048     2.3738     0.0597    73.2646     9.5249
  122.0000   -34.3561    21.5829    19.3693    18.9761     0.2234     0.1349     2.3533     0.0680    73.8354     9.4953
  122.5000   -34.1153    20.8412    18.8165    17.3223     0.2361     0.1648     2.3669     0.0781    75.2463     9.4747
  123.0000   -34.0061    20.9079    18.2358    15.9461     0.2473     0.1924     2.3779     0.0881    76.6814     9.4540
  123.5000   -33.8934    20.9675    17.6731    15.6460     0.2446     0.1954     2.3740     0.0791    78.1156     9.4330
  124.0000   -33.7814    21.0329    17.2563    15.3516     0.2398     0.1872     2.3572     0.0685    79.5330     9.4120
  124.5000   -33.6692    20.1207    16.7629    15.0627     0.2349     0.1825     2.3472     0.0613    80.0305     9.3910
  125.0000   -33.5563    19.1614    16.2835    14.7792     0.2340     0.1859     2.3367     0.0655    79.0831     9.3700
  125.5000   -33.4465    18.3340    15.8202    14.5832     0.2367     0.1963     2.3422     0.0697    78.1610     9.3489
  126.0000   -33.4432    18.3340    15.2639    14.5832     0.2362     0.2076     2.3476     0.0665    77.2171     9.3274
  126.5000   -33.7732    18.3340    15.2799    14.5832     0.2375     0.2085     2.3491     0.0620    77.4615     9.3284
  127.0000   -34.0888    18.3340    15.2995    14.6091     0.2390     0.2046     2.3498     0.0574    78.4817     9.3366
  127.5000   -34.4039    18.6386    15.3177    14.7002     0.2382     0.2011     2.3528     0.0570    79.5098     9.3449
  128.0000   -34.7191    19.0178    15.3359    14.7919     0.2412     0.2058     2.3554     0.0621    80.6109     9.3533
  128.5000   -35.0367    18.8883    15.3539    14.8841     0.2513     0.2020     2.3742     0.0678    83.3510     9.3616
  129.0000   -35.1955    18.6993    15.3716    14.9770     0.2610     0.1985     2.3884     0.0727    86.2266     9.3699
  129.5000   -35.2826    18.5163    15.3881    14.9893     0.2569     0.1950     2.3953     0.0769    89.1016     9.3782
  130.0000   -35.3689    18.3281    15.4024    14.9893     0.2508     0.1836     2.4085     0.0891    91.9740     9.3865
  130.5000   -35.4553    16.9694    15.2565    13.4494     0.2455     0.1760     2.4505     0.1116    94.8218     9.3948
  131.0000   -35.5419    15.8357    13.2960    11.7301     0.2507     0.1747     2.4788     0.1089    97.1164     9.4031
  131.5000   -35.6291    13.4237    11.6501    10.2305     0.2559     0.1549     2.4864     0.1023    97.7123     9.4114
  132.0000   -35.7194    11.4723    10.2133     8.9226     0.2610     0.1322     2.4830     0.0957    95.6616     9.4201
  132.5000   -35.5908     9.8036     8.9546     7.7820     0.2657     0.1215     2.4762     0.0891    94.2564     9.4206
  133.0000   -35.4272     8.6652     7.8511     7.1403     0.2703     0.1202     2.4803     0.0825    95.0157     9.4178
  133.5000   -35.2641     8.0038     7.5859     7.2821     0.2729     0.1238     2.4739     0.0758    95.0139     9.4150
