~VERSION INFORMATION
 VERS.                2.0:   CWLS LOG ASCII STANDARD - VERSION 2.0
 WRAP.                 NO:   ONE LINE PER DEPTH STEP
~WELL INFORMATION
#MNEM.UNIT      DATA TYPE    INFORMATION
#----------   ------------   ------------------------------
 STRT.F           12.0000:   START DEPTH
 STOP.F          510.0000:   STOP DEPTH
 STEP.F            0.5000:   STEP LENGTH
 NULL.          -999.2500:   NO VALUE
 COMP. LAWRENCE-ALLISON &AS:   COMPANY
 WELL. NPR 3 #51-41SX10UP4:   WELL
 FLD .            NATRONA:   FIELD
 LOC .      S10 T38N R78W:   LOCATION
 CNTY.            NATRONA:   COUNTY
 STAT.            WYOMING:   STATE
 CTRY. UNITED STATES OF AMERICA:   COUNTRY
 SRVC.      Dresser Atlas:   SERVICE COMPANY
 DATE.        15-DEC-1984:   LOGDATE
 API .       490251100000:   API NUMBER
~CURVE INFORMATION
#MNEM.UNIT       API CODE    CURVE DESCRIPTION
#----------   ------------   ------------------------------
 DEPT.F                  :   
 RD  .OHMM   11 220 10 00:   RESISTIVITY DEEP
 RS  .OHMM   11 220 09 00:   RESISTIVITY SHALLOW
 SPR .MV     11 010 01 00:   SPONTANEOUS POTENTIAL FROM RES.
 DT  .US/F   60 520 00 00:   INTERVAL TRANSIT TIME
 CALD.IN     45 280 60 00:   CALIPER FROM DENSITY LOG
 CNC .DEC    42 890 00 00:   NEUTRON POROSITY
 CORR.G/C3   45 356 01 00:   DENSITY CORRECTION
 GRD .GAPI   45 310 01 00:   GAMMA RAY FROM DENSITY LOG
 PORD.DEC    45 890 00 00:   POROSITY DENSITY
 RHOB.G/C3   45 350 01 00:   BULK DENSITY
~PARAMETER INFORMATION
#MNEM.UNIT          VALUE    DESCRIPTION
#----------   ------------   ------------------------------
 PD  .                 GL:   PERMANENT DATUM
 EPD .F              5207:   ELEVATION PERMANENT DATUM
 LMF .                 GL:   LOG MEASURED FROM
 DMF .                 GL:   DRILLING MEASURED FROM
 EGL .F              5207:   GROUND LEVEL
 DATE.        15-DEC-1984:   RUN DATE
 RUN .                  1:   RUN NUMBER
 DD  .F               515:   DEPTH DRILLER
 DL  .F               511:   DEPTH LOGGER
 BLI .F               510:   BOTTOM LOG INTERVAL
 TLI .F                20:   TOP LOG INTERVAL
 CS  .IN            8.625:   CASING SIZE
 CBD .F                20:   CASING BOTTOM DRILLER
 CBL .F                20:   CASING BOTTOM LOGGER
 BS  .IN            7.875:   BIT SIZE
 BSD .F               515:   BIT SIZE AT DEPTH
 DFT .          KCL/WATER:   DRILLING FLUID TYPE
 MSS .           FLOWLINE:   MUD SAMPLE SOURCE
 RMS .OHMM           .129:   RESISTIVITY MUD SAMPLE
 MST .F                94:   MUD SAMPLE TEMPERATURE
 RMF .OHMM            .10:   RESISTIVITY MUD FILTRATE SAMPLE
 MFST.F                94:   MUD FILTRATE SAMPLE TEMPERATURE
 RMC .OHMM            .16:   RESISTIVITY MUD CAKE
 MCST.F                94:   MUD CAKE SAMPLE TEMPERATURE
 MFSS.               CALC:   MUD FILTRATE SAMPLE SOURCE
 MCSS.               CALC:   MUD CAKE SAMPLE SOURCE
 TCS .HRS               2:   TIME CURCULATED STOPPED
 MRT .F               100:   MAXIMUM RECORDED TEMPERATURE
 LUN .               6270:   LOGGING UNIT NUMBER
 LUL .                 FM:   LOGGING UNIT LOCATION
 ENGI.            LEBSOCK:   RECORDING ENGINEER
 WITN.          DAN LUERS:   WITNESSED BY
 CLNT.            A2DTECH:   CLIENT CODE
 ORIG.           5" PRINT:   ORIGIN OF DATA
 UWI .       490251100000:   UNIQUE WELL ID
 DICO. A2D Technologies, Inc.:   DIGITIZING COMPANY
~OTHER INFORMATION
~A   DEPT       RD         RS        SPR         DT       CALD          CNC     CORR         GRD      PORD       RHOB   
# ...
  447.5000    16.1025    15.6541   -64.5723    87.9369     7.7874     0.2431     0.0566   104.3849     0.1067     2.4981
  448.0000    16.1647    16.1033   -64.5544    87.5605     7.7884     0.2472     0.0357    99.8067     0.1073     2.4967
  448.5000    15.6807    15.7837   -64.5401    87.4109     7.7897     0.2499     0.0358    92.7072     0.1066     2.4975
  449.0000    15.5811    15.4705   -64.6736    88.1583     7.7907     0.2510     0.0359    90.9380     0.1060     2.4984
  449.5000    15.5916    15.2682   -64.6593    88.8589     7.7766     0.2513     0.0300    93.0265     0.1078     2.4939
  450.0000    15.7080    15.2788   -64.4970    88.8619     7.7927     0.2489     0.0181    93.3314     0.1135     2.4865
  450.5000    15.7164    15.3163   -64.6306  -999.2500     7.7937     0.2336     0.0074    89.7903     0.1198     2.4791
  451.0000    16.1652    15.7303   -64.6127  -999.2500     7.7799     0.2212     0.0003    91.1351     0.1234     2.4687
  451.5000    16.6268    16.1799   -64.7499  -999.2500     7.7661     0.2137     0.0004    91.5911     0.1288     2.4613
  452.0000    16.0712    15.8605   -64.7320  -999.2500     7.7671     0.2118     0.0005    91.6030     0.1318     2.4598
  452.5000    15.5342    15.5457   -64.9137  -999.2500     7.7683     0.2200     0.0006    93.9712     0.1330     2.4592
  453.0000    15.2163    15.3402   -65.0027  -999.2500     7.7693     0.2320     0.0068    95.1650     0.1317     2.4630
  453.5000    15.0231    14.9349   -64.9848  -999.2500     7.7831     0.2380     0.0251    96.8032     0.1275     2.4728
  454.0000    15.3478    14.9449   -65.2663  -999.2500     7.7986     0.2361     0.0567    95.7690     0.1148     2.4872
  454.5000    15.3561    15.0735   -65.4201  -999.2500     7.7993     0.2391     0.0552    95.1908     0.1136     2.4880
  455.0000    15.4707    15.3865   -65.5335  -999.2500     7.8001     0.2427     0.0284    95.2016     0.1136     2.4881
  455.5000    15.4790    15.3968   -65.5156  -999.2500     7.7711     0.2439    -0.0032    94.6154     0.1144     2.4874
  456.0000    15.5951    15.4071   -65.5012  -999.2500     7.7719     0.2385     0.0195    92.2558     0.1150     2.4844
  456.5000    15.6033    15.4174   -65.6035  -999.2500     7.7726     0.2388     0.0317    92.8571     0.1171     2.4783
  457.0000    15.6116    15.4278   -65.5976  -999.2500     7.7733     0.2473     0.0439    93.1620     0.1213     2.4712
  457.5000    15.4984    15.4381   -65.7386  -999.2500     7.7890     0.2533     0.0500    92.8743     0.1255     2.4653
  458.0000    15.4137    15.3394   -65.7330  -999.2500     7.7747     0.2507     0.0411    90.4809     0.1290     2.4638
  458.5000    15.1077    15.0377   -65.7273  -999.2500     7.7756     0.2484     0.0096    87.9802     0.1290     2.4652
  459.0000    14.8058    14.6743   -65.7217  -999.2500     7.7764     0.2484    -0.0039    88.6060     0.1278     2.4676
  459.5000    14.3110    13.9958   -65.8640  -999.2500     7.7771     0.2454     0.0030    90.3924     0.1233     2.4707
  460.0000    13.7188    13.5289   -66.1528  -999.2500     7.7778     0.2448     0.0160    95.2899     0.1229     2.4730
  460.5000    13.0963    12.8146   -66.1472  -999.2500     7.7785     0.2483     0.0116   100.1874     0.1241     2.4708
  461.0000    13.2871    13.0932   -66.1415  -999.2500     7.7794     0.2495     0.0087   101.2331     0.1253     2.4687
  461.5000    13.4790    13.3782   -66.1359  -999.2500     7.7801     0.2491     0.0088   101.6861     0.1265     2.4672
  462.0000    13.3915    13.5746   -66.1302  -999.2500     7.7808     0.2386     0.0089   100.0593     0.1258     2.4673
  462.5000    13.4004    13.3095   -66.1232  -999.2500     7.7816     0.2368     0.0090    99.4811     0.1252     2.4704
  463.0000    13.1326    13.2258   -66.1176  -999.2500     7.7823     0.2374     0.0212    99.9363     0.1240     2.4736
  463.5000    12.9610    12.8783   -66.1119  -999.2500     7.7830     0.2410     0.0336   101.5746     0.1228     2.4799
  464.0000    12.6147    12.6209   -66.1063  -999.2500     7.7837     0.2470     0.0350   102.4721     0.1143     2.4894
  464.5000    12.2775    12.2080   -66.2486  -999.2500     7.7696     0.2496     0.0276   100.1103     0.1134     2.4887
  465.0000    11.7855    11.8825   -66.3909  -999.2500     7.7705     0.2445     0.0202    95.8227     0.1146     2.4843
  465.5000    11.4705    11.5680   -66.3838  -999.2500     7.7712     0.2493     0.0097    93.6089     0.1167     2.4806
  466.0000    11.7995    11.5795   -66.5275  -999.2500     7.7719     0.2589     0.0038    93.3214     0.1215     2.4814
  466.5000    11.9699    11.8312   -66.5205  -999.2500     7.7727     0.2594     0.0100   103.9988     0.1181     2.4852
  467.0000    11.8104    11.7400   -66.5148  -999.2500     7.7734     0.2489     0.0267   109.0445     0.1150     2.4906
  467.5000    11.8182    11.6071   -66.5078  -999.2500     7.7741     0.2471     0.0343   109.4975     0.1106     2.4959
  468.0000    11.8245    11.6186   -66.3542  -999.2500     7.7749     0.2477     0.0280   108.4691     0.1063     2.5027
  468.5000    12.1636    11.9534   -66.4965  -999.2500     7.7903     0.2599     0.0045   100.9222     0.1033     2.5088
  469.0000    12.0863    11.9629   -66.4908  -999.2500     7.7762     0.2728     0.0091    98.8545     0.0997     2.5118
  469.5000    11.8432    11.9724   -66.3373  -999.2500     7.7771     0.2761     0.0168   100.1986     0.0985     2.5134
  470.0000    11.5267    11.4188   -66.3302  -999.2500     7.7927     0.2755     0.0229   104.4738     0.0988     2.5112
  470.5000    11.2201    11.1166   -66.3246  -999.2500     7.7784     0.2586     0.0290   107.0307     0.1026     2.5059
  471.0000    10.9217    10.9728   -66.3190  -999.2500     7.7793     0.2526     0.0397   104.8192     0.1080     2.4985
  471.5000    10.8522    10.7543   -66.4626  -999.2500     7.7948     0.2527     0.0413   102.0130     0.1104     2.4957
  472.0000    10.6354    10.6173   -66.4556  -999.2500     7.7956     0.2561     0.0234   100.8343     0.1116     2.4943
  472.5000    10.6410    10.4800   -66.5979  -999.2500     7.7964     0.2537     0.0054   106.6229     0.1121     2.4929
  473.0000    10.6466    10.4904   -66.5908  -999.2500     7.7972     0.2549     0.0101   110.3352     0.1127     2.4930
  473.5000    10.6524    10.3527   -66.4387  -999.2500     7.7979     0.2645     0.0132   110.3438     0.1127     2.4945
  474.0000    10.6593    10.2208   -66.5810  -999.2500     7.7986     0.2798     0.0480   109.7125     0.1118     2.4961
  474.5000    10.6649    10.2290   -66.5739  -999.2500     7.7993     0.2800     0.0722   107.3981     0.1090     2.4992
  475.0000    10.6705    10.2371   -66.5669  -999.2500     7.8000     0.2774     0.0738   107.5570     0.1066     2.4993
  475.5000    10.6762    10.2472   -66.5612  -999.2500     7.8007     0.2716     0.0543   107.4153     0.1060     2.4993
  476.0000    10.6818    10.2553   -66.5556  -999.2500     7.8015     0.2715     0.0123   107.2758     0.1078     2.4949
  476.5000    10.4697    10.2635   -66.5500  -999.2500     7.8024     0.2703     0.0064   109.2125     0.1135     2.4912
  477.0000    10.4018    10.0611   -66.5443  -999.2500     7.8031     0.2679     0.0353   109.2211     0.1137     2.4898
  477.5000    10.0555     9.7274   -66.5385  -999.2500     7.7890     0.2679     0.0368   108.1927     0.1137     2.4891
  478.0000     8.5835     8.5152   -66.5316  -999.2500     7.7897     0.2706     0.0098   107.0025     0.1149     2.4861
  478.5000     7.4804     6.9959   -66.5260  -999.2500     7.7754     0.2873     0.0129   105.6935     0.1184     2.4784
  479.0000     7.0822     6.8107   -66.5203  -999.2500     7.7763     0.2921     0.0311   104.5148     0.1253     2.4579
  479.5000     7.2853     7.0070   -66.5147  -999.2500     7.7919     0.2900     0.0372   104.5256     0.1433     2.4340
  480.0000     7.9188     7.9955   -66.5089  -999.2500     7.8074     0.2833     0.0374   107.4972     0.1520     2.4250
  480.5000     9.0961     9.0607   -66.5020  -999.2500     7.8083     0.2677     0.0405   107.2095     0.1532     2.4403
