~VERSION INFORMATION
 VERS.                2.0:   CWLS LOG ASCII STANDARD - VERSION 2.0
 WRAP.                 NO:   ONE LINE PER DEPTH STEP
~WELL INFORMATION
#MNEM.UNIT      DATA TYPE    INFORMATION
#----------   ------------   ------------------------------
 STRT.F            4.0000:   START DEPTH
 STOP.F          564.0000:   STOP DEPTH
 STEP.F            0.1000:   STEP LENGTH
 NULL.          -999.2500:   NO VALUE
 COMP.       F D SERV INC:   COMPANY
 WELL. NAVAL PETROLEUM RESERVE 3 SX-3 #88-4-3:   WELL
 FLD .             TEAPOT:   FIELD
 LOC .       S3 T38N R78W:   LOCATION
 CNTY.            NATRONA:   COUNTY
 STAT.            WYOMING:   STATE
 CTRY. UNITED STATES OF AMERICA:   COUNTRY
 SRVC.      Western Atlas:   SERVICE COMPANY
 DATE.        15-OCT-1992:   LOGDATE
 API .       490252255000:   API NUMBER
~CURVE INFORMATION
#MNEM.UNIT       API CODE    CURVE DESCRIPTION
#----------   ------------   ------------------------------
 DEPT.F                  :   
 GRR .GAPI   07 310 01 00:   GAMMA RAY
 RILD.OHMM   07 120 46 00:   INDUCTION LOG DEEP RESISTIVITY
 RILM.OHMM   07 120 44 00:   INDUCTION LOG MEDIUM RESISTIVITY
~PARAMETER INFORMATION
#MNEM.UNIT          VALUE    DESCRIPTION
#----------   ------------   ------------------------------
 PD  .                 GL:   PERMANENT DATUM
 EPD .F              5129:   ELEVATION PERMANENT DATUM
 LMF .                 KB:   LOG MEASURED FROM
 DAPD.F                10:   FEET ABOVE PERMANENT DATUM
 DMF .                 KB:   DRILLING MEASURED FROM
 EKB .F              5139:   KELLING BUSHING
 EGL .F              5129:   GROUND LEVEL
 DATE.        15-OCT-1992:   RUN DATE
 RUN .                  1:   RUN NUMBER
 DD  .F               570:   DEPTH DRILLER
 DL  .F               570:   DEPTH LOGGER
 BLI .F               564:   BOTTOM LOG INTERVAL
 TLI .F               564:   TOP LOG INTERVAL
 CS  .IN            8.625:   CASING SIZE
 CBL .F                94:   CASING BOTTOM LOGGER
 BS  .IN            7.875:   BIT SIZE
 BSD .F               570:   BIT SIZE AT DEPTH
 DFT .           AIR FOAM:   DRILLING FLUID TYPE
 TCS .HRS               4:   TIME CURCULATED STOPPED
 MRT .F                72:   MAXIMUM RECORDED TEMPERATURE
 LUN .            HL-6345:   LOGGING UNIT NUMBER
 LUL .          FT.MORGAN:   LOGGING UNIT LOCATION
 ENGI.             BURLEY:   RECORDING ENGINEER
 WITN.        DARY STRONG:   WITNESSED BY
 CLNT.            A2DTECH:   CLIENT CODE
 ORIG.           5" PRINT:   ORIGIN OF DATA
 UWI .       490252255000:   UNIQUE WELL ID
 DICO. A2D Technologies, Inc.:   DIGITIZING COMPANY
~OTHER INFORMATION
~A    DEPT      GRR      RILD       RILM   
# ...
  459.0000   102.4622    10.8712    10.9236
  459.1000   102.8437    10.8296    10.9230
  459.2000   103.1707    10.8298    10.9130
  459.3000   103.6510    10.8299    10.8453
  459.4000   103.9292    10.8301    10.7847
  459.5000   104.1574    10.7827    10.7684
  459.6000   104.4106    10.7546    10.7330
  459.7000   104.7917    10.7324    10.6919
  459.8000   105.2178    10.6698    10.6913
  459.9000   105.5588    10.6050    10.6907
  460.0000   106.6468    10.5457    10.6303
  460.1000   107.5741    10.5310    10.6148
  460.2000   108.7638    10.4965    10.5793
  460.3000   109.8898    10.4576    10.5170
  460.4000   110.7304    10.4375    10.4550
  460.5000   111.2010    10.3120    10.3914
  460.6000   111.4696    10.2538    10.3908
  460.7000   111.7075    10.2401    10.3436
  460.8000   111.5870    10.2060    10.2826
  460.9000   111.4749    10.1464    10.1998
  461.0000   111.3003    10.0872    10.1010
  461.1000   110.7992    10.0271    10.1005
  461.2000   110.2774     9.9699    10.0423
  461.3000   109.0741     9.9571     9.9378
  461.4000   108.3937     9.9234     9.8549
  461.5000   108.0350     9.8435     9.8188
  461.6000   107.7854     9.7393     9.8076
  461.7000   107.4484     9.6818     9.7491
  461.8000   106.6791     9.6261     9.6366
  461.9000   106.4351     9.6143     9.5679
  462.0000   105.7925     9.5155     9.5115
  462.1000   105.3344     9.3924     9.4555
  462.2000   104.8891     9.3270     9.3891
  462.3000   104.2336     9.2179     9.2788
  462.4000   103.9832     9.1644     9.2243
  462.5000   103.0831     9.0264     9.1273
  462.6000   102.6819     8.9314     9.0522
  462.7000   102.1808     8.8585     8.9988
  462.8000   101.8851     8.7553     8.9246
  462.9000   101.8869     8.6529     8.7692
  463.0000   101.8927     8.4735     8.7076
  463.1000   102.1916     8.4336     8.5849
  463.2000   102.6053     8.3250     8.4649
  463.3000   103.1099     8.1995     8.3659
  463.4000   103.6146     8.1040     8.2578
  463.5000   104.1192     8.0095     8.1140
  463.6000   104.6241     7.8993     8.0019
  463.7000   105.2099     7.7869     7.8878
  463.8000   105.4224     7.6239     7.7223
  463.9000   105.9988     7.4836     7.5431
  464.0000   106.5303     7.3868     7.3585
  464.1000   106.9095     7.2569     7.1468
  464.2000   107.6383     7.0601     7.0035
  464.3000   107.9275     6.9250     6.8601
  464.4000   108.5762     6.7647     6.7078
  464.5000   108.9995     6.6244     6.5521
  464.6000   109.4869     6.5056     6.4084
  464.7000   110.1075     6.3779     6.2963
  464.8000   110.3976     6.2503     6.1686
  464.9000   111.2465     6.1226     6.0785
  465.0000   111.4687     5.9949     5.9504
  465.1000   112.0644     5.8781     5.8270
  465.2000   112.6986     5.7756     5.7172
  465.3000   113.2033     5.6763     5.5843
  465.4000   113.7311     5.6001     5.4350
  465.5000   114.5656     5.5725     5.3285
  465.6000   115.0179     5.5400     5.2050
  465.7000   115.8746     5.5222     5.0842
  465.8000   116.7555     5.5223     4.9952
  465.9000   117.6665     5.5223     4.9949
  466.0000   119.0096     5.5224     4.9946
  466.1000   121.1929     5.5503     5.0323
  466.2000   122.5758     5.5830     5.0763
  466.3000   125.3521     5.6159     5.1138
  466.4000   128.6222     5.6404     5.1595
  466.5000   131.8103     5.6426     5.2485
  466.6000   134.7310     5.6803     5.3183
  466.7000   137.1436     5.6804     5.3997
  466.8000   138.7899     5.6804     5.4952
  466.9000   140.1804     5.6962     5.5767
  467.0000   141.0305     5.7390     5.6511
  467.1000   141.1871     5.8017     5.7533
  467.2000   140.6861     5.8018     5.9064
  467.3000   140.1619     5.8018     5.9670
  467.4000   138.7246     5.8019     6.0612
  467.5000   137.2179     5.8020     6.1683
  467.6000   135.4290     5.7925     6.2771
  467.7000   133.3277     5.7615     6.3847
  467.8000   130.8544     5.7616     6.4681
  467.9000   127.2403     5.7917     6.5694
  468.0000   121.8611     5.8259     6.7127
  468.1000   118.4791     5.8942     6.8515
  468.2000   116.2991     5.9988     6.9845
  468.3000   114.4442     6.1086     7.1453
  468.4000   112.5765     6.2690     7.2849
  468.5000   111.3113     6.4025     7.4002
  468.6000   109.8166     6.5818     7.5310
  468.7000   108.5098     6.7778     7.6640
  468.8000   107.4053     6.9793     7.7716
  468.9000   106.5029     7.1777     7.8263
  469.0000   105.8026     7.3174     7.9778
  469.1000   105.2988     7.4749     8.0624
  469.2000   104.4070     7.6525     8.1910
  469.3000   103.5887     7.8343     8.3107
  469.4000   102.5848     8.0201     8.4080
  469.5000   101.5809     8.2270     8.5122
  469.6000   100.5769     8.6014     8.6755
  469.7000    99.5960     8.8360     8.7216
  469.8000    99.3050     9.0225     8.8466
  469.9000    99.5162     9.1547     8.9480
  470.0000    99.7694     9.2627     9.0000
  470.1000   100.2448     9.3653     9.0588
  470.2000   101.0626     9.4247     9.1731
  470.3000   102.0700     9.4249     9.2224
  470.4000   103.2255     9.4652     9.2367
  470.5000   104.0854     9.5210     9.2362
  470.6000   105.0929     9.5771     9.2535
  470.7000   106.1003     9.6261     9.3073
  470.8000   107.1078     9.6263     9.3651
  470.9000   108.0809     9.6793     9.4159
  471.0000   108.6499     9.6944     9.4300
  471.1000   109.0901     9.7252     9.4592
  471.2000   109.5947     9.7630     9.4953
  471.3000   109.9787     9.7713     9.5026
  471.4000   110.1606     9.8322     9.5610
  471.5000   110.1624     9.8868     9.6668
  471.6000   110.1644     9.9017     9.6951
  471.7000   110.1660     9.9337     9.6945
  471.8000   109.8181     9.9718     9.7138
  471.9000   109.4426     9.9720     9.7617
  472.0000   109.2692     9.9721     9.7611
  472.1000   109.2710    10.0281     9.7606
  472.2000   109.2729    10.0873     9.8032
  472.3000   109.2746    10.1467     9.8603
  472.4000   109.2764    10.2065     9.9176
  472.5000   109.2782    10.2570     9.9753
  472.6000   109.2800    10.2572    10.0355
  472.7000   109.2818    10.3154    10.0349
  472.8000   109.2837    10.3298    10.0344
  472.9000   109.2854    10.3989    10.0671
  473.0000   109.2872    10.4763    10.1039
  473.1000   109.1538    10.4868    10.1235
  473.2000   108.9901    10.5504    10.2455
  473.3000   108.9919    10.5506    10.2449
  473.4000   108.9938    10.5507    10.2443
  473.5000   108.9955    10.5509    10.2784
  473.6000   108.9973    10.5744    10.3153
  473.7000   108.9991    10.6367    10.3147
  473.8000   109.0915    10.7006    10.3141
  473.9000   109.3035    10.7625    10.3730
  474.0000   109.3053    10.7763    10.4814
  474.1000   109.5505    10.8136    10.5317
  474.2000   109.6096    10.8526    10.5550
  474.3000   109.7562    10.8769    10.6048
  474.4000   110.0094    11.0065    10.6040
  474.5000   110.2165    11.0708    10.6651
  474.6000   110.2184    11.1361    10.7272
  474.7000   109.9720    11.1627    10.7896
  474.8000   109.7223    11.1889    10.8523
  474.9000   109.6223    11.2548    10.9029
  475.0000   109.5238    11.3211    10.9021
  475.1000   109.3251    11.4012    10.9014
  475.2000   109.3269    11.4013    10.9523
  475.3000   109.0283    11.4420    10.9770
  475.4000   108.8261    11.4820    11.0289
  475.5000   108.8852    11.4821    11.1309
  475.6000   109.0334    11.4829    11.1302
  475.7000   109.0909    11.5635    11.2078
  475.8000   109.3569    11.6188    11.2073
  475.9000   110.2421    11.6453    11.2471
  476.0000   110.4521    11.6739    11.3125
  476.1000   110.8646    11.7427    11.3783
  476.2000   111.2594    11.8119    11.4431
  476.3000   111.5126    11.8940    11.4424
  476.4000   111.7546    11.8942    11.4970
  476.5000   111.7567    11.9379    11.5217
  476.6000   111.9715    11.9783    11.5211
  476.7000   112.0608    11.9945    11.5358
  476.8000   112.0626    12.0631    11.6028
  476.9000   112.0644    12.0633    11.6818
  477.0000   112.0662    12.0635    11.7382
  477.1000   112.0682    12.1085    11.7628
