~VERSION INFORMATION
 VERS.                2.0:   CWLS LOG ASCII STANDARD - VERSION 2.0
 WRAP.                 NO:   ONE LINE PER DEPTH STEP
~WELL INFORMATION
#MNEM.UNIT      DATA TYPE    INFORMATION
#----------   ------------   ------------------------------
 STRT.F           32.0000:   START DEPTH
 STOP.F          697.0000:   STOP DEPTH
 STEP.F            0.5000:   STEP LENGTH
 NULL.          -999.2500:   NO VALUE
 COMP.    FENIX & SCISSON:   COMPANY
 WELL.      NPR-3 #81S3-3:   WELL
 FLD .        TEAPOT DOME:   FIELD
 LOC .       S3 T38N R78W:   LOCATION
 CNTY.            NATRONA:   COUNTY
 STAT.            WYOMING:   STATE
 CTRY. UNITED STATES OF AMERICA:   COUNTRY
 SRVC.           BIRDWELL:   SERVICE COMPANY
 DATE.        11-JAN-1978:   LOGDATE
 API .       490251055400:   API NUMBER
~CURVE INFORMATION
#MNEM.UNIT       API CODE    CURVE DESCRIPTION
#----------   ------------   ------------------------------
 DEPT.F                  :   
 ILD .OHMM   05 120 46 00:   INDUCTION LOG DEEP
 SN  .OHMM   05 040 16 00:   SHORT NORMAL 16"
 SPR .MV     05 010 01 00:   SPONTANEOUS POTENTIAL FROM RES.
 CALD.IN     45 280 60 00:   CALIPER FROM DENSITY LOG
 DPHI.DEC    45 890 12 00:   DENSITY POROSITY SANDSTONE
 DRHO.G/C3   45 356 01 00:   DENSITY CORRECTION
 GRD .GAPI   45 310 01 00:   GAMMA RAY FROM DENSITY LOG
 RHOB.G/C3   45 350 01 00:   BULK DENSITY
~PARAMETER INFORMATION
#MNEM.UNIT          VALUE    DESCRIPTION
#----------   ------------   ------------------------------
 PD  .                 GL:   PERMANENT DATUM
 EPD .F              5119:   ELEVATION PERMANENT DATUM
 LMF .                 KB:   LOG MEASURED FROM
 DAPD.F                 4:   FEET ABOVE PERMANENT DATUM
 DMF .                 KB:   DRILLING MEASURED FROM
 EKB .F              5123:   KELLING BUSHING
 EGL .F              5119:   GROUND LEVEL
 DATE.        11-JAN-1978:   RUN DATE
 RUN .                  1:   RUN NUMBER
 DD  .F               695:   DEPTH DRILLER
 DL  .F               704:   DEPTH LOGGER
 BLI .F               697:   BOTTOM LOG INTERVAL
 TLI .F                40:   TOP LOG INTERVAL
 CS  .IN            8.625:   CASING SIZE
 CBD .F                40:   CASING BOTTOM DRILLER
 CBL .F                40:   CASING BOTTOM LOGGER
 BS  .IN            7.875:   BIT SIZE
 BSD .F               695:   BIT SIZE AT DEPTH
 DFT .                KCL:   DRILLING FLUID TYPE
 DFD .                8.6:   DRILLING FLUID DENSITY
 DFV .                 31:   DRILLING FLUID VISCOSITY
 DFPH.                9.5:   DRILLING FLUID PH
 DFL .                7.6:   DRILLING FLUID LOSS
 MSS .           FLOWLINE:   MUD SAMPLE SOURCE
 RMS .OHMM           0.32:   RESISTIVITY MUD SAMPLE
 MST .F                62:   MUD SAMPLE TEMPERATURE
 RMF .OHMM           0.32:   RESISTIVITY MUD FILTRATE SAMPLE
 MFST.F                62:   MUD FILTRATE SAMPLE TEMPERATURE
 RMC .OHMM            0.8:   RESISTIVITY MUD CAKE
 MCST.F                63:   MUD CAKE SAMPLE TEMPERATURE
 MFSS.               MEAS:   MUD FILTRATE SAMPLE SOURCE
 MCSS.               MEAS:   MUD CAKE SAMPLE SOURCE
 TCS .HRS               2:   TIME CURCULATED STOPPED
 LUN .               2958:   LOGGING UNIT NUMBER
 LUL .             CASPER:   LOGGING UNIT LOCATION
 ENGI.           REYNOLDS:   RECORDING ENGINEER
 WITN.         HARRINGTON:   WITNESSED BY
 CLNT.            A2DTECH:   CLIENT CODE
 ORIG.           5" PRINT:   ORIGIN OF DATA
 UWI .       490251055400:   UNIQUE WELL ID
 DICO. A2D Technologies, Inc.:   DIGITIZING COMPANY
~OTHER INFORMATION
~A   DEPT      ILD         SN        SPR       CALD       DPHI       DRHO         GRD      RHOB   
   32.0000  -999.2500  -999.2500  -999.2500  -999.2500  -999.2500  -999.2500    71.9722  -999.2500
   32.5000  -999.2500  -999.2500  -999.2500  -999.2500  -999.2500  -999.2500    70.7216  -999.2500
   33.0000  -999.2500  -999.2500  -999.2500  -999.2500  -999.2500  -999.2500    69.1133  -999.2500
   33.5000  -999.2500  -999.2500  -999.2500  -999.2500  -999.2500  -999.2500    69.4498  -999.2500
   34.0000  -999.2500  -999.2500  -999.2500  -999.2500  -999.2500  -999.2500    77.3721  -999.2500
   34.5000  -999.2500  -999.2500  -999.2500  -999.2500  -999.2500  -999.2500    80.3545  -999.2500
   35.0000  -999.2500  -999.2500  -999.2500  -999.2500  -999.2500  -999.2500    77.2359  -999.2500
   35.5000  -999.2500  -999.2500  -999.2500  -999.2500  -999.2500  -999.2500    70.5407  -999.2500
   36.0000  -999.2500  -999.2500  -999.2500  -999.2500  -999.2500  -999.2500    61.3118  -999.2500
   36.5000  -999.2500  -999.2500  -999.2500  -999.2500  -999.2500  -999.2500    60.6744  -999.2500
   37.0000  -999.2500  -999.2500  -999.2500  -999.2500  -999.2500  -999.2500    64.0167  -999.2500
   37.5000  -999.2500  -999.2500  -999.2500  -999.2500  -999.2500  -999.2500    74.9071  -999.2500
   38.0000  -999.2500  -999.2500  -999.2500  -999.2500  -999.2500  -999.2500    87.5859  -999.2500
   38.5000  -999.2500  -999.2500  -999.2500  -999.2500  -999.2500  -999.2500    90.5776  -999.2500
   39.0000  -999.2500  -999.2500  -999.2500  -999.2500  -999.2500  -999.2500    88.5023  -999.2500
   39.5000  -999.2500  -999.2500  -999.2500  -999.2500  -999.2500  -999.2500    87.3212  -999.2500
   40.0000  -999.2500  -999.2500  -999.2500     8.7004     0.4527    -0.6378    87.1833     1.6159
   40.5000  -999.2500  -999.2500  -999.2500     8.6614     0.4527    -0.6849    82.7062     1.6159
   41.0000  -999.2500  -999.2500  -999.2500     8.6620     0.4527    -0.5690    78.3731     1.6159
   41.5000  -999.2500  -999.2500  -999.2500     8.6476     0.4527    -0.4622    74.6684     1.6167
   42.0000  -999.2500  -999.2500  -999.2500     8.6334     0.4527    -0.4095    70.5961     1.6167
   42.5000  -999.2500  -999.2500  -999.2500     8.6191     0.4527    -0.3613    65.3067     1.6167
   43.0000  -999.2500  -999.2500  -999.2500     8.6048     0.4527    -0.2554    57.0566     1.6167
   43.5000  -999.2500  -999.2500  -999.2500     8.5907     0.4530     0.0599    56.5608     1.6167
   44.0000  -999.2500  -999.2500   -13.6993     8.5763     0.4527     0.1457    61.5400     1.6167
   44.5000  -999.2500  -999.2500   -15.0204     8.5471     0.4530     0.1232    69.6088     1.6174
   45.0000     1.4999     1.4849   -21.5653     8.5033     0.4527     0.0902    80.9302     1.6174
   45.5000     1.5213     1.4854   -27.8118     8.5188     0.2534     0.0858    96.0072     2.1056
   46.0000     1.6425     1.4963   -31.8194     8.6235     0.1483     0.0859   100.1364     2.3228
   46.5000     2.0656     1.7553   -32.6983     9.4873     0.1317     0.0859   100.7408     2.4092
   47.0000     1.4111     3.4853   -32.6705     8.7587     0.1266     0.0860   100.4539     2.4256
   47.5000     1.1463     4.0044   -32.9468     8.7581     0.1248     0.0861   101.8091     2.4326
   48.0000     1.8125     4.3228   -34.2679     8.7748     0.1233     0.0816   103.4596     2.4364
   48.5000     2.4601     4.7977   -34.3955     8.7903     0.1214     0.0740   104.2131     2.4394
   49.0000     2.8076     5.3989   -34.3728     8.8269     0.1205     0.0653   102.4386     2.4424
   49.5000     4.9944     6.1120   -35.5446     8.8511     0.1199     0.0608   103.4930     2.4462
   50.0000     5.9010     7.1270   -35.8209     8.8517     0.1244     0.0684   105.6581     2.4343
   50.5000     6.1966     7.4850   -36.2512     8.8523     0.1262     0.0805   107.0838     2.4351
   51.0000     6.1988     7.8581   -36.6816     8.8529     0.1249     0.0806   105.8960     2.4328
   51.5000     6.3313     8.1400   -36.6343     8.8535     0.1215     0.0807   102.9198     2.4353
   52.0000     6.7883     8.4336   -36.3284     8.8542     0.1183     0.0808   100.6887     2.4510
   52.5000     7.2280     8.7920   -36.3060     8.8548     0.1159     0.0838    99.5009     2.4540
   53.0000     7.5902     9.0429   -36.5832     8.8554     0.1135     0.0914    95.9286     2.4548
   53.5000     7.9705     9.3010   -36.8540     8.8560     0.1125     0.1020    94.1446     2.4547
   54.0000     8.3121     9.5664   -36.8326     8.8566     0.1189     0.1111    95.7884     2.4483
   54.5000     8.4897     9.8395   -36.8121     8.8573     0.1222     0.1172    97.7303     2.4406
   55.0000     8.6113     9.9718   -37.4032     8.8579     0.1176     0.1188    96.3636     2.4494
   55.5000     8.6742    10.1144   -37.5465     8.8585     0.1152     0.1204    94.3010     2.4550
   56.0000     8.7376    10.1291   -37.3672     8.8591     0.1134     0.1220    94.7948     2.4550
   56.5000     8.7406    10.2040   -37.2358     8.8597     0.1119     0.1220    96.6200     2.4558
   57.0000     8.7436    10.3375   -37.2577     8.8604     0.1094     0.1221    98.2534     2.4588
   57.5000     8.7467    10.4136   -37.3734     8.8610     0.1139     0.1222    99.6954     2.4521
   58.0000     8.7497    10.4172   -37.6660     8.8309     0.1148     0.1177   101.3391     2.4499
   58.5000     8.7527    10.4932   -37.2108     8.8027     0.1166     0.1268   102.2377     2.4514
   59.0000     8.7558    10.4968   -37.0556     8.7884     0.1202     0.1329   102.5402     2.4477
   59.5000     8.7588    10.5005   -36.9004     8.7891     0.1238     0.1330   101.6505     2.4402
   60.0000     8.7625    10.4307   -36.8944     8.7748     0.1253     0.1391   100.1646     2.4373
   60.5000     8.7649    10.4352   -37.3362     8.7755     0.1240     0.1543    99.7208     2.4396
   61.0000     8.7685    10.4388   -37.7781     8.7761     0.1295     0.1558    99.1302     2.4237
   61.5000     8.8326    10.4424   -37.9228     8.7916     0.1340     0.1514    99.5818     2.4132
   62.0000     8.8971    10.3730   -37.9154     8.8071     0.1352     0.1516   101.3746     2.4102
   62.5000     8.9621    10.3059   -38.0602     8.8078     0.1352     0.1578   101.9751     2.4132
   63.0000     9.0276    10.2374   -38.3528     8.8381     0.1352     0.1651   100.4893     2.4110
   63.5000     9.1568    10.1703   -38.4961     8.8685     0.1361     0.1727    98.4072     2.4050
   64.0000     9.3526    10.1747   -38.6394     8.8691     0.1482     0.1803    97.8144     2.3990
   64.5000     9.4865    10.1782   -38.7827     8.8697     0.1514     0.1909    96.4787     2.3938
   65.0000     9.6223    10.1105   -38.9245     8.8703     0.1496     0.2000    93.0554     2.3961
   65.5000     9.7601    10.1149   -38.9185     8.8710     0.1418     0.2031    92.9108     2.4044
   66.0000     9.8314    10.1184   -38.9126     8.8716     0.1360     0.2032    89.6365     2.4119
   66.5000     9.9032    10.1219   -38.7574     8.8721     0.1326     0.2108    86.2132     2.4165
   67.0000     9.9066    10.1254   -38.4529     8.8728     0.1377     0.2229    85.0254     2.4150
   67.5000     9.9100    10.1993   -38.1485     8.8734     0.1413     0.2320    83.5396     2.4045
   68.0000     9.9824    10.2028   -37.8440     8.8740     0.1425     0.2350    80.4143     2.4015
   68.5000    10.0554    10.2063   -37.6888     8.8747     0.1434     0.2351    81.3164     2.4023
   69.0000    10.0588    10.2098   -37.8336     8.8754     0.1440     0.2352    81.6244     2.4031
   69.5000    10.0623    10.1420   -37.8261     8.8760     0.1455     0.2262    81.7690     2.3986
   70.0000    10.0658    10.2169   -37.8202     8.8171     0.1557     0.2098    81.9225     2.3806
   70.5000    10.0692    10.1490   -37.8143     8.7135     0.1672     0.2023    81.7778     2.3746
   71.0000    10.0022    10.0129   -38.2561     8.6546     0.1767     0.1934    80.4420     2.3592
   71.5000     9.8687     9.8794   -38.8471     8.6255     0.1879     0.1859    75.0813     2.3341
   72.0000     9.6020     9.4152   -38.6919     8.6110     0.2008     0.1725    72.5522     2.3151
