~VERSION INFORMATION
 VERS.                2.0:   CWLS LOG ASCII STANDARD - VERSION 2.0
 WRAP.                 NO:   ONE LINE PER DEPTH STEP
~WELL INFORMATION
#MNEM.UNIT      DATA TYPE    INFORMATION
#----------   ------------   ------------------------------
 STRT.F           24.5000:   START DEPTH
 STOP.F          576.0000:   STOP DEPTH
 STEP.F            0.5000:   STEP LENGTH
 NULL.          -999.2500:   NO VALUE
 COMP. FENIX & SCISSON INC:   COMPANY
 WELL.    NPR-3 SX #61-15:   WELL
 FLD .             TEAPOT:   FIELD
 LOC .      S15 T38N R78W:   LOCATION
 CNTY.            NATRONA:   COUNTY
 STAT.            WYOMING:   STATE
 CTRY. UNITED STATES OF AMERICA:   COUNTRY
 SRVC.            Unknown:   SERVICE COMPANY
 DATE.        29-MAY-1978:   LOGDATE
 API .       490251062300:   API NUMBER
~CURVE INFORMATION
#MNEM.UNIT       API CODE    CURVE DESCRIPTION
#----------   ------------   ------------------------------
 DEPT.F                  :   
 GRD .GAPI   45 310 01 00:   GAMMA RAY FROM DENSITY LOG
 CALD.IN     45 280 60 00:   CALIPER FROM DENSITY LOG
 SN  .OHMM   05 040 16 00:   SHORT NORMAL 16'
 SPR .MV     05 010 01 00:   SPONTANEOUS POTENTIAL
 ILD .OHMM   05 120 46 00:   INDUCTION LOG DEEP
 RHOB.G/C3   45 350 01 00:   BULK DENSITY
 DPHI.DEC    45 890 12 00:   DENSITY POROSITY SANDSTONE
 CORR.G/C3   45 356 01 00:   DENSITY CORRECTION
~PARAMETER INFORMATION
#MNEM.UNIT          VALUE    DESCRIPTION
#----------   ------------   ------------------------------
 PD  .                 GL:   PERMANENT DATUM
 EPD .F              5221:   ELEVATION PERMANENT DATUM
 LMF .                 KB:   LOG MEASURED FROM
 DAPD.F                 4:   FEET ABOVE PERMANENT DATUM
 DMF .                 KB:   DRILLING MEASURED FROM
 EKB .F              5225:   KELLING BUSHING
 EGL .F              5221:   GROUND LEVEL
 DATE.          5-29-1978:   RUN DATE
 RUN .                  1:   RUN NUMBER
 DD  .F               565:   DEPTH DRILLER
 DL  .F               578:   DEPTH LOGGER
 BLI .F               570:   BOTTOM LOG INTERVAL
 TLI .F                40:   TOP LOG INTERVAL
 CS  .IN            8.625:   CASING SIZE
 CBD .F                40:   CASING BOTTOM DRILLER
 CBL .F                40:   CASING BOTTOM LOGGER
 BS  .IN            7.875:   BIT SIZE
 BSD .F               565:   BIT SIZE AT DEPTH
 DFT .                KCL:   DRILLING FLUID TYPE
 DFD .                8.7:   DRILLING FLUID DENSITY
 DFV .                 34:   DRILLING FLUID VISCOSITY
 DFPH.                9.5:   DRILLING FLUID PH
 DFL .               10.4:   DRILLING FLUID LOSS
 BHT .F                76:   BOTTOM HOLE TEMPERATURE
 TCS .HRS               3:   TIME CURCULATED STOPPED
 MRT .F                76:   MAXIMUM RECORDED TEMPERATURE
 LUN .               2958:   LOGGING UNIT NUMBER
 LUL .              CASP.:   LOGGING UNIT LOCATION
 ENGI.             MILLER:   RECORDING ENGINEER
 WITN.           MCGINLEY:   WITNESSED BY
 CLNT.            A2DTECH:   CLIENT CODE
 ORIG.      2" , 5" PRINT:   ORIGIN OF DATA
 UWI .       490251062300:   UNIQUE WELL ID
 DICO. A2D Technologies, Inc.:   DIGITIZING COMPANY
~OTHER INFORMATION
~A   DEPT       GRD      CALD         SN        SPR        ILD       RHOB       DPHI       CORR   
# ...
  146.0000    88.0269     8.2507     8.9391   -36.3982     9.3181     2.5076     0.0994     0.1915
  146.5000    85.9846     8.2805     8.9821   -36.4544     9.3185     2.5090     0.0954     0.2216
  147.0000    85.5330     8.3118     8.9821   -36.5098     9.3185     2.5086     0.0913     0.2422
  147.5000    84.4623     8.2903     8.9820   -36.5304     9.3202     2.5081     0.0797     0.2517
  148.0000    83.3904     8.2558     8.9785   -36.3935     9.0727     2.5187     0.0751     0.2605
  148.5000    82.3278     8.1832     8.9750   -36.2598     8.9012     2.5332     0.0845     0.2625
  149.0000    81.5918     8.0568     8.9715   -36.1265     8.7330     2.5391     0.0908     0.2423
  149.5000    82.9106     7.9312     8.9680   -35.9933     8.5679     2.5353     0.0920     0.2106
  150.0000    85.4390     7.8067     8.9645   -35.8600     8.4059     2.5226     0.0958     0.1789
  150.5000    87.9517     7.6971     8.9609   -35.7267     8.2470     2.5095     0.1077     0.1472
  151.0000    90.4467     7.6213     8.9574   -35.5885     8.0911     2.4964     0.1195     0.1153
  151.5000    92.1009     7.5047     8.9539   -35.5578     7.9383     2.4833     0.1245     0.0825
  152.0000    91.3088     7.3828     8.9504   -35.5573     7.7504     2.4703     0.1257     0.0627
  152.5000    90.4890     7.2601     8.9469   -35.5577     7.7474     2.4598     0.1248     0.0520
  153.0000    90.0889     7.1437     8.9434   -35.5578     7.7451     2.4588     0.1260     0.0501
  153.5000    90.0861     7.1429     8.9399   -35.5578     7.8836     2.4600     0.1235     0.0498
  154.0000    89.3097     7.2685     8.9364   -35.5578     8.1299     2.4637     0.1151     0.0554
  154.5000    87.5448     7.3985     8.9329   -35.5578     8.5580     2.4712     0.1088     0.0612
  155.0000    85.7799     7.6087     8.9294   -35.5578     9.0086     2.4789     0.1130     0.0589
  155.5000    84.9158     7.8229     8.9259   -35.5578     9.4829     2.4790     0.1207     0.0537
  156.0000    85.8905     8.0373     8.9224   -35.5578     9.8478     2.4696     0.1257     0.0584
  156.5000    88.4987     8.2414     8.9189   -35.5578     9.8478     2.4582     0.1292     0.0829
  157.0000    91.1814     8.2983     8.9154   -35.5578     9.8478     2.4511     0.1292     0.1076
  157.5000    91.9772     8.3051     8.9119   -35.5578     9.8478     2.4491     0.1215     0.1375
  158.0000    90.8918     8.3121     8.9084   -35.5578     9.8141     2.4515     0.1039     0.1909
  158.5000    88.9377     8.2982     8.9057   -35.5578     9.5432     2.4706     0.0820     0.2436
  159.0000    86.9716     8.1991     8.8923   -35.5582     9.2798     2.4894     0.0858     0.2875
  159.5000    86.7712     8.0248     8.9904   -35.5563     9.0237     2.5082     0.0919     0.2681
  160.0000    86.8452     7.8515     8.9837   -35.4859     8.7747     2.5168     0.0980     0.2147
  160.5000    86.8594     7.6803     8.9820   -35.4108     8.5322     2.5077     0.1049     0.1608
  161.0000    86.4123     7.6438     8.9821   -35.3358     8.2948     2.4965     0.1152     0.1113
  161.5000    86.1175     7.6185     8.9821   -35.2610     8.0431     2.4853     0.1257     0.0872
  162.0000    86.4927     7.5505     8.9821   -35.1857     8.0865     2.4665     0.1316     0.0625
  162.5000    87.4830     7.4138     8.9821   -35.1708     8.1561     2.4486     0.1247     0.0495
  163.0000    87.6071     7.2779     8.9821   -35.1957     8.2263     2.4522     0.1135     0.0545
  163.5000    87.6424     7.1592     8.9821   -35.2210     8.2970     2.4606     0.1023     0.0592
  164.0000    86.4971     7.1422     8.9821   -35.2463     8.3684     2.4766     0.0939     0.0626
  164.5000    84.2138     7.1915     8.9821   -35.2716     8.4404     2.5023     0.0857     0.0626
  165.0000    84.0323     7.2997     8.9821   -35.2968     8.5131     2.5137     0.0820     0.0626
  165.5000    84.9413     7.4069     8.9821   -35.3221     8.5863     2.5218     0.0881     0.0626
  166.0000    84.9479     7.5272     8.9821   -35.3473     8.6602     2.5160     0.0962     0.0626
  166.5000    86.9921     7.7105     8.9822   -35.3726     8.8183     2.5071     0.1043     0.0639
  167.0000    89.7675     7.8945     8.9818   -35.3978     8.7867     2.4980     0.1084     0.0684
  167.5000    90.5980     7.9994     8.9681   -35.4231     8.7313     2.4919     0.0997     0.0812
  168.0000    90.6387     8.0374     8.9536   -35.4483     8.6762     2.4923     0.0913     0.1139
  168.5000    89.1886     8.0378     8.9392   -35.4736     8.6215     2.5057     0.0829     0.1457
  169.0000    87.7859     8.0380     8.9248   -35.4989     8.5672     2.5197     0.0745     0.1773
  169.5000    88.5004     8.0533     8.9105   -35.5239     8.5131     2.5295     0.0732     0.1768
  170.0000    91.0500     8.1204     8.8962   -35.5505     8.4595     2.5341     0.0791     0.1621
  170.5000    92.6925     8.1790     8.8819   -35.4976     8.4061     2.5285     0.0852     0.1476
  171.0000    93.4875     8.1776     8.8676   -35.4097     8.3531     2.5230     0.0880     0.1332
  171.5000    93.8217     8.1726     8.8533   -35.3204     8.3004     2.5175     0.0901     0.1189
  172.0000    93.6131     8.1642     8.8391   -35.2312     8.2481     2.5120     0.0921     0.1125
  172.5000    93.4245     8.1572     8.8251   -35.1419     8.1892     2.5068     0.0940     0.1134
  173.0000    93.9020     8.1539     8.8183   -35.0519     8.1885     2.5059     0.0925     0.1151
  173.5000    94.3629     8.1484     8.8184   -34.9647     8.2654     2.5057     0.0907     0.1169
  174.0000    92.9569     8.1427     8.8183   -35.0216     8.2743     2.5055     0.0900     0.1187
  174.5000    91.2474     8.1365     8.8183   -35.0876     8.2776     2.5054     0.0908     0.1182
  175.0000    89.7086     8.0824     8.8183   -35.1529     8.2811     2.5052     0.0941     0.1020
  175.5000    90.3066     7.9699     8.8181   -35.2181     8.2845     2.5048     0.0993     0.0849
  176.0000    91.5061     7.8577     8.8275   -35.2833     8.2879     2.4974     0.1044     0.0678
  176.5000    92.5181     7.7424     8.8388   -35.3484     8.2913     2.4898     0.1049     0.0560
  177.0000    93.1036     7.6891     8.8501   -35.4136     8.2947     2.4843     0.1044     0.0498
  177.5000    92.7346     7.6673     8.8614   -35.4787     8.2982     2.4805     0.1264     0.0471
  178.0000    88.8724     7.6376     8.8728   -35.5439     8.3016     2.4762     0.1256     0.0460
  178.5000    83.7634     7.5841     8.8841   -35.6091     8.3050     2.4703     0.1173     0.0425
  179.0000    86.4086     7.5309     8.8955   -35.6743     8.3084     2.4644     0.1036     0.0504
  179.5000    89.3156     7.4779     8.9069   -35.7425     8.3119     2.4585     0.1132     0.0600
  180.0000    89.6933     7.4433     8.9182   -35.7262     8.3153     2.4541     0.1060     0.0477
  180.5000    89.6859     7.4601     8.9297   -35.6845     8.3187     2.4591     0.1134     0.0391
  181.0000    91.3403     7.4755     8.9411   -35.6421     8.3222     2.4671     0.1136     0.0420
  181.5000    94.1169     7.4909     8.9526   -35.6000     8.3256     2.4752     0.1025     0.0455
  182.0000    94.6691     7.5063     8.9646   -35.5579     8.3291     2.4834     0.1000     0.0465
  182.5000    93.3379     7.5216     8.9725   -35.5159     8.3325     2.4916     0.1024     0.0465
  183.0000    92.3458     7.5358     8.9876   -35.4739     8.3359     2.4931     0.1002     0.0466
  183.5000    92.7806     7.5979     8.8059   -35.4327     8.3394     2.4908     0.1057     0.0480
  184.0000    93.0291     7.6686     8.7151   -35.3886     8.3428     2.4878     0.1088     0.0526
  184.5000    92.7180     7.7394     8.6252   -35.2671     8.3445     2.4848     0.1100     0.0630
  185.0000    92.4215     7.8101     8.5361   -34.9536     8.3505     2.4820     0.1100     0.0772
  185.5000    92.6981     7.8807     8.4482   -34.9567     8.3572     2.4821     0.1092     0.0990
  186.0000    96.1293     7.9514     8.4187   -34.9660     8.3639     2.4850     0.1077     0.1311
