~VERSION INFORMATION
 VERS.                2.0:   CWLS LOG ASCII STANDARD - VERSION 2.0
 WRAP.                 NO:   ONE LINE PER DEPTH STEP
~WELL INFORMATION
#MNEM.UNIT      DATA TYPE    INFORMATION
#----------   ------------   ------------------------------
 STRT.F           34.0000:   START DEPTH
 STOP.F          496.0000:   STOP DEPTH
 STEP.F            0.5000:   STEP LENGTH
 NULL.          -999.2500:   NO VALUE
 COMP. LAWRENCE/ALLISON INC:   COMPANY
 WELL.   55-55 SX FI #3-3:   WELL
 FLD .             TEAPOT:   FIELD
 LOC .       S3 T38N R78W:   LOCATION
 CNTY.            NATRONA:   COUNTY
 STAT.            WYOMING:   STATE
 CTRY. UNITED STATES OF AMERICA:   COUNTRY
 SRVC.       Schlumberger:   SERVICE COMPANY
 DATE.        18-JUL-1982:   LOGDATE
 API .       490251089500:   API NUMBER
~CURVE INFORMATION
#MNEM.UNIT       API CODE    CURVE DESCRIPTION
#----------   ------------   ------------------------------
 DEPT.F                  :   
 CALD.IN     45 280 60 00:   CALIPER FROM DENSITY LOG
 GRD .GAPI   45 310 01 00:   GAMMA RAY FROM DENSITY LOG
 CORR.G/C3   45 356 01 00:   DENSITY CORRECTION
 RHOB.G/C3   45 350 01 00:   BULK DENSITY
 DPHI.DEC    45 890 12 00:   DENSITY POROSITY SANDSTONE
 SPR .MV     07 010 01 00:   SPONTANEOUS POTENTIAL
 ILD .OHMM   07 120 46 00:   INDUCTION LOG DEEP
 ILM .OHMM   07 120 44 00:   INDUCTION LOG MEDIUM
 SFL .OHMM   07 220 01 00:   SHALLOW FOCUSED LOG RESISTIVITY
~PARAMETER INFORMATION
#MNEM.UNIT          VALUE    DESCRIPTION
#----------   ------------   ------------------------------
 PD  .                 GL:   PERMANENT DATUM
 EPD .F              5167:   ELEVATION PERMANENT DATUM
 LMF .                 KB:   LOG MEASURED FROM
 DAPD.F                 9:   FEET ABOVE PERMANENT DATUM
 DMF .                 KB:   DRILLING MEASURED FROM
 EKB .F              5176:   KELLING BUSHING
 EDF .F                  :   DRILLING FLOOR
 EGL .F              5167:   GROUND LEVEL
 DATE.        18-JUL-1982:   RUN DATE
 RUN .                  1:   RUN NUMBER
 DD  .F               500:   DEPTH DRILLER
 DL  .F               499:   DEPTH LOGGER
 BLI .F               436:   BOTTOM LOG INTERVAL
 TLI .F                50:   TOP LOG INTERVAL
 CS  .IN           13.375:   CASING SIZE
 CBD .F                50:   CASING BOTTOM DRILLER
 CBL .F                50:   CASING BOTTOM LOGGER
 BS  .IN            12.25:   BIT SIZE
 BSD .F               500:   BIT SIZE AT DEPTH
 DFT .         KCL FILLED:   DRILLING FLUID TYPE
 DFD .                   :   DRILLING FLUID DENSITY
 DFV .                   :   DRILLING FLUID VISCOSITY
 DFPH.                   :   DRILLING FLUID PH
 DFL .                   :   DRILLING FLUID LOSS
 MSS .           WELLHEAD:   MUD SAMPLE SOURCE
 RMS .OHMM           2.82:   RESISTIVITY MUD SAMPLE
 MST .F                80:   MUD SAMPLE TEMPERATURE
 RMF .OHMM               :   RESISTIVITY MUD FILTRATE SAMPLE
 MFST.F                  :   MUD FILTRATE SAMPLE TEMPERATURE
 RMC .OHMM               :   RESISTIVITY MUD CAKE
 MCST.F                  :   MUD CAKE SAMPLE TEMPERATURE
 MFSS.                   :   MUD FILTRATE SAMPLE SOURCE
 MCSS.                   :   MUD CAKE SAMPLE SOURCE
 RMB .OHMM           2.62:   RESISTIVITY MUD AT BHT
 BHT .F                86:   BOTTOM HOLE TEMPERATURE
 TCS .HRS            1530:   TIME CURCULATED STOPPED
 TLAB.HRS            1800:   TIME LOGGER AT BOTTOM
 MRT .F                86:   MAXIMUM RECORDED TEMPERATURE
 LUN .               8035:   LOGGING UNIT NUMBER
 LUL .             CASPER:   LOGGING UNIT LOCATION
 ENGI.              PENNY:   RECORDING ENGINEER
 WITN.             TAYLOR:   WITNESSED BY
 CLNT.            A2DTECH:   CLIENT CODE
 ORIG.           5" PRINT:   ORIGIN OF DATA
 UWI .       490251089500:   UNIQUE WELL ID
 DICO. A2D Technologies, Inc.:   DIGITIZING COMPANY
 OS  .                   :   OTHER SERVICES
 PWI .                   :   PRIMARY WELL IDENTIFIER
 R1  . POROSITY WITH SANDSTONE:   REMARKS 1
 R2  .                   :   REMARKS 2
 LSRV.                   :   LOG MNEMONIC
~OTHER INFORMATION
~A   DEPT     CALD         GRD      CORR       RHOB       DPHI        SPR        ILD        ILM        SFL   
# ...
  143.5000    12.5269    74.3856     0.0050     2.4325     0.1483   -54.3175     8.0824     7.8685     8.1228
  144.0000    12.5257    72.7932     0.0011     2.4278     0.1477   -54.3311     8.1900     7.9160     8.1749
  144.5000    12.5245    72.5541    -0.0036     2.4223     0.1510   -54.3446     8.2431     8.0132     8.2831
  145.0000    12.5233    72.7696    -0.0074     2.4192     0.1554   -54.2050     8.3528     8.1181     8.4495
  145.5000    12.5221    73.6550    -0.0045     2.4222     0.1540   -54.2219     8.4640     8.2244     8.5038
  146.0000    12.5059    74.7694    -0.0016     2.4296     0.1439   -54.2354     8.5175     8.2174     8.6148
  146.5000    12.5047    75.6582    -0.0001     2.4425     0.1406   -54.2489     8.5714     8.2677     8.6686
  147.0000    12.5185    76.5470    -0.0010     2.4363     0.1421   -54.1094     8.5647     8.2607     8.6029
  147.5000    12.5173    77.2105    -0.0011     2.4232     0.1486   -54.1263     8.5003     8.3113     8.5969
  148.0000    12.5010    78.0993    -0.0019     2.4178     0.1556   -53.9867     8.4949     8.3620     8.5317
  148.5000    12.4998    78.9878    -0.0013     2.4215     0.1545   -54.0036     8.4310     8.2957     8.4086
  149.0000    12.4986    79.8766     0.0017     2.4343     0.1496   -53.9941     8.3099     8.0631     8.2873
  149.5000    12.4974    80.5398     0.0054     2.4380     0.1460   -54.1640     8.1905     7.9467     8.1114
  150.0000    12.4962    78.7218     0.0091     2.4356     0.1442   -54.2389     8.1166     7.8854     7.7764
  150.5000    12.4951    74.8397     0.0037     2.4325     0.1464   -54.6447     8.0357     8.0447     7.9324
  151.0000    12.4941    72.3341     0.0013     2.4294     0.1485   -54.6612     7.9483     7.9809     8.0933
  151.5000    12.4930    71.7225    -0.0011     2.4247     0.1498   -54.5242     7.9417     7.9192     8.2538
  152.0000    12.5221    72.6221    -0.0020     2.4201     0.1547   -54.3956     7.9351     7.9127     8.3055
  152.5000    12.5361    73.5221    -0.0020     2.4147     0.1575   -54.4120     7.9285     7.7974     8.2961
  153.0000    12.5350    74.4222    -0.0013     2.4123     0.1584   -54.2751     7.9219     7.7372     8.2887
  153.5000    12.5340    75.3222     0.0039     2.4168     0.1578   -54.2957     7.8607     7.6775     8.2241
  154.0000    12.5179    75.9967     0.0098     2.4274     0.1545   -54.3121     7.8542     7.6711     8.1600
  154.5000    12.5319    75.7689     0.0120     2.4388     0.1472   -54.4779     7.7935     7.6119     8.0964
  155.0000    12.5306    75.0900     0.0119     2.4448     0.1414   -54.6436     7.7333     7.5531     8.0892
  155.5000    12.5296    74.4110     0.0103     2.4409     0.1402   -54.8093     7.6735     7.4948     8.0261
  156.0000    12.5286    74.4088     0.0071     2.4302     0.1451   -54.8257     7.6142     7.4885     7.9636
  156.5000    12.5275    74.4066     0.0040     2.4240     0.1488   -54.9915     7.5554     7.4307     7.9016
  157.0000    12.5265    75.0816    -0.0006     2.4201     0.1525   -55.0079     7.5491     7.4245     7.7859
  157.5000    12.5104    75.9811     0.0000     2.4200     0.1550   -55.0244     7.5428     7.4183     7.6720
  158.0000    12.5094    76.8811     0.0037     2.4254     0.1529   -54.8875     7.4845     7.3611     7.6122
  158.5000    12.5083    77.7811     0.0059     2.4328     0.1489   -54.7547     7.4783     7.3042     7.5529
  159.0000    12.4923    77.5533     0.0058     2.4343     0.1453   -54.4726     7.3693     7.2478     7.4941
  159.5000    12.4912    76.1977     0.0042     2.4289     0.1475   -54.3398     7.3123     7.1423     7.4874
  160.0000    12.5053    75.2932     0.0026     2.4250     0.1505   -54.2070     7.2558     7.0785     7.4806
  160.5000    12.5042    75.2910     0.0025     2.4226     0.1518   -53.9250     7.1501     6.9758     7.4739
  161.0000    12.5182    75.9879     0.0024     2.4225     0.1525   -53.9456     7.0459     6.8745     7.5207
  161.5000    12.4871    77.0911     0.0038     2.4255     0.1528   -54.1113     6.8952     6.7197     7.6169
  162.0000    12.4710    79.1184     0.0082     2.4285     0.1516   -54.4262     6.7013     6.4941     7.6646
  162.5000    12.4699    80.6951     0.0142     2.4307     0.1498   -54.7412     6.4232     6.2251     6.9012
  163.0000    12.4687    81.8207     0.0171     2.4314     0.1486   -54.6043     5.9885     5.9261     6.2152
  163.5000    12.4526    82.2701     0.0170     2.4283     0.1489   -54.0279     5.8200     5.7661     5.8751
  164.0000    12.4516    79.7861     0.0120     2.4251     0.1502   -53.8909     5.8963     5.8473     5.5537
  164.5000    12.4505    77.7538     0.0017     2.4243     0.1514   -53.9115     6.0150     5.9647     5.3612
  165.0000    12.4495    75.9471     0.0008     2.4227     0.1517   -53.9280     6.1788     6.1268     6.1501
  165.5000    12.4484    77.7494     0.0045     2.4249     0.1505   -53.9444     6.3912     6.2932     6.7229
  166.0000    12.4324    80.6795     0.0075     2.4310     0.1469   -53.9609     6.5652     6.4642     7.2984
  166.5000    12.4466    80.0006     0.0066     2.4371     0.1433   -54.1266     6.7440     6.6398     7.4465
  167.0000    12.4606    77.9683     0.0042     2.4415     0.1409   -54.2923     6.9277     6.8201     7.3868
  167.5000    12.4746    75.2593     0.0034     2.4421     0.1403   -54.4580     7.0672     7.0541     7.4331
  168.0000    12.5185    76.1593     0.0018     2.4458     0.1412   -54.6237     7.2096     7.2457     7.5805
  168.5000    12.5325    77.9616     0.0032     2.4427     0.1425   -54.6402     7.2036     7.2853     7.6792
  169.0000    12.5465    80.8917     0.0038     2.4373     0.1434   -54.8059     7.1976     7.2290     7.6194
  169.5000    12.5755    80.9121     0.0068     2.4426     0.1438   -54.8224     7.1916     7.1695     7.4561
  170.0000    12.5905    79.9850     0.0135     2.4486     0.1407   -54.8388     7.1360     7.1145     7.2963
  170.5000    12.6204    80.2196     0.0164     2.4538     0.1352   -54.8553     7.0809     7.0628     7.1896
  171.0000    12.6325    80.6572     0.0140     2.4507     0.1344   -54.7184     6.9777     7.0083     7.0844
  171.5000    12.6312    80.6211     0.0132     2.4415     0.1379   -54.2912     6.9238     6.9542     7.0292
  172.0000    12.6152    79.9755     0.0184     2.4224     0.1463   -53.8599     6.8703     6.8986     6.9263
  172.5000    12.6141    78.3943     0.0253     2.4193     0.1543   -53.7230     6.7701     6.7985     6.8724
  173.0000    12.6131    77.9415     0.0328     2.4200     0.1561   -53.7436     6.6715     6.6998     6.8188
  173.5000    12.6120    79.9688     0.0315     2.4138     0.1574   -53.7567     6.5742     6.5117     6.7657
  174.0000    12.6110    81.3200     0.0210     2.4061     0.1605   -53.7731     6.3893     6.2854     6.6667
  174.5000    12.6250    81.5439     0.0073     2.4068     0.1614   -53.7896     6.1241     6.0669     6.5239
  175.0000    12.6393    80.4133     0.0148     2.4082     0.1608   -53.8060     5.7096     5.8156     6.3400
  175.5000    12.6380    79.0576     0.0222     2.4057     0.1605   -53.8224     5.3602     5.4599     6.0348
  176.0000    12.6673    78.8298     0.0267     2.3831     0.1645   -53.8388     5.1735     5.1615     5.6263
  176.5000    12.6660    77.9254     0.0205     2.3535     0.1926   -53.8552     5.0629     4.7463     4.9973
  177.0000    12.6349    77.0209     0.0083     2.3417     0.2003   -53.7219     5.0237     4.5803     4.2582
  177.5000    12.6188    78.8232    -0.0001     2.3522     0.1972   -53.5891     5.0196     4.7713     3.9154
  178.0000    12.6177    80.3999    -0.0017     2.3773     0.1784   -53.4563     5.0853     5.0040     4.5551
  178.5000    12.6017    82.2022     0.0020     2.4252     0.1479   -53.7716     5.1878     5.2479     5.8790
  179.0000    12.5705    82.4256     0.0034     2.4388     0.1428   -53.9373     5.4409     5.5038     6.9348
  179.5000    12.5693    81.5210     0.0040     2.4433     0.1403   -54.1030     5.8262     5.8526     7.1246
