~VERSION INFORMATION
 VERS.                2.0:   CWLS LOG ASCII STANDARD - VERSION 2.0
 WRAP.                 NO:   ONE LINE PER DEPTH STEP
~WELL INFORMATION
#MNEM.UNIT      DATA TYPE    INFORMATION
#----------   ------------   ------------------------------
 STRT.F           32.0000:   START DEPTH
 STOP.F          648.0000:   STOP DEPTH
 STEP.F            0.5000:   STEP LENGTH
 NULL.          -999.2500:   NO VALUE
 COMP. LAWRENCE/ALLISON INC:   COMPANY
 WELL.    17-16 SX #17-11:   WELL
 FLD .             TEAPOT:   FIELD
 LOC .      S11 T38N R78W:   LOCATION
 CNTY.            NATRONA:   COUNTY
 STAT.            WYOMING:   STATE
 CTRY. UNITED STATES OF AMERICA:   COUNTRY
 SRVC.           Gearhart:   SERVICE COMPANY
 DATE.        12-JUL-1987:   LOGDATE
 API .       490251115200:   API NUMBER
~CURVE INFORMATION
#MNEM.UNIT       API CODE    CURVE DESCRIPTION
#----------   ------------   ------------------------------
 DEPT.F                  :   
 GRR .GAPI   07 310 01 00:   GAMMA RAY
 ILD .OHMM   07 120 46 00:   INDUCTION LOG DEEP
 ILM .OHMM   07 120 44 00:   INDUCTION LOG MEDIUM
~PARAMETER INFORMATION
#MNEM.UNIT          VALUE    DESCRIPTION
#----------   ------------   ------------------------------
 PD  .                 GL:   PERMANENT DATUM
 EPD .F              5231:   ELEVATION PERMANENT DATUM
 LMF .                 KB:   LOG MEASURED FROM
 DAPD.F                 8:   FEET ABOVE PERMANENT DATUM
 DMF .                 KB:   DRILLING MEASURED FROM
 EKB .F              5239:   KELLING BUSHING
 EDF .F              5237:   DRILLING FLOOR
 EGL .F              5231:   GROUND LEVEL
 DATE.        12-JUL-1987:   RUN DATE
 RUN .                  1:   RUN NUMBER
 DD  .F               650:   DEPTH DRILLER
 DL  .F               656:   DEPTH LOGGER
 BLI .F               654:   BOTTOM LOG INTERVAL
 TLI .F                30:   TOP LOG INTERVAL
 CS  .IN            8.625:   CASING SIZE
 CBD .F                48:   CASING BOTTOM DRILLER
 CBL .F                48:   CASING BOTTOM LOGGER
 BS  .IN            7.875:   BIT SIZE
 BSD .F               650:   BIT SIZE AT DEPTH
 DFT .                AIR:   DRILLING FLUID TYPE
 TLAB.HRS            1051:   TIME LOGGER AT BOTTOM
 MRT .F                80:   MAXIMUM RECORDED TEMPERATURE
 LUN .               7597:   LOGGING UNIT NUMBER
 LUL .           GILLETTE:   LOGGING UNIT LOCATION
 ENGI.         WEATHERMON:   RECORDING ENGINEER
 WITN.         MR. STRONG:   WITNESSED BY
 CLNT.            A2DTECH:   CLIENT CODE
 ORIG.           5" PRINT:   ORIGIN OF DATA
 UWI .       490251115200:   UNIQUE WELL ID
 DICO. A2D Technologies, Inc.:   DIGITIZING COMPANY
~OTHER INFORMATION
~A   DEPT       GRR       ILD        ILM   
   32.0000    90.7436  -999.2500  -999.2500
   32.5000    89.2261  -999.2500  -999.2500
   33.0000    86.1912  -999.2500  -999.2500
   33.5000    84.6738  -999.2500  -999.2500
   34.0000    86.2317  -999.2500  -999.2500
   34.5000    86.7982  -999.2500  -999.2500
   35.0000    85.8877  -999.2500  -999.2500
   35.5000    84.9772  -999.2500  -999.2500
   36.0000    84.0668  -999.2500  -999.2500
   36.5000    83.7633  -999.2500  -999.2500
   37.0000    84.3703  -999.2500  -999.2500
   37.5000    84.0668  -999.2500  -999.2500
   38.0000    83.1563  -999.2500  -999.2500
   38.5000    82.5493  -999.2500  -999.2500
   39.0000    82.5493  -999.2500  -999.2500
   39.5000    83.7633  -999.2500  -999.2500
   40.0000    86.4947  -999.2500  -999.2500
   40.5000    89.5296  -999.2500  -999.2500
   41.0000    90.7436  -999.2500  -999.2500
   41.5000    90.4401  -999.2500  -999.2500
   42.0000    89.2261  -999.2500  -999.2500
   42.5000    84.6738  -999.2500  -999.2500
   43.0000    80.7284  -999.2500  -999.2500
   43.5000    77.3799  -999.2500  -999.2500
   44.0000    77.7744  -999.2500  -999.2500
   44.5000    82.2458  -999.2500  -999.2500
   45.0000    84.9772  -999.2500  -999.2500
   45.5000    85.8877  -999.2500  -999.2500
   46.0000    85.2807  -999.2500  -999.2500
   46.5000    84.9772  -999.2500  -999.2500
   47.0000    85.8877  -999.2500  -999.2500
   47.5000    88.6191  -999.2500  -999.2500
   48.0000    92.2610     3.0174    12.0237
   48.5000    92.8680     3.2214     5.9159
   49.0000    91.3505     5.4602     5.1491
   49.5000    91.9575    13.1857     7.5426
   50.0000    93.7785    53.9614    11.8427
   50.5000    93.7785    45.0593    16.2309
   51.0000    93.1715    22.8273    28.1993
   51.5000    92.8680    19.0615    36.9655
   52.0000    93.7785    18.5427    34.2483
   52.5000    98.9000    18.5460    24.2060
   53.0000   100.7282    18.8853    18.4657
   53.5000    96.5245    20.0692    15.8508
   54.0000    90.5028    21.4674    14.9946
   54.5000    90.1722    22.3841    14.9946
   55.0000    91.4505    19.6219    15.8508
   55.5000    93.2920    17.9073    16.6621
   56.0000    93.3051    16.5024    17.3668
   56.5000    97.2578    15.5057    17.2275
   57.0000   100.6018    14.7729    16.8725
   57.5000   100.0182    13.9774    16.2970
   58.0000    99.1325    13.1332    15.3101
   58.5000    98.5438    12.0857    14.3830
   59.0000    99.1739    11.3558    12.6060
   59.5000   100.1009    10.6699    11.0486
   60.0000   101.6321     9.6166     9.7510
   60.5000   103.7676     8.8989     8.9680
   61.0000   105.2991     8.3733     8.4650
   61.5000   104.6717     8.0332     7.9181
   62.0000   103.5275     7.7068     7.5426
   62.5000   103.5533     7.3937     7.2349
   63.0000   103.8761     7.0933     6.9881
   63.5000   106.6158     6.9480     6.8918
   64.0000   111.1682     6.7592     6.7031
   64.5000   112.0952     6.7604     6.6107
   65.0000   113.0222     6.7615     6.6107
   65.5000   115.1577     6.7627     6.6567
   66.0000   119.4079     6.7641     6.7542
   66.5000   120.0328     6.8598     6.8918
   67.0000   119.3978     6.9568     6.9881
   67.5000   117.6572     7.1539     7.0368
   68.0000   118.2873     7.2551     7.0368
   68.5000   120.1207     7.2564     7.0368
   69.0000   121.6519     7.2576     7.0368
   69.5000   122.2768     7.1588     7.0368
   70.0000   120.4848     7.1104     6.9881
   70.5000   116.8801     7.0576     6.9881
   71.0000   115.9940     6.9663     6.8918
   71.5000   113.8963     6.8714     6.8441
   72.0000   115.4965     6.7778     6.7031
   72.5000   117.8742     6.7793     6.6567
   73.0000   119.4055     6.7804     6.6567
   73.5000   119.1240     6.7816     6.7031
   74.0000   116.7278     6.7827     6.7968
   74.5000   115.8369     6.7839     6.8441
   75.0000   115.5606     6.7850     6.9398
   75.5000   114.6698     6.8907     7.0368
   76.0000   114.3928     7.1255     7.0368
   76.5000   114.1118     7.1763     7.0428
   77.0000   114.1450     7.2276     7.1849
   77.5000   116.0876     7.4323     7.3360
   78.0000   118.1067     7.6428     7.5951
   78.5000   119.3358     7.8049     7.7013
   79.0000   120.8671     7.8606     7.8089
   79.5000   122.3958     7.9167     7.9181
   80.0000   118.4932     8.0287     7.9181
   80.5000   116.0970     8.0301     7.9181
   81.0000   114.3049     8.0877     7.9181
   81.5000   114.0183     8.0891     8.0287
   82.0000   114.6484     8.1468     8.0287
   82.5000   115.5754     8.1482     8.0287
   83.0000   115.2939     8.1496     8.0287
   83.5000   112.2935     8.1510     7.9181
   84.0000   109.2890     8.1523     7.8089
   84.5000   107.4693     8.1537     7.7013
   85.0000   107.2195     8.1551     7.7013
   85.5000   108.7559     8.0440     7.5951
   86.0000   111.4956     7.8796     7.4904
   86.5000   114.5374     7.7185     7.3871
   87.0000   116.3708     7.5088     7.2853
   87.5000   118.5062     7.4065     7.1849
   88.0000   121.8502     7.3565     7.0858
   88.5000   120.9645     7.3578     7.0858
   89.0000   116.4535     7.3590     7.1352
   89.5000   112.8487     7.4115     7.2349
   90.0000   111.0171     7.5164     7.4386
   90.5000   109.8689     7.6281     7.5951
   91.0000   110.1969     7.7310     7.6480
   91.5000   110.2175     7.7323     7.6467
   92.0000   110.2382     7.7336     7.6480
   92.5000   111.1652     7.7888     7.7013
   93.0000   112.6964     7.8443     7.7013
   93.5000   113.3213     7.8457     7.7549
   94.0000   111.5287     7.8470     7.7549
   94.5000   111.5500     7.7940     7.7549
   95.0000   112.4773     7.8497     7.7549
   95.5000   112.8489     7.7967     7.7549
   96.0000   113.7320     7.8526     7.7549
   96.5000   113.7526     7.8540     7.8089
   97.0000   115.5860     7.9651     7.8089
   97.5000   115.6066     7.9665     7.8633
   98.0000   115.9294     7.9678     7.8633
   98.5000   116.5543     7.9692     7.8089
   99.0000   117.1792     7.9150     7.6480
   99.5000   115.6893     7.7536     7.4904
  100.0000   114.8036     7.5426     7.4184
  100.5000   113.5317     7.4788     7.2941
  101.0000   113.0323     7.3371     7.1699
  101.5000   118.1941     7.2363     7.0873
  102.0000   121.2609     7.1370     7.0878
  102.5000   121.2874     7.0392     7.0884
  103.0000   120.7097     6.9910     7.0888
  103.5000   120.1321     6.9431     6.9915
  104.0000   119.8498     6.9437     6.9436
  104.5000   119.8830     6.8961     6.8960
  105.0000   120.5138     6.8966     6.8488
  105.5000   120.2195     6.8971     6.7549
  106.0000   119.5649     6.8976     6.7087
  106.5000   117.5789     6.8980     6.7559
  107.0000   116.3970     6.9465     6.8035
  107.5000   115.2085     6.9535     6.8039
  108.0000   117.9607     7.0447     6.8518
  108.5000   119.4978     7.0942     6.9964
  109.0000   120.1220     7.1441     7.0947
  109.5000   118.0404     7.2445     7.1944
  110.0000   116.5563     7.3463     7.2954
  110.5000   115.0723     7.5536     7.4494
  111.0000   116.0060     7.6067     7.5018
  111.5000   117.5490     7.6602     7.6073
  112.0000   118.4819     7.7142     7.7679
  112.5000   117.9042     7.7684     7.8225
  113.0000   113.0969     7.7690     7.8776
  113.5000   107.3832     7.7695     7.8235
  114.0000   105.5905     7.7700     7.8241
  114.5000   107.7385     7.7705     7.7168
  115.0000   109.2756     7.7711     7.6639
  115.5000   110.8127     7.7687     7.6034
  116.0000   111.1420     7.6028     7.4037
  116.5000   110.8658     7.4042     7.3021
  117.0000   110.5969     7.3024     7.1521
  117.5000   110.0126     7.2524     7.0052
  118.0000   113.0669     7.2530     7.0057
  118.5000   117.6252     7.2535     7.0061
  119.0000   121.5792     7.3554     7.0554
  119.5000   120.6994     7.4594     7.1050
  120.0000   118.9133     7.6692     7.2584
  120.5000   118.0335     7.7771     7.4265
  121.0000   117.7579     7.8863     7.6173
  121.5000   118.0866     7.9418     7.8323
  122.0000   113.8902     8.1094     7.9423
  122.5000   111.1977     8.2233     8.0539
