~VERSION INFORMATION
 VERS.                2.0:   CWLS LOG ASCII STANDARD - VERSION 2.0
 WRAP.                 NO:   ONE LINE PER DEPTH STEP
~WELL INFORMATION
#MNEM.UNIT      DATA TYPE    INFORMATION
#----------   ------------   ------------------------------
 STRT.F           84.0000:   START DEPTH
 STOP.F          849.5000:   STOP DEPTH
 STEP.F            0.5000:   STEP LENGTH
 NULL.          -999.2500:   NO VALUE
 COMP. U S NAVY/INTEX OIL CO:   COMPANY
 WELL.     NPR 3 #81-S-34:   WELL
 FLD .        TEAPOT DOME:   FIELD
 LOC .      S34 T39N R78W:   LOCATION
 CNTY.            NATRONA:   COUNTY
 STAT.            WYOMING:   STATE
 CTRY. UNITED STATES OF AMERICA:   COUNTRY
 SRVC.       Schlumberger:   SERVICE COMPANY
 DATE.        29-JUL-1963:   LOGDATE
 API .       490250656700:   API NUMBER
~CURVE INFORMATION
#MNEM.UNIT       API CODE    CURVE DESCRIPTION
#----------   ------------   ------------------------------
 DEPT.F                  :   
 CALS.IN     60 280 50 00:   CALIPER FROM SONIC LOG
 DT  .US/F   60 520 33 00:   INTERVAL TRANSIT TIME
 SPR .MV     05 010 01 00:   SPONTANEOUS POTENTIAL FROM RES.
 ILD .OHMM   05 120 46 00:   INDUCTION LOG DEEP
 ASN .OHMM   05 041 16 00:   AMPLIFIED SHORT NORMAL 16"
 CILD.MMHO   05 110 46 00:   CONDUCTIVITY INDUCTION LOG DEEP
 GR  .GAPI   30 310 01 00:   GAMMA RAY FROM RES.
~PARAMETER INFORMATION
#MNEM.UNIT          VALUE    DESCRIPTION
#----------   ------------   ------------------------------
 PD  .                 GL:   PERMANENT DATUM
 EPD .F              5067:   ELEVATION PERMANENT DATUM
 LMF .                 KB:   LOG MEASURED FROM
 DAPD.F                 5:   FEET ABOVE PERMANENT DATUM
 DMF .                 KB:   DRILLING MEASURED FROM
 EKB .F              5072:   KELLING BUSHING
 EGL .F              5067:   GROUND LEVEL
 DATE.          7-29-1963:   RUN DATE
 RUN .                  1:   RUN NUMBER
 DD  .F               850:   DEPTH DRILLER
 DL  .F               850:   DEPTH LOGGER
 BLI .F               849:   BOTTOM LOG INTERVAL
 TLI .F                90:   TOP LOG INTERVAL
 CS  .IN            8.625:   CASING SIZE
 CBD .F                10:   CASING BOTTOM DRILLER
 BS  .IN            7.875:   BIT SIZE
 BSD .F               850:   BIT SIZE AT DEPTH
 DFT .            GEL-OIL:   DRILLING FLUID TYPE
 DFD .                9.4:   DRILLING FLUID DENSITY
 DFV .                 40:   DRILLING FLUID VISCOSITY
 DFPH.                  9:   DRILLING FLUID PH
 DFL .                8.4:   DRILLING FLUID LOSS
 MSS .           FLOWLINE:   MUD SAMPLE SOURCE
 RMS .OHMM           3.08:   RESISTIVITY MUD SAMPLE
 MST .F                79:   MUD SAMPLE TEMPERATURE
 RMF .OHMM           2.39:   RESISTIVITY MUD FILTRATE SAMPLE
 MFST.F                79:   MUD FILTRATE SAMPLE TEMPERATURE
 RMC .OHMM           3.29:   RESISTIVITY MUD CAKE
 MCST.F                79:   MUD CAKE SAMPLE TEMPERATURE
 MFSS.                 MP:   MUD FILTRATE SAMPLE SOURCE
 MCSS.                 MP:   MUD CAKE SAMPLE SOURCE
 TCS .HRS               1:   TIME CURCULATED STOPPED
 LUN .               4507:   LOGGING UNIT NUMBER
 LUL .              CSPR.:   LOGGING UNIT LOCATION
 ENGI.             KNOBEL:   RECORDING ENGINEER
 WITN.          JORGENSON:   WITNESSED BY
 CLNT.            A2DTECH:   CLIENT CODE
 ORIG.           5" PRINT:   ORIGIN OF DATA
 UWI .       490250656700:   UNIQUE WELL ID
 DICO. A2D Technologies, Inc.:   DIGITIZING COMPANY
~OTHER INFORMATION
~A   DEPT     CALS         DT        SPR        ILD        ASN       CILD         GR   
# ...
  357.0000     7.8066    92.8707   -41.4161    12.0185    14.1674    81.2929  -999.2500
  357.5000     7.7837    89.3128   -41.6710    13.0904    14.8450    75.7252  -999.2500
  358.0000     7.7614    85.2165   -41.8078    14.4228    16.1834    69.4100  -999.2500
  358.5000     7.7915    80.2291   -41.5893    16.0746    18.1054    61.8933  -999.2500
  359.0000     7.8298    77.3516   -41.4630    17.7421    20.0364    56.6569  -999.2500
  359.5000     7.8673    72.7094   -41.5701    19.2433    23.3601    51.4419  -999.2500
  360.0000     7.8765    69.9305   -41.6699    20.7008    27.5065    46.2205  -999.2500
  360.5000     7.7846    67.1557   -41.7705    21.2891    31.6168    43.9883  -999.2500
  361.0000     7.7481    66.6797   -41.8471    20.3823    35.1577    46.2253  -999.2500
  361.5000     7.7310    70.6115   -41.6090    18.8523    36.5586    51.5109  -999.2500
  362.0000     7.7147    77.6115   -41.4840    17.3328    32.4193    57.0526  -999.2500
  362.5000     7.6990    84.6115   -41.6772    16.0377    24.7450    62.9902  -999.2500
  363.0000     7.7172    91.6115   -41.9366    14.5421    20.9931    70.4820  -999.2500
  363.5000     7.7383    95.3701   -43.3177    13.0540    18.7891    77.8921  -999.2500
  364.0000     7.7586    99.0076   -44.6895    12.0560    17.1797    85.3028  -999.2500
  364.5000     7.7418   101.7358   -45.3698    11.3743    15.6381    91.1689  -999.2500
  365.0000     7.7223   103.1392   -45.9403    10.9819    15.0209    93.8285  -999.2500
  365.5000     7.7194   103.2251   -46.3657    10.5746    14.4111    95.7113  -999.2500
  366.0000     7.7192   103.6065   -46.7853    10.5177    13.9704    95.7113  -999.2500
  366.5000     7.7366   104.5156   -47.2022    10.4510    13.7430    95.7113  -999.2500
  367.0000     7.6298   105.0299   -47.6225    10.4863    13.5157    95.7113  -999.2500
  367.5000     7.5214   104.4422   -48.0723    10.5256    13.2884    95.7113  -999.2500
  368.0000     7.4848   104.5538   -48.0279    10.5504    13.0593    95.7113  -999.2500
  368.5000     7.5268   104.4841   -47.5104    10.5759    13.0249    95.7113  -999.2500
  369.0000     7.5110   103.4841   -46.9385    10.6028    13.0264    95.7113  -999.2500
  369.5000     7.5294   102.7390   -46.2441    10.6657    12.7527    95.7113  -999.2500
  370.0000     7.5915   103.1161   -45.6343    10.7828    12.3363    93.9379  -999.2500
  370.5000     7.6354   103.0060   -45.2361    10.8991    12.2131    92.1938  -999.2500
  371.0000     7.6007   102.5060   -44.8503    11.0125    12.4667    90.4439  -999.2500
  371.5000     7.5676   102.0060   -44.5453    10.8081    12.6874    92.8703  -999.2500
  372.0000     7.5606   101.6434   -44.4589    10.1963    12.3845    99.1339  -999.2500
  372.5000     7.6017   102.1946   -44.3575     9.6285    11.8668   105.6771  -999.2500
  373.0000     7.6504   102.0279   -43.8368     9.0645    11.3459   113.2693  -999.2500
  373.5000     7.6999   101.8426   -42.7797     8.5006    10.7772   120.8159  -999.2500
  374.0000     7.7308   103.2231   -41.5531     7.9364     9.9797   131.9014  -999.2500
  374.5000     7.7506   104.4923   -40.2831     7.3773     9.4410   142.3683  -999.2500
  375.0000     7.7703   105.2291   -38.5679     6.9202     8.6577   150.6584  -999.2500
  375.5000     7.7849   105.9367   -37.1377     6.4669     8.0904   158.9484  -999.2500
  376.0000     7.7961   107.2867   -36.9664     6.0233     7.7765   167.2385  -999.2500
  376.5000     7.8074   108.1977   -36.8887     5.8310     7.4536   175.5774  -999.2500
  377.0000     7.8187   108.1352   -36.8471     5.6494     7.2336   182.5314  -999.2500
  377.5000     7.8300   108.6127   -36.8922     5.4657     6.9510   186.6632  -999.2500
  378.0000     7.8368   109.5413   -36.9418     5.2900     6.7572   190.8996  -999.2500
  378.5000     7.8466   110.4698   -36.9917     5.3416     6.6291   191.9456  -999.2500
  379.0000     7.8522   111.2371   -37.0415     5.4042     6.5001   190.5105  -999.2500
  379.5000     7.8248   112.2371   -37.0912     5.4659     6.4513   188.6836  -999.2500
  380.0000     7.7984   113.2371   -37.1407     5.5273     6.5941   186.8567  -999.2500
  380.5000     7.7970   113.7607   -37.1905     5.5887     6.7739   185.0298  -999.2500
  381.0000     7.8128   113.9951   -37.2426     5.6501     6.9482   182.5059  -999.2500
  381.5000     7.8324   113.7943   -37.3874     5.7127     6.8735   179.7826  -999.2500
  382.0000     7.8534   111.8043   -37.6350     5.7775     6.7002   177.0593  -999.2500
  382.5000     7.8720   112.9411   -37.8800     5.8427     6.5305   174.3360  -999.2500
  383.0000     7.8759   114.9782   -38.1057     5.9079     6.4349   171.7966  -999.2500
  383.5000     7.7864   117.0817   -38.1071     5.9732     6.5843   170.1654  -999.2500
  384.0000     7.6303   117.6793   -37.7867     6.0384     6.7719   168.5343  -999.2500
  384.5000     7.5962   118.2193   -37.4352     6.1035     7.0056   166.8410  -999.2500
  385.0000     7.6980   118.5857   -37.3051     6.1688     7.1574   164.2301  -999.2500
  385.5000     7.6361   116.4402   -37.1728     6.2486     7.3068   161.5159  -999.2500
  386.0000     7.7044   112.8984   -37.0559     6.4050     7.3746   158.8017  -999.2500
  386.5000     7.7890   111.6634   -37.1158     6.5624     7.4351   156.0874  -999.2500
  387.0000     7.8727   110.4084   -37.1718     6.7188     7.4876   153.2427  -999.2500
  387.5000     7.8460   105.9974   -37.2242     6.8391     7.5413   154.0708  -999.2500
  388.0000     7.8126   103.6355   -37.2700     6.7226     7.6318   154.9407  -999.2500
  388.5000     7.7992   105.1295   -37.0453     6.6089     7.7266   156.4179  -999.2500
  389.0000     7.8016   104.2196   -36.9594     6.4959     7.7476   158.3978  -999.2500
  389.5000     7.8040   103.4476   -36.8536     6.3831     7.6819   160.3777  -999.2500
  390.0000     7.8066   103.9199   -36.7459     6.2702     7.5921   162.3575  -999.2500
  390.5000     7.8091   104.8588   -36.6388     6.1573     7.5032   164.3374  -999.2500
  391.0000     7.8117   105.6442   -36.5317     6.0400     7.3852   166.3173  -999.2500
  391.5000     7.8139   106.0148   -36.4245     6.0949     7.2972   165.3645  -999.2500
  392.0000     7.8146   106.4049   -36.3178     6.2435     7.2070   163.3569  -999.2500
  392.5000     7.8293   107.5127   -36.2154     6.3992     7.1913   161.8148  -999.2500
  393.0000     7.8151   105.7658   -36.1608     6.3877     7.3996   163.3808  -999.2500
  393.5000     7.8012   100.9423   -36.1056     6.3271     7.7347   164.7489  -999.2500
  394.0000     7.7977    99.0469   -36.0520     6.2668     7.9410   164.0512  -999.2500
  394.5000     7.8073   100.0398   -36.0384     6.2729     7.9955   161.9019  -999.2500
  395.0000     7.7987   101.3446   -36.1484     6.4365     8.0538   159.7527  -999.2500
  395.5000     7.7308   100.5498   -36.2529     6.6035     7.8939   157.4268  -999.2500
  396.0000     7.6657   101.5797   -36.3555     6.6337     7.6484   159.0237  -999.2500
  396.5000     7.6195   107.9183   -36.4204     6.6232     7.4640   159.8923  -999.2500
  397.0000     7.6208   107.1394   -36.3733     6.6115     7.4960   160.4142  -999.2500
  397.5000     7.6548   105.4966   -36.3300     6.6001     7.5284   159.6911  -999.2500
  398.0000     7.7725   103.8537   -36.2865     6.5887     7.5879   158.4630  -999.2500
  398.5000     7.8580   103.6690   -36.2430     6.5774     7.6486   157.2348  -999.2500
  399.0000     7.8523   103.7746   -36.1994     6.5660     7.7083   156.2483  -999.2500
  399.5000     7.8483   102.8985   -36.1559     6.5547     7.7463   155.8133  -999.2500
  400.0000     7.8444   102.6332   -36.1125     6.5433     7.6934   155.3783  -999.2500
  400.5000     7.8405   102.4260   -36.0690     6.5761     7.6406   154.5901  -999.2500
  401.0000     7.8370   102.0418   -36.0293     6.6528     7.5859   153.7625  -999.2500
  401.5000     7.8366   102.2410   -35.7657     6.7294     7.5828   152.9350  -999.2500
  402.0000     7.8284   102.3361   -35.5985     6.8061     7.7046   151.9913  -999.2500
