~VERSION INFORMATION
 VERS.                2.0:   CWLS LOG ASCII STANDARD - VERSION 2.0
 WRAP.                 NO:   ONE LINE PER DEPTH STEP
~WELL INFORMATION
#MNEM.UNIT      DATA TYPE    INFORMATION
#----------   ------------   ------------------------------
 STRT.F            0.0000:   START DEPTH
 STOP.F          844.0000:   STOP DEPTH
 STEP.F            0.5000:   STEP LENGTH
 NULL.          -999.2500:   NO VALUE
 COMP. BROWN JOHN E&C INC:   COMPANY
 WELL. NAVAL PETROLEUM RESERVE 3 SX-1 #42-1-14:   WELL
 FLD .             TEAPOT:   FIELD
 LOC .      S14 T38N R78W:   LOCATION
 CNTY.            NATRONA:   COUNTY
 STAT.            WYOMING:   STATE
 CTRY. UNITED STATES OF AMERICA:   COUNTRY
 SRVC.     Atlas Wireline:   SERVICE COMPANY
 DATE.        11-JAN-1992:   LOGDATE
 API .       490252247700:   API NUMBER
~CURVE INFORMATION
#MNEM.UNIT       API CODE    CURVE DESCRIPTION
#----------   ------------   ------------------------------
 DEPT.F                  :   
 GRR .GAPI   07 310 01 00:   GAMMA RAY
 RFOC.OHMM   07 220 04 00:   RESISTIVITY FOCUSED LOG
 RILD.OHMM   07 120 46 00:   INDUCTION LOG DEEP RESISTIVITY
 RILM.OHMM   07 120 44 00:   INDUCTION LOG MEDIUM RESISTIVITY
 SPR .MV     07 010 01 00:   SPONTANEOUS POTENTIAL
~PARAMETER INFORMATION
#MNEM.UNIT          VALUE    DESCRIPTION
#----------   ------------   ------------------------------
 PD  .                 GL:   PERMANENT DATUM
 EPD .F              5201:   ELEVATION PERMANENT DATUM
 LMF .                 KB:   LOG MEASURED FROM
 DAPD.F                10:   FEET ABOVE PERMANENT DATUM
 DMF .                 KB:   DRILLING MEASURED FROM
 EKB .F              5211:   KELLING BUSHING
 EGL .F              5201:   GROUND LEVEL
 DATE.        11-JAN-1992:   RUN DATE
 RUN .                  1:   RUN NUMBER
 DD  .F               848:   DEPTH DRILLER
 DL  .F               847:   DEPTH LOGGER
 BLI .F               845:   BOTTOM LOG INTERVAL
 CS  .IN            10.75:   CASING SIZE
 CBD .F               101:   CASING BOTTOM DRILLER
 CBL .F               101:   CASING BOTTOM LOGGER
 BS  .IN             8.75:   BIT SIZE
 BSD .F               848:   BIT SIZE AT DEPTH
 DFT .               CHEM:   DRILLING FLUID TYPE
 DFD .                9.0:   DRILLING FLUID DENSITY
 DFV .                 40:   DRILLING FLUID VISCOSITY
 DFPH.                9.0:   DRILLING FLUID PH
 DFL .                8.4:   DRILLING FLUID LOSS
 MSS .           FLOWLINE:   MUD SAMPLE SOURCE
 RMS .OHMM           0.22:   RESISTIVITY MUD SAMPLE
 MST .F                78:   MUD SAMPLE TEMPERATURE
 RMF .OHMM           0.17:   RESISTIVITY MUD FILTRATE SAMPLE
 MFST.F                78:   MUD FILTRATE SAMPLE TEMPERATURE
 RMC .OHMM           0.28:   RESISTIVITY MUD CAKE
 MCST.F                78:   MUD CAKE SAMPLE TEMPERATURE
 MFSS.               MEAS:   MUD FILTRATE SAMPLE SOURCE
 MCSS.               CALC:   MUD CAKE SAMPLE SOURCE
 RMB .OHMM           0.14:   RESISTIVITY MUD AT BHT
 BHT .F               126:   BOTTOM HOLE TEMPERATURE
 TCS .HRS               3:   TIME CURCULATED STOPPED
 MRT .F               126:   MAXIMUM RECORDED TEMPERATURE
 LUN .            HL-6274:   LOGGING UNIT NUMBER
 LUL .         CASPER, WY:   LOGGING UNIT LOCATION
 ENGI.             ZIEGER:   RECORDING ENGINEER
 WITN.         MR. STRONG:   WITNESSED BY
 CLNT.            A2DTECH:   CLIENT CODE
 ORIG.           5" PRINT:   ORIGIN OF DATA
 UWI .       490252247700:   UNIQUE WELL ID
 DICO. A2D Technologies, Inc.:   DIGITIZING COMPANY
~OTHER INFORMATION
~A    DEPT      GRR      RFOC       RILD       RILM        SPR   
# ...
  610.0000   121.7383     6.6134     6.4404     6.4225   -11.1478
  610.5000   122.6161     6.7542     6.6240     6.6047   -10.8442
  611.0000   122.8992     6.7615     6.7188     6.6514   -10.6917
  611.5000   118.0656     6.8512     6.8146     6.7453   -10.6902
  612.0000   111.2906     6.9484     6.9117     6.7930   -10.5377
  612.5000   110.2117     6.9980     7.0103     6.7974   -10.5363
  613.0000   115.8885     7.0479     7.0117     6.8895   -10.6859
  613.5000   116.1716     7.0983     7.0830     6.9382   -10.6840
  614.0000   113.1398     7.1489     7.1131     6.9873   -10.6826
  614.5000   113.0962     7.2002     7.1921     7.0031   -10.6813
  615.0000   114.6246     7.2516     7.2161     7.0864   -10.6797
  615.5000   113.0649     7.2526     7.2684     7.0869   -10.6782
  616.0000   109.1379     7.3555     7.3208     7.1870   -10.6767
  616.5000   108.8203     7.4269     7.3222     7.1876   -10.6749
  617.0000   113.8966     7.4609     7.3750     7.1880   -11.1266
  617.5000   114.7899     7.5141     7.3252     7.1885   -11.4273
  618.0000   112.5408     7.3016     7.1497     7.1890   -11.5769
  618.5000   110.5184     7.0589     7.0277     7.2398   -11.5754
  619.0000   111.9969     7.0105     7.0295     7.3935   -11.5740
  619.5000   113.7757     6.9627     6.9817     7.6033   -11.4215
  620.0000   116.4572     7.1112     7.2314     7.8190   -11.4196
  620.5000   116.7345     7.4682     7.5949     7.9295   -11.4182
  621.0000   115.8048     7.6806     7.7571     8.0415   -11.8703
  621.5000   114.2802     7.7896     7.8130     8.0984   -11.8686
  622.0000   109.4524     7.9004     7.8146     8.1555   -11.8671
  622.5000   103.1230     7.9568     7.2391     7.6065   -11.8655
  623.0000   104.3463     8.0697     6.5667     6.8034   -11.8640
  623.5000   107.8760     8.0708     5.7526     5.3686   -11.8623
  624.0000   111.1562     7.8497     5.2548     4.3537   -11.8608
  624.5000   114.1362     7.0706     4.9705     4.4151   -11.5572
  625.0000   119.8189     4.8855     4.9026     4.6689   -10.8005
  625.5000   123.1000     3.6196     4.9036     4.9029   -10.4969
  626.0000   120.6679     3.8819     5.0116     5.1487   -10.7976
  626.5000   113.1374     6.1532     5.4093     5.5212   -11.5675
  627.0000   105.6068     7.9113     5.8014     6.2730   -11.8521
  627.5000   102.5807     8.1363     6.4879     7.5064   -12.1527
  628.0000   102.8589     8.1374     7.4610     7.9378   -11.8488
  628.5000   104.9440     8.3689     8.1142     8.2778   -11.8473
  629.0000   107.3107     8.5471     8.3456     8.4534   -11.8459
  629.5000   107.5937     8.6084     8.4057     8.5132   -11.8444
  630.0000   107.2646     8.6095     8.4242     8.5138   -11.8429
  630.5000   108.4427     8.6107     8.4681     8.5740   -11.8414
  631.0000   109.9212     8.6721     8.5295     8.6174   -12.0232
  631.5000   110.4987     8.6733     8.5909     8.6958   -12.1407
  632.0000   107.4669     8.7352     8.5927     8.7572   -12.5920
  632.5000   105.0415     8.7364     8.6782     8.8192   -13.0438
  633.0000   102.6160     8.7988     8.7170     8.8815   -13.3485
  633.5000   100.7912     8.8619     9.2249     9.1335   -13.9714
  634.0000    99.8673     8.8631     9.8427     9.6585   -14.7007
  634.5000    98.9240     9.1152    10.4578    10.2991   -15.4545
  635.0000    95.9115    10.4816    11.0604    11.1066   -16.0573
  635.5000    91.3839    11.5588    11.6164    11.8063   -16.6600
  636.0000    80.5501    12.3958    12.4584    12.5070   -17.5649
  636.5000    76.9234    12.4843    13.0846    13.1340   -18.4819
  637.0000    76.9004    12.3991    13.6468    13.7923   -19.6764
  637.5000    78.7288    12.4012    14.2415    14.2830   -20.4303
  638.0000    78.0498    13.2992    14.8454    14.9002   -21.4862
  638.5000    74.4231    14.2622    15.2687    15.3175   -22.3911
  639.0000    71.0968    14.4646    15.4864    15.5338   -23.2960
  639.5000    70.7792    14.6699    15.7072    15.7531   -24.5030
  640.0000    69.8495    14.9822    15.8204    15.7542   -25.1258
  640.5000    68.2623    15.1033    15.8236    15.7553   -25.8592
  641.0000    66.7946    15.3038    15.7168    15.6467   -26.0092
  641.5000    65.5704    15.3058    15.7201    15.4310   -25.1010
  642.0000    64.6464    15.3079    15.7234    15.3247   -24.3443
  642.5000    64.0228    15.2030    15.4675    15.0085   -23.8897
  643.0000    65.5012    15.0993    15.0846    14.9049   -23.8802
  643.5000    68.2545    14.6862    14.6400    14.5974   -24.5191
  644.0000    70.2542    14.3773    14.3333    14.2960   -25.0937
  644.5000    70.2311    13.8931    13.9793    14.0988   -25.3944
  645.0000    70.2081    13.5121    13.6894    13.7117   -25.6951
  645.5000    70.1851    12.9603    13.3184    13.3352   -24.9380
  646.0000    70.7626    12.3441    13.1365    12.9690   -24.4833
  646.5000    74.5147    11.9225    13.0478    12.7014   -24.4819
  647.0000    79.3114    11.9241    12.9597    12.6138   -24.4985
  647.5000    80.3031    11.8428    12.9422    12.5271   -25.8381
  648.0000    80.2743    11.8444    12.7861    12.4406   -26.4409
  648.5000    82.0530    11.8461    12.7885    12.3552   -26.7415
  649.0000    83.2312    11.8480    12.7021    12.2701   -25.9848
  649.5000    82.1591    11.8496    12.7048    12.2711   -23.2643
  650.0000    79.2812    11.7684    12.7079    12.2720   -20.2417
  650.5000    77.1671    11.7704    12.7105    12.3587   -19.6360
  651.0000    75.9572    11.6901    12.7131    12.3595   -19.6342
  651.5000    76.5491    11.6917    12.7155    12.4469   -19.9348
  652.0000    79.2431    11.7755    12.7182    12.6227   -20.3866
  652.5000    78.9339    12.1105    12.7208    12.6236   -20.8383
  653.0000    79.2236    12.1969    12.7235    12.6380   -21.2900
  653.5000    80.7164    12.1137    12.8152    12.7139   -21.7417
  654.0000    81.0102    11.9475    12.8183    12.7147   -22.0420
  654.5000    81.2997    11.8660    12.8209    12.7156   -22.5428
  655.0000    82.1919    11.8676    12.8235    12.7164   -22.9975
  655.5000    83.6847    11.8693    12.8261    12.7173   -23.6180
  656.0000    81.8721    11.9543    12.8287    12.9293   -24.3426
  656.5000    78.5601    11.9560    13.1444    12.7535   -25.2434
  657.0000    78.5514    11.8853    13.2102    12.6683   -26.1442
  657.5000    83.0472    11.7356    13.1226    12.5836   -27.1954
  658.0000    85.7413    11.4964    12.9442    12.5878   -28.3969
  658.5000    86.0510    11.4995    12.8568    12.5912   -29.8992
  659.0000    83.2092    11.4218    12.6829    12.5946   -31.9288
  659.5000    78.5059    11.5057    12.6863    12.5980   -34.8584
  660.0000    77.2960    11.5088    12.6898    12.6905   -36.2103
  660.5000    79.0891    11.5932    12.6940    12.6939   -32.7502
  661.0000    82.3837    11.6775    12.6974    12.6969   -25.0796
  661.5000    82.7177    11.6803    12.7004    12.7893   -19.2135
  662.0000    80.8609    11.7654    12.7040    12.7931   -15.0015
  662.5000    79.6046    11.8512    12.7965    12.7966   -13.0326
  663.0000    79.3439    11.8544    12.8001    12.8001   -12.7426
  663.5000    79.9358    11.9407    12.8036    12.8036   -12.7411
  664.0000    83.8310    12.0282    12.8072    12.8078   -12.8904
  664.5000    84.4251    12.0315    12.8113    12.8112   -12.8886
  665.0000    81.4113    12.0347    12.8144    12.8144   -13.0375
  665.5000    80.2012    11.9542    12.7282    12.8181   -13.1865
  666.0000    81.0914    11.9575    12.7324    12.8216   -13.0285
  666.5000    82.5843    11.9607    12.7359    12.8251   -12.8824
  667.0000    84.0771    11.8807    12.7401    12.7393   -12.7306
  667.5000    85.5699    11.7192    12.7430    12.6541   -13.1803
  668.0000    87.9640    11.5599    12.7470    12.6584   -14.0811
  668.5000    87.6507    11.4035    12.7504    12.3995   -14.0796
  669.0000    84.8467    11.4066    12.5763    12.2310   -14.0781
  669.5000    83.4309    11.2917    12.3199    12.1491   -14.0767
  670.0000    84.0229    11.2546    12.2301    11.9841   -13.7744
  670.5000    86.4166    11.2584    11.9880    11.9047   -13.7727
