~VERSION INFORMATION
 VERS.                2.0:   CWLS LOG ASCII STANDARD - VERSION 2.0
 WRAP.                 NO:   ONE LINE PER DEPTH STEP
~WELL INFORMATION
#MNEM.UNIT      DATA TYPE    INFORMATION
#----------   ------------   ------------------------------
 STRT.F           36.0000:   START DEPTH
 STOP.F          503.0000:   STOP DEPTH
 STEP.F            0.5000:   STEP LENGTH
 NULL.          -999.2500:   NO VALUE
 COMP.    FENIX & SCISSON:   COMPANY
 WELL.     NPR ##3 77-S-3:   WELL
 FLD .             TEAPOT:   FIELD
 LOC .       S3 T38N R78W:   LOCATION
 CNTY.            NATRONA:   COUNTY
 STAT.            WYOMING:   STATE
 CTRY. UNITED STATES OF AMERICA:   COUNTRY
 SRVC.       Schlumberger:   SERVICE COMPANY
 DATE.        04-MAR-1977:   LOGDATE
 API .       490251029500:   API NUMBER
~CURVE INFORMATION
#MNEM.UNIT       API CODE    CURVE DESCRIPTION
#----------   ------------   ------------------------------
 DEPT.F                  :   
 SPR .MV     07 010 01 00:   SPONTANEOUS POTENTIAL
 ILD .OHMM   07 120 46 00:   INDUCTION LOG DEEP
 ILM .OHMM   07 120 44 00:   INDUCTION LOG MEDIUM
 LL8 .OHMM   07 220 08 00:   LATEROLOG-8 RES.
 GRD .GAPI   45 310 01 00:   GAMMA RAY FROM DENSITY LOG
 CALD.IN     45 280 60 00:   CALIPER FROM DENSITY LOG
 CORR.G/C3   45 356 01 00:   DENSITY CORRECTION
 RHOB.G/C3   45 350 01 00:   BULK DENSITY
 DPHI.DEC    45 890 12 00:   DENSITY POROSITY SANDSTONE
~PARAMETER INFORMATION
#MNEM.UNIT          VALUE    DESCRIPTION
#----------   ------------   ------------------------------
 PD  .                 GL:   PERMANENT DATUM
 EPD .F              5165:   ELEVATION PERMANENT DATUM
 LMF .                 KB:   LOG MEASURED FROM
 DAPD.F                 4:   FEET ABOVE PERMANENT DATUM
 DMF .                 GL:   DRILLING MEASURED FROM
 EKB .F              5169:   KELLING BUSHING
 EGL .F              5165:   GROUND LEVEL
 DATE.        04-MAR-1977:   RUN DATE
 RUN .                  1:   RUN NUMBER
 DD  .F               500:   DEPTH DRILLER
 DL  .F               504:   DEPTH LOGGER
 BLI .F               503:   BOTTOM LOG INTERVAL
 TLI .F                46:   TOP LOG INTERVAL
 CS  .IN            8.625:   CASING SIZE
 CBD .F                42:   CASING BOTTOM DRILLER
 CBL .F                46:   CASING BOTTOM LOGGER
 BS  .IN            7.875:   BIT SIZE
 BSD .F               500:   BIT SIZE AT DEPTH
 DFT .                KCL:   DRILLING FLUID TYPE
 DFD .                8.6:   DRILLING FLUID DENSITY
 DFV .                 32:   DRILLING FLUID VISCOSITY
 DFPH.                8.0:   DRILLING FLUID PH
 DFL .                7.6:   DRILLING FLUID LOSS
 MSS .            MUD PIT:   MUD SAMPLE SOURCE
 RMS .OHMM            .66:   RESISTIVITY MUD SAMPLE
 MST .F                56:   MUD SAMPLE TEMPERATURE
 RMF .OHMM            .49:   RESISTIVITY MUD FILTRATE SAMPLE
 MFST.F                56:   MUD FILTRATE SAMPLE TEMPERATURE
 RMC .OHMM             .4:   RESISTIVITY MUD CAKE
 MCST.F                56:   MUD CAKE SAMPLE TEMPERATURE
 MFSS.               MEAS:   MUD FILTRATE SAMPLE SOURCE
 MCSS.               CALC:   MUD CAKE SAMPLE SOURCE
 TCS .HRS            0100:   TIME CURCULATED STOPPED
 LUN .               7680:   LOGGING UNIT NUMBER
 LUL .               CSPR:   LOGGING UNIT LOCATION
 ENGI.    LOHBECK/ TAYLOR:   RECORDING ENGINEER
 WITN.              BURKE:   WITNESSED BY
 CLNT.            A2DTECH:   CLIENT CODE
 ORIG.           5" PRINT:   ORIGIN OF DATA
 UWI .       490251029500:   UNIQUE WELL ID
 DICO. A2D Technologies, Inc.:   DIGITIZING COMPANY
~OTHER INFORMATION
~A   DEPT      SPR        ILD        ILM        LL8         GRD      CALD       CORR       RHOB       DPHI   
# ...
  145.5000   -53.4861    10.4990    10.6211    10.3549    58.8525     8.0610     0.0170     2.4664     0.1127
  146.0000   -53.6222    10.4317    10.4073    10.2883    58.1557     8.0606     0.0200     2.4626     0.1136
  146.5000   -53.9078    10.3648    10.3388    10.2224    57.2758     8.0602     0.0185     2.4664     0.1136
  147.0000   -53.8910    10.2984    10.2011    10.2274    56.3755     8.0597     0.0140     2.4641     0.1172
  147.5000   -54.0271    10.2323    10.1350    10.3034    56.1493     8.0743     0.0154     2.4558     0.1163
  148.0000   -54.0137    10.2373    10.1402    10.3799    58.3922     8.0738     0.0184     2.4520     0.1159
  148.5000   -54.0002    10.2422    10.1444    10.4571    59.5128     8.0734     0.0139     2.4483     0.1216
  149.0000   -54.1397    10.3900    10.2899    10.5347    60.1843     8.0729     0.0184     2.4452     0.1188
  149.5000   -54.2757    10.4672    10.4375    10.6867    60.4067     8.0725     0.0229     2.4520     0.1182
  150.0000   -54.2623    10.4722    10.4408    10.6919    60.3640     8.0871     0.0186     2.4489     0.1204
  150.5000   -54.3344    10.3137    10.3637    10.4998    59.7021     8.0844     0.0152     2.4346     0.1250
  151.0000   -54.3874    10.1238    10.2926    10.3349    57.7047     8.0817     0.0116     2.4481     0.1191
  151.5000   -54.3722    10.1968    10.2374    10.3394    56.5797     8.0790     0.0213     2.4458     0.1212
  152.0000   -54.2106    10.2004    10.2411    10.2708    56.3530     8.0763     0.0190     2.4631     0.1156
  152.5000   -54.1985    10.2039    10.1732    10.1341    56.5759     8.0736     0.0227     2.4525     0.1186
  153.0000   -54.1864    10.2075    10.1777    10.0669    56.5732     8.0710     0.0220     2.4403     0.1195
  153.5000   -54.0248    10.0707    10.1102     9.9320    56.7961     8.0683     0.0130     2.4298     0.1312
  154.0000   -53.8633     9.9358     9.9748     9.7998    57.4670     8.0661     0.0069     2.4284     0.1326
  154.5000   -53.7017     9.8027     9.7743     9.6010    58.5989     8.0653     0.0123     2.4336     0.1280
  155.0000   -53.8421     9.6705     9.5110     9.3337    60.1946     8.0644     0.0129     2.4351     0.1322
  155.5000   -53.8296     9.4106     9.1277     9.0276    62.4001     8.0637     0.0091     2.4298     0.1235
  156.0000   -54.1266     9.0938     8.8206     8.7826    63.0721     8.0630     0.0211     2.4500     0.1196
  156.5000   -54.2542     8.7270     8.5239     8.4885    62.8448     8.0622     0.0233     2.4545     0.1187
  157.0000   -54.3916     8.4332     8.1803     8.2596    60.3726     8.0615     0.0188     2.4507     0.1175
  157.5000   -54.6786     8.1492     8.0591     8.1489    58.7985     8.0608     0.0090     2.4423     0.1245
  158.0000   -54.8161     7.9839     7.9620     8.0397    58.1227     8.0600     0.0120     2.4386     0.1288
  158.5000   -54.9537     7.9874     8.0810     8.0426    59.4678     8.0443     0.0150     2.4438     0.1223
  159.0000   -55.2400     8.2145     8.2502     8.1575    60.1393     8.0436     0.0126     2.4505     0.1181
  159.5000   -55.3803     8.4480     8.4237     8.2171    60.3616     8.0427     0.0157     2.4595     0.1140
  160.0000   -55.3652     8.6396     8.6630     8.3924    60.8080     8.0269     0.0067     2.4527     0.1179
  160.5000   -55.2036     8.8204     8.9091     8.5714    61.7040     8.0262     0.0021     2.4369     0.1234
  161.0000   -55.0410     9.0623     9.0990     8.8151    62.6001     8.0255     0.0059     2.4339     0.1267
  161.5000   -54.8805     9.2573     9.2290     9.0657    63.2715     8.0247     0.0148     2.4424     0.1300
  162.0000   -54.8683     9.4528     9.4257     9.3234    63.9436     8.0240     0.0178     2.4533     0.1198
  162.5000   -54.7068     9.5879     9.5603     9.5223    63.7163     8.0233     0.0118     2.4563     0.1174
  163.0000   -54.6946     9.7249     9.6968     9.6584    62.1348     8.0075     0.0110     2.4450     0.1214
  163.5000   -54.6825     9.7959     9.9036     9.7964    60.9835     8.0218     0.0207     2.4705     0.1151
  164.0000   -54.6704     9.8674     9.9758     9.8791    60.3409     8.0361     0.0387     2.4914     0.0955
  164.5000   -54.6583     9.9394    10.0485    10.0082    60.1142     8.0352     0.0222     2.4779     0.1052
  165.0000   -54.6487    10.0119    10.1218    10.1511    59.8875     8.0345     0.0124     2.4621     0.1142
  165.5000   -54.6368    10.0155    10.1956    10.2252    60.3344     8.0337     0.0102     2.4793     0.1091
  166.0000   -54.6248    10.0190    10.2699    10.2998    63.7005     8.0480     0.0191     2.4733     0.1103
  166.5000   -54.6129    10.0916    10.2728    10.3034    65.7192     8.0473     0.0206     2.4770     0.1077
  167.0000   -54.6008    10.1657    10.3477    10.3786    65.9416     8.0466     0.0273     2.4785     0.1029
  167.5000   -54.5887    10.1693    10.4231    10.3822    65.2657     8.0456     0.0191     2.4769     0.1071
  168.0000   -54.5766    10.1729    10.4267    10.3858    65.7121     8.0449     0.0153     2.4664     0.1137
  168.5000   -54.7139    10.1764    10.4303    10.4619    66.6082     8.0443     0.0145     2.4716     0.1122
  169.0000   -54.8543    10.1793    10.5063    10.4653    66.8311     8.0435     0.0228     2.4783     0.1035
  169.5000   -55.1382    10.1828    10.5829    10.4690    65.7056     8.0427     0.0257     2.4738     0.1099
  170.0000   -55.2755    10.1864    10.5867    10.4726    64.8052     8.0420     0.0280     2.4812     0.1072
  170.5000   -55.2634    10.1898    10.5172    10.5486    63.9048     8.0413     0.0407     2.5067     0.0916
  171.0000   -55.4028    10.1934    10.5211    10.5524    64.1273     8.0405     0.0534     2.5119     0.0874
  171.5000   -55.3887    10.1970    10.4516    10.5565    64.8024     8.0398     0.0519     2.4991     0.0924
  172.0000   -55.3766    10.1301    10.3839    10.4864    65.4701     8.0389     0.0383     2.4724     0.1151
  172.5000   -55.3645    10.0630    10.3150    10.3459    64.7938     8.0383     0.0233     2.4503     0.1229
  173.0000   -55.2029     9.9971    10.3195    10.2782    64.1179     8.0374     0.0211     2.4532     0.1184
  173.5000   -55.0413     9.8641    10.1814    10.2109    62.5439     8.0367     0.0271     2.4584     0.1166
  174.0000   -54.8797     9.9182    10.0442    10.1367    62.0931     8.0360     0.0188     2.4561     0.1178
  174.5000   -54.4192     9.6788     9.8423    10.0081    63.2132     8.0353     0.0098     2.4501     0.1212
  175.0000   -54.2601     9.4393     9.6436     9.8740    62.9864     8.0345     0.0165     2.4673     0.1167
  175.5000   -54.2307     9.2784     9.3838     9.6745    61.6369     8.0338     0.0307     2.4808     0.1069
  176.0000   -53.9372     9.2207     9.0056     9.4790    59.5838     8.0329     0.0476     2.4703     0.1023
  176.5000   -53.9253     9.0389     8.8117     9.2235    57.5901     8.0172     0.0621     2.4770     0.1110
  177.0000   -53.9132     8.8592     8.4817     8.9130    56.6897     8.0164     0.0501     2.4448     0.1273
  177.5000   -54.2000     8.6831     8.1243     8.6512    57.5858     8.0309     0.0321     2.4401     0.1288
  178.0000   -54.3374     8.3355     7.9076     7.9960    61.1764     8.0300     0.0486     2.4746     0.1138
  178.5000   -54.3253     8.0018     7.7503     7.1593    62.9706     8.0293     0.0456     2.4558     0.1088
  179.0000   -54.4627     7.7348     7.7007     6.4596    64.3157     8.0435     0.0328     2.4310     0.1303
  179.5000   -54.4506     7.6854     7.6529     6.2451    65.2119     8.0428     0.0199     2.4302     0.1292
  180.0000   -54.7374     7.7993     7.7128     7.0779    64.7605     8.0571     0.0290     2.4362     0.1265
  180.5000   -54.7253     7.9686     7.8258     9.2777    62.7527     8.0714     0.0182     2.4271     0.1388
  181.0000   -54.8657     8.0853     7.9958     9.2185    60.2649     8.0705     0.0087     2.4264     0.1328
  181.5000   -54.8506     8.2608     8.1694     8.9094    60.2627     8.0848     0.0154     2.4308     0.1307
