~VERSION INFORMATION
 VERS.                2.0:   CWLS LOG ASCII STANDARD - VERSION 2.0
 WRAP.                 NO:   ONE LINE PER DEPTH STEP
~WELL INFORMATION
#MNEM.UNIT      DATA TYPE    INFORMATION
#----------   ------------   ------------------------------
 STRT.F           30.0000:   START DEPTH
 STOP.F          637.0000:   STOP DEPTH
 STEP.F            0.5000:   STEP LENGTH
 NULL.          -999.2500:   NO VALUE
 COMP.    FENIX & SCISSON:   COMPANY
 WELL.        NPR #82-S-3:   WELL
 FLD .             TEAPOT:   FIELD
 LOC .       S3 T38N R78W:   LOCATION
 CNTY.            NATRONA:   COUNTY
 STAT.            WYOMING:   STATE
 CTRY. UNITED STATES OF AMERICA:   COUNTRY
 SRVC.              Welex:   SERVICE COMPANY
 DATE.        08-MAY-1977:   LOGDATE
 API .       490251035100:   API NUMBER
~CURVE INFORMATION
#MNEM.UNIT       API CODE    CURVE DESCRIPTION
#----------   ------------   ------------------------------
 DEPT.F                  :   
 SPR .MV     07 010 01 00:   SPONTANEOUS POTENTIAL FROM RES.
 ILD .OHMM   07 120 46 00:   INDUCTION LOG DEEP
 ILM .OHMM   07 120 44 00:   INDUCTION LOG MEDIUM
 SGRD.OHMM   07 220 05 00:   SHALLOW GUARD RESISTIVITY
 GRD .GAPI   45 310 01 00:   GAMMA RAY FROM DENSITY LOG
 CALD.IN     45 280 60 00:   CALIPER FROM DENSITY LOG
 CORR.G/C3   45 356 01 00:   DENSITY CORRECTION
 RHOB.G/C3   45 350 01 00:   BULK DENSITY
 DPHI.DEC    45 890 12 00:   DENSITY POROSITY SANDSTONE
~PARAMETER INFORMATION
#MNEM.UNIT          VALUE    DESCRIPTION
#----------   ------------   ------------------------------
 PD  .                 GL:   PERMANENT DATUM
 EPD .F              5100:   ELEVATION PERMANENT DATUM
 LMF .                 GL:   LOG MEASURED FROM
 DMF .                 GL:   DRILLING MEASURED FROM
 EGL .F              5100:   GROUND LEVEL
 DATE.        08-MAY-1977:   RUN DATE
 RUN .                  1:   RUN NUMBER
 DD  .F               635:   DEPTH DRILLER
 DL  .F               640:   DEPTH LOGGER
 BLI .F               638:   BOTTOM LOG INTERVAL
 TLI .F                30:   TOP LOG INTERVAL
 CS  .IN            8.625:   CASING SIZE
 CBD .F                40:   CASING BOTTOM DRILLER
 CBL .F                38:   CASING BOTTOM LOGGER
 BS  .IN            7.875:   BIT SIZE
 BSD .F               635:   BIT SIZE AT DEPTH
 DFT .            KCL MUD:   DRILLING FLUID TYPE
 DFD .                8.8:   DRILLING FLUID DENSITY
 DFV .                 32:   DRILLING FLUID VISCOSITY
 DFPH.                7.5:   DRILLING FLUID PH
 MSS .           FLOWLINE:   MUD SAMPLE SOURCE
 RMS .OHMM            .25:   RESISTIVITY MUD SAMPLE
 MST .F                80:   MUD SAMPLE TEMPERATURE
 RMF .OHMM            .22:   RESISTIVITY MUD FILTRATE SAMPLE
 MFST.F                80:   MUD FILTRATE SAMPLE TEMPERATURE
 RMC .OHMM            .31:   RESISTIVITY MUD CAKE
 MCST.F                80:   MUD CAKE SAMPLE TEMPERATURE
 MFSS.               MEAS:   MUD FILTRATE SAMPLE SOURCE
 MCSS.               MEAS:   MUD CAKE SAMPLE SOURCE
 RMB .OHMM            .23:   RESISTIVITY MUD AT BHT
 BHT .F                87:   BOTTOM HOLE TEMPERATURE
 TCS .HRS            0130:   TIME CURCULATED STOPPED
 MRT .F                87:   MAXIMUM RECORDED TEMPERATURE
 LUN .               8611:   LOGGING UNIT NUMBER
 LUL .             CASPER:   LOGGING UNIT LOCATION
 ENGI.            C. DOAK:   RECORDING ENGINEER
 WITN.            R. LYON:   WITNESSED BY
 CLNT.            A2DTECH:   CLIENT CODE
 ORIG.           5" PRINT:   ORIGIN OF DATA
 UWI .       490251035100:   UNIQUE WELL ID
 DICO. A2D Technologies, Inc.:   DIGITIZING COMPANY
~OTHER INFORMATION
~A   DEPT      SPR        ILD        ILM       SGRD         GRD      CALD        CORR        RHOB     DPHI   
# ...
  212.5000   -49.4798     9.7199    10.6117    14.6911   125.1116     7.9615     0.0243     2.4750     0.1185
  213.0000   -49.6130     9.7918    11.0673    14.5990   126.4671     7.9626     0.0275     2.4818     0.1169
  213.5000   -49.5982     9.7965    11.1515    14.2109   124.9876     7.9638     0.0306     2.4788     0.1172
  214.0000   -49.5835     9.8690    11.0065    14.1219   125.7615     7.9650     0.0307     2.4744     0.1178
  214.5000   -49.4208     9.8048    10.8633    14.3269   129.8218     7.9662     0.0324     2.4827     0.1193
  215.0000   -49.2581     9.8107    10.8708    14.4350   127.9413     7.9675     0.0340     2.4850     0.1147
  215.5000   -49.2434     9.8154    10.8783    14.4439   127.1205     7.9686     0.0341     2.4798     0.1162
  216.0000   -49.2287     9.6858    10.6631    14.1570   125.8591     7.9698     0.0358     2.4762     0.1189
  216.5000   -49.2139     9.6227    10.4521    13.7805   124.0553     7.9710     0.0374     2.4747     0.1200
  217.0000   -49.3508     9.3668    10.0354    13.6002   125.7085     7.9722     0.0390     2.4740     0.1200
  217.5000   -49.4840     9.1797     9.9053    13.4222   127.6592     7.9734     0.0392     2.4763     0.1194
  218.0000   -49.6135     8.9962     9.9121    13.3383   128.4195     7.9746     0.0408     2.4839     0.1149
  218.5000   -49.7467     8.8763     9.7832    13.1605   129.6263     7.9757     0.0394     2.4884     0.1119
  219.0000   -49.7319     8.8196     9.6530    13.0814   131.2794     7.9769     0.0380     2.4855     0.1145
  219.5000   -49.8688     8.6444     9.5304    13.0895   132.4862     7.9781     0.0382     2.4825     0.1172
  220.0000   -49.8503     8.4717     9.4715    12.8238   130.2703     7.9793     0.0383     2.4804     0.1124
  220.5000   -49.8356     8.4166     9.2841    12.6552   132.3699     7.9805     0.0385     2.4939     0.1067
  221.0000   -49.8209     8.3054     9.2906    12.4960   134.0190     7.9668     0.0386     2.4999     0.1040
  221.5000   -49.9540     8.2533     9.2971    12.4179   131.8072     7.9680     0.0402     2.5029     0.1030
  222.0000   -49.9393     8.3144     9.2394    12.4256   126.9127     7.9543     0.0389     2.5038     0.1030
  222.5000   -49.9246     8.3759     9.1823    12.3478   124.5480     7.9555     0.0390     2.5031     0.1033
  223.0000   -49.9098     8.4378     9.2523    12.4412   123.6714     7.9269     0.0391     2.5024     0.1041
  223.5000   -49.7471     8.5590     9.2674    12.5351   123.5348     7.9132     0.0378     2.5032     0.1038
  224.0000   -49.8840     8.6819     9.3936    12.7299   124.4480     7.8996     0.0379     2.5055     0.1035
  224.5000   -49.8656     8.8066     9.4650    13.1997   125.2083     7.9008     0.0395     2.4958     0.1094
  225.0000   -49.8508     8.9331     9.5371    13.2701   126.1174     7.9019     0.0382     2.4937     0.1097
  225.5000   -49.8361     9.1240     9.6213    13.0810   127.3242     7.9031     0.0398     2.4930     0.1097
  226.0000   -49.8214     9.1915     9.7622    13.3041   127.4892     7.9192     0.0415     2.4878     0.1109
  226.5000   -49.8066     9.2595     9.8238    13.5730   127.8031     7.9203     0.0431     2.4819     0.1147
  227.0000   -49.6439     9.4574     9.8319    13.5831   128.4146     7.9364     0.0432     2.4827     0.1183
  227.5000   -49.4813     9.5273     9.9067    13.9715   129.7702     7.9376     0.0434     2.4850     0.1156
  228.0000   -49.4665     9.6642     9.9820    14.4682   125.3221     7.9387     0.0435     2.4806     0.1170
  228.5000   -49.6034     9.7356    10.0579    14.0834   124.8914     7.9400     0.0436     2.4784     0.1191
  229.0000   -49.5850     9.7460    10.1344    13.9953   124.4618     7.9414     0.0438     2.4775     0.1194
  229.5000   -49.5702     9.6117    10.0700    14.2989   122.8412     7.9426     0.0409     2.4701     0.1244
  230.0000   -49.5555     9.4196    10.0787    14.6067   121.6669     7.9438     0.0410     2.4619     0.1301
  230.5000   -49.5407     9.2951    10.0856    13.8315   122.1296     7.9449     0.0396     2.4566     0.1327
  231.0000   -49.5260     9.2357    10.0215    13.0074   121.1042     7.9461     0.0398     2.4475     0.1372
  231.5000   -49.6598     9.3041    10.0301    12.6595   120.3745     7.9324     0.0384     2.4347     0.1420
  232.0000   -49.6444     9.2447     9.9664    13.5735   120.3989     7.9336     0.0386     2.4273     0.1456
  232.5000   -49.6297     9.1857     9.9750    14.7533   121.3319     7.9196     0.0357     2.4221     0.1498
  233.0000   -49.6149     9.0643     9.9116    13.6844   123.4435     7.9211     0.0358     2.4169     0.1532
  233.5000   -49.6002     9.0064     9.9201    13.0478   124.9777     7.9074     0.0360     2.4140     0.1544
  234.0000   -49.5855     8.9489     9.9956    12.7007   126.5595     7.8935     0.0361     2.4156     0.1539
  234.5000   -49.5707     8.9532    10.2819    12.7965   125.4569     7.8949     0.0363     2.4283     0.1471
  235.0000   -49.5560     8.8960    10.4317    13.6240   122.1312     7.8961     0.0364     2.4396     0.1399
  235.5000   -49.3933     9.0238    10.5110    13.6325   120.0642     7.9122     0.0365     2.4426     0.1386
  236.0000   -49.3786     9.0906    10.8121    13.5472   121.2709     7.9133     0.0367     2.4457     0.1372
  236.5000   -49.2159     9.2212    11.0436    13.5556   122.4776     7.9145     0.0368     2.4480     0.1360
  237.0000   -49.0532     9.2941    10.9753    14.3331   123.6844     7.9157     0.0354     2.4503     0.1351
  237.5000   -48.8905     9.4879    10.9074    14.9476   124.5935     7.9169     0.0341     2.4496     0.1350
  238.0000   -48.5778     9.6304    11.4561    14.6485   122.5264     7.9329     0.0342     2.4489     0.1353
  238.5000   -48.2692     9.8299    11.7034    14.6598   119.5665     7.9341     0.0328     2.4490     0.1344
  239.0000   -48.1066     9.9788    11.6290    14.6689   117.2018     7.9353     0.0315     2.4505     0.1335
  239.5000   -47.9438    10.1142    11.8821    14.8817   115.7300     7.9513     0.0316     2.4528     0.1317
  240.0000   -47.9290    10.2690    12.2224    15.3073   114.5517     7.9525     0.0317     2.4581     0.1295
  240.5000   -47.7663    10.4788    12.0635    15.6368   116.6553     7.9537     0.0319     2.4641     0.1274
  241.0000   -47.7515    10.7028    11.9046    15.6465   114.8859     7.9549     0.0335     2.4709     0.1235
  241.5000   -47.5887    10.8688    12.3323    15.5462   114.0093     7.9412     0.0366     2.4762     0.1199
  242.0000   -47.4261    11.1018    13.5903    15.4490   113.7239     7.9127     0.0398     2.4845     0.1145
  242.5000   -47.2633    11.3256    14.3701    15.4609   113.4466     7.8990     0.0429     2.4935     0.1100
  243.0000   -47.1006    11.4246    12.8793    16.4608   112.7147     7.9002     0.0445     2.5048     0.1040
  243.5000   -46.9379    11.7349    11.8656    18.2654   112.1398     7.9013     0.0447     2.5093     0.0962
  244.0000   -46.9231    11.9857    11.7092    20.6915   111.1144     7.9174     0.0448     2.5168     0.0955
  244.5000   -46.9083    12.0743    12.3833    18.1624   110.2378     7.9334     0.0449     2.5154     0.0964
  245.0000   -46.7426    12.1637    13.0939    16.8438   109.6548     7.9346     0.0421     2.5110     0.0988
  245.5000   -46.7279    12.2536    13.6558    17.8127   110.5679     7.9506     0.0392     2.5073     0.1005
  246.0000   -46.7131    12.3443    14.2419    20.4587   109.2449     7.9518     0.0363     2.5092     0.0993
  246.5000   -46.8500    12.5215    14.4494    21.1860   108.5818     7.9530     0.0350     2.5209     0.0936
  247.0000   -46.8316    12.4416    13.4041    18.3447   110.0215     7.9543     0.0336     2.5146     0.0975
  247.5000   -46.8168    12.3621    13.2275    17.8541   110.9306     7.9408     0.0338     2.5064     0.1025
  248.0000   -46.8021    12.2817    13.5153    19.4089   111.8397     7.9420     0.0339     2.4957     0.1064
  248.5000   -46.7873    12.2032    13.8070    18.0026   112.7488     7.9432     0.0341     2.4905     0.1105
