~VERSION INFORMATION
 VERS.                2.0:   CWLS LOG ASCII STANDARD - VERSION 2.0
 WRAP.                 NO:   ONE LINE PER DEPTH STEP
~WELL INFORMATION
#MNEM.UNIT      DATA TYPE    INFORMATION
#----------   ------------   ------------------------------
 STRT.F           40.0000:   START DEPTH
 STOP.F          596.0000:   STOP DEPTH
 STEP.F            0.5000:   STEP LENGTH
 NULL.          -999.2500:   NO VALUE
 COMP. FENIX & SCISSON INC:   COMPANY
 WELL. SX-15 N.O.R. #3 #51-15:   WELL
 FLD .             TEAPOT:   FIELD
 LOC .      S15 T38N R78W:   LOCATION
 CNTY.            NATRONA:   COUNTY
 STAT.            WYOMING:   STATE
 CTRY. UNITED STATES OF AMERICA:   COUNTRY
 SRVC.              Welex:   SERVICE COMPANY
 DATE.        12-MAR-1977:   LOGDATE
 API .       490251031100:   API NUMBER
~CURVE INFORMATION
#MNEM.UNIT       API CODE    CURVE DESCRIPTION
#----------   ------------   ------------------------------
 DEPT.F                  :   
 GRD .GAPI   45 310 01 00:   GAMMA RAY FROM DENSITY LOG
 CALD.IN     45 280 60 00:   CALIPER FROM DENSITY LOG
 CORR.G/C3   45 356 01 00:   DENSITY CORRECTION
 RHOB.G/C3   45 350 01 00:   BULK DENSITY
 DPOR.DEC    45 890 12 00:   DENSITY POROSITY SANDSTONE
 SGRD.OHMM   07 220 05 00:   SHALLOW GUARD RESISTIVITY
 ILD .OHMM   07 120 46 00:   INDUCTION LOG DEEP
 ILM .OHMM   07 120 44 00:   INDUCTION LOG MEDIUM
 SPR .MV     07 010 01 00:   SPONTANEOUS POTENTIAL
~PARAMETER INFORMATION
#MNEM.UNIT          VALUE    DESCRIPTION
#----------   ------------   ------------------------------
 PD  .                 GL:   PERMANENT DATUM
 EPD .F              5221:   ELEVATION PERMANENT DATUM
 LMF .                 GL:   LOG MEASURED FROM
 DMF .                 GL:   DRILLING MEASURED FROM
 EGL .F              5221:   GROUND LEVEL
 DATE.            3-12-77:   RUN DATE
 RUN .                  1:   RUN NUMBER
 DD  .F               600:   DEPTH DRILLER
 DL  .F               597:   DEPTH LOGGER
 BLI .F               596:   BOTTOM LOG INTERVAL
 TLI .F                45:   TOP LOG INTERVAL
 CS  .IN            8.625:   CASING SIZE
 CBD .F                46:   CASING BOTTOM DRILLER
 CBL .F                45:   CASING BOTTOM LOGGER
 BS  .IN            7.875:   BIT SIZE
 BSD .F               600:   BIT SIZE AT DEPTH
 DFT .            KCL-MUD:   DRILLING FLUID TYPE
 DFD .                8.9:   DRILLING FLUID DENSITY
 DFV .                 34:   DRILLING FLUID VISCOSITY
 MSS .            MUD PIT:   MUD SAMPLE SOURCE
 RMS .OHMM            .68:   RESISTIVITY MUD SAMPLE
 MST .F                40:   MUD SAMPLE TEMPERATURE
 RMF .OHMM            .57:   RESISTIVITY MUD FILTRATE SAMPLE
 MFST.F                40:   MUD FILTRATE SAMPLE TEMPERATURE
 RMC .OHMM            .78:   RESISTIVITY MUD CAKE
 MCST.F                40:   MUD CAKE SAMPLE TEMPERATURE
 MFSS.           MEASURED:   MUD FILTRATE SAMPLE SOURCE
 MCSS.           MEASURED:   MUD CAKE SAMPLE SOURCE
 RMB .OHMM            .41:   RESISTIVITY MUD AT BHT
 BHT .F                65:   BOTTOM HOLE TEMPERATURE
 TCS .HRS               3:   TIME CURCULATED STOPPED
 MRT .F                65:   MAXIMUM RECORDED TEMPERATURE
 LUN .                716:   LOGGING UNIT NUMBER
 LUL .             VERNAL:   LOGGING UNIT LOCATION
 ENGI.           CALLAHAN:   RECORDING ENGINEER
 WITN.         STUEBINGER:   WITNESSED BY
 CLNT.            A2DTECH:   CLIENT CODE
 ORIG.       2", 5" PRINT:   ORIGIN OF DATA
 UWI .       490251031100:   UNIQUE WELL ID
 DICO. A2D Technologies, Inc.:   DIGITIZING COMPANY
~OTHER INFORMATION
~A   DEPT       GRD        CALD     CORR       RHOB       DPOR       SGRD        ILD        ILM        SPR   
# ...
  405.0000    79.0507     7.8779     0.0738     2.3704     0.1686    27.8082    16.6681    37.8360   -50.6131
  405.5000    79.7772     7.8786     0.0763     2.3746     0.1685    29.1873    16.8501    31.8026   -50.6461
  406.0000    80.5099     7.8794     0.0754     2.3669     0.1727    26.0102    17.0339    26.2605   -50.6792
  406.5000    81.2581     7.8802     0.0749     2.3579     0.1802    25.6136    17.2196    22.9662   -50.7123
  407.0000    81.3643     7.8810     0.0634     2.3384     0.1884    25.2230    17.4074    24.0614   -50.7454
  407.5000    81.3638     7.8818     0.0533     2.3197     0.1995    24.8331    17.5782    23.0180   -50.7784
  408.0000    81.3580     7.8825     0.0581     2.3094     0.2072    24.5451    17.5435    21.0881   -50.8115
  408.5000    81.3696     7.8833     0.0505     2.3103     0.2053    24.2909    17.5050    20.3346   -50.8446
  409.0000    82.3685     7.8841     0.0508     2.3210     0.2013    22.4725    17.4666    19.9832   -50.8777
  409.5000    83.4909     7.8849     0.0542     2.3328     0.1951    21.5309    17.4283    19.2759   -50.9108
  410.0000    84.6139     7.8856     0.0578     2.3446     0.1877    21.8470    17.1720    17.5782   -50.9438
  410.5000    85.7358     7.8864     0.0616     2.3564     0.1772    22.0934    17.0032    16.0300   -50.9769
  411.0000    86.8574     7.8872     0.0553     2.3686     0.1678    22.3425    16.8361    15.3786   -51.0100
  411.5000    87.9793     7.8880     0.0450     2.3687     0.1742    22.5945    16.6706    15.1674   -51.0431
  412.0000    89.0984     7.8887     0.0427     2.3645     0.1762    22.8496    16.5067    16.1785   -51.0761
  412.5000    90.2176     7.8895     0.0432     2.3607     0.1747    23.1082    16.3444    18.2385   -51.1092
  413.0000    90.9189     7.8903     0.0439     2.3614     0.1760    23.3957    16.1835    17.5284   -51.1423
  413.5000    91.2023     7.8911     0.0457     2.3623     0.1783    23.0966    16.0249    16.5616   -51.1754
  414.0000    91.4857     7.8918     0.0508     2.3629     0.1765    22.7671    15.8817    15.7371   -51.2085
  414.5000    91.7663     7.8926     0.0535     2.3614     0.1743    22.5394    15.9836    15.7371   -51.2415
  415.0000    92.0472     7.8934     0.0500     2.3599     0.1777    22.9012    16.0763    15.7478   -51.2746
  415.5000    92.3285     7.8935     0.0508     2.3585     0.1819    23.2283    16.1785    14.6960   -51.3077
  416.0000    92.6098     7.8931     0.0558     2.3645     0.1760    23.3937    16.0353    13.7861   -51.3408
  416.5000    92.8911     7.8926     0.0609     2.3781     0.1694    22.4042    15.8777    13.2084   -51.3738
  417.0000    93.1724     7.8921     0.0663     2.3918     0.1615    21.7679    15.7216    14.2007   -51.4069
  417.5000    93.4517     7.8917     0.0658     2.4033     0.1505    21.3333    15.5671    14.5733   -51.4400
  418.0000    93.7243     7.8912     0.0506     2.3903     0.1553    21.6970    15.4141    14.7019   -51.4731
  418.5000    94.0369     7.8907     0.0395     2.3788     0.1622    21.9316    15.2625    14.8315   -51.5062
  419.0000    95.2506     7.8902     0.0376     2.3782     0.1698    21.4672    15.1125    14.9623   -51.5394
  419.5000    96.4203     7.8898     0.0355     2.3779     0.1658    21.1166    14.9640    15.0282   -51.5722
  420.0000    97.5807     7.8893     0.0316     2.3703     0.1727    20.9435    14.8169    13.8315   -51.5881
  420.5000    98.7382     7.8888     0.0277     2.3601     0.1827    21.0175    14.6712    13.4542   -51.5447
  421.0000    99.8947     7.8884     0.0421     2.3533     0.1777    21.0742    14.4840    15.5568   -51.5032
  421.5000   101.0885     7.8879     0.0540     2.3771     0.1704    21.3396    14.4949    16.7204   -51.4617
  422.0000   100.9928     7.8874     0.0483     2.3737     0.1654    21.0556    14.5105    17.5330   -51.4202
  422.5000   100.2032     7.8869     0.0456     2.3725     0.1714    20.5211    14.5260    18.3850   -51.3788
  423.0000    99.4004     7.8865     0.0513     2.3823     0.1639    19.9942    14.5416    19.2785   -51.3373
  423.5000    98.5953     7.8860     0.0569     2.3899     0.1610    19.6346    14.5572    20.2160   -51.2958
  424.0000    97.7978     7.8855     0.0589     2.3978     0.1547    20.0148    14.5728    21.1961   -51.2544
  424.5000    97.1588     7.8850     0.0597     2.3995     0.1577    20.3122    14.5880    22.5582   -51.2129
  425.0000    97.1070     7.8846     0.0579     2.3952     0.1553    20.6140    14.6040    22.4079   -51.1715
  425.5000    97.0410     7.8841     0.0482     2.3899     0.1591    20.9204    14.6245    22.2182   -51.1300
  426.0000    96.9740     7.8836     0.0387     2.3845     0.1642    21.1375    14.3722    21.9244   -51.0885
  426.5000    96.9087     7.8832     0.0434     2.3800     0.1678    20.9007    14.1037    22.3002   -51.0471
  427.0000    96.8413     7.8827     0.0493     2.3852     0.1614    20.6877    13.8402    23.0406   -51.0056
  427.5000    96.6892     7.8822     0.0523     2.3904     0.1602    20.4768    13.5838    24.0558   -50.9641
  428.0000    96.1453     7.8817     0.0525     2.3953     0.1565    20.3722    13.4343    23.3490   -50.9227
  428.5000    95.6410     7.8813     0.0464     2.3893     0.1588    20.3722    13.4026    22.3752   -50.8812
  429.0000    95.1404     7.8808     0.0415     2.3817     0.1658    20.3722    13.3681    21.5309   -50.8397
  429.5000    94.6395     7.8803     0.0405     2.3879     0.1619    20.4663    13.3310    21.8609   -50.7983
  430.0000    94.1372     7.8798     0.0450     2.3991     0.1540    20.5609    13.3305    22.1347   -50.7568
  430.5000    93.6358     7.8794     0.0495     2.4074     0.1487    20.4192    13.3303    20.4098   -50.7154
  431.0000    93.0220     7.8789     0.0541     2.4125     0.1457    20.2629    13.3321    19.0990   -50.6739
  431.5000    92.4810     7.8784     0.0631     2.4176     0.1280    20.1852    13.3268    19.3282   -50.6325
  432.0000    91.9409     7.8780     0.0488     2.4215     0.1345    20.4899    13.6934    19.5376   -50.5910
  432.5000    91.3991     7.8775     0.0461     2.4111     0.1437    20.7274    14.0317    19.8201   -50.5495
  433.0000    90.8576     7.8770     0.0439     2.4038     0.1515    20.9435    14.3784    19.7375   -50.5080
  433.5000    90.3135     7.8765     0.0417     2.4084     0.1483    20.8620    14.7990    19.5894   -50.4665
  434.0000    89.7633     7.8761     0.0394     2.4178     0.1437    20.7882    15.2609    19.4544   -50.4258
  434.5000    89.2411     7.8756     0.0404     2.4187     0.1425    20.7146    15.7371    20.7366   -50.4237
  435.0000    89.5419     7.8751     0.0446     2.4321     0.1352    20.6401    16.1785    22.2607   -50.4927
  435.5000    89.9055     7.8746     0.0488     2.4512     0.1271    20.5668    16.2772    23.3937   -50.5605
  436.0000    90.2558     7.8742     0.0532     2.4559     0.1215    20.1343    16.3675    19.9655   -50.6284
  436.5000    90.6061     7.8738     0.0545     2.4522     0.1232    19.6799    16.4583    17.2719   -50.6964
  437.0000    90.9569     7.8749     0.0549     2.4433     0.1290    19.4544    16.5496    14.7747   -50.7643
  437.5000    91.3076     7.8760     0.0552     2.4352     0.1343    19.4544    16.6322    14.3005   -50.8322
  438.0000    91.6583     7.8771     0.0555     2.4344     0.1384    19.4544    16.4088    13.8311   -50.9002
  438.5000    92.0090     7.8781     0.0558     2.4407     0.1328    19.4544    16.2083    13.7046   -50.9681
  439.0000    92.3597     7.8792     0.0561     2.4472     0.1276    20.5609    16.0300    14.5023   -51.0361
  439.5000    92.7104     7.8803     0.0569     2.4541     0.1225    22.5466    15.5159    14.8903   -51.1039
  440.0000    93.0611     7.8814     0.0588     2.4553     0.1199    22.5775    15.0628    14.4505   -51.1728
  440.5000    93.4118     7.8824     0.0602     2.4472     0.1268    20.8323    14.6230    13.9561   -51.1755
  441.0000    93.7625     7.8835     0.0554     2.4332     0.1328    19.3505    14.1960    14.3300   -51.1417
