~VERSION INFORMATION
 VERS.                2.0:   CWLS LOG ASCII STANDARD - VERSION 2.0
 WRAP.                 NO:   ONE LINE PER DEPTH STEP
~WELL INFORMATION
#MNEM.UNIT      DATA TYPE    INFORMATION
#----------   ------------   ------------------------------
 STRT.F            0.0000:   START DEPTH
 STOP.F         1340.0000:   STOP DEPTH
 STEP.F            0.5000:   STEP LENGTH
 NULL.          -999.2500:   NO VALUE
 COMP. U S NAVY-INTEX OIL:   COMPANY
 WELL. NAVAL PETROLEUM RESERVE 3 S #81-14:   WELL
 FLD .             TEAPOT:   FIELD
 LOC .      S14 T38N R78W:   LOCATION
 CNTY.            NATRONA:   COUNTY
 STAT.            WYOMING:   STATE
 CTRY. UNITED STATES OF AMERICA:   COUNTRY
 SRVC.       Schlumberger:   SERVICE COMPANY
 DATE.        20-AUG-1966:   LOGDATE
 API .       490250971600:   API NUMBER
~CURVE INFORMATION
#MNEM.UNIT       API CODE    CURVE DESCRIPTION
#----------   ------------   ------------------------------
 DEPT.F                  :   
 SPR .MV     07 010 01 00:   SPONTANEOUS POTENTIAL
 CILD.MMHO   07 110 46 00:   CONDUCTIVITY INDUCTION LOG DEEP
 ILD .OHMM   07 120 46 00:   INDUCTION LOG DEEP
 ASN .OHMM   01 041 16 00:   AMPLIFIED SHORT NORMAL 16"
 CALD.IN     45 280 60 00:   CALIPER
 RHOB.G/C3   45 350 01 00:   BULK DENSITY
 DPHI.DEC    45 890 12 00:   DENSITY POROSITY SANDSTONE
 GRD .GAPI   45 310 01 00:   GAMMA RAY FROM DENSITY LOG
 CORR.G/C3   45 356 01 00:   DENSITY CORRECTION
~PARAMETER INFORMATION
#MNEM.UNIT          VALUE    DESCRIPTION
#----------   ------------   ------------------------------
 PD  .                 GL:   PERMANENT DATUM
 EPD .F              5283:   ELEVATION PERMANENT DATUM
 LMF .                 KB:   LOG MEASURED FROM
 DAPD.F                 5:   FEET ABOVE PERMANENT DATUM
 DMF .                 KB:   DRILLING MEASURED FROM
 EKB .F              5288:   KELLING BUSHING
 EGL .F              5283:   GROUND LEVEL
 DATE.            8-20-66:   RUN DATE
 RUN .                  1:   RUN NUMBER
 DD  .F              1340:   DEPTH DRILLER
 DL  .F              1337:   DEPTH LOGGER
 BLI .F              1336:   BOTTOM LOG INTERVAL
 TLI .F                17:   TOP LOG INTERVAL
 CS  .IN            8.625:   CASING SIZE
 CBD .F                15:   CASING BOTTOM DRILLER
 CBL .F                17:   CASING BOTTOM LOGGER
 BS  .IN            7.875:   BIT SIZE
 BSD .F              1340:   BIT SIZE AT DEPTH
 DFT .           GEL-CHEM:   DRILLING FLUID TYPE
 DFD .                9.8:   DRILLING FLUID DENSITY
 DFV .                 70:   DRILLING FLUID VISCOSITY
 DFL .                  8:   DRILLING FLUID LOSS
 MSS .          FLOW LINE:   MUD SAMPLE SOURCE
 RMS .OHMM           1.26:   RESISTIVITY MUD SAMPLE
 MST .F                71:   MUD SAMPLE TEMPERATURE
 RMF .OHMM            .71:   RESISTIVITY MUD FILTRATE SAMPLE
 MFST.F                71:   MUD FILTRATE SAMPLE TEMPERATURE
 MFSS.                  M:   MUD FILTRATE SAMPLE SOURCE
 RMB .OHMM           1.04:   RESISTIVITY MUD AT BHT
 BHT .F                86:   BOTTOM HOLE TEMPERATURE
 TCS .HRS               2:   TIME CURCULATED STOPPED
 MRT .F                86:   MAXIMUM RECORDED TEMPERATURE
 LUN .               3527:   LOGGING UNIT NUMBER
 LUL .               CSPR:   LOGGING UNIT LOCATION
 ENGI.          TOLLEFSON:   RECORDING ENGINEER
 WITN.                MAY:   WITNESSED BY
 CLNT.            A2DTECH:   CLIENT CODE
 ORIG.        2" 5" PRINT:   ORIGIN OF DATA
 UWI .       490250971600:   UNIQUE WELL ID
 DICO. A2D Technologies, Inc.:   DIGITIZING COMPANY
~OTHER INFORMATION
~A    DEPT     SPR       CILD        ILD        ASN         CALD     RHOB       DPHI          GRD     CORR   
# ...
  511.0000   -48.9239   197.1288     5.0545     6.1691     7.9252     2.4694     0.1237    93.0551     0.0505
  511.5000   -48.8109   199.1172     5.0254     6.1367     7.9241     2.4760     0.1215    96.2569     0.0653
  512.0000   -48.6950   201.1204     5.0046     6.1666     7.9231     2.4827     0.1194    99.1393     0.0557
  512.5000   -48.6079   203.0856     4.9840     6.1979     7.9221     2.4893     0.1172    98.9782     0.0541
  513.0000   -48.7096   201.5291     4.9634     6.1730     7.9210     2.4959     0.1150    97.3475     0.0659
  513.5000   -48.8091   199.9346     4.9420     6.1136     7.9200     2.5030     0.1129    95.7179     0.0790
  514.0000   -48.9093   198.3550     4.9814     6.0515     7.9190     2.4916     0.1162    94.0912     0.0684
  514.5000   -48.9902   196.7753     5.0403     6.0706     7.9179     2.4756     0.1212    92.6206     0.0555
  515.0000   -48.8388   195.1957     5.1002     6.1184     7.9169     2.4593     0.1262    92.8802     0.0674
  515.5000   -48.6913   193.6161     5.1598     6.2189     7.9158     2.4428     0.1312    94.7609     0.0636
  516.0000   -48.6342   192.1158     5.2201     6.3224     7.9148     2.4430     0.1344    95.8351     0.0439
  516.5000   -48.7401   189.5305     5.2393     6.4098     7.9138     2.4472     0.1349    93.5991     0.0411
  517.0000   -48.8429   187.0687     5.2396     6.4568     7.9127     2.4517     0.1360    95.5565     0.0402
  517.5000   -48.9468   184.6070     5.2396     6.5035     7.9117     2.4562     0.1324    97.3468     0.0395
  518.0000   -48.9514   182.1357     5.2395     6.5496     7.9106     2.4632     0.1289    95.0511     0.0372
  518.5000   -48.8625   183.4232     5.2410     6.5642     7.9096     2.4722     0.1255    92.6909     0.0417
  519.0000   -48.7721   184.7156     5.2339     6.4970     7.9085     2.4812     0.1220    93.5764     0.0552
  519.5000   -48.6812   186.0080     5.3303     6.4804     7.9075     2.4902     0.1185    95.2388     0.0672
  520.0000   -48.6004   187.5915     5.2620     6.5117     7.9065     2.4978     0.1150    96.9368     0.0807
  520.5000   -48.6485   191.0379     5.2046     6.4549     7.9054     2.5007     0.1116    96.5350     0.0854
  521.0000   -48.6988   194.1417     5.1458     6.3723     7.9044     2.5036     0.1081    95.1736     0.0744
  521.5000   -48.7493   196.7265     5.0871     6.2998     7.9034     2.5060     0.1046    93.7796     0.0656
  522.0000   -48.7927   199.3114     5.0283     6.2764     7.9023     2.5282     0.1008    92.4104     0.0543
  522.5000   -48.6642   201.8962     4.9696     6.2641     7.9013     2.5401     0.1012    91.4256     0.0646
  523.0000   -48.5277   204.4810     4.9108     6.2413     7.9002     2.5194     0.1086    91.3924     0.0915
  523.5000   -48.3923   207.2854     4.8514     6.1233     7.8992     2.5028     0.1139    93.3078     0.0877
  524.0000   -48.2583   210.1575     4.8196     6.0055     7.8982     2.4862     0.1191    95.4906     0.0772
  524.5000   -48.2868   213.0144     4.7937     5.9071     7.8971     2.4696     0.1243    97.6095     0.0674
  525.0000   -48.5476   215.1300     4.7677     5.8653     7.8961     2.4530     0.1296    96.3402     0.0574
  525.5000   -48.8058   216.0425     4.7415     5.8007     7.8951     2.4365     0.1348    93.4525     0.0500
  526.0000   -48.9950   215.4806     4.7385     5.8022     7.8940     2.4199     0.1401    90.5914     0.0564
  526.5000   -48.9575   211.9435     4.8150     5.8599     7.8930     2.4026     0.1453    87.7043     0.0649
  527.0000   -48.9250   208.4064     4.9107     5.9312     7.8919     2.4045     0.1496    86.6301     0.0609
  527.5000   -48.8925   204.8692     5.0067     6.0022     7.8909     2.4104     0.1500    88.1668     0.0537
  528.0000   -48.8601   201.3321     5.1023     6.0997     7.8899     2.4165     0.1470    89.7577     0.0467
  528.5000   -48.8277   197.7929     5.1983     6.2239     7.8888     2.4289     0.1396    88.1287     0.0398
  529.0000   -48.7953   194.2578     5.2507     6.3478     7.8878     2.4532     0.1321    86.5619     0.0265
  529.5000   -48.7630   190.7207     5.2721     6.4732     7.8867     2.4772     0.1247    85.0170     0.0312
  530.0000   -48.7306   188.6727     5.2927     6.4922     7.8857     2.5015     0.1172    83.9720     0.0702
  530.5000   -48.6982   187.9677     5.3133     6.4557     7.8847     2.5122     0.1100    84.8497     0.0836
  531.0000   -48.6658   187.2628     5.3347     6.4850     7.8836     2.4967     0.1150    87.2602     0.0726
  531.5000   -48.6334   186.5578     5.3393     6.5793     7.8826     2.4807     0.1198    89.6551     0.0581
  532.0000   -48.6004   187.0441     5.3394     6.5626     7.8815     2.4647     0.1246    92.0473     0.0435
  532.5000   -48.6408   189.3939     5.3394     6.5314     7.8788     2.4488     0.1294    94.4533     0.0359
  533.0000   -48.7029   192.1158     5.3393     6.5121     7.8761     2.4329     0.1342    95.7326     0.0414
  533.5000   -48.7659   192.1158     5.3394     6.5129     7.8734     2.4220     0.1390    95.1150     0.0420
  534.0000   -48.8287   192.1292     5.3080     6.5347     7.8706     2.4431     0.1447    94.4617     0.0370
  534.5000   -48.8918   192.0724     5.2491     6.5546     7.8679     2.4608     0.1400    93.8112     0.0290
  535.0000   -48.9545   193.5463     5.1899     6.4895     7.8652     2.4785     0.1340    93.8765     0.0428
  535.5000   -48.9906   195.4641     5.1308     6.4202     7.8625     2.4958     0.1281    95.3958     0.0753
  536.0000   -48.9161   197.4027     5.0717     6.3558     7.8597     2.5048     0.1248    96.8975     0.0899
  536.5000   -48.8419   199.3413     5.0126     6.3159     7.8570     2.4701     0.1301    98.3992     0.0858
  537.0000   -48.7678   201.2825     4.9520     6.2775     7.8543     2.4477     0.1358    99.8716     0.0598
  537.5000   -48.6938   203.2273     4.9400     6.2388     7.8516     2.4566     0.1377   100.3409     0.0400
  538.0000   -48.6189   205.0837     4.9399     6.1970     7.8488     2.4674     0.1313    98.8594     0.0463
  538.5000   -48.5973   204.6844     4.9401     6.2264     7.8461     2.4780     0.1268    97.4090     0.0600
  539.0000   -48.5970   203.0266     4.9401     6.2544     7.8434     2.4885     0.1222    95.9501     0.0729
  539.5000   -48.5972   201.3899     4.9401     6.2771     7.8407     2.5010     0.1169    94.4904     0.0748
  540.0000   -48.5976   199.7636     4.9400     6.2933     7.8379     2.4945     0.1194    92.9962     0.0678
  540.5000   -48.5949   198.1038     4.9387     6.3266     7.8352     2.4842     0.1236    93.0829     0.0599
  541.0000   -48.5370   197.5205     4.9900     6.3790     7.8325     2.4738     0.1278    99.8378     0.0507
  541.5000   -48.4792   196.9461     5.0508     6.4443     7.8298     2.4634     0.1321    98.1598     0.0488
  542.0000   -48.4212   196.3717     5.1118     6.4740     7.8270     2.4530     0.1363    96.1409     0.0560
  542.5000   -48.4073   195.7973     5.1726     6.4700     7.8243     2.4425     0.1405    94.0436     0.0590
  543.0000   -48.4242   195.2229     5.2330     6.4650     7.8216     2.4399     0.1432    94.8958     0.0537
  543.5000   -48.4419   190.6121     5.2941     6.4604     7.8189     2.4391     0.1397    96.6317     0.0457
  544.0000   -48.4595   185.0116     5.3789     6.4773     7.8161     2.4399     0.1361    98.3879     0.0357
  544.5000   -48.4771   179.4112     5.5563     6.5724     7.8134     2.4435     0.1325   100.1413     0.0387
  545.0000   -48.4946   173.8107     5.7285     6.7570     7.8107     2.4537     0.1289   101.8826     0.0486
  545.5000   -48.5122   168.2103     5.9010     7.0276     7.8080     2.4636     0.1253   102.2730     0.0481
  546.0000   -48.5297   162.6098     6.0734     7.2978     7.8052     2.4734     0.1218   100.4277     0.0415
  546.5000   -48.5473   156.9867     6.2455     7.5561     7.8025     2.4833     0.1182    98.4162     0.0409
  547.0000   -48.5648   155.8895     6.3382     7.7042     7.8031     2.4931     0.1146    96.5359     0.0505
