~VERSION INFORMATION
 VERS.                2.0:   CWLS LOG ASCII STANDARD - VERSION 2.0
 WRAP.                 NO:   ONE LINE PER DEPTH STEP
~WELL INFORMATION
#MNEM.UNIT      DATA TYPE    INFORMATION
#----------   ------------   ------------------------------
 STRT.F          100.0000:   START DEPTH
 STOP.F         1196.0000:   STOP DEPTH
 STEP.F            0.5000:   STEP LENGTH
 NULL.          -999.2500:   NO VALUE
 COMP. DEPARTMENT OF ENERGY:   COMPANY
 WELL.     NRP ##3 77S-11:   WELL
 FLD .             TEAPOT:   FIELD
 LOC .      S11 T38N R78W:   LOCATION
 CNTY.            NATRONA:   COUNTY
 STAT.            WYOMING:   STATE
 CTRY. UNITED STATES OF AMERICA:   COUNTRY
 SRVC.       Schlumberger:   SERVICE COMPANY
 DATE.        18-AUG-1959:   LOGDATE
 API .       490250632900:   API NUMBER
~CURVE INFORMATION
#MNEM.UNIT       API CODE    CURVE DESCRIPTION
#----------   ------------   ------------------------------
 DEPT.F                  :   
 SPR .MV     05 010 01 00:   SPONTANEOUS POTENTIAL FROM RES.
 ASN .OHMM   05 041 16 00:   AMPLIFIED SHORT NORMAL 16"
 ILD .OHMM   05 120 46 00:   INDUCTION LOG DEEP
 CILD.MMHO   05 110 46 00:   CONDUCTIVITY INDUCTION LOG DEEP
~PARAMETER INFORMATION
#MNEM.UNIT          VALUE    DESCRIPTION
#----------   ------------   ------------------------------
 PD  .                 GL:   PERMANENT DATUM
 EPD .F              5258:   ELEVATION PERMANENT DATUM
 LMF .                 KB:   LOG MEASURED FROM
 DAPD.F                 4:   FEET ABOVE PERMANENT DATUM
 DMF .                 KB:   DRILLING MEASURED FROM
 EKB .F              5262:   KELLING BUSHING
 EGL .F              5258:   GROUND LEVEL
 DATE.            8-18-59:   RUN DATE
 RUN .                  1:   RUN NUMBER
 DD  .F              1200:   DEPTH DRILLER
 DL  .F              1201:   DEPTH LOGGER
 BLI .F              1196:   BOTTOM LOG INTERVAL
 TLI .F               100:   TOP LOG INTERVAL
 CBD .F                17:   CASING BOTTOM DRILLER
 BS  .IN             6.75:   BIT SIZE
 BSD .F              1200:   BIT SIZE AT DEPTH
 DFT . GEL-OIL-PHDS-CAUSTIC:   DRILLING FLUID TYPE
 DFD .               10.8:   DRILLING FLUID DENSITY
 DFV .                 60:   DRILLING FLUID VISCOSITY
 DFPH.                  9:   DRILLING FLUID PH
 DFL .                  4:   DRILLING FLUID LOSS
 RMS .OHMM            1.8:   RESISTIVITY MUD SAMPLE
 MST .F                90:   MUD SAMPLE TEMPERATURE
 RMF .OHMM            1.5:   RESISTIVITY MUD FILTRATE SAMPLE
 MFST.F                90:   MUD FILTRATE SAMPLE TEMPERATURE
 RMC .OHMM              2:   RESISTIVITY MUD CAKE
 MCST.F                90:   MUD CAKE SAMPLE TEMPERATURE
 TCS .HRS               1:   TIME CURCULATED STOPPED
 LUN .               2523:   LOGGING UNIT NUMBER
 LUL .               CSPR:   LOGGING UNIT LOCATION
 ENGI.             KNOBEL:   RECORDING ENGINEER
 WITN.             MARTIN:   WITNESSED BY
 CLNT.            A2DTECH:   CLIENT CODE
 ORIG.     1", 2.5" PRINT:   ORIGIN OF DATA
 UWI .       490250632900:   UNIQUE WELL ID
 DICO. A2D Technologies, Inc.:   DIGITIZING COMPANY
~OTHER INFORMATION
~A   DEPT      SPR          ASN        ILD      CILD  
# ...
  538.0000   -33.9112     4.9495     4.7539   210.2128
  538.5000   -33.8996     4.7951     4.6381   214.1423
  539.0000   -33.8937     4.6739     4.5148   218.0718
  539.5000   -33.8898     4.5535     4.3765   220.7447
  540.0000   -33.8815     4.4090     4.2414   239.6454
  540.5000   -33.8783     4.2438     4.1149   253.9663
  541.0000   -33.8916     4.0749     3.9864   268.2872
  541.5000   -33.8998     3.9123     3.8526   282.6186
  542.0000   -33.8518     3.7573     3.7206   293.5537
  542.5000   -33.7247     3.6098     3.5928   312.6763
  543.0000   -33.5547     3.4764     3.4622   328.7134
  543.5000   -33.3957     3.3667     3.3266   343.6066
  544.0000   -33.2604     3.2793     3.1965   359.9955
  544.5000   -33.1209     3.1943     3.0745   374.4839
  545.0000   -32.9619     3.0969     2.9426   391.3340
  545.5000   -32.8065     3.0125     2.7952   405.2888
  546.0000   -32.6752     2.9889     2.6674   422.6667
  546.5000   -32.5397     3.0293     2.6008   434.4650
  547.0000   -32.3640     3.0940     2.5989   439.5787
  547.5000   -32.1950     3.1866     2.6544   439.7326
  548.0000   -32.1581     3.3713     2.7865   427.7020
  548.5000   -32.3265     3.6607     3.0030   413.3404
  549.0000   -32.6297     3.9569     3.2628   371.5470
  549.5000   -32.9289     4.1558     3.5296   330.9419
  550.0000   -33.1670     4.2505     3.8130   290.3369
  550.5000   -33.4051     4.2837     4.0924   249.1135
  551.0000   -33.7047     4.2650     4.2627   246.2677
  551.5000   -34.0082     4.1925     4.2422   252.3803
  552.0000   -34.1763     4.0992     4.0907   258.4929
  552.5000   -34.1418     4.0218     3.9367   265.0709
  553.0000   -33.9823     3.9543     3.8240   280.3989
  553.5000   -33.8165     3.8724     3.7073   296.9903
  554.0000   -33.6805     3.7739     3.5693   313.5816
  554.5000   -33.5475     3.6698     3.4429   330.1729
  555.0000   -33.4090     3.5631     3.3300   346.7642
  555.5000   -33.2700     3.4577     3.1907   366.1347
  556.0000   -33.1157     3.3771     3.0359   370.4965
  556.5000   -32.9534     3.3606     2.9590   376.7730
  557.0000   -32.8534     3.4386     3.0322   372.1040
  557.5000   -32.8806     3.6108     3.2217   366.2825
  558.0000   -33.0074     3.8390     3.4392   359.0425
  558.5000   -33.1479     4.0799     3.6409   343.8520
  559.0000   -33.2591     4.3283     3.8424   318.2624
  559.5000   -33.3636     4.6078     4.0682   289.5272
  560.0000   -33.4869     4.9058     4.3209   249.9409
  560.5000   -33.6155     5.1575     4.5797   197.6950
  561.0000   -33.7271     5.3224     4.8112   196.8041
  561.5000   -33.8322     5.4386     4.9973   195.4942
  562.0000   -33.9608     5.5662     5.1548   194.1844
  562.5000   -34.1063     5.7225     5.3152   192.3759
  563.0000   -34.2091     5.9121     5.4908   188.8608
  563.5000   -34.2188     6.1619     5.6748   183.1848
  564.0000   -34.1536     6.4652     5.8543   177.5089
  564.5000   -34.0749     6.7363     6.0189   172.0239
  565.0000   -34.0146     6.8904     6.1792   165.7265
  565.5000   -33.9604     6.9374     6.3669   160.5545
  566.0000   -33.8973     6.9510     6.5826   154.4191
  566.5000   -33.8302     6.9740     6.7566   146.3287
  567.0000   -33.7669     7.0009     6.8144   145.9324
  567.5000   -33.7067     7.0219     6.7702   147.6554
  568.0000   -33.6466     7.0380     6.7071   148.2305
  568.5000   -33.5835     7.0448     6.6736   149.4175
  569.0000   -33.5162     7.0356     6.6515   150.0649
  569.5000   -33.4528     7.0164     6.6162   151.0982
  570.0000   -33.3988     6.9996     6.5745   151.8854
  570.5000   -33.3390     6.9881     6.5389   152.8040
  571.0000   -33.2596     6.9758     6.5071   153.6803
  571.5000   -33.1927     6.9598     6.4750   154.5537
  572.0000   -33.2028     6.9436     6.4462   155.4432
  572.5000   -33.3095     6.9324     6.4214   156.3165
  573.0000   -33.4608     6.9224     6.3967   157.1897
  573.5000   -33.5982     6.8961     6.3736   158.0629
  574.0000   -33.7158     6.8330     6.3554   158.9362
  574.5000   -33.8367     6.7404     6.3356   159.8094
  575.0000   -33.9661     6.6648     6.3063   160.6826
  575.5000   -34.0950     6.6543     6.2811   161.5558
  576.0000   -34.2221     6.7147     6.2893   162.2340
  576.5000   -34.3481     6.8139     6.3424   159.0293
  577.0000   -34.4697     6.9177     6.4194   156.4096
  577.5000   -34.5939     7.0051     6.4938   153.7899
  578.0000   -34.7316     7.0711     6.5579   151.5957
  578.5000   -34.8625     7.1414     6.6195   147.1971
  579.0000   -34.9365     7.2538     6.6867   143.4131
  579.5000   -34.9298     7.3921     6.7603   139.6291
  580.0000   -34.8759     7.4778     6.8303   135.8452
  580.5000   -34.8243     7.4182     6.8882   132.0612
  581.0000   -34.7880     7.2867     6.9481   128.5461
  581.5000   -34.7514     7.1796     7.0328   132.0922
  582.0000   -34.7071     7.1033     7.1152   135.0426
  582.5000   -34.6620     7.0152     7.1068   137.8369
  583.0000   -34.6212     6.8767     6.9330   140.6312
  583.5000   -34.5820     6.6805     6.6079   143.4255
  584.0000   -34.5404     6.4354     6.2076   146.2766
  584.5000   -34.4957     6.1236     5.7916   179.2743
  585.0000   -34.4522     5.6978     5.3742   212.9559
  585.5000   -34.4149     5.1348     4.9477   246.6375
  586.0000   -34.3773     4.5371     4.5304   280.3192
  586.5000   -34.3277     4.0929     4.1874   314.0008
  587.0000   -34.2767     3.8494     3.9510   347.6824
  587.5000   -34.2517     3.6991     3.7155   385.6383
  588.0000   -34.2501     3.5642     3.3434   402.4113
  588.5000   -34.2358     3.5911     2.9505   424.6454
  589.0000   -34.2170     3.6439     2.9092   398.0497
  589.5000   -34.2769     3.6948     3.4318   358.7928
  590.0000   -34.4755     4.2271     4.3222   311.3475
  590.5000   -34.7660     5.1596     5.2780   263.9022
  591.0000   -35.0658     6.2238     6.2216   216.4569
  591.5000   -35.3672     7.5532     7.1704   169.0115
  592.0000   -35.6927     8.7332     8.0128   109.0425
  592.5000   -35.9876     9.2827     8.6461   101.3298
  593.0000   -36.1688     9.4994     9.1311    87.7660
  593.5000   -36.2694     9.5485     9.5075    91.0520
  594.0000   -36.4108     9.4175     9.6337    95.7092
  594.5000   -36.6054     9.2623     9.3988   101.9503
  595.0000   -36.7069     8.9197     8.9424   109.0425
  595.5000   -36.6081     8.3794     8.4933   114.1090
  596.0000   -36.3807     7.8657     8.1123   125.0000
  596.5000   -36.1399     7.2962     7.7213   139.1844
  597.0000   -35.8886     6.5689     7.2800   143.5780
  597.5000   -35.6051     6.6839     6.8193   150.9131
  598.0000   -35.3932     6.7659     6.3811   158.2482
  598.5000   -35.3907     6.9461     6.0477   165.5833
  599.0000   -35.5717     7.3705     5.9872   176.4184
  599.5000   -35.7818     8.2275     6.3580   166.8003
  600.0000   -35.9497     9.4286     7.1317   148.4045
  600.5000   -36.1231     9.4715     8.0505   130.0087
  601.0000   -36.3146     9.5739     8.8124   111.6128
  601.5000   -36.4708     9.7443     9.2891   101.9503
  602.0000   -36.6119     9.9775     9.5569    93.0851
  602.5000   -36.8543    10.5068     9.7541    90.1928
  603.0000   -37.2541    10.7014     9.9508    88.2181
  603.5000   -37.7243    10.9998    10.1473    86.2433
  604.0000   -38.1508    11.2090    10.3378    84.2686
  604.5000   -38.5141    11.4136    10.5334    82.2939
  605.0000   -38.8762    11.5833    10.7352    80.3192
  605.5000   -39.2887    11.7122    10.9157    78.3444
  606.0000   -39.7236    11.8094    11.0456    77.1277
  606.5000   -40.0973    11.8794    11.1276    76.5879
  607.0000   -40.3988    11.9289    11.1848    76.1978
  607.5000   -40.7490    11.9746    11.2373    75.8077
  608.0000   -41.2145    12.0400    11.2952    75.4176
  608.5000   -41.6067    12.1398    11.3609    75.0276
  609.0000   -41.6259    12.2758    11.4224    74.6375
  609.5000   -41.2061    12.4273    11.4656    74.2474
  610.0000   -40.5727    12.5658    11.5116    73.8574
  610.5000   -39.9841    12.6823    11.6115    73.5816
