~VERSION INFORMATION
 VERS.                2.0:   CWLS LOG ASCII STANDARD - VERSION 2.0
 WRAP.                 NO:   ONE LINE PER DEPTH STEP
~WELL INFORMATION
#MNEM.UNIT      DATA TYPE    INFORMATION
#----------   ------------   ------------------------------
 STRT.F           60.0000:   START DEPTH
 STOP.F         1143.0000:   STOP DEPTH
 STEP.F            0.5000:   STEP LENGTH
 NULL.          -999.2500:   NO VALUE
 COMP. U S NAVY-INTEX OIL:   COMPANY
 WELL.    N.P.R . 3 #63-2:   WELL
 FLD .             TEAPOT:   FIELD
 LOC .       S2 T38N R78W:   LOCATION
 CNTY.            NATRONA:   COUNTY
 STAT.            WYOMING:   STATE
 CTRY. UNITED STATES OF AMERICA:   COUNTRY
 SRVC. Schlumberger Well Surveying Corp:   SERVICE COMPANY
 DATE.        24-MAY-1964:   LOGDATE
 API .       490250645500:   API NUMBER
~CURVE INFORMATION
#MNEM.UNIT       API CODE    CURVE DESCRIPTION
#----------   ------------   ------------------------------
 DEPT.F                  :   
 SPR .MV     05 010 01 00:   SPONTANEOUS POTENTIAL FROM RES.
 ASN .OHMM   05 041 16 00:   AMPLIFIED SHORT NORMAL 16"
 ILD .OHMM   05 120 46 00:   INDUCTION LOG DEEP
 CILD.MMHO   05 110 46 00:   CONDUCTIVITY INDUCTION LOG DEEP
 CALS.IN     60 280 50 00:   CALIPER FROM SONIC LOG
 DT  .US/F   60 520 33 00:   INTERVAL TRANSIT TIME
~PARAMETER INFORMATION
#MNEM.UNIT          VALUE    DESCRIPTION
#----------   ------------   ------------------------------
 PD  .                 GL:   PERMANENT DATUM
 EPD .F              5181:   ELEVATION PERMANENT DATUM
 LMF .                 KB:   LOG MEASURED FROM
 DAPD.F                 5:   FEET ABOVE PERMANENT DATUM
 DMF .                 KB:   DRILLING MEASURED FROM
 EKB .F              5186:   KELLING BUSHING
 EGL .F              5181:   GROUND LEVEL
 DATE.        24-MAY-1964:   RUN DATE
 RUN .                  1:   RUN NUMBER
 DD  .F              1140:   DEPTH DRILLER
 DL  .F              1144:   DEPTH LOGGER
 BLI .F              1143:   BOTTOM LOG INTERVAL
 TLI .F                82:   TOP LOG INTERVAL
 CS  .IN            8.625:   CASING SIZE
 CBD .F                10:   CASING BOTTOM DRILLER
 BS  .IN            7.875:   BIT SIZE
 BSD .F              1140:   BIT SIZE AT DEPTH
 DFT .            GEL/OIL:   DRILLING FLUID TYPE
 DFD .                9.0:   DRILLING FLUID DENSITY
 DFV .                 63:   DRILLING FLUID VISCOSITY
 DFPH.                8.0:   DRILLING FLUID PH
 DFL .                7.6:   DRILLING FLUID LOSS
 MSS .           FLOWLINE:   MUD SAMPLE SOURCE
 RMS .OHMM           0.87:   RESISTIVITY MUD SAMPLE
 MST .F                84:   MUD SAMPLE TEMPERATURE
 RMF .OHMM           0.43:   RESISTIVITY MUD FILTRATE SAMPLE
 MFST.F                84:   MUD FILTRATE SAMPLE TEMPERATURE
 RMC .OHMM           1.52:   RESISTIVITY MUD CAKE
 MCST.F                84:   MUD CAKE SAMPLE TEMPERATURE
 MFSS.                 FP:   MUD FILTRATE SAMPLE SOURCE
 MCSS.                 FP:   MUD CAKE SAMPLE SOURCE
 TCS .HRS               2:   TIME CURCULATED STOPPED
 LUN .               4507:   LOGGING UNIT NUMBER
 LUL .               CSPR:   LOGGING UNIT LOCATION
 ENGI.             DANNER:   RECORDING ENGINEER
 WITN.          JORGENSEN:   WITNESSED BY
 CLNT.            A2DTECH:   CLIENT CODE
 ORIG.       2", 5" PRINT:   ORIGIN OF DATA
 UWI .       490250645500:   UNIQUE WELL ID
 DICO. A2D Technologies, Inc.:   DIGITIZING COMPANY
~OTHER INFORMATION
~A   DEPT      SPR          ASN        ILD      CILD      CALS         DT   
# ...
 1100.0000   -41.8675    12.0190     9.7598   103.6656     7.8430    89.1701
 1100.5000   -41.7777    11.9190     9.6925   104.8701     7.8426    88.7942
 1101.0000   -41.6879    11.8441     9.6252   106.0745     7.8121    88.6444
 1101.5000   -41.5981    11.7691     9.5579   107.2790     7.7816    88.5708
 1102.0000   -41.5663    11.7691     9.4906   107.6807     7.7359    88.4964
 1102.5000   -41.4735    11.7204     9.4233   108.1828     7.7205    88.3470
 1103.0000   -41.4157    11.6942     9.3560   108.6345     7.6446    88.2730
 1103.5000   -41.4157    11.6942     9.3093   109.1867     7.6745    88.3504
 1104.0000   -41.4157    11.6942     9.3093   109.1867     7.7498    88.8047
 1104.5000   -41.4157    11.6969     9.3093   109.1867     7.8250    88.9571
 1105.0000   -41.4157    11.7691     9.3093   109.1867     7.8400    88.8831
 1105.5000   -41.4157    11.7691     9.3093   109.1867     7.8244    88.8092
 1106.0000   -41.4157    11.8441     9.3093   109.1867     7.8241    88.7348
 1106.5000   -41.4157    11.8758     9.3093   109.1867     7.8238    88.6608
 1107.0000   -41.4157    11.9190     9.3093   109.1867     7.8235    88.5114
 1107.5000   -41.4157    11.9190     9.3268   109.1867     7.8232    88.4377
 1108.0000   -41.4157    11.9350     9.3844   108.4337     7.8229    88.7412
 1108.5000   -41.4157    11.9940     9.3844   107.6807     7.8226    89.2710
 1109.0000   -41.2651    12.0995     9.3844   106.5764     7.8072    89.1215
 1109.5000   -41.4157    12.2191     9.3844   104.5178     7.7767    88.7457
 1110.0000   -41.4157    12.3839     9.6997    99.9001     7.7764    88.7472
 1110.5000   -41.5663    12.6380    10.4472    94.4284     7.7761    88.9776
 1111.0000   -41.7610    13.2714    11.2247    86.5964     7.7758    89.2835
 1111.5000   -42.2043    14.1829    12.0023    80.6729     7.7906    89.6724
 1112.0000   -42.6205    15.0944    12.7798    75.8530     7.7903    90.2827
 1112.5000   -43.1099    16.0059    13.5574    71.0337     7.7900    90.8932
 1113.0000   -43.6767    16.9174    14.3154    67.3699     7.7897    91.3226
 1113.5000   -44.2455    17.8320    15.0519    64.0060     7.7743    91.2486
 1114.0000   -44.9357    19.1904    15.7885    61.7970     7.7438    87.0991
 1114.5000   -45.4819    19.9560    16.5251    59.4380     7.7284    85.0554
 1115.0000   -45.5221    20.4648    16.8919    58.2328     7.7281    83.7810
 1115.5000   -45.0301    20.8014    16.9670    57.9819     7.7580    84.2357
 1116.0000   -44.5783    20.9145    16.6667    60.2410     7.7879    84.3123
 1116.5000   -44.7495    20.3898    15.6862    61.6970     7.8329    84.6161
 1117.0000   -45.0301    19.8541    14.9500    64.1066     7.8478    88.0138
 1117.5000   -45.2284    19.3403    14.4895    66.5161     7.8473    91.9398
 1118.0000   -45.3313    18.8606    14.2373    68.9259     7.8470    92.7715
 1118.5000   -45.2565    18.4236    14.1141    70.7831     7.8316    93.3013
 1119.0000   -45.1677    18.1150    13.9640    71.8875     7.8011    93.4534
 1119.5000   -44.8263    17.9160    13.8889    73.0422     7.8008    93.0024
 1120.0000   -44.5381    17.7661    13.8889    72.5403     7.8005    93.3058
 1120.5000   -44.4277    17.7661    13.9134    72.0883     7.8154    93.9865
 1121.0000   -44.6455    17.6912    13.9640    71.5361     7.8303    93.8371
 1121.5000   -44.8905    17.6912    14.0025    70.4319     7.7845    93.4612
 1122.0000   -45.2751    17.6912    14.0390    70.0301     7.7087    95.2740
 1122.5000   -45.5145    17.6912    14.1141    70.0301     7.6782    95.1246
 1123.0000   -45.7831    17.6912    14.1141    69.2771     7.6779    94.5223
 1123.5000   -45.7234    17.6880    14.1141    69.3774     7.6928    94.2974
 1124.0000   -45.6325    17.6162    14.0781    69.6285     7.7076    94.4498
 1124.5000   -45.3083    17.6162    14.0335    70.0301     7.7375    94.1494
 1125.0000   -44.9799    17.6162    13.9640    70.0301     7.7371    93.0943
 1125.5000   -44.4277    17.5412    13.8889    70.0301     7.7520    92.4141
 1126.0000   -44.2249    17.4643    13.7387    70.7831     7.7365    92.1917
 1126.5000   -43.9759    17.3446    13.5551    71.1346     7.7211    92.9555
 1127.0000   -44.0552    17.2998    13.3604    71.5861     7.6906    92.7129
 1127.5000   -44.1616    17.1664    13.1932    72.7912     7.6752    92.5735
 1128.0000   -44.5783    17.0165    12.9710    73.2431     7.6749    93.4056
 1128.5000   -44.6676    16.7909    12.7628    74.5482     7.6898    93.9354
 1129.0000   -45.0301    16.6257    12.6256    75.6527     7.7197    93.7105
 1129.5000   -44.9583    16.3710    12.4620    77.6608     7.7496    94.3912
 1130.0000   -44.7188    15.9670    12.2973    79.0663     7.7644    94.1663
 1130.5000   -44.4794    15.6529    12.0726    80.9741     7.7640    93.7904
 1131.0000   -44.0894    15.2924    11.9369    82.0783     7.7486    93.5655
 1131.5000   -43.6747    14.9348    11.8334    83.9356     7.7483    93.2651
 1132.0000   -43.4599    14.6037    11.7117    85.1407     7.7328    92.1345
 1132.5000   -43.3735    14.3928    11.5515    86.3453     7.7325    91.4568
 1133.0000   -43.3735    14.2609    11.4625    88.3031     7.7475    91.0809
 1133.5000   -43.4031    14.0930    11.2613    89.6084     7.7470    90.7805
 1134.0000   -43.6747    13.9750    11.1602    90.7128     7.7467    90.7820
 1134.5000   -43.8253    13.8554    10.9610    91.8675     7.7464    91.1609
 1135.0000   -43.9759    13.7181    10.8859    92.3696     7.7461    91.6152
 1135.5000   -43.9759    13.6159    10.8013    92.8211     7.7458    91.9941
 1136.0000   -44.1265    13.4933    10.6607    93.3735     7.7455    92.0707
 1136.5000   -44.1265    13.4516    10.5856    93.3735     7.7452    91.3933
 1137.0000   -44.1265    13.4068    10.5856    93.3735     7.7601    90.7910
 1137.5000   -44.1265    13.3433    10.5856    93.3735     7.7598    90.4152
 1138.0000   -44.1265    13.2424    10.5856    94.1265     7.7747    90.0593
 1138.5000   -44.1265    13.1934    10.5856    94.1265     7.7592  -999.2500
 1139.0000   -43.9759    13.1184    10.6066    94.1265     7.7286  -999.2500
 1139.5000   -43.9759    13.0332    10.6607    94.1265     7.6981  -999.2500
 1140.0000   -43.9759    12.9685    10.6607    94.1265     7.6827  -999.2500
 1140.5000   -43.8253    12.8689    10.6607    94.1265     7.7429  -999.2500
 1141.0000   -43.6677    12.8186    10.7097    94.1265     7.7879  -999.2500
 1141.5000   -43.4282    12.8186    10.7357    94.1265     7.8178  -999.2500
 1142.0000   -43.3735    12.8186    10.7357    94.1265     7.8478  -999.2500
 1142.5000   -43.3735    12.9685    10.7357    94.1265  -999.2500  -999.2500
 1143.0000   -43.3735    13.1934    10.8108    94.1265  -999.2500  -999.2500
