~VERSION INFORMATION
 VERS.                2.0:   CWLS LOG ASCII STANDARD - VERSION 2.0
 WRAP.                 NO:   ONE LINE PER DEPTH STEP
~WELL INFORMATION
#MNEM.UNIT      DATA TYPE    INFORMATION
#----------   ------------   ------------------------------
 STRT.F          520.5000:   START DEPTH
 STOP.F         3119.5000:   STOP DEPTH
 STEP.F            0.5000:   STEP LENGTH
 NULL.          -999.2500:   NO VALUE
 COMP.   FLUOR DANIEL INC:   COMPANY
 WELL. NAVAL PETROLEUM RESERVE 3 X-10 #52-10:   WELL
 FLD .            WILDCAT:   FIELD
 LOC .      S10 T38N R78W:   LOCATION
 CNTY.            NATRONA:   COUNTY
 STAT.            WYOMING:   STATE
 CTRY. UNITED STATES OF AMERICA:   COUNTRY
 SRVC.            Unknown:   SERVICE COMPANY
 DATE.        16-AUG-1995:   LOGDATE
 API .       490252275200:   API NUMBER
~CURVE INFORMATION
#MNEM.UNIT       API CODE    CURVE DESCRIPTION
#----------   ------------   ------------------------------
 DEPT.F                  :   
 ROP .MIN/FT 91 810 01 00:   RAT OF DRILLING PENETRATION
 TGAS.UNITS  91 830 01 00:   TOTAL GAS FROM HOTWIRE
~PARAMETER INFORMATION
#MNEM.UNIT          VALUE    DESCRIPTION
#----------   ------------   ------------------------------
 EKB .F              5206:   KELLING BUSHING
 EGL .F              5196:   GROUND LEVEL
 DATE.            8-16-95:   RUN DATE
 DD  .F              3120:   DEPTH DRILLER
 CS  .IN            9.625:   CASING SIZE
 CBD .F               508:   CASING BOTTOM DRILLER
 BS  .IN             8.75:   BIT SIZE
 BSD .F              3120:   BIT SIZE AT DEPTH
 ENGI.               HUSK:   RECORDING ENGINEER
 WITN.              TOWER:   WITNESSED BY
 CLNT.            A2DTECH:   CLIENT CODE
 ORIG.           5" PRINT:   ORIGIN OF DATA
 UWI .       490252275200:   UNIQUE WELL ID
 DICO. A2D Technologies, Inc.:   DIGITIZING COMPANY
~OTHER INFORMATION
~A   DEPT        ROP     TGAS   
# ...
  642.0000     0.3960    21.5547
  642.5000     0.3857    21.5573
  643.0000     0.3862    21.5599
  643.5000     0.3866    21.5626
  644.0000     0.3763    21.5652
  644.5000     0.3767    21.5679
  645.0000     0.3771    21.5705
  645.5000     0.3775    21.5731
  646.0000     0.3779    21.5758
  646.5000     0.3784    21.5784
  647.0000     0.3788    21.5811
  647.5000     0.3792    21.5837
  648.0000     0.3796    21.5863
  648.5000     0.3906    21.5890
  649.0000     0.3910    21.5916
  649.5000     0.3914    21.5943
  650.0000     0.3918    21.5969
  650.5000     0.3922    21.5995
  651.0000     0.4033    21.6022
  651.5000     0.4037    21.6048
  652.0000     0.4041    21.6075
  652.5000     0.4045    21.6101
  653.0000     0.4049    21.6127
  653.5000     0.4053    21.6154
  654.0000     0.4164    21.6176
  654.5000     0.4167    21.5858
  655.0000     0.4278    21.5581
  655.5000     0.4282    21.5305
  656.0000     0.4286    21.5028
  656.5000     0.4290    21.4752
  657.0000     0.4294    21.4475
  657.5000     0.4298    21.4199
  658.0000     0.4302    21.3922
  658.5000     0.4306    21.3646
  659.0000     0.4310    21.3369
  659.5000     0.4314    21.3093
  660.0000     0.4211    21.2816
  660.5000     0.4215    21.2540
  661.0000     0.4219    21.2263
  661.5000     0.4223    21.1987
  662.0000     0.4228    21.1710
  662.5000     0.4232    21.1434
  663.0000     0.4236    21.1157
  663.5000     0.4240    21.0881
  664.0000     0.4243    21.0604
  664.5000     0.4140    21.0328
  665.0000     0.4145    21.0051
  665.5000     0.4149    20.9775
  666.0000     0.4152    20.9498
  666.5000     0.4156    20.9222
  667.0000     0.4142    20.8945
  667.5000     0.4058    20.8669
  668.0000     0.4062    20.8392
  668.5000     0.4066    20.8116
  669.0000     0.4070    20.7839
  669.5000     0.4074    20.7563
  670.0000     0.4078    20.7286
  670.5000     0.3975    20.7010
  671.0000     0.3979    20.6733
  671.5000     0.3983    20.6457
  672.0000     0.3987    20.6180
  672.5000     0.3992    20.5904
  673.0000     0.3996    20.5627
  673.5000     0.4000    20.5351
  674.0000     0.4004    20.5074
  674.5000     0.4008    20.4798
  675.0000     0.4011    20.4521
  675.5000     0.4122    20.4245
  676.0000     0.4126    20.3968
  676.5000     0.4130    20.3692
  677.0000     0.4240    20.3415
  677.5000     0.4351    20.3139
  678.0000     0.4356    20.2862
  678.5000     0.4466    20.2585
  679.0000     0.4470    20.2309
  679.5000     0.4474    20.2032
  680.0000     0.4370    20.1756
  680.5000     0.4052    20.1479
  681.0000     0.4054    20.1203
  681.5000     0.4162    20.0926
  682.0000     0.4270    20.0650
  682.5000     0.4378    20.0373
  683.0000     0.4379    20.0097
  683.5000     0.4487    19.9820
  684.0000     0.4488    19.9748
  684.5000     0.4490    20.0007
  685.0000     0.4491    20.0266
  685.5000     0.4492    20.0525
  686.0000     0.4494    20.0783
  686.5000     0.4388    20.1042
  687.0000     0.4390    20.1301
  687.5000     0.4391    20.1560
  688.0000     0.4499    20.1819
  688.5000     0.4500    20.2077
  689.0000     0.4502    20.2336
  689.5000     0.4503    20.2595
  690.0000     0.4504    20.2854
  690.5000     0.4506    20.3113
  691.0000     0.4507    20.3371
  691.5000     0.4508    20.3630
  692.0000     0.4510    20.3889
  692.5000     0.7070    20.4148
  693.0000     0.7071    20.4407
  693.5000     0.7072    20.4665
  694.0000     0.7074    20.4924
  694.5000     0.3983    20.5183
  695.0000     0.3985    20.5442
  695.5000     0.3986    20.5700
  696.0000     0.3987    20.5959
  696.5000     0.4095    20.6218
  697.0000     0.4097    20.6477
  697.5000     0.4098    20.6736
  698.0000     0.4099    20.6994
  698.5000     0.4101    20.7253
  699.0000     0.4102    20.7512
  699.5000     0.4103    20.7771
  700.0000     0.4105    20.8018
  700.5000     0.3999    20.8135
  701.0000     0.4107    20.8252
  701.5000     0.4108    20.8368
  702.0000     0.4110    20.8485
  702.5000     0.4111    20.8602
  703.0000     0.4219    20.8719
  703.5000     0.4221    20.8835
  704.0000     0.4222    20.8952
  704.5000     0.4223    20.9069
  705.0000     0.4331    20.9186
  705.5000     0.4439    20.9302
  706.0000     0.4440    20.9419
  706.5000     0.4442    20.9536
  707.0000     0.4443    20.9653
  707.5000     0.4444    20.9769
  708.0000     0.4446    20.9886
  708.5000     0.4447    21.0003
  709.0000     0.4448    21.0120
  709.5000     0.4343    21.0237
  710.0000     0.4344    21.0353
  710.5000     0.4346    21.0470
  711.0000     0.4240    21.0587
  711.5000     0.4242    21.0704
  712.0000     0.4136    21.0820
  712.5000     0.4138    21.0937
  713.0000     0.4139    21.1054
  713.5000     0.4141    21.1171
  714.0000     0.4142    21.1287
  714.5000     0.4143    21.1404
  715.0000     0.4144    21.1521
  715.5000     0.4146    21.1638
  716.0000     0.4147    21.1755
  716.5000     0.4149    21.1871
  717.0000     0.4150    21.1988
  717.5000     0.4151    21.2105
  718.0000     0.4153    21.2222
  718.5000     0.4154    21.2338
  719.0000     0.4155    21.2455
  719.5000     0.4156    21.2572
  720.0000     0.4158    21.2681
  720.5000     0.4371    21.2406
  721.0000     0.4264    21.2147
  721.5000     0.4264    21.1889
  722.0000     0.4264    21.1631
  722.5000     0.4264    21.1372
  723.0000     0.4264    21.1114
  723.5000     0.4264    21.0856
  724.0000     0.4478    21.0597
  724.5000     0.4584    21.0339
  725.0000     0.4584    21.0080
  725.5000     0.4584    20.9822
  726.0000     0.4691    20.9564
  726.5000     0.4691    20.9305
  727.0000     0.4691    20.9047
  727.5000     0.4691    20.8788
  728.0000     0.4691    20.8530
  728.5000     0.4691    20.8272
  729.0000     0.4691    20.8013
  729.5000     0.4691    20.7755
  730.0000     0.4691    20.7497
  730.5000     0.4691    20.7238
  731.0000     0.4691    20.6980
  731.5000     0.4691    20.6721
  732.0000     0.4691    20.6463
  732.5000     0.4691    20.6205
  733.0000     0.4691    20.5946
  733.5000     0.4691    20.5688
  734.0000     0.4691    20.5429
  734.5000     0.4584    20.5171
  735.0000     0.4584    20.4913
  735.5000     0.4584    20.4654
  736.0000     0.4584    20.4396
  736.5000     0.4584    20.4138
  737.0000     0.4584    20.3879
  737.5000     0.4584    20.3621
  738.0000     0.4584    20.3362
  738.5000     0.4584    20.3104
  739.0000     0.4584    20.2846
  739.5000     0.4584    20.2587
  740.0000     0.4584    20.2468
  740.5000     0.4584    20.2514
  741.0000     0.4584    20.2561
  741.5000     0.4584    20.2607
  742.0000     0.4584    20.2654
  742.5000     0.4584    20.2700
  743.0000     0.4584    20.2747
  743.5000     0.4584    20.2793
  744.0000     0.4584    20.2840
  744.5000     0.4584    20.2886
  745.0000     0.4584    20.2933
  745.5000     0.4584    20.2979
  746.0000     0.4584    20.3026
  746.5000     0.4584    20.3072
  747.0000     0.4584    20.3119
  747.5000     0.4584    20.3165
  748.0000     0.4478    20.3212
  748.5000     0.4478    20.3258
  749.0000     0.4478    20.3305
  749.5000     0.4478    20.3351
  750.0000     0.4478    20.3398
  750.5000     0.4371    20.3444
  751.0000     0.4371    20.3491
  751.5000     0.4371    20.3537
  752.0000     0.4264    20.3584
  752.5000     0.4264    20.3630
  753.0000     0.4264    20.3677
  753.5000     0.4264    20.3723
  754.0000     0.4264    20.3770
  754.5000     0.4264    20.3816
  755.0000     0.4264    20.3863
  755.5000     0.4264    20.3909
  756.0000     0.4264    20.3956
  756.5000     0.4264    20.4002
  757.0000     0.4158    20.4049
  757.5000     0.4158    20.4095
  758.0000     0.4051    20.4142
  758.5000     0.3945    20.4188
  759.0000     0.3945    20.4235
  759.5000     0.3945    20.4281
  760.0000     0.3945    20.4328
  760.5000     0.3842    20.4374
  761.0000     0.3847    20.4421
  761.5000     0.3743    20.4467
  762.0000     0.3748    20.4514
  762.5000     0.3752    20.4560
  763.0000     0.3756    20.4607
