~VERSION INFORMATION
 VERS.                2.0:   CWLS LOG ASCII STANDARD - VERSION 2.0
 WRAP.                 NO:   ONE LINE PER DEPTH STEP
~WELL INFORMATION
#MNEM.UNIT      DATA TYPE    INFORMATION
#----------   ------------   ------------------------------
 STRT.F           30.0000:   START DEPTH
 STOP.F          562.0000:   STOP DEPTH
 STEP.F            0.5000:   STEP LENGTH
 NULL.          -999.2500:   NO VALUE
 COMP. LAWRENCE/ALLISON INC:   COMPANY
 WELL. 81-16 SHX-SX-10 #10-10:   WELL
 FLD .             TEAPOT:   FIELD
 LOC .      S10 T38N R78W:   LOCATION
 CNTY.            NATRONA:   COUNTY
 STAT.            WYOMING:   STATE
 CTRY. UNITED STATES OF AMERICA:   COUNTRY
 SRVC.           Gearhart:   SERVICE COMPANY
 DATE.        03-JUN-1987:   LOGDATE
 API .       490251113300:   API NUMBER
~CURVE INFORMATION
#MNEM.UNIT       API CODE    CURVE DESCRIPTION
#----------   ------------   ------------------------------
 DEPT.F                  :   
 GRR .GAPI   07 310 01 00:   GAMMA RAY FROM RES. LOG.
 RILD.OHMM   07 120 46 00:   INDUCTION LOG DEEP RESISTIVITY
 RILM.OHMM   07 120 44 00:   INDUCTION LOG MEDIUM RESISTIVITY
~PARAMETER INFORMATION
#MNEM.UNIT          VALUE    DESCRIPTION
#----------   ------------   ------------------------------
 PD  .                 GL:   PERMANENT DATUM
 EPD .F              5169:   ELEVATION PERMANENT DATUM
 LMF .                 KB:   LOG MEASURED FROM
 DAPD.F                 8:   FEET ABOVE PERMANENT DATUM
 DMF .                 KB:   DRILLING MEASURED FROM
 EKB .F              5177:   KELLING BUSHING
 EDF .F              5175:   DRILLING FLOOR
 EGL .F              5169:   GROUND LEVEL
 DATE.             6-3-87:   RUN DATE
 RUN .                  1:   RUN NUMBER
 DD  .F               570:   DEPTH DRILLER
 DL  .F               570:   DEPTH LOGGER
 BLI .F               562:   BOTTOM LOG INTERVAL
 TLI .F                30:   TOP LOG INTERVAL
 CS  .IN            8.625:   CASING SIZE
 CBD .F                50:   CASING BOTTOM DRILLER
 CBL .F                49:   CASING BOTTOM LOGGER
 BS  .IN            7.875:   BIT SIZE
 BSD .F               570:   BIT SIZE AT DEPTH
 DFT .               FOAM:   DRILLING FLUID TYPE
 TCS .HRS            0930:   TIME CURCULATED STOPPED
 TLAB.HRS            1101:   TIME LOGGER AT BOTTOM
 MRT .F                80:   MAXIMUM RECORDED TEMPERATURE
 LUN .               7597:   LOGGING UNIT NUMBER
 LUL .           GILLETTE:   LOGGING UNIT LOCATION
 ENGI. WEATHERMON/JOHNSTON:   RECORDING ENGINEER
 WITN.             STRONG:   WITNESSED BY
 CLNT.            A2DTECH:   CLIENT CODE
 ORIG.       2", 5" PRINT:   ORIGIN OF DATA
 UWI .       490251113300:   UNIQUE WELL ID
 DICO. A2D Technologies, Inc.:   DIGITIZING COMPANY
~OTHER INFORMATION
~A   DEPT       GRR      RILD       RILM   
# ...
  485.0000   106.1293    13.2938    12.9435
  485.5000   105.5506    13.5187    13.1760
  486.0000   106.3614    13.7473    13.4150
  486.5000   107.1891    13.9798    13.5540
  487.0000   107.1491    14.1561    13.6652
  487.5000   104.4508    14.2447    13.7763
  488.0000   101.7647    14.3338    13.8883
  488.5000    99.7350    14.4235    14.0014
  489.0000   100.3322    14.5137    14.1154
  489.5000   105.1821    14.6045    14.2303
  490.0000   108.4224    14.6958    14.2935
  490.5000   106.0078    14.7877    14.3432
  491.0000   102.5164    15.0099    14.3932
  491.5000   100.1930    15.1146    14.4432
  492.0000    97.8614    15.2245    14.4938
  492.5000    98.0858    15.1686    14.5249
  493.0000    97.4259    15.1091    14.5244
  493.5000    96.5896    15.0503    14.5268
  494.0000    97.6078    14.9918    14.3254
  494.5000    98.7316    14.9278    14.1390
  495.0000    98.3964    14.8223    13.9551
  495.5000    97.5898    14.7175    13.7729
  496.0000    96.8808    14.6135    13.5981
  496.5000    96.6643    14.5102    13.5994
  497.0000    96.6415    14.4076    13.5992
  497.5000    99.0315    14.3058    13.5992
  498.0000   100.8336    14.2047    13.4730
  498.5000   101.4226    14.1043    13.3042
  499.0000   102.0172    14.0046    13.1373
  499.5000   103.1556    13.7459    12.9724
  500.0000   107.9865    13.4618    12.8099
  500.5000   111.6762    13.1871    12.5990
  501.0000   111.4577    12.9402    12.3461
  501.5000   111.1133    12.6979    12.0981
  502.0000   110.4660    12.4602    11.8552
  502.5000   109.6243    12.2268    11.6172
  503.0000   107.9325    11.9979    11.3839
  503.5000   107.2241    11.7733    11.1553
  504.0000   107.5011    11.5528    10.9313
  504.5000   107.9209    11.3365    10.8317
  505.0000   107.2904    11.2420    10.7890
  505.5000   106.8862    11.2054    10.7465
  506.0000   110.0143    11.1689    10.7042
  506.5000   113.1043    11.1325    10.6621
  507.0000   116.0460    11.0963    10.6201
  507.5000   115.6425    11.0601    10.5783
  508.0000   112.9406    11.0241    10.5366
  508.5000   109.7881    10.9882    10.4951
  509.0000   106.9608    10.9531    10.4538
  509.5000   106.2314    10.8499    10.4126
  510.0000   106.1877    10.7490    10.3716
  510.5000   106.6240    10.6493    10.2771
  511.0000   107.0749    10.5505    10.1347
  511.5000   107.5282    10.4527     9.9940
  512.0000   107.2943    10.3557     9.8552
  512.5000   106.9894    10.2597     9.7183
  513.0000   106.7895    10.1596     9.5116
  513.5000   108.8370     9.9734     9.4161
  514.0000   112.9260     9.7802     9.2902
  514.5000   116.8937     9.5906     9.1661
  515.0000   120.3050     9.4048     9.0436
  515.5000   120.0460     9.2385     8.9228
  516.0000   119.7254     9.1904     8.8035
  516.5000   117.6139     9.1407     8.6859
  517.0000   115.5048     9.0906     8.5765
  517.5000   113.5051     8.9558     8.2582
  518.0000   113.3412     8.5560     7.9682
  518.5000   116.2234     8.1742     7.6884
  519.0000   119.2919     7.9024     7.4184
  519.5000   122.3200     7.8064     7.1726
  520.0000   122.6991     7.8319     7.1055
  520.5000   121.1112     7.8614     7.1780
  521.0000   118.9975     7.9332     7.5034
  521.5000   116.8742     8.2464     7.9991
  522.0000   114.7667     8.5721     8.5276
  522.5000   114.2034     8.9106     9.0909
  523.0000   113.8689     9.2625     9.6915
  523.5000   113.0500     9.6187    10.2454
  524.0000   111.6033     9.9770    10.6759
  524.5000   112.0269    10.3504    10.8073
  525.0000   112.9941    10.5578    10.9403
  525.5000   112.6917    10.5770    11.0749
  526.0000   111.8919    10.5961    11.2183
  526.5000   111.1875    10.6154    11.3732
  527.0000   111.3136    10.6346    11.3103
  527.5000   114.0173    10.6484    11.2490
  528.0000   116.8015    10.6483    11.1881
  528.5000   118.1547    10.6483    11.1347
  529.0000   117.4838    10.6484    11.0875
  529.5000   116.5067    10.6485    11.0404
  530.0000   114.4168    10.6485    10.9935
  530.5000   112.1603    10.5837    10.9469
  531.0000   109.7025    10.5124    10.9004
  531.5000   107.2369    10.4417    10.8541
  532.0000   106.6850    10.3715    10.8081
  532.5000   106.2758    10.3017    10.7622
  533.0000   106.0210    10.1850    10.6140
  533.5000   104.7399     9.9697    10.4293
  534.0000   102.1753     9.5331    10.2214
  534.5000   101.1113     9.1076     9.9093
  535.0000   103.1676     8.7394     9.5396
  535.5000   105.5750     8.0639     9.0287
  536.0000   108.8868     7.4464     8.5452
  536.5000   112.2767     6.6681     8.1824
  537.0000   115.7802     5.9793     7.5263
  537.5000   116.0845     5.1846     6.7092
  538.0000   113.0979     4.5226     5.6514
  538.5000   110.4764     3.9825     4.6755
  539.0000   111.6317     3.6514     3.8681
  539.5000   114.3122     3.4408     3.3832
  540.0000   115.7989     3.2239     3.0554
  540.5000   113.1513     3.2598     2.8528
  541.0000   110.5384     3.3312     2.8738
  541.5000   107.9675     3.4603     3.0330
  542.0000   105.4776     3.6857     3.3086
  542.5000   103.0578     3.9870     3.8774
  543.0000   100.9569     4.3124     4.5949
  543.5000   101.0289     4.9510     5.4452
  544.0000   101.9609     5.7988     6.2499
  544.5000   104.2702     6.6437     6.9730
  545.0000   106.3156     7.1696     7.4069
  545.5000  -999.2500     7.5002     7.8420
  546.0000  -999.2500     7.8733     8.2088
  546.5000  -999.2500     8.2675     8.5603
  547.0000  -999.2500     8.4962     8.9053
  547.5000  -999.2500     8.4596     8.9895
  548.0000  -999.2500     8.4166     8.9895
  548.5000  -999.2500     8.5053     8.9895
  549.0000  -999.2500     8.6250     9.1142
  549.5000  -999.2500     8.7394     9.2749
  550.0000  -999.2500     8.6335     9.4225
  550.5000  -999.2500     8.5346     9.1911
  551.0000  -999.2500     8.4368     8.9413
  551.5000  -999.2500     8.3378     8.6983
  552.0000  -999.2500     8.3378     8.4620
  552.5000  -999.2500     8.3611     8.4166
  553.0000  -999.2500     8.3779     8.5379
  553.5000  -999.2500     8.3948     8.6252
  554.0000  -999.2500     8.4162     8.7147
  554.5000  -999.2500     8.3961     8.7394
  555.0000  -999.2500     8.3672     8.5744
  555.5000  -999.2500     8.3378     8.4962
  556.0000  -999.2500     8.3709     8.6847
  556.5000  -999.2500     8.4135     8.7971
  557.0000  -999.2500     8.4563     8.9109
  557.5000  -999.2500     8.4962     9.0262
  558.0000  -999.2500     8.4962     9.1431
  558.5000  -999.2500     8.2812     9.2469
  559.0000  -999.2500     8.1046     9.1363
  559.5000  -999.2500     8.1060     9.0389
  560.0000  -999.2500     8.0782     8.9428
  560.5000  -999.2500     8.0508     8.9053
  561.0000  -999.2500     8.0299     8.9053
  561.5000  -999.2500     8.2468     8.9053
  562.0000  -999.2500     8.3765     8.9367
