~VERSION INFORMATION
 VERS.                2.0:   CWLS LOG ASCII STANDARD - VERSION 2.0
 WRAP.                 NO:   ONE LINE PER DEPTH STEP
~WELL INFORMATION
#MNEM.UNIT      DATA TYPE    INFORMATION
#----------   ------------   ------------------------------
 STRT.F           20.0000:   START DEPTH
 STOP.F          672.0000:   STOP DEPTH
 STEP.F            0.5000:   STEP LENGTH
 NULL.          -999.2500:   NO VALUE
 COMP.              FENIX:   COMPANY
 WELL.    NPR ##3 23-S-11:   WELL
 FLD .        TEAPOT DOME:   FIELD
 LOC .      S11 T38N R78W:   LOCATION
 CNTY.            NATRONA:   COUNTY
 STAT.            WYOMING:   STATE
 CTRY. UNITED STATES OF AMERICA:   COUNTRY
 SRVC.           BIRDWELL:   SERVICE COMPANY
 DATE.        05-FEB-1978:   LOGDATE
 API .       490251057300:   API NUMBER
~CURVE INFORMATION
#MNEM.UNIT       API CODE    CURVE DESCRIPTION
#----------   ------------   ------------------------------
 DEPT.F                  :   
 ILD .OHMM   05 120 46 00:   INDUCTION LOG DEEP
 SN  .OHMM   05 040 16 00:   SHORT NORMAL 16"
 SPR .MV     05 010 01 00:   SPONTANEOUS POTENTIAL FROM RES.
 CALD.IN     45 280 60 00:   CALIPER FROM DENSITY LOG
 CORR.G/C3   45 356 01 00:   DENSITY CORRECTION
 DPHI.DEC    45 890 10 00:   DENSITY POROSITY LIMESTONE
 GRD .GAPI   45 310 01 00:   GAMMA RAY FROM DENSITY LOG
 RHOB.G/C3   45 350 01 00:   BULK DENSITY
~PARAMETER INFORMATION
#MNEM.UNIT          VALUE    DESCRIPTION
#----------   ------------   ------------------------------
 PD  .                 GL:   PERMANENT DATUM
 EPD .F              5175:   ELEVATION PERMANENT DATUM
 LMF .                 KB:   LOG MEASURED FROM
 DMF .                 KB:   DRILLING MEASURED FROM
 EKB .F              5178:   KELLING BUSHING
 EGL .F              5175:   GROUND LEVEL
 DATE.        05-FEB-1978:   RUN DATE
 RUN .                  1:   RUN NUMBER
 DD  .F               670:   DEPTH DRILLER
 DL  .F               675:   DEPTH LOGGER
 BLI .F               670:   BOTTOM LOG INTERVAL
 TLI .F                40:   TOP LOG INTERVAL
 CS  .IN            8.625:   CASING SIZE
 CBD .F                39:   CASING BOTTOM DRILLER
 CBL .F                40:   CASING BOTTOM LOGGER
 BS  .IN            7.875:   BIT SIZE
 BSD .F               670:   BIT SIZE AT DEPTH
 DFT .                KCL:   DRILLING FLUID TYPE
 DFD .                8.4:   DRILLING FLUID DENSITY
 DFV .                 32:   DRILLING FLUID VISCOSITY
 DFPH.                  8:   DRILLING FLUID PH
 DFL .                8.8:   DRILLING FLUID LOSS
 MSS .           FLOWLINE:   MUD SAMPLE SOURCE
 RMS .OHMM           0.58:   RESISTIVITY MUD SAMPLE
 MST .F                62:   MUD SAMPLE TEMPERATURE
 RMF .OHMM           0.58:   RESISTIVITY MUD FILTRATE SAMPLE
 MFST.F                62:   MUD FILTRATE SAMPLE TEMPERATURE
 RMC .OHMM            0.9:   RESISTIVITY MUD CAKE
 MCST.F                66:   MUD CAKE SAMPLE TEMPERATURE
 MFSS.               MEAS:   MUD FILTRATE SAMPLE SOURCE
 RMB .OHMM           0.55:   RESISTIVITY MUD AT BHT
 BHT .F                72:   BOTTOM HOLE TEMPERATURE
 TCS .HRS               1:   TIME CURCULATED STOPPED
 MRT .F                72:   MAXIMUM RECORDED TEMPERATURE
 LUN .               2958:   LOGGING UNIT NUMBER
 LUL .               CASP:   LOGGING UNIT LOCATION
 ENGI.            POINTER:   RECORDING ENGINEER
 WITN.         HARRINGTON:   WITNESSED BY
 CLNT.            A2DTECH:   CLIENT CODE
 ORIG.           5" PRINT:   ORIGIN OF DATA
 UWI .       490251057300:   UNIQUE WELL ID
 DICO. A2D Technologies, Inc.:   DIGITIZING COMPANY
~OTHER INFORMATION
~A   DEPT      ILD         SN        SPR       CALD       CORR       DPHI         GRD      RHOB   
# ...
  222.5000     8.4485     8.9557   -54.5431     7.9482     0.0015     0.1091    82.6837     2.4658
  223.0000     8.4456     8.8908   -54.5488     7.9473     0.0000     0.1113    83.4333     2.4583
  223.5000     8.4427     8.8878   -54.5549     7.9464    -0.0022     0.1137    83.7331     2.4515
  224.0000     8.4393     8.7017   -54.5610     7.9609    -0.0022     0.1170    83.4333     2.4448
  224.5000     8.4364     8.6386   -54.5682     7.9600    -0.0022     0.1206    83.1334     2.4373
  225.0000     8.3753     8.5760   -54.5732     7.9593    -0.0015     0.1218    82.8336     2.4343
  225.5000     8.2571     8.6328   -54.5801     7.9737    -0.0008     0.1206    82.9835     2.4403
  226.0000     8.1406     8.6292   -54.5854     7.9880     0.0210     0.1188    83.5952     2.4474
  226.5000     7.9703     8.4485   -54.5919     8.0022     0.0225     0.1140    86.4318     2.4658
  227.0000     7.8036     8.3292   -54.5976     8.0015     0.0210     0.1086    88.6807     2.4816
  227.5000     7.5831     8.1548   -54.4513     8.0006     0.0211     0.1062    90.0300     2.4778
  228.0000     7.4281     7.9289   -54.4577     7.9999     0.0232     0.1074    90.9655     2.4650
  228.5000     7.3234     7.7092   -54.4634     7.9992     0.0224     0.1074    91.2294     2.4658
  229.0000     7.3212     7.6003   -54.4706     7.9834     0.0187     0.1089    90.9295     2.4658
  229.5000     7.3187     7.5452   -54.4756     7.9826     0.0059     0.1128    91.3793     2.4636
  230.0000     7.4099     7.5420   -54.4817     7.9819     0.0022     0.1179    92.4288     2.4403
  230.5000     7.5192     7.5920   -54.4878     7.9661    -0.0016     0.1210    93.1784     2.4448
  231.0000     7.5547     7.5895   -54.4939     7.9654    -0.0001     0.1201    93.7781     2.4472
  231.5000     7.7255     7.6930   -54.6524     7.9645     0.0029     0.1189    94.2279     2.4478
  232.0000     7.7838     7.6904   -54.6590     7.9638     0.0126     0.1183    93.6282     2.4470
  232.5000     7.9373     7.7420   -54.6646     7.9631     0.0179     0.1189    90.7796     2.4455
  233.0000     7.9900     7.8469   -54.6718     7.9622     0.0149     0.1057    86.4318     2.4448
  233.5000     8.0982     7.8989   -54.5238     7.9615     0.0125     0.1014    82.4257     2.4591
  234.0000     8.1258     7.9555   -54.5312     7.9608     0.0171     0.1009    77.8861     2.4658
  234.5000     8.1498     8.0039   -54.5372     7.9601     0.0186     0.1126    76.8366     2.4673
  235.0000     8.2031     8.0569   -54.5427     7.9743     0.0201     0.1057    76.9865     2.4718
  235.5000     8.2574     8.0684   -54.5488     7.9735     0.0186     0.1045    78.4858     2.4756
  236.0000     8.3120     8.1076   -54.4024     7.9728     0.0216     0.1027    80.7346     2.4778
  236.5000     8.3671     8.0669   -54.4089     7.9721     0.0291     0.0964    82.3838     2.4838
  237.0000     8.3635     8.0081   -54.3530     7.9713     0.0276     0.0958    82.5337     2.4884
  237.5000     8.3029     7.9494   -54.2678     7.9705     0.0275     0.0956    82.8336     2.4876
  238.0000     8.2428     7.8907   -54.2744     7.9849     0.0268     0.0949    83.5832     2.4846
  238.5000     8.1830     7.8714   -54.2806     7.9842     0.0244     0.0943    84.9325     2.4823
  239.0000     8.1803     7.8129   -54.1351     7.9833     0.0200     0.1012    84.9325     2.4793
  239.5000     8.2344     7.7577   -54.1402     7.9675     0.0170     0.1012    82.3838     2.4786
  240.0000     8.3466     7.8635   -54.1463     7.9668     0.0125     0.1009    80.2849     2.4793
  240.5000     8.4345     7.8602   -54.1524     7.9661     0.0072     0.1009    80.7346     2.4770
  241.0000     8.5749     7.8575   -54.1585     7.9652     0.0035     0.1015    81.5052     2.4733
  241.5000     8.5830     7.9102   -54.1647     7.9645     0.0035     0.1115    81.9340     2.4651
  242.0000     8.6295     7.9276   -54.1716     7.9638     0.0072     0.1145    82.2339     2.4576
  242.5000     8.6259     7.9042   -54.1768     7.9631     0.0140     0.1139    81.3343     2.4606
  243.0000     8.5894     7.9016   -54.1834     7.9622     0.0215     0.1064    79.8351     2.4636
  243.5000     8.5605     7.8988   -54.0369     7.9615     0.0245     0.1040    79.6852     2.4703
  244.0000     8.4985     7.8956   -54.0427     7.9759     0.0260     0.1024    79.8351     2.4808
  244.5000     8.4369     7.8388   -53.9715     7.9752     0.0252     0.0992    79.9850     2.4876
  245.0000     8.3756     7.8360   -53.8923     7.9743     0.0228     0.1034    80.1349     2.4816
  245.5000     8.3722     7.8331   -53.6048     7.9736     0.0207     0.1058    81.3343     2.4763
  246.0000     8.3679     7.8306   -53.6107     7.9729     0.0252     0.1051    83.2834     2.4748
  246.5000     8.3446     7.8278   -53.4642     7.9720     0.0184     0.1019    84.3328     2.4778
  247.0000     8.3213     7.8251   -53.3176     7.9713     0.0169     0.1055    82.0840     2.4763
  247.5000     8.3033     7.7936   -53.1711     7.9706     0.0154     0.1076    81.9340     2.4748
  248.0000     8.2999     7.7651   -53.0244     7.9699     0.0154     0.1052    82.2339     2.4733
  248.5000     8.2971     7.7011   -53.0305     7.9690     0.0146     0.1058    82.5337     2.4718
  249.0000     8.2943     7.6529   -53.0366     7.9683     0.0139     0.1119    81.9340     2.4688
  249.5000     8.2915     7.6503   -53.0438     7.9676     0.0139     0.1143    79.8351     2.4673
  250.0000     8.3065     7.5955   -53.0651     7.9669     0.0169     0.1170    81.3343     2.4643
  250.5000     8.4117     7.8089   -53.2729     7.9660     0.0206     0.1182    85.9802     2.4583
  251.0000     8.5186     7.8089   -53.5194     7.8000     0.0191     0.1181    85.8289     2.4537
  251.5000     8.5168     7.8089   -53.5254     7.7692     0.0184     0.1113    83.8785     2.4643
  252.0000     8.5744     7.8089   -53.5313     7.8288     0.0169     0.1101    80.7286     2.4748
  252.5000     8.5722     7.8089   -53.5366     7.8885     0.0161     0.1095    78.7778     2.4778
  253.0000     8.5113     7.8089   -53.5427     7.8424     0.0176     0.1075    78.4766     2.4809
  253.5000     8.5096     7.8633   -53.5490     7.8121     0.0221     0.0933    79.0749     2.4906
  254.0000     8.3907     7.9181   -53.5550     7.9017     0.0229     0.0894    83.1214     2.4989
  254.5000     8.3310     7.9181   -53.5610     7.9314     0.0184     0.0870    85.8183     2.4996
  255.0000     8.2698     7.9181   -53.5671     7.9307     0.0161     0.0934    87.4661     2.4934
  255.5000     8.1513     7.9181   -53.4218     7.9300     0.0154     0.1065    87.3147     2.4636
  256.0000     8.0977     7.9181   -53.4268     7.9445     0.0109     0.1077    86.2639     2.4628
  256.5000     8.0402     7.9181   -53.4329     7.9440     0.0094     0.1089    85.2126     2.4658
  257.0000     8.0387     7.9181   -53.4390     7.9585     0.0101     0.1110    83.8619     2.4643
  257.5000     8.0369     7.9103   -53.2931     7.9578     0.0124     0.1119    82.5111     2.4636
  258.0000     8.0096     7.8633   -53.2988     7.9572     0.0154     0.1104    84.1589     2.4643
  258.5000     7.9230     7.8089   -53.1530     7.9566     0.0199     0.1065    86.2561     2.4688
  259.0000     7.8786     7.8089   -53.1585     7.9409     0.0214     0.1044    86.7048     2.4801
  259.5000     7.8106     7.8089   -53.1646     7.9403     0.0184     0.1041    86.2533     2.4778
  260.0000     7.8088     7.8089   -53.1717     7.9397     0.0115     0.1044    85.3523     2.4726
  260.5000     7.8074     7.8089   -53.1776     7.9240     0.0049     0.1074    84.4510     2.4673
  261.0000     7.8058     7.7549   -53.1836     7.9234     0.0056     0.1110    84.4496     2.4606
  261.5000     7.8584     7.7462   -53.1895     7.9229     0.0094     0.1135    85.0479     2.4538
  262.0000     7.9665     7.6480   -53.1954     7.9223     0.0132     0.1137    86.2458     2.4523
  262.5000     8.0506     7.6480   -53.0489     7.9216     0.0161     0.1119    85.4945     2.4613
