~VERSION INFORMATION
 VERS.                2.0:   CWLS LOG ASCII STANDARD - VERSION 2.0
 WRAP.                 NO:   ONE LINE PER DEPTH STEP
~WELL INFORMATION
#MNEM.UNIT      DATA TYPE    INFORMATION
#----------   ------------   ------------------------------
 STRT.F           26.0000:   START DEPTH
 STOP.F          655.0000:   STOP DEPTH
 STEP.F            0.5000:   STEP LENGTH
 NULL.          -999.2500:   NO VALUE
 COMP. FENIX & SCISSON, INCORPORATED:   COMPANY
 WELL. RES 3 TEAPOT DOM #22S-11:   WELL
 FLD .             TEAPOT:   FIELD
 LOC .      S11 T38N R78W:   LOCATION
 CNTY.            NATRONA:   COUNTY
 STAT.            WYOMING:   STATE
 CTRY. UNITED STATES OF AMERICA:   COUNTRY
 SRVC.            Unknown:   SERVICE COMPANY
 DATE.        03-FEB-1978:   LOGDATE
 API .       490251057200:   API NUMBER
~CURVE INFORMATION
#MNEM.UNIT       API CODE    CURVE DESCRIPTION
#----------   ------------   ------------------------------
 DEPT.F                  :   
 ILD .OHMM   05 120 46 00:   INDUCTION LOG DEEP
 SN  .OHMM   05 040 16 00:   SHORT NORMAL 16"
 SPR .MV     05 010 01 00:   SPONTANEOUS POTENTIAL.
 CALD.IN     45 280 60 00:   CALIPER FROM DENSITY LOG
 CORR.G/C3   45 356 01 00:   DENSITY CORRECTION
 DPHI.DEC    45 890 12 00:   DENSITY POROSITY SANDSTONE
 GRD .GAPI   45 310 01 00:   GAMMA RAY FROM DENSITY LOG
 RHOB.G/C3   45 350 01 00:   BULK DENSITY
~PARAMETER INFORMATION
#MNEM.UNIT          VALUE    DESCRIPTION
#----------   ------------   ------------------------------
 PD  .                 GL:   PERMANENT DATUM
 EPD .F              5168:   ELEVATION PERMANENT DATUM
 LMF .                 KB:   LOG MEASURED FROM
 DMF .                 KB:   DRILLING MEASURED FROM
 EKB .F              5171:   KELLING BUSHING
 EGL .F              5168:   GROUND LEVEL
 DATE.        03-FEB-1978:   RUN DATE
 RUN .                  1:   RUN NUMBER
 DD  .F               650:   DEPTH DRILLER
 DL  .F               655:   DEPTH LOGGER
 BLI .F               655:   BOTTOM LOG INTERVAL
 TLI .F                40:   TOP LOG INTERVAL
 CS  .IN            8.625:   CASING SIZE
 CBD .F                39:   CASING BOTTOM DRILLER
 CBL .F                40:   CASING BOTTOM LOGGER
 BS  .IN            7.875:   BIT SIZE
 BSD .F               650:   BIT SIZE AT DEPTH
 DFT .                KCL:   DRILLING FLUID TYPE
 DFD .                8.6:   DRILLING FLUID DENSITY
 DFV .                 31:   DRILLING FLUID VISCOSITY
 DFPH.                9.5:   DRILLING FLUID PH
 DFL .               12.8:   DRILLING FLUID LOSS
 MSS .           FLOWLINE:   MUD SAMPLE SOURCE
 RMS .OHMM           0.38:   RESISTIVITY MUD SAMPLE
 MST .F                62:   MUD SAMPLE TEMPERATURE
 RMF .OHMM            4.4:   RESISTIVITY MUD FILTRATE SAMPLE
 MFST.F                62:   MUD FILTRATE SAMPLE TEMPERATURE
 RMC .OHMM            0.8:   RESISTIVITY MUD CAKE
 MCST.F                62:   MUD CAKE SAMPLE TEMPERATURE
 MFSS.               MEAS:   MUD FILTRATE SAMPLE SOURCE
 RMB .OHMM           0.35:   RESISTIVITY MUD AT BHT
 BHT .F                68:   BOTTOM HOLE TEMPERATURE
 TCS .HRS               1:   TIME CURCULATED STOPPED
 MRT .F                68:   MAXIMUM RECORDED TEMPERATURE
 LUN .               2958:   LOGGING UNIT NUMBER
 LUL .             CASPER:   LOGGING UNIT LOCATION
 ENGI.           REYNOLDS:   RECORDING ENGINEER
 WITN.         HARRINGTON:   WITNESSED BY
 CLNT.            A2DTECH:   CLIENT CODE
 ORIG.           5" PRINT:   ORIGIN OF DATA
 UWI .       490251057200:   UNIQUE WELL ID
 DICO. A2D Technologies, Inc.:   DIGITIZING COMPANY
~OTHER INFORMATION
~A   DEPT      ILD         SN        SPR       CALD       CORR       DPHI         GRD      RHOB   
# ...
  309.5000     8.6674     8.7895   -69.3693     7.9997     0.0305     0.1512    97.9179     2.4094
  310.0000     8.6063     8.7257   -69.3778     7.9984     0.0424     0.1575    97.3085     2.4003
  310.5000     8.6051     8.6625   -69.3869     7.9971     0.0542     0.1578    97.2954     2.3942
  311.0000     8.4262     8.5402   -69.2443     8.0109     0.0675     0.1512    97.7354     2.3904
  311.5000     8.3660     8.4196   -69.2551     8.0095     0.0793     0.1458    98.4775     2.4039
  312.0000     8.1857     8.2984   -69.2639     8.0082     0.0912     0.1386    99.3706     2.4143
  312.5000     8.0230     8.0706   -69.2727     8.0220     0.1000     0.1333   100.7170     2.4195
  313.0000     7.9113     7.8465   -69.2807     8.0358     0.1044     0.1297   102.9697     2.4217
  313.5000     7.8011     7.7357   -69.2904     8.0342     0.1027     0.1288   104.4671     2.4284
  314.0000     7.6924     7.6796   -69.2989     8.0329     0.1041     0.1291   102.1880     2.4396
  314.5000     7.5327     7.6770   -69.4598     8.0013     0.1055     0.1282   102.9268     2.4456
  315.0000     7.4796     7.7279   -69.4689     7.9848     0.1054     0.1262   103.5179     2.4424
  315.5000     7.5307     7.7503   -69.5258     7.9684     0.1073     0.1265   103.8068     2.4432
  316.0000     7.5822     7.8306   -69.6388     7.9646     0.1111     0.1265   103.3405     2.4469
  316.5000     7.6870     7.8867   -69.6490     7.9354     0.1125     0.1262   102.2699     2.4394
  317.0000     7.6859     7.9348   -69.6579     7.9189     0.1141     0.1259   100.5951     2.4521
  317.5000     7.7924     8.0136   -69.6662     7.9174     0.1197     0.1275   102.6057     2.4415
  318.0000     7.7913     8.0475   -69.6753     7.9010     0.1240     0.1278   103.7409     2.4332
  318.5000     7.8448     8.1492   -69.6844     7.8845     0.1269     0.1245   101.4586     2.4393
  319.0000     7.8435     8.1465   -69.6935     7.8681     0.1178     0.1183    99.9381     2.4563
  319.5000     7.8971     8.2005   -69.8559     7.8667     0.0953     0.1092   103.6981     2.4773
  320.0000     7.8961     8.1977   -69.8938     7.8651     0.0639     0.1023   102.1743     2.4923
  320.5000     7.9564     8.2520   -70.0231     7.8638     0.0503     0.1063    99.1400     2.4967
  321.0000     8.0043     8.2486   -69.8802     7.8625     0.0472     0.1156    98.9738     2.4779
  321.5000     8.1152     8.2526   -69.8912     7.8611     0.0466     0.1264    99.7689     2.4636
  322.0000     8.1704     8.3011   -69.9001     7.8598     0.0350     0.1207   100.6111     2.4605
  322.5000     8.2265     8.3561   -70.0607     7.8585     0.0304     0.1207    97.8756     2.4695
  323.0000     8.3402     8.3526   -70.0698     7.8572     0.0258     0.1244    96.6539     2.4623
  323.5000     8.3391     8.4080   -70.0805     7.8558     0.0227     0.1272    99.3598     2.4559
  324.0000     8.3379     8.4637   -70.0893     7.8542     0.0196     0.1295   103.8783     2.4513
  324.5000     8.2762     8.4601   -70.0981     7.8529     0.0165     0.1305   105.3206     2.4438
  325.0000     8.2112     8.3988   -70.1070     7.8366     0.0149     0.1308   102.7946     2.4377
  325.5000     8.1059     8.3379   -70.1153     7.8201     0.0163     0.1308   101.9874     2.4339
  326.0000     8.0713     8.2202   -69.9727     7.8188     0.0102     0.1320    99.8948     2.4346
  326.5000     7.9919     8.1606   -69.8299     7.8171     0.0041     0.1353    97.1626     2.4384
  327.0000     7.9909     8.1014   -69.8391     7.8158     0.0025     0.1405    98.9621     2.4337
  327.5000     7.9795     7.9870   -69.8498     7.8145     0.0039     0.1442   103.4807     2.4150
  328.0000     7.9334     7.9843   -69.8574     7.8132     0.0067     0.1483   105.4312     2.4104
  328.5000     7.9323     7.9810   -69.8665     7.7967     0.0096     0.1487   105.5695     2.3938
  329.0000     7.9312     7.9783   -69.8763     7.7803     0.0184     0.1477   104.7966     2.4028
  329.5000     7.9301     7.9756   -69.8847     7.7866     0.0243     0.1448   102.9109     2.4088
  330.0000     7.9290     7.9729   -69.8938     7.8008     0.0301     0.1382   103.8647     2.4139
  330.5000     7.9279     7.9703   -69.7510     7.8066     0.0256     0.1322   103.7004     2.4304
  331.0000     7.9267     7.9676   -69.7602     7.8352     0.0193     0.1268   101.8745     2.4469
  331.5000     7.9257     7.9649   -69.6191     7.8490     0.0119     0.1317   102.1624     2.4483
  332.0000     7.9246     7.9621   -69.6267     7.8632     0.0117     0.1395   103.9619     2.4428
  332.5000     7.9235     7.9594   -69.6358     7.8770     0.0176     0.1392   105.9125     2.4309
  333.0000     7.9224     7.9562   -69.4938     7.8905     0.0205     0.1338   107.5609     2.4226
  333.5000     7.8665     7.9535   -69.5027     7.9046     0.0189     0.1326   107.2456     2.4338
  334.0000     7.9203     7.9511   -69.5114     7.9181     0.0158     0.1288   103.6071     2.4428
  334.5000     7.9190     7.9482   -69.3671     7.9164     0.0141     0.1252    99.9351     2.4465
  335.0000     7.9732     7.9455   -69.3796     7.9151     0.0140     0.1240    98.7469     2.4464
  335.5000     7.9721     7.9428   -69.3884     7.9139     0.0184     0.1237    99.9389     2.4411
  336.0000     7.9709     7.8851   -69.3961     7.9125     0.0228     0.1237   102.3426     2.4381
  336.5000     7.9698     7.8274   -69.3612     7.9111     0.0181     0.1253   103.0847     2.4448
  337.0000     7.9688     7.8248   -69.2625     7.9250     0.0120     0.1313   102.3163     2.4492
  337.5000     7.9080     7.7143   -69.2720     7.9236     0.0119     0.1361   100.3393     2.4469
  338.0000     7.7481     7.6054   -69.2807     7.9220     0.0133     0.1367    98.3624     2.4349
  338.5000     7.6934     7.4980   -69.2898     7.9207     0.0162     0.1368    98.5262     2.4288
  339.0000     7.5862     7.3922   -69.2989     7.9348     0.0176     0.1356   100.4476     2.4243
  339.5000     7.4806     7.2875   -69.3080     7.9332     0.0174     0.1338   103.9087     2.4182
  340.0000     7.3764     7.1286   -69.3183     7.9621     0.0191     0.1335   106.3124     2.4261
  340.5000     7.2233     6.9853   -69.3271     7.9608     0.0217     0.1338   103.7313     2.4398
  341.0000     7.0514     6.7917   -69.3360     7.9595     0.0245     0.1345   102.5097     2.4368
  341.5000     6.8778     6.6495   -69.3448     7.9733     0.0289     0.1336   101.4391     2.4307
  342.0000     6.6830     6.5103   -69.5054     7.9716     0.0347     0.1318    98.8579     2.4285
  342.5000     6.5048     6.5081   -69.6206     7.9703     0.0436     0.1285   100.3096     2.4329
  343.0000     6.4589     6.6428   -69.8270     7.9690     0.0390     0.1243   102.6080     2.4403
  343.5000     6.6400     6.7343   -69.8361     7.9677     0.0312     0.1277   101.3831     2.4493
  344.0000     6.7789     6.8797   -69.9981     7.9818     0.0238     0.1316   101.9741     2.4560
  344.5000     6.9207     7.0633   -70.0069     7.9801     0.0192     0.1340   102.4174     2.4439
  345.0000     7.0166     7.2095   -70.0708     7.9783     0.0161     0.1356   101.4946     2.4311
  345.5000     7.1138     7.3587   -70.1763     7.9623     0.0145     0.1371   102.8409     2.4251
  346.0000     7.1624     7.3732   -70.1852     7.9762     0.0159     0.1365   105.3957     2.4235
  346.5000     7.2113     7.4572   -70.2787     7.9897     0.0187     0.1356   106.6420     2.4295
  347.0000     7.2101     7.4540   -70.3568     8.0036     0.0201     0.1338   108.6926     2.4339
  347.5000     7.1593     7.4515   -70.5159     8.0023     0.0184     0.1332   104.7487     2.4361
  348.0000     7.1087     7.4489   -70.5262     8.0009     0.0139     0.1372   107.4545     2.4299
  348.5000     7.1078     7.4389   -70.5341     7.9995     0.0137     0.1366   110.1604     2.4285
  349.0000     7.1068     7.3919   -70.5433     8.0133     0.0198     0.1400   109.8451     2.4247
  349.5000     7.1059     7.3383   -70.5526     8.0120     0.0270     0.1363   106.9174     2.4187
