~VERSION INFORMATION
 VERS.                2.0:   CWLS LOG ASCII STANDARD - VERSION 2.0
 WRAP.                 NO:   ONE LINE PER DEPTH STEP
~WELL INFORMATION
#MNEM.UNIT      DATA TYPE    INFORMATION
#----------   ------------   ------------------------------
 STRT.F            0.0000:   START DEPTH
 STOP.F          964.0000:   STOP DEPTH
 STEP.F            0.5000:   STEP LENGTH
 NULL.          -999.2500:   NO VALUE
 COMP. LAWRENCE/ALLISON INC:   COMPANY
 WELL.  NPR 3 #58-16-SX-2:   WELL
 FLD .           NPR NO.3:   FIELD
 LOC .       S2 T38N R78W:   LOCATION
 CNTY.            NATRONA:   COUNTY
 STAT.            WYOMING:   STATE
 CTRY. UNITED STATES OF AMERICA:   COUNTRY
 SRVC.           Gearhart:   SERVICE COMPANY
 DATE.        07-MAY-1987:   LOGDATE
 API .       490251113700:   API NUMBER
~CURVE INFORMATION
#MNEM.UNIT       API CODE    CURVE DESCRIPTION
#----------   ------------   ------------------------------
 DEPT.F                  :   
 GRR .GAPI   07 310 01 00:   GAMMA RAY FROM RES. LOG.
 RILD.OHMM   07 120 46 00:   INDUCTION LOG DEEP RESISTIVITY
 RILM.OHMM   07 120 44 00:   INDUCTION LOG MEDIUM RESISTIVITY
~PARAMETER INFORMATION
#MNEM.UNIT          VALUE    DESCRIPTION
#----------   ------------   ------------------------------
 PD  .                 GL:   PERMANENT DATUM
 EPD .F              5173:   ELEVATION PERMANENT DATUM
 LMF .                 GL:   LOG MEASURED FROM
 DMF .                 GL:   DRILLING MEASURED FROM
 EGL .F              5173:   GROUND LEVEL
 DATE.           5-7-1987:   RUN DATE
 RUN .                  1:   RUN NUMBER
 DD  .F               971:   DEPTH DRILLER
 DL  .F               971:   DEPTH LOGGER
 BLI .F               963:   BOTTOM LOG INTERVAL
 TLI .F                37:   TOP LOG INTERVAL
 CS  .IN            8.625:   CASING SIZE
 CBD .F                44:   CASING BOTTOM DRILLER
 CBL .F                37:   CASING BOTTOM LOGGER
 BS  .IN            7.875:   BIT SIZE
 BSD .F               971:   BIT SIZE AT DEPTH
 TCS .HRS            2100:   TIME CURCULATED STOPPED
 TLAB.HRS            2338:   TIME LOGGER AT BOTTOM
 MRT .F                80:   MAXIMUM RECORDED TEMPERATURE
 LUN .               7597:   LOGGING UNIT NUMBER
 LUL .           GILLETTE:   LOGGING UNIT LOCATION
 ENGI.         WEATHERMON:   RECORDING ENGINEER
 WITN. STRONG/TAYLOR/LOWE:   WITNESSED BY
 CLNT.            A2DTECH:   CLIENT CODE
 ORIG.           5" PRINT:   ORIGIN OF DATA
 UWI .       490251113700:   UNIQUE WELL ID
 DICO. A2D Technologies, Inc.:   DIGITIZING COMPANY
~OTHER INFORMATION
~A    DEPT      GRR      RILD       RILM   
# ...
  455.0000   111.6466    10.4929     9.7942
  455.5000   111.9610    10.4597     9.8636
  456.0000   111.8647    10.4267     9.8872
  456.5000   111.7527    10.3938     9.8273
  457.0000   111.6104    10.3576     9.7830
  457.5000   113.4162    10.3041     9.7388
  458.0000   115.7599    10.2509     9.6948
  458.5000   118.1213    10.1979     9.6511
  459.0000   119.8736    10.1453     9.6076
  459.5000   121.4991    10.0929     9.5642
  460.0000   123.1289    10.0407     9.5202
  460.5000   124.6321     9.9889     9.4867
  461.0000   124.0064     9.9373     9.4439
  461.5000   123.3013     9.8860     9.4012
  462.0000   123.0555     9.8349     9.3590
  462.5000   123.1230     9.7905     9.3319
  463.0000   124.4831     9.7719     9.3156
  463.5000   125.2997     9.7534     9.2993
  464.0000   124.2196     9.7349     9.2830
  464.5000   123.1859     9.7164     9.2667
  465.0000   122.6116     9.6980     9.2504
  465.5000   123.9415     9.6796     9.2341
  466.0000   124.8165     9.6611     9.2179
  466.5000   125.3572     9.6428     9.2018
  467.0000   125.8512     9.6152     9.1856
  467.5000   128.6624     9.6165     9.1694
  468.0000   132.1288     9.3715     8.9727
  468.5000   131.3509     9.1827     8.7473
  469.0000   129.1555     8.9373     8.5271
  469.5000   126.9349     8.7104     8.3126
  470.0000   126.2439     8.4893     8.1035
  470.5000   128.4884     8.2738     7.8997
  471.0000   130.1598     8.0628     7.7010
  471.5000   130.5520     7.9531     7.5073
  472.0000   130.9684     8.0067     7.3955
  472.5000   131.3660     8.0872     7.3062
  473.0000   131.2737     8.1676     7.3991
  473.5000   128.9778     8.2483     7.4882
  474.0000   125.8192     8.3309     7.6080
  474.5000   122.7188     8.5002     7.7996
  475.0000   121.4724     8.7370     7.9957
  475.5000   120.3111     8.9805     8.1990
  476.0000   119.2551     9.2540     8.3669
  476.5000   118.6766     9.2096     8.4630
  477.0000   118.0849     9.1473     8.5582
  477.5000   117.2447     9.0855     8.6607
  478.0000   116.0312     9.0241     8.6339
  478.5000   114.9094     8.9631     8.6031
  479.0000   114.7387     8.9025     8.5728
  479.5000   116.1165     8.8424     8.5428
  480.0000   117.3119     8.7826     8.5128
  480.5000   116.9564     8.7120     8.4369
  481.0000   116.5562     8.6206     8.3232
  481.5000   117.3063     8.5302     8.2109
  482.0000   118.1991     8.4194     8.0991
  482.5000   119.0957     8.4836     8.0307
  483.0000   119.9861     8.5690     8.1656
  483.5000   120.6992     8.6559     8.2667
  484.0000   120.9722     8.7436     8.3691
  484.5000   120.2894     8.8322     8.4727
  485.0000   119.2668     8.9215     8.5797
  485.5000   118.2229     8.9951     8.5598
  486.0000   116.9959     8.9752     8.5395
  486.5000   117.7805     8.9585     8.5193
  487.0000   118.9462     8.9416     8.4991
  487.5000   120.1131     8.9249     8.4789
  488.0000   121.2730     8.9082     8.4588
  488.5000   122.3089     8.8915     8.4388
  489.0000   122.5228     8.8749     8.4190
  489.5000   122.5896     8.8582     8.4022
  490.0000   120.7746     8.8417     8.3855
  490.5000   118.8404     8.8251     8.3690
  491.0000   116.9217     8.8086     8.3525
  491.5000   120.1754     8.7921     8.3359
  492.0000   123.7651     8.7756     8.3195
  492.5000   126.3673     8.7592     8.3030
  493.0000   126.0008     8.7435     8.2866
  493.5000   125.0834     8.7158     8.2702
  494.0000   125.1035     8.6893     8.2549
  494.5000   125.1257     8.6629     8.2410
  495.0000   124.5853     8.6366     8.2270
  495.5000   121.6279     8.6103     8.2131
  496.0000   118.6469     8.5842     8.1991
  496.5000   115.6848     8.5581     8.1857
  497.0000   114.0634     8.5321     8.1620
  497.5000   114.0232     8.5062     8.1372
  498.0000   116.2642     8.4803     8.1126
  498.5000   118.5666     8.4545     8.0880
  499.0000   119.1328     8.4288     8.0635
  499.5000   119.6379     8.4032     8.0391
  500.0000   120.1467     8.3777     8.0148
  500.5000   120.8634     8.3527     7.9906
  501.0000   123.1406     8.3392     7.9663
  501.5000   124.8289     8.3398     7.9268
  502.0000   125.9500     8.3397     7.8731
  502.5000   126.6304     8.3397     7.8198
  503.0000   126.2008     8.3395     7.7669
  503.5000   125.7868     8.3395     7.7143
  504.0000   124.7093     8.3899     7.6594
  504.5000   122.0540     8.4432     7.7934
  505.0000   119.4236     8.4968     7.9373
  505.5000   116.7947     8.5509     8.0838
  506.0000   114.1616     8.6053     8.2331
  506.5000   111.4163     8.6600     8.3851
  507.0000   110.4743     8.7153     8.4356
  507.5000   110.7981     8.7708     8.4643
  508.0000   112.4551     8.8266     8.4990
  508.5000   117.7577     8.7400     8.4158
  509.0000   121.5143     8.6326     8.3129
  509.5000   123.9583     8.5265     8.2109
  510.0000   124.1627     8.4217     8.1102
  510.5000   124.4263     8.3182     8.0108
  511.0000   124.6814     8.2160     7.8972
  511.5000   124.9277     8.1150     7.7650
  512.0000   124.7060     8.0152     7.6350
  512.5000   123.5059     7.9167     7.5073
  513.0000   122.3236     7.8194     7.3816
  513.5000   121.1254     7.7851     7.2581
  514.0000   120.6635     7.7612     7.1688
  514.5000   122.5378     7.7374     7.2247
  515.0000   123.5370     7.7136     7.2692
  515.5000   121.5010     7.6897     7.3139
  516.0000   119.4786     7.6594     7.3590
  516.5000   118.3280     7.7375     7.4043
  517.0000   119.5561     7.8516     7.4471
  517.5000   120.7891     7.9674     7.4657
  518.0000   120.5662     8.0848     7.4844
  518.5000   119.9743     8.2040     7.5032
  519.0000   119.4569     8.2736     7.5159
  519.5000   121.3722     8.2971     7.6991
  520.0000   123.4725     8.3207     7.9015
  520.5000   124.0355     8.3444     7.9948
  521.0000   124.2407     8.3681     8.0493
  521.5000   124.8339     8.3919     8.1042
  522.0000   125.4524     8.4158     8.1835
  522.5000   124.2156     8.4397     8.1568
  523.0000   122.8818     8.4637     8.1099
  523.5000   121.5618     8.4878     8.0633
  524.0000   119.6858     8.5119     8.0169
  524.5000   117.4578     8.5362     7.9709
  525.0000   115.7355     8.5604     7.9250
  525.5000   116.1807     8.5797     7.8797
  526.0000   118.8414     8.5541     7.8519
  526.5000   121.4572     8.5287     7.8243
  527.0000   121.8402     8.5034     7.7967
  527.5000   121.8419     8.4782     7.7693
  528.0000   121.8426     8.4530     7.7321
  528.5000   122.1190     8.4190     7.8452
  529.0000   122.7824     8.5205     8.0257
  529.5000   123.4784     8.6806     8.2104
  530.0000   122.5868     8.8437     8.3993
  530.5000   120.2707     9.0098     8.5797
  531.0000   117.9828     9.1669     8.5994
  531.5000   115.6674     9.2549     8.6222
  532.0000   115.5815     9.3378     8.6450
  532.5000   116.0111     9.4214     8.7154
  533.0000   116.4369     9.5058     8.9059
  533.5000   117.4583     9.5910     9.1005
  534.0000   118.5872     9.6769     9.2994
  534.5000   118.9742     9.8894     9.5202
  535.0000   118.6490    10.1596     9.5580
  535.5000   116.9927    10.4371     9.5989
  536.0000   114.6894    10.7223     9.8278
  536.5000   111.4280    11.0152    10.1352
  537.0000   108.4183    11.3161    10.4523
  537.5000   108.3858    11.4720    10.7232
  538.0000   109.2510    11.5774    10.8946
  538.5000   110.1284    11.6838    11.0687
  539.0000   110.0165    11.7915    11.2456
  539.5000   109.4417    11.8996    11.3940
  540.0000   108.8575    11.9465    11.2977
  540.5000   108.2864    11.8281    11.2162
  541.0000   108.6258    11.7435    11.1353
  541.5000   110.0955    11.6595    11.0550
  542.0000   110.5564    11.5761    10.9753
  542.5000   104.8855    11.4932    10.8961
  543.0000   101.7016    11.4110    10.8175
  543.5000   100.5278    11.3294    10.7395
  544.0000   102.1574    11.2483    10.6642
  544.5000   103.6916    11.1679    10.6226
  545.0000   103.8688    11.0880    10.5823
  545.5000   103.7977    11.0485    10.5421
