~VERSION INFORMATION
 VERS.                2.0:   CWLS LOG ASCII STANDARD - VERSION 2.0
 WRAP.                 NO:   ONE LINE PER DEPTH STEP
~WELL INFORMATION
#MNEM.UNIT      DATA TYPE    INFORMATION
#----------   ------------   ------------------------------
 STRT.F         2640.0000:   START DEPTH
 STOP.F         2958.0000:   STOP DEPTH
 STEP.F            0.5000:   STEP LENGTH
 NULL.          -999.2500:   NO VALUE
 COMP. DEPARTMENT OF ENERGY:   COMPANY
 WELL.     WELL #201-A-34:   WELL
 FLD .                 WC:   FIELD
 LOC .      S34 T39N R78W:   LOCATION
 CNTY.            NATRONA:   COUNTY
 STAT.            WYOMING:   STATE
 CTRY. UNITED STATES OF AMERICA:   COUNTRY
 SRVC.            Unknown:   SERVICE COMPANY
 DATE.        23-AUG-1967:   LOGDATE
 API .       490251146200:   API NUMBER
~CURVE INFORMATION
#MNEM.UNIT       API CODE    CURVE DESCRIPTION
#----------   ------------   ------------------------------
 DEPT.F                  :   
 GRN .GAPI   35 310 01 00:   GAMMA RAY
 NEUT.NAPI   35 330 01 00:   NEUTRON
~PARAMETER INFORMATION
#MNEM.UNIT          VALUE    DESCRIPTION
#----------   ------------   ------------------------------
 PD  .                 GL:   PERMANENT DATUM
 LMF .                 GL:   LOG MEASURED FROM
 DATE.            8-23-67:   RUN DATE
 RUN .                  1:   RUN NUMBER
 DD  .F              2975:   DEPTH DRILLER
 DL  .F              2959:   DEPTH LOGGER
 BLI .F              2958:   BOTTOM LOG INTERVAL
 TLI .F              2650:   TOP LOG INTERVAL
 BSD .F              2975:   BIT SIZE AT DEPTH
 DFT .              WATER:   DRILLING FLUID TYPE
 TCS .HRS               2:   TIME CURCULATED STOPPED
 ENGI. FITZSIMMONS/BROADWAT:   RECORDING ENGINEER
 WITN.             HUDSON:   WITNESSED BY
 CLNT.            A2DTECH:   CLIENT CODE
 ORIG.           5" PRINT:   ORIGIN OF DATA
 UWI .       490251146200:   UNIQUE WELL ID
 DICO. A2D Technologies, Inc.:   DIGITIZING COMPANY
~OTHER INFORMATION
~A  DEPT        GRN      NEUT   
# ...
 2883.0000    85.3491   472.7565
 2883.5000    81.5339   453.2541
 2884.0000    84.9814   432.4546
 2884.5000    87.8882   392.8247
 2885.0000    88.4599   418.7978
 2885.5000    87.2476   445.3028
 2886.0000    88.3119   455.4043
 2886.5000    88.4376   447.6116
 2887.0000    92.9761   433.1519
 2887.5000    96.4258   407.0719
 2888.0000    94.0176   394.9200
 2888.5000    99.9449   348.5209
 2889.0000   105.0906   310.0672
 2889.5000   109.5463   269.4170
 2890.0000   114.6596   264.1891
 2890.5000   118.7166   285.9775
 2891.0000   119.8303   290.9865
 2891.5000   116.4382   339.3221
 2892.0000   112.4461   391.3426
 2892.5000    97.9926   414.2722
 2893.0000    94.7768   443.0053
 2893.5000    92.9175   456.2247
 2894.0000    91.4395   444.2663
 2894.5000    89.4528   468.4608
 2895.0000    89.6270   453.4739
 2895.5000    89.7589   465.2299
 2896.0000    90.3926   505.1226
 2896.5000    91.7434   537.9971
 2897.0000    91.5645   558.5678
 2897.5000    90.3626   581.5264
 2898.0000    92.7510   608.3278
 2898.5000    84.7947   589.5638
 2899.0000    86.1087   555.2452
 2899.5000    87.0201   573.8721
 2900.0000    85.1116   600.2930
 2900.5000    86.5800   587.1282
 2901.0000    87.4594   592.6306
 2901.5000    83.1977   567.0455
 2902.0000    82.5183   582.9828
 2902.5000    83.5023   542.7463
 2903.0000    82.5948   564.8381
 2903.5000    83.9164   607.9370
 2904.0000    78.7995   644.8817
 2904.5000    82.1030   662.4543
 2905.0000    83.0165   653.2494
 2905.5000    84.0071   631.1269
 2906.0000    87.9914   605.2181
 2906.5000    91.8356   560.7022
 2907.0000    96.9923   525.3331
 2907.5000    98.2101   499.4164
 2908.0000    98.8301   474.1158
 2908.5000    95.4607   482.9799
 2909.0000    99.0501   485.6113
 2909.5000   106.9262   417.1819
 2910.0000   120.0886   360.2104
 2910.5000   132.0144   326.0495
 2911.0000   132.0241   319.8158
 2911.5000   116.3866   384.0320
 2912.0000   104.6488   523.2979
 2912.5000    92.9810   644.7622
 2913.0000    87.3411   728.1249
 2913.5000    84.7406   778.0159
 2914.0000    80.9000   769.7603
 2914.5000    79.8218   791.0037
 2915.0000    80.7476   743.3401
 2915.5000    81.3010   700.1141
 2916.0000    79.3883   654.6898
 2916.5000    83.4064   620.4435
 2917.0000    84.4994   631.4365
 2917.5000    85.3801   617.7380
 2918.0000    84.5889   602.9153
 2918.5000    85.5060   571.0941
 2919.0000    89.4040   584.3601
 2919.5000    94.2241   544.7831
 2920.0000    99.3135   500.2780
 2920.5000   105.0474   467.9976
 2921.0000   110.6335   447.1002
 2921.5000   116.3351   403.1366
 2922.0000   120.6721   366.8617
 2922.5000   121.6602   346.2753
 2923.0000   119.0588   370.3322
 2923.5000   109.3736   416.8024
 2924.0000    96.0448   474.8855
 2924.5000    87.3760   525.8988
 2925.0000    89.5600   566.3660
 2925.5000    87.7706   554.4628
 2926.0000    88.5819   540.4452
 2926.5000    86.1199   556.2544
 2927.0000    83.3262   542.3217
 2927.5000    85.1563   524.9929
 2928.0000    87.4955   502.0971
 2928.5000    87.5992   459.9898
 2929.0000    90.0953   488.8360
 2929.5000    89.2445   467.1955
 2930.0000    93.7163   465.3132
 2930.5000    96.5671   480.2146
 2931.0000    91.4795   502.2567
 2931.5000    94.7923   507.0522
 2932.0000    98.4313   501.8098
 2932.5000    97.0210   502.3163
 2933.0000    96.5884   509.4041
 2933.5000    98.2714   493.8827
 2934.0000   100.2477   463.5683
 2934.5000    96.5042   518.0720
 2935.0000    96.6376   533.1387
 2935.5000    99.8357   544.4806
 2936.0000   102.2224   519.8258
 2936.5000   104.8008   497.4902
 2937.0000   103.0611   490.1452
 2937.5000   100.1273   468.0177
 2938.0000    98.3705   437.9828
 2938.5000    99.0730   441.2372
 2939.0000    94.9821   447.3414
 2939.5000    95.6961   409.5529
 2940.0000    86.8077   427.4511
 2940.5000    87.2882   448.4051
 2941.0000    89.6003   442.0937
 2941.5000    91.9542   433.8652
 2942.0000    94.1542   423.5123
 2942.5000    94.0031   470.6212
 2943.0000    93.7223   527.8336
 2943.5000    90.7137   579.8210
 2944.0000    86.4348   616.8152
 2944.5000    87.6432   613.3322
 2945.0000    88.5739   622.3252
 2945.5000    86.5453   633.5676
 2946.0000    90.4323   612.6094
 2946.5000    93.6182   583.4112
 2947.0000    89.9650   553.3304
 2947.5000    89.3778   553.2324
 2948.0000    89.4477   531.5590
 2948.5000    88.7871   492.5658
 2949.0000    86.8622   456.7466
 2949.5000    89.6998   460.9792
 2950.0000    78.8537   449.1232
 2950.5000    71.7329   476.2841
 2951.0000    64.7289   483.2592
 2951.5000    61.0352   459.9213
 2952.0000    58.0848   450.6990
 2952.5000  -999.2500   446.4824
 2953.0000  -999.2500   488.9774
 2953.5000  -999.2500   485.8554
 2954.0000  -999.2500   494.1641
 2954.5000  -999.2500   403.2298
 2955.0000  -999.2500   342.4097
 2955.5000  -999.2500   373.4355
 2956.0000  -999.2500   325.1290
 2956.5000  -999.2500   339.2466
 2957.0000  -999.2500   326.7162
 2957.5000  -999.2500   337.9409
 2958.0000  -999.2500   340.2269
