~VERSION INFORMATION
 VERS.                2.0:   CWLS LOG ASCII STANDARD - VERSION 2.0
 WRAP.                 NO:   ONE LINE PER DEPTH STEP
~WELL INFORMATION
#MNEM.UNIT      DATA TYPE    INFORMATION
#----------   ------------   ------------------------------
 STRT.F           18.0000:   START DEPTH
 STOP.F          501.0000:   STOP DEPTH
 STEP.F            0.5000:   STEP LENGTH
 NULL.          -999.2500:   NO VALUE
 COMP. FENIX & SCISSON INC:   COMPANY
 WELL.     NPR-3 SX #34-3:   WELL
 FLD .             TEAPOT:   FIELD
 LOC .       S3 T38N R78W:   LOCATION
 CNTY.            NATRONA:   COUNTY
 STAT.            WYOMING:   STATE
 CTRY. UNITED STATES OF AMERICA:   COUNTRY
 SRVC.            Unknown:   SERVICE COMPANY
 DATE.        13-JUL-1978:   LOGDATE
 API .       490251066600:   API NUMBER
~CURVE INFORMATION
#MNEM.UNIT       API CODE    CURVE DESCRIPTION
#----------   ------------   ------------------------------
 DEPT.F                  :   
 SPR .MV     05 010 01 00:   SPONTANEOUS POTENTIAL FROM RES.
 SN  .OHMM   05 040 16 00:   SHORT NORMAL 16"
 ILD .OHMM   05 120 46 00:   INDUCTION LOG DEEP
 CALD.IN     45 280 60 00:   CALIPER FROM DENSITY LOG
 GRD .GAPI   45 310 01 00:   GAMMA RAY FROM DENSITY LOG
 CORR.G/C3   45 356 01 00:   DENSITY CORRECTION
 DEN .G/C3   45 350 01 00:   COMPENSATED BULK DENSTIY
 DPHI.DEC    45 890 12 00:   DENSITY POROSITY SANDSTONE
~PARAMETER INFORMATION
#MNEM.UNIT          VALUE    DESCRIPTION
#----------   ------------   ------------------------------
 PD  .                 GL:   PERMANENT DATUM
 EPD .F              5209:   ELEVATION PERMANENT DATUM
 LMF .                 KB:   LOG MEASURED FROM
 DAPD.F                 4:   FEET ABOVE PERMANENT DATUM
 DMF .                 KB:   DRILLING MEASURED FROM
 EKB .F              5213:   KELLING BUSHING
 EGL .F              5209:   GROUND LEVEL
 DATE.            7-13-78:   RUN DATE
 RUN .                  1:   RUN NUMBER
 DD  .F               500:   DEPTH DRILLER
 DL  .F               507:   DEPTH LOGGER
 BLI .F               500:   BOTTOM LOG INTERVAL
 TLI .F                30:   TOP LOG INTERVAL
 CS  .IN            8.625:   CASING SIZE
 CBL .F                30:   CASING BOTTOM LOGGER
 BS  .IN            7.875:   BIT SIZE
 BSD .F               500:   BIT SIZE AT DEPTH
 DFT .                KCL:   DRILLING FLUID TYPE
 DFD .                8.6:   DRILLING FLUID DENSITY
 DFV .                 32:   DRILLING FLUID VISCOSITY
 DFPH.                  9:   DRILLING FLUID PH
 DFL .               12.2:   DRILLING FLUID LOSS
 MSS .          FLOW LINE:   MUD SAMPLE SOURCE
 RMS .OHMM            .22:   RESISTIVITY MUD SAMPLE
 MST .F                80:   MUD SAMPLE TEMPERATURE
 RMF .OHMM            .19:   RESISTIVITY MUD FILTRATE SAMPLE
 MFST.F                88:   MUD FILTRATE SAMPLE TEMPERATURE
 RMC .OHMM            .38:   RESISTIVITY MUD CAKE
 MCST.F                84:   MUD CAKE SAMPLE TEMPERATURE
 MFSS.               MEAS:   MUD FILTRATE SAMPLE SOURCE
 BHT .F                76:   BOTTOM HOLE TEMPERATURE
 TCS .HRS               1:   TIME CURCULATED STOPPED
 MRT .F                76:   MAXIMUM RECORDED TEMPERATURE
 LUN .               2958:   LOGGING UNIT NUMBER
 LUL .               CASP:   LOGGING UNIT LOCATION
 ENGI.             MILLER:   RECORDING ENGINEER
 WITN.           MCGINLEY:   WITNESSED BY
 CLNT.            A2DTECH:   CLIENT CODE
 ORIG. 2", 2.5", 5" PRINT:   ORIGIN OF DATA
 UWI .       490251066600:   UNIQUE WELL ID
 DICO. A2D Technologies, Inc.:   DIGITIZING COMPANY
~OTHER INFORMATION
~A   DEPT      SPR         SN        ILD       CALD        GRD       CORR        DEN       DPHI   
# ...
  463.5000   -23.7453    10.8838    12.9047     7.5489    66.1458    -0.0005     2.4646     0.1291
  464.0000   -23.7321    10.8897    12.8222     7.5359    67.5107    -0.0003     2.4729     0.1315
  464.5000   -23.7188    10.8956    12.8283     7.4481    67.6779    -0.0001     2.4655     0.1339
  465.0000   -23.8547    10.8251    12.6587     7.3752    67.8452     0.0000     2.4566     0.1350
  465.5000   -23.8383    10.7566    12.6647     7.3921    68.4615     0.0002     2.4521     0.1353
  466.0000   -23.8252    10.6152    12.5836     7.4251    69.2276    -0.0027     2.4541     0.1328
  466.5000   -23.8121    10.4770    12.5032     7.5159    69.0838    -0.0026     2.4681     0.1322
  467.0000   -23.7990    10.3390    12.5092     7.5926    68.5142    -0.0039     2.4644     0.1348
  467.5000   -23.7858    10.3448    12.5153     7.6094    68.2324    -0.0037     2.4585     0.1408
  468.0000   -23.7727    10.3504    12.5225     7.6113    67.8052    -0.0021     2.4519     0.1426
  468.5000   -23.7596    10.3561    12.5284     7.6132    67.2240    -0.0019     2.4444     0.1368
  469.0000   -23.5977    10.3618    12.5343     7.5997    68.5888     0.0027     2.4483     0.1302
  469.5000   -23.5845    10.3686    12.5402     7.5871    70.4028     0.0179     2.4627     0.1241
  470.0000   -23.7202    10.3742    12.5462     7.5740    69.2227     0.0375     2.4872     0.1193
  470.5000   -23.8559    10.3798    12.6389     7.5454    69.2403     0.0302     2.4936     0.1206
  471.0000   -24.1647    10.3854    12.6448     7.4881    70.3057     0.0123     2.4847     0.1240
  471.5000   -24.5705    10.3910    12.6508     7.4905    71.5249     0.0020     2.4795     0.1189
  472.0000   -24.8550    10.3252    12.6568     7.5223    72.1373    -0.0009     2.4841     0.1158
  472.5000   -24.8418    10.3308    12.6628     7.5242    69.3149    -0.0008     2.4977     0.1149
  473.0000   -24.9808    10.3364    12.4954     7.5560    68.1304    -0.0006     2.4918     0.1251
  473.5000   -24.9644    10.3420    12.4155     7.5877    68.9009    -0.0004     2.4829     0.1295
  474.0000   -25.1034    10.3475    12.2371     7.5896    69.5173    -0.0003     2.4670     0.1328
  474.5000   -25.0870    10.3532    12.0079     7.5915    68.9360    -0.0001     2.4628     0.1309
  475.0000   -24.9250    10.3589    11.7679     7.5785    65.8098     0.0000     2.4674     0.1258
  475.5000   -24.9119    10.3657    11.5326     7.5505    65.8274     0.0002     2.4735     0.1222
  476.0000   -24.8988    10.3713    11.3802     7.5225    66.1444     0.0003     2.4803     0.1227
  476.5000   -24.8854    10.3043    11.1527     7.5094    69.1559    -0.0011     2.4729     0.1299
  477.0000   -25.0214    10.3112    11.0040     7.5118    71.8742    -0.0024     2.4647     0.1296
  477.5000   -25.1571    10.2446    10.8585     7.5137    72.2056    -0.0022     2.4633     0.1295
  478.0000   -25.2928    10.1099    10.7150     7.5156    72.5064    -0.0006     2.4642     0.1271
  478.5000   -25.4284    10.0472    10.5745     7.5175    72.6736    -0.0005     2.4698     0.1216
  479.0000   -25.4121     9.9837    10.5070     7.5343    71.9427     0.0014     2.4764     0.1165
  479.5000   -25.5510     9.8524    10.3644     7.5511    71.2074     0.0044     2.4817     0.1179
  480.0000   -25.6867     9.7900    10.2926     7.5531    72.5766     0.0060     2.4923     0.1224
  480.5000   -25.6703     9.6559    10.1657     7.5576    73.1930     0.0046     2.4834     0.1233
  481.0000   -25.8065     9.5235    10.0325     7.5872    73.3602     0.0003     2.4760     0.1241
  481.5000   -25.7929     9.3442    10.0373     7.6190    75.0245    -0.0025     2.4730     0.1250
  482.0000   -25.7900     9.1593     9.9731     7.6209    76.8384    -0.0069     2.4694     0.1289
  482.5000   -25.7976     9.0388     9.9778     7.6228    77.1657    -0.0067     2.4625     0.1303
  483.0000   -25.8051     8.7979     9.9825     7.6097    79.8083    -0.0051     2.4666     0.1244
  483.5000   -25.8127     8.5634     9.9872     7.5817    82.5841    -0.0019     2.4734     0.1233
  484.0000   -25.8203     8.3352     9.7204     7.5537    80.5059    -0.0018     2.4757     0.1290
  484.5000   -25.8278     8.0020     9.1403     7.5406    77.8288    -0.0002     2.4751     0.1287
  485.0000   -25.8354     7.7352     8.5949     7.5575    78.7446     0.0002     2.4714     0.1307
  485.5000   -25.8335     7.4261     8.0798     7.5599    79.5106     0.0017     2.4663     0.1331
  486.0000   -25.8203     7.0317     7.5333     7.5463    79.2288     0.0048     2.4633     0.1255
  486.5000   -25.9593     6.7506     7.0402     7.5487    78.1940     0.0095     2.4627     0.1204
  487.0000   -25.9429     6.7544     6.7671     7.5506    78.0659     0.0156     2.4905     0.1096
  487.5000   -25.7810     6.8055     6.7230     7.5525    77.7844     0.0218     2.5131     0.1023
  488.0000   -24.5774     6.9994     6.7735     7.5544    77.0260     0.0234     2.5162     0.0972
  488.5000   -24.2666     7.3492     6.8707     7.5563    76.0231     0.0116     2.5186     0.0929
  489.0000   -24.4023     7.7164     7.2136     7.5582    77.3924     0.0117     2.5202     0.0962
  489.5000   -24.3859     8.1580     7.8389     7.5601    78.3081     0.0059     2.5195     0.1100
  490.0000   -24.2240     8.4485     8.6367     7.5624    77.8766     0.0030     2.5128     0.1159
  490.5000   -24.0621     8.6892     9.3854     7.5489    77.4407     0.0032     2.4972     0.1114
  491.0000   -23.7513     8.9368    10.1290     7.5358    77.3085     0.0035     2.4896     0.1086
  491.5000   -23.7382     9.1283    10.2744     7.5078    78.5281     0.0065     2.4981     0.1065
  492.0000   -23.4275     9.2600    10.2087     7.5102    80.7911     0.0111     2.5119     0.1071
  492.5000   -22.8191     9.3291    10.2137     7.5121    80.9681     0.0142     2.5178     0.1106
  493.0000   -22.9554     9.4638    10.2902     7.5140    80.6765     0.0039     2.4984     0.1076
  493.5000   -23.0908     9.6677    10.3662     7.5159    80.2450     0.0056     2.4902     0.1049
  494.0000   -22.7798     9.8071    10.5150     7.5178    79.9631     0.0087     2.5053     0.1072
  494.5000   -22.3202    10.0173    10.7397     7.5197    79.3863     0.0104     2.5151     0.1081
  495.0000   -22.3065    10.3027    11.0449     7.5066    78.3515     0.0060     2.5122     0.1080
  495.5000   -22.2907    10.5235    11.3589     7.5090    79.2717     0.0017     2.5041     0.1089
  496.0000   -22.2776    10.6020    11.6016     7.5109    80.3371    -0.0012     2.5034     0.1116
  496.5000   -22.1156    10.7549    11.9313     7.5128    80.6541    -0.0026     2.4973     0.1112
  497.0000   -21.9537    10.9100    12.2705     7.5146    80.8214    -0.0039     2.4984     0.1082
  497.5000   -22.0927    11.0673    12.5326     7.5165    80.8389    -0.0037     2.5037     0.1045
  498.0000   -22.2284    11.2269    12.7125     7.5035    80.5569    -0.0036     2.5060     0.1018
  498.5000   -22.2120    11.4680    12.7186     7.4904    79.9681    -0.0020     2.5054     0.1087
  499.0000   -22.1989    11.7271    12.7248     7.4924    78.7305    -0.0033     2.5039     0.1125
  499.5000   -22.1857    11.8838    12.7320     7.4947    77.1710    -0.0016     2.4958     0.1161
  500.0000   -22.1726    11.8902    12.6491     7.4913    76.7351    -0.0030     2.4884     0.1212
  500.5000   -22.1592    11.8967    12.5682  -999.2500  -999.2500  -999.2500  -999.2500  -999.2500
  501.0000   -21.9970    11.9845    12.4878  -999.2500  -999.2500  -999.2500  -999.2500  -999.2500
