~VERSION INFORMATION
 VERS.                2.0:   CWLS LOG ASCII STANDARD - VERSION 2.0
 WRAP.                 NO:   ONE LINE PER DEPTH STEP
~WELL INFORMATION
#MNEM.UNIT      DATA TYPE    INFORMATION
#----------   ------------   ------------------------------
 STRT.F            4.0000:   START DEPTH
 STOP.F          516.5000:   STOP DEPTH
 STEP.F            0.5000:   STEP LENGTH
 NULL.          -999.2500:   NO VALUE
 COMP. BROWN JOHN E&C INC:   COMPANY
 WELL. NAVAL PETROLEUM RESERVE 3 SX-1 #72-1-10:   WELL
 FLD .             TEAPOT:   FIELD
 LOC .      S10 T38N R78W:   LOCATION
 CNTY.            NATRONA:   COUNTY
 STAT.            WYOMING:   STATE
 CTRY. UNITED STATES OF AMERICA:   COUNTRY
 SRVC.     Atlas Wireline:   SERVICE COMPANY
 DATE.        19-SEP-1991:   LOGDATE
 API .       490252244600:   API NUMBER
~CURVE INFORMATION
#MNEM.UNIT       API CODE    CURVE DESCRIPTION
#----------   ------------   ------------------------------
 DEPT.F                  :   
 GRR .GAPI   07 310 01 00:   GAMMA RAY FROM RESISTIVITY
 RILD.OHMM   07 120 46 00:   RESISTIVITY INDUCTION LOG DEEP
 RILM.OHMM   07 120 44 00:   RESISTIVITY INDUCTION LOG MEDIUM
~PARAMETER INFORMATION
#MNEM.UNIT          VALUE    DESCRIPTION
#----------   ------------   ------------------------------
 PD  .                 GL:   PERMANENT DATUM
 EPD .F              5140:   ELEVATION PERMANENT DATUM
 LMF .                 KB:   LOG MEASURED FROM
 DAPD.F                10:   FEET ABOVE PERMANENT DATUM
 DMF .                 KB:   DRILLING MEASURED FROM
 EKB .F              5150:   KELLING BUSHING
 EGL .F              5140:   GROUND LEVEL
 DATE.        19-SEP-1991:   RUN DATE
 RUN .                  1:   RUN NUMBER
 DD  .F               530:   DEPTH DRILLER
 DL  .F               527:   DEPTH LOGGER
 BLI .F                55:   BOTTOM LOG INTERVAL
 CS  .IN                7:   CASING SIZE
 CBD .F                80:   CASING BOTTOM DRILLER
 CBL .F                90:   CASING BOTTOM LOGGER
 BS  .IN             8.75:   BIT SIZE
 BSD .F               530:   BIT SIZE AT DEPTH
 DFT .                AIR:   DRILLING FLUID TYPE
 LUN .            HL/6272:   LOGGING UNIT NUMBER
 LUL .          CASPER/WY:   LOGGING UNIT LOCATION
 ENGI.            KINNETT:   RECORDING ENGINEER
 WITN.     STRONG/HERMANN:   WITNESSED BY
 CLNT.            A2DTECH:   CLIENT CODE
 ORIG.           5" PRINT:   ORIGIN OF DATA
 UWI .       490252244600:   UNIQUE WELL ID
 DICO. A2D Technologies, Inc.:   DIGITIZING COMPANY
~OTHER INFORMATION
~A    DEPT      GRR      RILD       RILM   
# ...
   95.0000   132.0968     4.7807    16.8832
   95.5000   131.1940  8800.4297    18.3273
   96.0000   133.0077 10179.4297    23.1483
   96.5000   136.0273  9968.5391    25.5069
   97.0000   140.5552  5193.7300    29.5040
   97.5000   141.4632    12.7426    36.0745
   98.0000   140.5612     7.8050    40.3061
   98.5000   138.4526     8.4633    22.5832
   99.0000   136.9473     8.6791    20.7797
   99.5000   136.3464     8.6776    18.9881
  100.0000   140.8751     8.4392    16.0774
  100.5000   145.4029     8.0944    10.2459
  101.0000   145.4059     7.7100     8.2075
  101.5000   143.9006     7.1928     7.9827
  102.0000   133.3080     6.5722     8.0934
  102.5000   132.3976     6.2169     8.2059
  103.0000   132.0914     6.1305     8.3199
  103.5000   133.2906     6.3458     8.4353
  104.0000   134.7930     6.7066     8.5524
  104.5000   135.3918     6.9421     8.6712
  105.0000   134.1777     7.1859     8.7918
  105.5000   134.4734     7.4383     8.9137
  106.0000   137.4841     7.8070     9.0375
  106.5000   137.7798     8.0268     9.2267
  107.0000   135.9136     8.3117     9.3549
  107.5000   126.8577     8.4883     9.5507
  108.0000   126.6005     8.7289     9.6834
  108.5000   128.4045     8.8996     9.8179
  109.0000   128.0954     9.1485    10.0355
  109.5000   125.6762     9.3391    10.3043
  110.0000   122.9553     9.5340    10.5200
  110.5000   122.6476     9.8007    10.9660
  111.0000   122.6417    10.0748    11.5103
  111.5000   122.6357    10.3565    11.9153
  112.0000   119.3115    10.5000    12.1648
  112.5000   115.9873    10.7933    12.2487
  113.0000   115.9814    10.9425    12.1631
  113.5000   116.8804    11.0170    11.9704
  114.0000   118.9860    11.0155    11.7473
  114.5000   120.4884    10.9380    11.5848
  115.0000   120.7843    10.7859    11.4245
  115.5000   120.1748    10.6360    11.2665
  116.0000   116.8506    10.4882    11.2657
  116.5000   115.0347    10.4143    11.1099
  117.0000   116.5571    10.3409    11.0324
  117.5000   118.7180    10.2678    10.9555
  118.0000   121.3516    10.1955    10.9547
  118.5000   120.0282    10.1941    10.9539
  119.0000   117.4167    10.1927    10.9532
  119.5000   115.6007    10.1915    10.9466
  120.0000   114.6898    10.1197    10.8759
  120.5000   113.1756    10.1181    10.8002
  121.0000   111.6613    10.0469    10.7994
  121.5000   109.8454    10.0457    10.8738
  122.0000   110.7444    10.0441    10.9487
  122.5000   116.4700    10.0428    10.9478
  123.0000   116.1623    10.0415    10.9471
  123.5000   114.6481    10.0401    10.9463
  124.0000   113.1338    10.0387    10.9456
  124.5000   115.2395     9.8991    10.8692
  125.0000   118.8534     9.6941    10.7934
  125.5000   121.8641     9.5558    10.6441
  126.0000   122.4816     9.4024    10.4968
  126.5000   120.9472     9.2903    10.3516
  127.0000   123.3645     9.1659    10.2849
  127.5000   124.2535     9.1014    10.1760
  128.0000   122.3167     9.1004    10.1366
  128.5000   120.6217     9.0353    10.0659
  129.0000   123.0275     8.9724    10.0652
  129.5000   123.6264     8.9094     9.9950
  130.0000   124.2237     8.8465     9.9252
  130.5000   123.9146     8.8453     9.9122
  131.0000   123.3053     8.8344     9.7871
  131.5000   120.5844     8.7819     9.7865
  132.0000   115.1486     8.7454     9.6511
  132.5000   113.9375     8.6586     9.5176
  133.0000   116.6450     8.5976     9.3211
  133.5000   119.6556     8.5370     9.1922
  134.0000   121.7613     8.3602     9.1281
  134.5000   123.5653     8.2723     9.1274
  135.0000   124.1629     8.2125     9.1268
  135.5000   124.1567     8.1848     9.1262
  136.0000   119.9275     8.1837     9.1256
  136.5000   111.1734     8.1823     9.1249
  137.0000   109.9507     8.1812     9.0996
  137.5000   110.2565     8.1801     9.0607
  138.0000   113.1665     8.1791     9.0601
  138.5000   117.2378     8.1780     9.0594
  139.0000   118.3820     8.1767     9.0588
  139.5000   118.3760     8.1756     9.0582
  140.0000   118.3700     8.1180     8.9950
  140.5000   119.2706     8.0052     8.7485
  141.0000   121.0731     7.7315     8.4993
  141.5000   125.8936     7.4672     8.0491
  142.0000   132.2225     7.2620     7.8830
  142.5000   129.2000     7.1611     7.8280
  143.0000   125.5741     7.1106     7.8275
  143.5000   121.6466     7.1591     7.8269
  144.0000   118.3224     7.1581     7.8810
  144.5000   121.0313     7.1571     7.9352
  145.0000   123.4387     7.1561     7.9897
  145.5000   125.2427     7.1552     8.0185
  146.0000   126.7450     7.1542     8.0443
  146.5000   125.8341     7.2030     8.0436
  147.0000   123.4047     7.2018     8.0991
  147.5000   120.9703     7.2109     8.1549
  148.0000   119.7828     7.3003     8.2109
  148.5000   120.4907     7.4529     8.2458
  149.0000   123.3895     7.6082     8.2670
  149.5000   125.1950     7.6929     8.3238
  150.0000   123.6793     7.8865     8.4981
  150.5000   122.1650     8.0386     8.6189
  151.0000   120.6507     8.0937     8.7414
  151.5000   121.6139     8.0923     8.8571
  152.0000   123.1373     8.0912     8.9181
  152.5000   124.6009     8.1463     8.9793
  153.0000   125.5089     8.1452     8.9787
  153.5000   127.0201     8.0878     8.9161
  154.0000   127.6257     8.0867     8.8539
  154.5000   126.4221     8.0856     8.8245
  155.0000   125.8217     8.0842     8.7308
  155.5000   125.5230     8.0831     8.5506
  156.0000   124.9235     8.0262     8.4910
  156.5000   124.6240     8.0251     8.4904
  157.0000   128.5493     7.9686     8.4898
  157.5000   131.8706     7.9675     8.4892
  158.0000   130.6669     7.9664     8.4886
  158.5000   127.6533     7.9103     8.4881
  159.0000   125.5447     7.9193     8.4875
  159.5000   125.2453     7.9186     8.5799
  160.0000   124.6450     7.9180     8.5811
  160.5000   124.3469     7.9175     8.5823
  161.0000   124.3500     7.8623     8.5834
  161.5000   124.3530     7.8618     8.5846
  162.0000   125.5626     7.8069     8.6455
  162.5000   127.3756     7.8064     8.6467
  163.0000   130.1056     7.8059     8.6479
  163.5000   130.0965     7.8053     8.6491
  164.0000   129.1584     7.7509     8.5905
  164.5000   128.2443     7.7503     8.5323
  165.0000   127.3912     7.6963     8.4746
  165.5000   126.4893     7.5898     8.3591
  166.0000   126.4922     7.4848     8.2451
  166.5000   128.0035     7.3813     8.1328
  167.0000   130.4198     7.2792     7.9589
  167.5000   131.6294     7.0797     7.7938
  168.0000   132.8390     6.8381     7.3841
  168.5000   133.7470     6.5117     6.8906
  169.0000   133.1467     6.2024     6.6568
  169.5000   130.1331     5.9932     6.5205
  170.0000   125.6112     5.9103     6.4319
  170.5000   125.3117     5.9099     6.5225
  171.0000   128.6337     5.9094     6.7295
  171.5000   129.2400     5.9915     6.9925
  172.0000   128.9413     6.0747     7.1901
  172.5000   128.3403     6.2450     7.3932
  173.0000   127.7406     6.4647     7.5495
  173.5000   124.4254     6.6922     7.7092
  174.0000   125.9367     6.8799     7.7639
  174.5000   126.8447     7.0239     7.8189
  175.0000   126.8477     7.1215     7.8744
  175.5000   125.0286     7.1705     7.8755
  176.0000   125.3695     7.1700     7.8765
  176.5000   128.8114     7.1200     7.8776
  177.0000   131.6863     7.1195     7.8787
  177.5000   131.3875     7.1190     7.8254
  178.0000   131.6929     7.0694     7.8265
  178.5000   133.8075     7.0689     7.8202
  179.0000   136.8271     7.0196     7.7113
  179.5000   135.3217     6.8747     7.4076
  180.0000   127.4816     6.7796     7.2061
  180.5000   124.4672     6.5482     7.0588
  181.0000   125.9793     6.3248     6.9626
  181.5000   129.6022     6.0667     6.9152
  182.0000   134.4317     5.6980     6.5889
  182.5000   133.8314     5.3880     6.0639
  183.0000   129.9128     5.1687     5.5422
  183.5000   125.3909     4.9953     5.2441
  184.0000   125.9972     4.9550     5.2084
  184.5000   128.4135     4.9258     5.3557
  185.0000   129.0190     4.9597     5.5453
  185.5000   126.9111     5.0287     5.7815
