~VERSION INFORMATION
 VERS.                2.0:   CWLS LOG ASCII STANDARD - VERSION 2.0
 WRAP.                 NO:   ONE LINE PER DEPTH STEP
~WELL INFORMATION
#MNEM.UNIT      DATA TYPE    INFORMATION
#----------   ------------   ------------------------------
 STRT.F           26.0000:   START DEPTH
 STOP.F          535.5000:   STOP DEPTH
 STEP.F            0.5000:   STEP LENGTH
 NULL.          -999.2500:   NO VALUE
 COMP. BROWN JOHN E&C INC:   COMPANY
 WELL.       NPR 86 #11-3:   WELL
 FLD .             TEAPOT:   FIELD
 LOC .       S3 T38N R78W:   LOCATION
 CNTY.            NATRONA:   COUNTY
 STAT.            WYOMING:   STATE
 CTRY. UNITED STATES OF AMERICA:   COUNTRY
 SRVC.       Schlumberger:   SERVICE COMPANY
 DATE.        21-SEP-1990:   LOGDATE
 API .       490251130800:   API NUMBER
~CURVE INFORMATION
#MNEM.UNIT       API CODE    CURVE DESCRIPTION
#----------   ------------   ------------------------------
 DEPT.F                  :   
 ILD .OHMM   07 120 46 00:   INDUCTION LOG DEEP
 ILM .OHMM   07 120 44 00:   INDUCTION LOG MEDIUM
 GRD .GAPI   45 310 01 00:   GAMMA RAY FROM DENSITY LOG
 CALD.IN     45 280 60 00:   CALIPER
 DRHO.G/C3   45 356 01 00:   DENSITY CORRECTION
 DPHI.DEC    45 890 00 00:   DENSITY POROSITY
 RHOB.G/C3   45 350 01 00:   BULK DENSITY
~PARAMETER INFORMATION
#MNEM.UNIT          VALUE    DESCRIPTION
#----------   ------------   ------------------------------
 PD  .                 GL:   PERMANENT DATUM
 EPD .F              5144:   ELEVATION PERMANENT DATUM
 LMF .                 KB:   LOG MEASURED FROM
 DAPD.F                10:   FEET ABOVE PERMANENT DATUM
 DMF .                 KB:   DRILLING MEASURED FROM
 EKB .F              5154:   KELLING BUSHING
 EDF .F              5153:   DRILLING FLOOR
 EGL .F              5144:   GROUND LEVEL
 DATE.            9-21-90:   RUN DATE
 RUN .                  1:   RUN NUMBER
 DD  .F               540:   DEPTH DRILLER
 DL  .F               539:   DEPTH LOGGER
 BLI .F               533:   BOTTOM LOG INTERVAL
 TLI .F                49:   TOP LOG INTERVAL
 CS  .IN            8.625:   CASING SIZE
 CBD .F                50:   CASING BOTTOM DRILLER
 CBL .F                48:   CASING BOTTOM LOGGER
 BS  .IN            7.875:   BIT SIZE
 BSD .F               540:   BIT SIZE AT DEPTH
 DFT .                AIR:   DRILLING FLUID TYPE
 TCS .HRS            0315:   TIME CURCULATED STOPPED
 TLAB.HRS            0409:   TIME LOGGER AT BOTTOM
 LUN .               5882:   LOGGING UNIT NUMBER
 LUL .               CODY:   LOGGING UNIT LOCATION
 ENGI.          M. FISHER:   RECORDING ENGINEER
 WITN.          G. STRONG:   WITNESSED BY
 CLNT.            A2DTECH:   CLIENT CODE
 ORIG.   2" 2.5" 5" PRINT:   ORIGIN OF DATA
 UWI .       490251130800:   UNIQUE WELL ID
 DICO. A2D Technologies, Inc.:   DIGITIZING COMPANY
~OTHER INFORMATION
~A   DEPT      ILD        ILM         GRD      CALD       DRHO       DPHI       RHOB   
# ...
  390.0000    25.2501    24.7381    85.7357     7.8503     0.0028     0.1194     2.4361
  390.5000    25.0343    24.5201    84.3720     7.8507     0.0019     0.1443     2.3427
  391.0000    24.8204    24.2914    85.0243     7.8512    -0.0007     0.1569     2.3066
  391.5000    24.6082    23.8459    88.0290     7.8517    -0.0010     0.1601     2.2919
  392.0000    24.2016    23.3816    91.4030     7.8521    -0.0010     0.1595     2.2974
  392.5000    23.6563    22.9259    94.8416     7.8526    -0.0010     0.1575     2.3058
  393.0000    23.1232    22.4793    94.9412     7.8531    -0.0022     0.1569     2.3069
  393.5000    22.6022    22.0415    93.3696     7.8536    -0.0036     0.1569     2.3069
  394.0000    22.0929    21.6122    93.4821     7.8540    -0.0050     0.1557     2.3103
  394.5000    21.5951    21.1912    96.5841     7.8545    -0.0064     0.1519     2.3250
  395.0000    21.1814    20.7664    99.6293     7.8550    -0.0078     0.1484     2.3390
  395.5000    20.7852    20.4020    98.7168     7.8555    -0.0080     0.1470     2.3437
  396.0000    20.3737    20.0440    97.5835     7.8559    -0.0071     0.1465     2.3467
  396.5000    20.2877    19.6923    97.9151     7.8564    -0.0058     0.1433     2.3577
  397.0000    20.1967    19.3467    98.3201     7.8569    -0.0044     0.1403     2.3715
  397.5000    20.1061    19.1729    96.6031     7.8573    -0.0032     0.1381     2.3781
  398.0000    20.0159    19.0040    93.9871     7.8578    -0.0019     0.1427     2.3588
  398.5000    19.4873    18.8365    92.7681     7.8583    -0.0020     0.1469     2.3436
  399.0000    19.1535    18.6502    93.8648     7.8587    -0.0020     0.1473     2.3433
  399.5000    18.8253    18.2822    95.0727     7.8592    -0.0015     0.1420     2.3627
  400.0000    18.5028    17.9214    96.2764     7.8597     0.0007     0.1371     2.3760
  400.5000    18.1857    17.5678    97.4782     7.8602     0.0029     0.1335     2.3893
  401.0000    17.8758    17.2212    98.6648     7.8606     0.0010     0.1331     2.3990
  401.5000    17.7339    16.9182    98.8104     7.8611    -0.0005     0.1336     2.3967
  402.0000    17.5310    16.8347    99.2332     7.8616    -0.0020     0.1341     2.3945
  402.5000    17.3570    16.7516   101.4735     7.8621    -0.0035     0.1347     2.3923
  403.0000    17.1847    16.6689   103.6039     7.8625    -0.0049     0.1352     2.3902
  403.5000    17.0141    16.6063   105.7465     7.8630    -0.0060     0.1357     2.3881
  404.0000    16.8453    16.5413   105.3569     7.8635    -0.0060     0.1362     2.3862
  404.5000    16.6199    16.4767   103.1323     7.8639    -0.0060     0.1368     2.3845
  405.0000    16.6877    16.4122   100.7984     7.8644    -0.0058     0.1369     2.3837
  405.5000    16.7931    16.3480    97.8271     7.8649    -0.0051     0.1369     2.3848
  406.0000    16.9314    16.3151    94.8310     7.8653    -0.0045     0.1347     2.3886
  406.5000    16.7809    16.3147    94.3737     7.8658    -0.0038     0.1308     2.4071
  407.0000    16.4835    16.3155    95.5929     7.8661    -0.0031     0.1269     2.4214
  407.5000    16.1921    15.8905    96.9999     7.8625    -0.0025     0.1234     2.4367
  408.0000    15.9058    15.5195    98.3997     7.8587    -0.0020     0.1206     2.4461
  408.5000    15.6246    15.1505    99.2179     7.8551    -0.0020     0.1198     2.4494
  409.0000    15.3484    15.1215    98.5279     7.8514    -0.0020     0.1226     2.4395
  409.5000    15.2304    15.0841    97.4848     7.8478    -0.0024     0.1259     2.4247
  410.0000    15.1285    15.0476    96.4323     7.8359    -0.0041     0.1289     2.4113
  410.5000    15.0272    15.0102    95.5941     7.8194    -0.0062     0.1283     2.4197
  411.0000    14.9266    14.8301    95.5694     7.8028    -0.0082     0.1242     2.4334
  411.5000    14.8266    14.6560    98.5552     7.7869    -0.0100     0.1201     2.4479
  412.0000    14.7274    14.4847   103.2858     7.7881    -0.0094     0.1160     2.4574
  412.5000    14.6288    14.2658   108.0892     7.7900    -0.0082     0.1154     2.4605
  413.0000    14.5424    14.1199   110.9011     7.7919    -0.0071     0.1154     2.4606
  413.5000    14.4281    14.0316   110.4839     7.7937    -0.0059     0.1149     2.4606
  414.0000    14.3147    13.9395   109.6152     7.7955    -0.0053     0.1143     2.4620
  414.5000    14.2005    14.0355   108.7337     7.7973    -0.0069     0.1163     2.4622
  415.0000    14.3005    14.1374   107.8591     7.7991    -0.0080     0.1189     2.4556
  415.5000    14.4055    14.2400   106.9848     7.8009    -0.0076     0.1198     2.4526
  416.0000    14.5112    14.3434   105.8727     7.8027    -0.0056     0.1141     2.4630
  416.5000    14.6178    14.4476   103.6708     7.8047    -0.0037     0.1086     2.4735
  417.0000    14.7251    14.5525   101.2201     7.8058    -0.0018     0.1031     2.4815
  417.5000    14.8332    14.6581    99.4719     7.7810    -0.0001     0.1022     2.4734
  418.0000    14.9421    14.7646   100.2205     7.7542    -0.0020     0.1150     2.4597
  418.5000    15.0518    14.8717   101.9835     7.7277    -0.0050     0.1240     2.4283
  419.0000    15.1505    14.9797   102.2553     7.7271    -0.0065     0.1314     2.4019
  419.5000    14.8904    15.0109   100.7129     7.7280    -0.0080     0.1323     2.3972
  420.0000    14.6586    14.7618   100.7598     7.7288    -0.0077     0.1296     2.4077
  420.5000    14.4297    14.4972   103.0300     7.7295    -0.0073     0.1269     2.4221
  421.0000    14.2007    14.2374   105.2710     7.7303    -0.0069     0.1242     2.4334
  421.5000    14.1187    13.9822   107.2158     7.7311    -0.0066     0.1226     2.4375
  422.0000    14.0008    13.7316   105.3503     7.7318    -0.0062     0.1226     2.4376
  422.5000    13.8314    13.5808   103.2755     7.7326    -0.0060     0.1226     2.4395
  423.0000    13.6638    13.4138   102.7865     7.7333    -0.0060     0.1186     2.4504
  423.5000    13.4982    13.2488   103.4282     7.7341    -0.0060     0.1129     2.4637
  424.0000    13.3350    13.0859   104.3202     7.7349    -0.0062     0.1072     2.4737
  424.5000    13.1854    12.9829   105.2134     7.7356    -0.0072     0.1050     2.4773
  425.0000    13.0684    12.8893   106.1058     7.7364    -0.0082     0.1094     2.4711
  425.5000    12.9604    12.7963   107.0059     7.7371    -0.0090     0.1138     2.4648
  426.0000    12.8252    12.7042   107.9319     7.7379    -0.0090     0.1128     2.4653
  426.5000    13.1247    12.5875   106.6668     7.7386    -0.0077     0.1111     2.4672
  427.0000    13.5426    12.6165   103.7107     7.7394    -0.0056     0.1106     2.4684
  427.5000    13.9739    12.6909    98.6241     7.7402    -0.0034     0.1174     2.4541
  428.0000    14.5174    13.5845    93.4345     7.7409    -0.0013     0.1365     2.4149
  428.5000    15.5174    14.7931    88.2365     7.7417     0.0000     0.1557     2.3331
  429.0000    16.5863    16.1092    83.0518     7.7424     0.0000     0.1728     2.2454
  429.5000    18.0543    17.1958    78.5314     7.7432     0.0000     0.1813     2.2089
  430.0000    19.7253    18.3723    76.3742     7.7440     0.0000     0.1848     2.2005
  430.5000    21.5509    20.3522    77.9974     7.7447     0.0000     0.1769     2.2331
  431.0000    23.3413    22.5455    80.2838     7.7455     0.0000     0.1753     2.2378
  431.5000    25.0472    25.1892    82.0969     7.7463    -0.0001     0.1772     2.2292
  432.0000    26.8777    25.8419    80.5162     7.7417     0.0026     0.1744     2.2394
  432.5000    27.7122    26.7418    78.2092     7.7344     0.0058     0.1708     2.2522
  433.0000    28.1500    27.8599    76.1017     7.7270     0.0081     0.1693     2.2597
  433.5000    28.7067    29.0301    76.0383     7.7196     0.0065     0.1782     2.2187
  434.0000    28.4222    29.7779    76.5367     7.7123     0.0039     0.1858     2.1959
  434.5000    28.4380    29.3482    79.0413     7.7068     0.0012     0.1876     2.1906
  435.0000    28.2736    28.6392    81.4868     7.7086    -0.0015     0.1826     2.2121
