~VERSION INFORMATION
 VERS.                2.0:   CWLS LOG ASCII STANDARD - VERSION 2.0
 WRAP.                 NO:   ONE LINE PER DEPTH STEP
~WELL INFORMATION
#MNEM.UNIT      DATA TYPE    INFORMATION
#----------   ------------   ------------------------------
 STRT.F           26.0000:   START DEPTH
 STOP.F          535.5000:   STOP DEPTH
 STEP.F            0.5000:   STEP LENGTH
 NULL.          -999.2500:   NO VALUE
 COMP. BROWN JOHN E&C INC:   COMPANY
 WELL.       NPR 86 #11-3:   WELL
 FLD .             TEAPOT:   FIELD
 LOC .       S3 T38N R78W:   LOCATION
 CNTY.            NATRONA:   COUNTY
 STAT.            WYOMING:   STATE
 CTRY. UNITED STATES OF AMERICA:   COUNTRY
 SRVC.       Schlumberger:   SERVICE COMPANY
 DATE.        21-SEP-1990:   LOGDATE
 API .       490251130800:   API NUMBER
~CURVE INFORMATION
#MNEM.UNIT       API CODE    CURVE DESCRIPTION
#----------   ------------   ------------------------------
 DEPT.F                  :   
 ILD .OHMM   07 120 46 00:   INDUCTION LOG DEEP
 ILM .OHMM   07 120 44 00:   INDUCTION LOG MEDIUM
 GRD .GAPI   45 310 01 00:   GAMMA RAY FROM DENSITY LOG
 CALD.IN     45 280 60 00:   CALIPER
 DRHO.G/C3   45 356 01 00:   DENSITY CORRECTION
 DPHI.DEC    45 890 00 00:   DENSITY POROSITY
 RHOB.G/C3   45 350 01 00:   BULK DENSITY
~PARAMETER INFORMATION
#MNEM.UNIT          VALUE    DESCRIPTION
#----------   ------------   ------------------------------
 PD  .                 GL:   PERMANENT DATUM
 EPD .F              5144:   ELEVATION PERMANENT DATUM
 LMF .                 KB:   LOG MEASURED FROM
 DAPD.F                10:   FEET ABOVE PERMANENT DATUM
 DMF .                 KB:   DRILLING MEASURED FROM
 EKB .F              5154:   KELLING BUSHING
 EDF .F              5153:   DRILLING FLOOR
 EGL .F              5144:   GROUND LEVEL
 DATE.            9-21-90:   RUN DATE
 RUN .                  1:   RUN NUMBER
 DD  .F               540:   DEPTH DRILLER
 DL  .F               539:   DEPTH LOGGER
 BLI .F               533:   BOTTOM LOG INTERVAL
 TLI .F                49:   TOP LOG INTERVAL
 CS  .IN            8.625:   CASING SIZE
 CBD .F                50:   CASING BOTTOM DRILLER
 CBL .F                48:   CASING BOTTOM LOGGER
 BS  .IN            7.875:   BIT SIZE
 BSD .F               540:   BIT SIZE AT DEPTH
 DFT .                AIR:   DRILLING FLUID TYPE
 TCS .HRS            0315:   TIME CURCULATED STOPPED
 TLAB.HRS            0409:   TIME LOGGER AT BOTTOM
 LUN .               5882:   LOGGING UNIT NUMBER
 LUL .               CODY:   LOGGING UNIT LOCATION
 ENGI.          M. FISHER:   RECORDING ENGINEER
 WITN.          G. STRONG:   WITNESSED BY
 CLNT.            A2DTECH:   CLIENT CODE
 ORIG.   2" 2.5" 5" PRINT:   ORIGIN OF DATA
 UWI .       490251130800:   UNIQUE WELL ID
 DICO. A2D Technologies, Inc.:   DIGITIZING COMPANY
~OTHER INFORMATION
~A   DEPT      ILD        ILM         GRD      CALD       DRHO       DPHI       RHOB   
# ...
  162.5000    10.9811    10.7529   123.9134     7.9936     0.0004     0.1090     2.4714
  163.0000    11.1988    10.9486   120.6195     8.0070     0.0012     0.1054     2.4788
  163.5000    11.4209    11.1476   116.9416     8.0207     0.0020     0.0978     2.4901
  164.0000    11.6467    11.3503   113.5996     8.0118     0.0030     0.0914     2.5001
  164.5000    11.9160    11.5566   113.5728     7.9883     0.0049     0.0874     2.5064
  165.0000    12.1999    11.7667   113.4964     7.9646     0.0060     0.0890     2.5038
  165.5000    12.4907    12.1166   110.6600     7.9412     0.0060     0.0898     2.5015
  166.0000    12.7885    12.5033   107.6601     7.9307     0.0060     0.0877     2.5043
  166.5000    13.0933    12.9015   104.8071     7.9440     0.0060     0.0858     2.5083
  167.0000    13.4054    13.4374   106.7161     7.9569     0.0060     0.0874     2.5056
  167.5000    13.6838    13.4365   110.1263     7.9699     0.0049     0.0915     2.4987
  168.0000    13.6178    13.2921   113.5985     7.9832     0.0039     0.0959     2.4919
  168.5000    13.5596    13.1875   116.5311     7.9869     0.0028     0.1004     2.4850
  169.0000    13.5017    13.3312   117.2803     7.9881     0.0018     0.1048     2.4782
  169.5000    13.4440    13.4316   116.4090     7.9892     0.0008     0.1082     2.4718
  170.0000    13.3059    13.1589   116.3658     7.9904    -0.0003     0.1066     2.4737
  170.5000    13.1501    12.9458   116.3694     7.9915    -0.0013     0.1050     2.4759
  171.0000    12.9961    12.8546   116.1559     7.9927    -0.0023     0.1050     2.4774
  171.5000    12.8439    12.7507   114.5198     7.9938    -0.0034     0.1079     2.4730
  172.0000    12.7941    12.6467   112.8743     7.9950    -0.0040     0.1107     2.4684
  172.5000    12.7587    12.5422   111.1699     7.9962    -0.0040     0.1112     2.4686
  173.0000    12.7234    12.4740   110.7468     7.9973    -0.0036     0.1082     2.4736
  173.5000    12.6578    12.3590   112.5098     7.9985    -0.0026     0.1052     2.4786
  174.0000    12.5663    12.3066   114.9347     7.9996    -0.0016     0.1034     2.4794
  174.5000    12.4756    12.2515   117.4363     8.0008    -0.0010     0.1069     2.4731
  175.0000    12.3854    12.1967   115.5871     8.0019    -0.0023     0.1113     2.4668
  175.5000    12.2954    12.1421   111.5951     8.0031    -0.0039     0.1166     2.4608
  176.0000    12.2453    12.1323   107.6090     8.0042    -0.0046     0.1140     2.4618
  176.5000    12.2795    12.2452   105.5943     8.0054    -0.0052     0.1098     2.4688
  177.0000    12.3037    12.3590   106.5203     8.0065    -0.0058     0.1055     2.4757
  177.5000    12.3279    12.2459   110.4865     8.0077    -0.0064     0.1046     2.4738
  178.0000    12.3590    12.1692   114.2469     8.0089    -0.0070     0.1119     2.4614
  178.5000    12.2481    12.0499   116.8392     8.0100    -0.0070     0.1180     2.4490
  179.0000    12.0943    11.8920   118.2170     8.0112    -0.0054     0.1230     2.4371
  179.5000    11.9424    11.7361   119.4339     8.0123    -0.0035     0.1217     2.4396
  180.0000    11.7923    11.5823   118.5354     8.0135    -0.0015     0.1185     2.4480
  180.5000    11.6442    11.4305   117.3408     8.0146     0.0004     0.1152     2.4562
  181.0000    11.4979    11.2762   116.1463     8.0158     0.0024     0.1120     2.4644
  181.5000    11.3534    11.1210   115.5767     8.0169     0.0044     0.1106     2.4705
  182.0000    11.2105    10.9679   115.5637     8.0181     0.0060     0.1124     2.4673
  182.5000    11.1222    10.8568   115.6604     8.0193     0.0060     0.1143     2.4630
  183.0000    11.0612    10.8816   115.7941     8.0204     0.0071     0.1161     2.4586
  183.5000    11.0006    10.9182   115.8883     8.0216     0.0082     0.1180     2.4536
  184.0000    10.9403    10.9578   118.1717     8.0227     0.0093     0.1199     2.4477
  184.5000    10.8804    10.8666   120.8040     8.0239     0.0100     0.1218     2.4419
  185.0000    10.8207    10.7428   122.3576     8.0250     0.0079     0.1230     2.4360
  185.5000    10.7614    10.6204   121.6253     8.0260     0.0041     0.1240     2.4300
  186.0000    10.7024    10.4994   119.8486     8.0260     0.0010     0.1259     2.4230
  186.5000    10.6437    10.3797   118.0810     8.0260    -0.0020     0.1278     2.4156
  187.0000    10.5854    10.2615   116.2967     8.0260    -0.0053     0.1297     2.4106
  187.5000    10.5274    10.1445   115.3684     8.0260    -0.0071     0.1273     2.4145
  188.0000    10.4697    10.0819   114.6195     8.0260    -0.0066     0.1246     2.4263
  188.5000    10.3026    10.3750   113.8735     8.0260    -0.0057     0.1218     2.4382
  189.0000    10.1745    10.5595   113.7888     8.0260    -0.0049     0.1190     2.4501
  189.5000    10.1628    10.3752   114.9889     8.0260    -0.0040     0.1190     2.4507
  190.0000    10.1511    10.2537   115.7191     8.0260    -0.0021     0.1190     2.4507
  190.5000    10.1395    10.0819   114.0169     8.0260    -0.0010     0.1190     2.4461
  191.0000    10.1278    10.0998   112.3101     8.0260     0.0000     0.1212     2.4400
  191.5000    10.1162    10.1316   111.9780     8.0260     0.0000     0.1238     2.4339
  192.0000    10.1047    10.1635   111.9685     8.0260     0.0016     0.1224     2.4370
  192.5000    10.0940    10.1955   112.3899     8.0261     0.0030     0.1210     2.4436
  193.0000    10.0819    10.2275   113.1192     8.0254     0.0023     0.1198     2.4465
  193.5000     9.9300    10.2703   113.8488     7.9976     0.0014     0.1198     2.4450
  194.0000     9.7871     9.9897   114.5618     7.9677     0.0006     0.1208     2.4432
  194.5000     9.5856     9.5862   116.8986     7.9378    -0.0002     0.1221     2.4408
  195.0000     9.3277     9.1991   119.7550     7.9080    -0.0010     0.1235     2.4342
  195.5000     9.0767     8.8275   122.6590     7.8779    -0.0018     0.1248     2.4272
  196.0000     8.8324     8.4526   121.0612     7.8477    -0.0020     0.1258     2.4257
  196.5000     8.7247     8.4580   118.7666     7.8461    -0.0027     0.1250     2.4271
  197.0000     8.6592     8.2871   117.1316     7.8463    -0.0021     0.1238     2.4324
  197.5000     8.5942     8.1663   119.1832     7.8463    -0.0004     0.1210     2.4408
  198.0000     8.5296     8.0735   123.0042     7.8444     0.0014     0.1181     2.4497
  198.5000     8.4559     8.0735   126.8617     7.8423     0.0031     0.1150     2.4586
  199.0000     8.5027     8.3641   127.7813     7.8403     0.0049     0.1118     2.4668
  199.5000     8.5582     8.5724   126.0356     7.8382     0.0037     0.1121     2.4653
  200.0000     8.6141     8.7858   124.8656     7.8361     0.0022     0.1132     2.4635
  200.5000     8.6703     9.0220   125.8968     7.8341     0.0007     0.1142     2.4625
  201.0000     8.7267     8.9315   125.0833     7.8320     0.0000     0.1127     2.4656
  201.5000     8.7801     8.8084   124.2675     7.8298     0.0000     0.1097     2.4697
  202.0000     8.8104     8.6869   123.6440     7.8279     0.0000     0.1070     2.4735
  202.5000     8.8413     8.6139   125.2595     7.8323     0.0000     0.1091     2.4718
  203.0000     8.8723     8.8236   126.7688     7.8582     0.0000     0.1111     2.4682
  203.5000     8.9034     8.9773   124.8082     7.8831     0.0000     0.1122     2.4655
  204.0000     8.9330     9.1337   120.5368     7.9078     0.0000     0.1122     2.4656
  204.5000     9.0822     9.2928   116.2221     7.9265     0.0000     0.1122     2.4655
  205.0000     9.2496     9.4547   113.9056     7.9262     0.0000     0.1105     2.4679
  205.5000     9.4212     9.6194   114.0565     7.9262     0.0000     0.1085     2.4713
  206.0000     9.5372     9.7870   116.3811     7.9261     0.0000     0.1065     2.4748
  206.5000     9.5652     9.8970   120.1082     7.9229    -0.0003     0.1045     2.4783
  207.0000     9.6029     9.9251   123.7525     7.9075    -0.0007     0.1066     2.4782
  207.5000     9.7154     9.9544   127.4125     7.8925    -0.0012     0.1094     2.4720
