~VERSION INFORMATION
 VERS.                2.0:   CWLS LOG ASCII STANDARD - VERSION 2.0
 WRAP.                 NO:   ONE LINE PER DEPTH STEP
~WELL INFORMATION
#MNEM.UNIT      DATA TYPE    INFORMATION
#----------   ------------   ------------------------------
 STRT.F           80.0000:   START DEPTH
 STOP.F          964.0000:   STOP DEPTH
 STEP.F            0.5000:   STEP LENGTH
 NULL.          -999.2500:   NO VALUE
 COMP. U S NAVY-INTEX OIL:   COMPANY
 WELL. N.P.R. #3` #57-S-2:   WELL
 FLD .        TEAPOT DOME:   FIELD
 LOC .       S2 T38N R78W:   LOCATION
 CNTY.            NATRONA:   COUNTY
 STAT.            WYOMING:   STATE
 CTRY. UNITED STATES OF AMERICA:   COUNTRY
 SRVC.       Schlumberger:   SERVICE COMPANY
 DATE.        04-AUG-1961:   LOGDATE
 API .       490250640500:   API NUMBER
~CURVE INFORMATION
#MNEM.UNIT       API CODE    CURVE DESCRIPTION
#----------   ------------   ------------------------------
 DEPT.F                  :   
 GR  .GAPI   30 310 01 00:   GAMMA RAY
 ASN .OHMM   05 041 16 00:   AMPLIFIED SHORT NORMAL 16"
 CILD.MMHO   05 110 46 00:   CONDUCTIVITY INDUCTION LOG DEEP
 ILD .OHMM   05 120 46 00:   INDUCTION LOG DEEP
 SPR .MV     05 010 01 00:   SPONTANEOUS POTENTIAL FROM RES.
~PARAMETER INFORMATION
#MNEM.UNIT          VALUE    DESCRIPTION
#----------   ------------   ------------------------------
 LMF .                 KB:   LOG MEASURED FROM
 DMF .                 KB:   DRILLING MEASURED FROM
 EKB .F              5205:   KELLING BUSHING
 EGL .F              5200:   GROUND LEVEL
 DATE.        04-AUG-1961:   RUN DATE
 RUN .                  1:   RUN NUMBER
 DD  .F               965:   DEPTH DRILLER
 DL  .F               965:   DEPTH LOGGER
 BLI .F               954:   BOTTOM LOG INTERVAL
 TLI .F               150:   TOP LOG INTERVAL
 BS  .IN             6.75:   BIT SIZE
 BSD .F               965:   BIT SIZE AT DEPTH
 DFT .       OIL EMULSION:   DRILLING FLUID TYPE
 DFD .                9.4:   DRILLING FLUID DENSITY
 DFV .                 65:   DRILLING FLUID VISCOSITY
 MSS .           FLOWLINE:   MUD SAMPLE SOURCE
 RMS .OHMM            1.0:   RESISTIVITY MUD SAMPLE
 MST .F                80:   MUD SAMPLE TEMPERATURE
 TCS .HRS               1:   TIME CURCULATED STOPPED
 LUN .               2544:   LOGGING UNIT NUMBER
 LUL .                 NC:   LOGGING UNIT LOCATION
 ENGI.            EARNEST:   RECORDING ENGINEER
 WITN.          JORGENSEN:   WITNESSED BY
 CLNT.            A2DTECH:   CLIENT CODE
 ORIG.        2" 5" PRINT:   ORIGIN OF DATA
 UWI .       490250640500:   UNIQUE WELL ID
 DICO. A2D Technologies, Inc.:   DIGITIZING COMPANY
~OTHER INFORMATION
~A   DEPT       GR        ASN       CILD        ILD        SPR   
# ...
  141.0000  -999.2500     7.4535   150.4189     7.1401   -61.3666
  141.5000  -999.2500     7.4866   150.4054     7.1408   -61.3644
  142.0000  -999.2500     7.5420   150.3904     7.2229   -61.1227
  142.5000  -999.2500     7.6189   150.3726     7.2931   -60.8793
  143.0000  -999.2500     7.6848   150.3604     7.3931   -60.6123
  143.5000  -999.2500     7.7578   148.8433     7.4451   -60.3924
  144.0000  -999.2500     7.8440   148.8288     7.4458   -60.1490
  144.5000  -999.2500     7.9286   147.3123     7.4465   -59.8602
  145.0000  -999.2500     8.0239   147.2954     7.4474   -59.8112
  145.5000  -999.2500     7.9665   146.6517     7.4044   -59.8561
  146.0000  -999.2500     7.8071   144.2643     7.4488   -59.8540
  146.5000  -999.2500     7.4718   143.2583     7.4992   -59.8517
  147.0000  -999.2500     6.0185   142.3123     7.6009   -59.9982
  147.5000  -999.2500     3.3754   141.2153     7.6770   -60.1453
  148.0000  -999.2500     1.5235   138.1982     7.7530   -60.4412
  148.5000  -999.2500     0.2532   137.9730     7.7643   -60.6311
  149.0000  -999.2500     2.9655   136.6644     7.8299   -60.7351
  149.5000  -999.2500     5.6473   135.1501     7.9059   -60.5833
  150.0000  -999.2500     8.1614   133.6336     7.9066   -60.4322
  150.5000  -999.2500     8.3316   132.6877     8.0580   -60.1319
  151.0000  -999.2500     8.4012   132.1021     8.0768   -59.9803
  151.5000  -999.2500     8.4423   132.0858     8.1349   -59.7765
  152.0000  -999.2500     8.4837   132.0721     8.2108   -59.5290
  152.5000  -999.2500     8.5249   130.5555     8.2191   -59.5268
  153.0000  -999.2500     8.5553   130.5379     8.3631   -59.5246
  153.5000  -999.2500     8.5821   132.0270     8.3637   -59.6711
  154.0000  -999.2500     8.5965   132.0116     8.3645   -59.8847
  154.5000  -999.2500     8.6126   131.9970     8.3652   -59.9747
  155.0000  -999.2500     8.6279   133.7838     8.3660   -60.4094
  155.5000  -999.2500     8.6030   136.4698     8.3668   -60.5570
  156.0000  -999.2500     8.5537   138.6186     8.2590   -60.7033
  156.5000  -999.2500     8.4656   141.1262     8.2131   -60.9305
  157.0000  -999.2500     8.3447   143.9339     8.1431   -61.1463
  157.5000  -999.2500     8.2108   146.9247     8.0684   -61.1435
  158.0000  -999.2500     8.1179   148.4077     8.0693   -61.1416
  158.5000  -999.2500     8.0459   149.8949     7.9194   -60.9903
  159.0000  -999.2500     8.0174   153.1231     7.8328   -60.9881
  159.5000  -999.2500     7.9644   155.8688     7.6198   -61.0229
  160.0000  -999.2500     7.7638   157.0571     7.4096   -61.1326
  160.5000  -999.2500     7.6363   158.8440     7.2417   -61.2027
  161.0000  -999.2500     7.5490   158.8288     6.9985   -61.3080
  161.5000  -999.2500     7.3761   158.8138     6.6995   -61.7217
  162.0000  -999.2500     7.2978   158.7977     6.5693   -61.9195
  162.5000  -999.2500     7.2565   158.0330     6.6830   -61.8666
  163.0000  -999.2500     7.2425   155.7658     6.8057   -61.8644
  163.5000  -999.2500     7.2428   155.7483     6.8729   -61.8621
  164.0000  -999.2500     7.2431   155.7357     6.8735   -61.8596
  164.5000  -999.2500     7.2433   154.2190     6.8743   -62.2201
  165.0000  -999.2500     7.2436   154.2042     6.8750   -62.4665
  165.5000  -999.2500     7.2440   154.1892     6.7839   -62.8470
  166.0000  -999.2500     7.1908   155.6742     6.6507   -63.1287
  166.5000  -999.2500     7.0324   160.0450     6.5068   -63.4879
  167.0000  -999.2500     6.7746   166.5165     6.3509   -63.6349
  167.5000  -999.2500     6.6352   173.6459     6.3742   -63.6326
  168.0000  -999.2500     6.5130   178.6186     6.1024   -63.6301
  168.5000  -999.2500     6.4235   182.6271     5.9767   -63.6282
  169.0000  -999.2500     6.2298   184.1141     5.8268   -63.4769
  169.5000  -999.2500     6.0207   183.8288     5.8276   -63.3830
  170.0000  -999.2500     6.0130   181.0792     5.9790   -63.2538
  170.5000  -999.2500     6.1259   179.5646     6.1619   -62.8739
  171.0000  -999.2500     6.4051   177.9880     6.2846   -62.7228
  171.5000  -999.2500     6.5991   176.5315     6.4074   -62.4093
  172.0000  -999.2500     6.6288   176.5165     6.4336   -62.2708
  172.5000  -999.2500     6.5377   176.5006     6.2839   -62.2690
  173.0000  -999.2500     6.5787   175.7057     6.2846   -62.4157
  173.5000  -999.2500     6.6210   174.9700     6.2854   -62.7953
  174.0000  -999.2500     6.6511   174.9527     6.2863   -63.0343
  174.5000  -999.2500     6.6664   176.4414     6.2869   -63.3030
  175.0000  -999.2500     6.6555   176.4264     6.4383   -63.5122
  175.5000  -999.2500     6.5202   177.9129     6.4390   -63.5969
  176.0000  -999.2500     6.4853   179.4016     6.4217   -63.5946
  176.5000  -999.2500     6.4949   182.3861     6.2900   -63.5924
  177.0000  -999.2500     6.5034   183.0931     6.1792   -63.5900
  177.5000  -999.2500     6.5038   183.8598     6.1333   -63.5879
  178.0000  -999.2500     6.5040   183.8412     6.0663   -63.5857
  178.5000  -999.2500     6.4745   183.3183     6.0173   -63.5831
  179.0000  -999.2500     6.4282   182.3119     6.0678   -63.3780
  179.5000  -999.2500     6.3229   181.4264     6.1438   -63.1319
  180.0000  -999.2500     6.3558   179.2793     6.2349   -62.8912
  180.5000  -999.2500     6.4348   179.2626     6.2960   -62.4988
  181.0000  -999.2500     6.5078   178.5886     6.2967   -62.2308
  181.5000  -999.2500     6.5808   177.7327     6.2974   -62.2288
  182.0000  -999.2500     6.6260   179.2163     6.2983   -62.3974
  182.5000  -999.2500     6.6263   179.2042     6.2989   -62.9690
  183.0000  -999.2500     6.6037   179.1884     6.2997   -63.3577
  183.5000  -999.2500     6.5775   180.7959     6.2598   -63.8591
  184.0000  -999.2500     6.4927   182.4024     6.1386   -64.3179
  184.5000  -999.2500     6.3946   183.6487     6.0009   -64.7981
  185.0000  -999.2500     6.2982   183.6336     5.8509   -65.1934
  185.5000  -999.2500     6.2258   183.6186     5.8517   -65.4004
  186.0000  -999.2500     6.1644   183.6036     5.8524   -65.6393
  186.5000  -999.2500     6.1468   183.1982     5.8923   -65.7832
  187.0000  -999.2500     6.2556   182.0710     6.0046   -65.7427
  187.5000  -999.2500     6.3490   179.0541     6.1182   -65.4805
  188.0000  -999.2500     6.4054   178.8589     6.2410   -65.2558
  188.5000  -999.2500     6.4356   176.0186     6.3834   -64.8467
  189.0000  -999.2500     6.4508   173.9639     6.4111   -64.4303
  189.5000  -999.2500     6.4752   172.9878     6.4601   -64.0785
  190.0000  -999.2500     6.5356   170.5706     6.3102   -63.8301
  190.5000  -999.2500     6.6909   166.9519     6.3863   -63.9151
  191.0000  -999.2500     6.7282   165.4339     6.4624   -64.1240
  191.5000  -999.2500     6.7378   166.1111     6.4631   -64.2702
  192.0000  -999.2500     6.7516   167.1471     6.4639   -64.4829
  192.5000  -999.2500     6.7719   171.3936     6.4647   -64.7132
  193.0000  -999.2500     6.7970   173.8439     6.4413   -65.0085
  193.5000  -999.2500     6.8297   178.8733     6.3155   -65.0507
  194.0000  -999.2500     6.8574   185.0450     6.4006   -65.1535
  194.5000  -999.2500     6.5438   189.6246     6.3788   -65.1513
  195.0000  -999.2500     6.3677   193.8420     6.1673   -65.2983
  195.5000  -999.2500     6.4248   195.9609     6.0610   -65.2955
  196.0000  -999.2500     6.4252   196.8172     5.8614   -65.1446
  196.5000  -999.2500     6.2682   196.8018     5.7176   -64.9933
  197.0000  -999.2500     6.0819   196.7868     5.6429   -64.9911
  197.5000  -999.2500     6.0092   195.2693     5.7945   -64.8038
  198.0000  -999.2500     6.0729   192.1922     5.8705   -64.6883
  198.5000  -999.2500     6.1426   189.0240     6.0218   -64.6150
  199.0000  -999.2500     6.2004   187.7155     6.0980   -64.3716
  199.5000  -999.2500     6.2648   184.1292     6.0986   -64.0853
  200.0000  -999.2500     6.3976   181.6817     6.1747   -64.0833
  200.5000  -999.2500     6.3828   177.9955     6.1140   -64.0805
  201.0000  -999.2500     6.3791   174.3093     6.1008   -64.2264
  201.5000  -999.2500     6.3981   172.6034     6.1017   -64.5355
