~VERSION INFORMATION
 VERS.                2.0:   CWLS LOG ASCII STANDARD - VERSION 2.0
 WRAP.                 NO:   ONE LINE PER DEPTH STEP
~WELL INFORMATION
#MNEM.UNIT      DATA TYPE    INFORMATION
#----------   ------------   ------------------------------
 STRT.F           20.0000:   START DEPTH
 STOP.F          546.0000:   STOP DEPTH
 STEP.F            0.5000:   STEP LENGTH
 NULL.          -999.2500:   NO VALUE
 COMP. LAWRENCE/ALLISON INC:   COMPANY
 WELL.   83-61 STX #10-10:   WELL
 FLD .             TEAPOT:   FIELD
 LOC .      S10 T38N R78W:   LOCATION
 CNTY.            NATRONA:   COUNTY
 STAT.            WYOMING:   STATE
 CTRY. UNITED STATES OF AMERICA:   COUNTRY
 SRVC.           Gearhart:   SERVICE COMPANY
 DATE.        09-JUN-1987:   LOGDATE
 API .       490251113100:   API NUMBER
~CURVE INFORMATION
#MNEM.UNIT       API CODE    CURVE DESCRIPTION
#----------   ------------   ------------------------------
 DEPT.F                  :   
 GRR .GAPI   07 310 01 00:   GAMMA RAY FROM RES. LOG.
 RILD.OHMM   07 120 46 00:   INDUCTION LOG DEEP RESISTIVITY
 RILM.OHMM   07 120 44 00:   INDUCTION LOG MEDIUM RESISTIVITY
 RLL .OHMM   07 220 00 00:   LATEROLOG RESISTIVITY
~PARAMETER INFORMATION
#MNEM.UNIT          VALUE    DESCRIPTION
#----------   ------------   ------------------------------
 PD  .                 GL:   PERMANENT DATUM
 EPD .F              5163:   ELEVATION PERMANENT DATUM
 LMF .                 KB:   LOG MEASURED FROM
 DAPD.F                 8:   FEET ABOVE PERMANENT DATUM
 DMF .                 KB:   DRILLING MEASURED FROM
 EKB .F              5171:   KELLING BUSHING
 EDF .F              5169:   DRILLING FLOOR
 EGL .F              5163:   GROUND LEVEL
 DATE.             6-9-87:   RUN DATE
 RUN .                  1:   RUN NUMBER
 DD  .F             552.5:   DEPTH DRILLER
 DL  .F               549:   DEPTH LOGGER
 BLI .F               546:   BOTTOM LOG INTERVAL
 TLI .F                49:   TOP LOG INTERVAL
 CS  .IN             8.62:   CASING SIZE
 CBD .F                50:   CASING BOTTOM DRILLER
 CBL .F                46:   CASING BOTTOM LOGGER
 BS  .IN             7.87:   BIT SIZE
 BSD .F             552.5:   BIT SIZE AT DEPTH
 DFT .                MUD:   DRILLING FLUID TYPE
 TCS .HRS            0300:   TIME CURCULATED STOPPED
 TLAB.HRS            0400:   TIME LOGGER AT BOTTOM
 LUN .               7597:   LOGGING UNIT NUMBER
 LUL .           GILLETTE:   LOGGING UNIT LOCATION
 ENGI.           JOHNSTON:   RECORDING ENGINEER
 WITN.             STRONG:   WITNESSED BY
 CLNT.            A2DTECH:   CLIENT CODE
 ORIG.       2", 5" PRINT:   ORIGIN OF DATA
 UWI .       490251113100:   UNIQUE WELL ID
 DICO. A2D Technologies, Inc.:   DIGITIZING COMPANY
~OTHER INFORMATION
~A   DEPT       GRR      RILD       RILM        RLL   
# ...
  239.0000    88.8271     7.2087     6.8271     7.8865
  239.5000    86.3550     7.3828     7.0980     8.0351
  240.0000    87.8437     7.5449     7.3873     8.1866
  240.5000    90.5861     7.6354     7.8587     8.3408
  241.0000    91.4490     7.7270     7.9607     8.4549
  241.5000    90.7279     7.8197     8.0645     8.5025
  242.0000    89.1628     7.9136     8.1687     8.5504
  242.5000    89.3725     8.0086     8.2747     8.5980
  243.0000    90.4608     8.1046     8.3821     8.7117
  243.5000    91.5790     8.2019     8.4909     8.8258
  244.0000    91.4583     8.2857     8.5980     8.9417
  244.5000    90.5740     8.3202     8.6172     9.0585
  245.0000    89.6722     8.3548     8.6359     9.1018
  245.5000    88.7620     8.3895     8.6547     9.1179
  246.0000    87.9747     8.4242     8.6735     9.1540
  246.5000    89.1773     8.4364     8.6923     9.1878
  247.0000    90.4217     8.4364     8.7112     9.2263
  247.5000    91.6839     8.4365     8.7301     9.2702
  248.0000    94.0302     8.4364     8.7490     9.3145
  248.5000    94.4407     8.4364     8.7680     9.3643
  249.0000    92.6142     8.4364     8.7871     9.3188
  249.5000    90.7972     8.4364     8.8061     9.2676
  250.0000    89.7207     8.4364     8.8250     9.2167
  250.5000    93.3112     8.4364     8.8462     9.1660
  251.0000    90.4267     8.4362     8.7951     9.1157
  251.5000    86.4056     8.4360     8.7392     9.0548
  252.0000    84.1801     8.3812     8.6837     8.9901
  252.5000    84.4800     8.3222     8.6285     8.9258
  253.0000    85.3938     8.2635     8.5737     8.8621
  253.5000    86.3187     8.2052     8.5192     8.7987
  254.0000    87.4044     8.1479     8.4651     8.7359
  254.5000    89.3420     8.0882     8.4113     8.6735
  255.0000    91.2976     7.9985     8.3568     8.6115
  255.5000    93.1474     7.9088     8.0169     8.3981
  256.0000    92.1680     7.8199     7.6826     8.1490
  256.5000    91.0474     7.5456     7.3632     7.9074
  257.0000    89.9754     7.2800     7.0564     7.6729
  257.5000    89.5722     7.0295     6.7628     7.4454
  258.0000    89.1904     6.7847     6.2174     7.1594
  258.5000    89.4152     6.4448     5.5738     6.8043
  259.0000    90.1206     5.5715     4.9968     6.4606
  259.5000    91.2028     4.8648     4.3631     5.9801
  260.0000    93.0964     4.2553     3.7915     5.4541
  260.5000    94.2990     3.7240     3.2947     4.9744
  261.0000    93.4041     3.2591     3.0162     4.5365
  261.5000    91.6531     3.0906     2.8328     4.1359
  262.0000    89.4116     2.9718     2.6605     3.8368
  262.5000    85.4848     2.9437     2.5173     3.8395
  263.0000    81.6848     2.9936     2.5042     3.8395
  263.5000    77.7538     3.0576     2.6501     3.9866
  264.0000    77.9624     3.2892     2.9408     4.3459
  264.5000    83.4661     3.6818     3.2934     4.7735
  265.0000    89.0767     4.1729     3.7846     5.2431
  265.5000    94.6497     4.7295     4.3903     5.7590
  266.0000    95.2012     5.3586     5.0958     6.3256
  266.5000    94.9321     5.7752     5.9362     6.7112
  267.0000    94.2878     5.9024     6.2823     6.9285
  267.5000    93.6468     6.0727     6.6589     7.1123
  268.0000    93.0050     6.2494     6.6547     7.0653
  268.5000    92.3629     6.2999     6.6564     7.0257
  269.0000    91.7141     6.3214     6.6557     6.9778
  269.5000    91.4204     6.3471     6.6554     6.9776
  270.0000    91.1417     6.3307     6.6554     7.0536
  270.5000    94.1911     6.3105     6.3608     7.1773
  271.0000    97.8334     6.2904     6.0846     7.3176
  271.5000   100.8399     6.2872     5.8204     7.3176
  272.0000   101.6061     6.0240     5.5677     6.6823
  272.5000   100.8780     5.7821     5.3259     6.2112
  273.0000    99.4632     5.5500     5.0947     5.7732
  273.5000    97.4644     5.3271     4.8734     5.5578
  274.0000    95.2575     5.2503     4.5974     5.5578
  274.5000    93.2121     5.2503     4.7450     5.7283
  275.0000    92.3863     5.4741     4.9686     5.9269
  275.5000    92.4271     5.6875     5.2027     6.1325
  276.0000    95.3270     5.9092     5.4478     6.3477
  276.5000   100.1728     6.1490     5.7044     6.6214
  277.0000   104.1810     6.4682     6.0015     6.9342
  277.5000   101.4169     6.8041     6.3750     7.2607
  278.0000    97.0038     7.1573     6.7719     7.6019
  278.5000    93.0017     7.3785     7.1934     7.9595
  279.0000    92.9949     7.5586     7.6215     8.1223
  279.5000    94.7383     7.7410     7.8945     8.2939
  280.0000    96.4524     7.9697     7.9066     8.5161
  280.5000    98.0676     7.9568     7.9224     8.4605
  281.0000    96.9400     7.9402     7.9382     8.3898
  281.5000    95.7182     7.9241     7.9540     8.3193
  282.0000    96.3849     7.8989     7.9697     8.2456
  282.5000    97.2431     7.9003     7.8603     8.1671
  283.0000    97.5446     7.6309     7.7537     8.0894
  283.5000    96.4807     7.4514     7.6485     7.9904
  284.0000    95.4467     7.2754     7.5447     7.8641
  284.5000    94.4055     7.1035     7.4424     7.7397
  285.0000    93.7918     6.9361     7.3114     7.6174
  285.5000    93.3334     6.7819     7.1476     7.4970
  286.0000    95.2850     6.6396     6.9876     7.3784
  286.5000    98.2532     6.5074     6.8312     7.2618
  287.0000   101.2633     6.3783     6.5054     7.1470
  287.5000   104.2385     6.2517     6.1213     6.8275
  288.0000   106.7041     6.1276     5.7600     6.4374
  288.5000   107.5007     5.9960     5.4200     6.1108
  289.0000   106.3467     5.9557     5.2007     6.0928
  289.5000   101.4777     5.9120     5.4861     6.0531
  290.0000    96.4621     5.8833     5.9048     6.6383
  290.5000    93.9623     6.2717     6.3554     7.2546
  291.0000    92.7956     6.5782     6.8405     7.8417
  291.5000    95.0530     6.9025     7.3626     7.9835
  292.0000    97.9816     7.1775     7.6288     8.0619
  292.5000   100.9368     7.4468     7.7062     8.1061
  293.0000   103.8279     7.6789     7.7840     8.1505
  293.5000   104.8167     7.7109     7.8627     8.1951
  294.0000   105.4357     7.7431     7.9422     8.2400
  294.5000   104.6856     7.7750     8.0226     8.2852
  295.0000   103.1521     7.8081     8.1038     8.3301
  295.5000   101.5955     7.9137     8.1857     8.3963
  296.0000   100.0417     8.0664     8.2463     8.4890
  296.5000    98.5791     8.2222     8.3028     8.5834
  297.0000    98.1790     8.4361     8.3599     8.6788
  297.5000    97.8196     8.3925     8.4379     8.7747
  298.0000    97.4492     8.3230     8.3738     8.8462
  298.5000    97.4936     8.2550     8.2424     8.7354
  299.0000    97.7183     8.1876     8.1117     8.6488
  299.5000    97.9479     8.1208     7.9835     8.5631
  300.0000    98.1768     8.0545     7.8574     8.4783
  300.5000    98.4075     7.9697     7.7332     8.4364
  301.0000    98.8552     8.0216     7.6730     8.4869
  301.5000    99.8270     8.0956     7.7902     8.5429
  302.0000   100.7766     8.1702     7.8302     8.5993
  302.5000   101.3585     8.2455     7.8703     8.6561
  303.0000   101.0675     8.3568     7.9106     8.7133
  303.5000   100.7977     8.3005     7.9697     8.7627
  304.0000   100.6106     8.1969     7.8589     8.6596
  304.5000   100.6126     8.0946     7.6596     8.5518
  305.0000   100.6238     7.9936     7.4654     8.4462
  305.5000   101.3105     7.9697     7.2760     8.3556
  306.0000   103.2933     7.7095     7.0914     8.0728
  306.5000   105.2592     7.4492     6.9116     7.7890
  307.0000   107.2227     7.1976     6.7363     7.5152
  307.5000   108.9377     6.9546     6.5654     7.3154
  308.0000   109.0602     6.7188     6.3989     7.2499
  308.5000   107.9988     6.6869     6.2366     7.2497
  309.0000   105.9237     6.6554     6.0487     7.4741
  309.5000   103.8547     6.4813     5.7574     7.8199
  310.0000   101.8044     6.2188     5.4802     7.3912
  310.5000   100.6177     5.9669     5.2162     6.8971
  311.0000   102.9736     5.8135     4.9651     6.4361
  311.5000   104.9103     5.7522     4.7259     6.0059
