~VERSION INFORMATION
 VERS.                2.0:   CWLS LOG ASCII STANDARD - VERSION 2.0
 WRAP.                 NO:   ONE LINE PER DEPTH STEP
~WELL INFORMATION
#MNEM.UNIT      DATA TYPE    INFORMATION
#----------   ------------   ------------------------------
 STRT.F            4.0000:   START DEPTH
 STOP.F          747.0000:   STOP DEPTH
 STEP.F            0.5000:   STEP LENGTH
 NULL.          -999.2500:   NO VALUE
 COMP.          U.S. NAVY:   COMPANY
 WELL. RES 3 TEAPOT DOM #61S-34:   WELL
 FLD .        TRAPOT DOME:   FIELD
 LOC .      S34 T39N R78W:   LOCATION
 CNTY.            NATRONA:   COUNTY
 STAT.            WYOMING:   STATE
 CTRY. UNITED STATES OF AMERICA:   COUNTRY
 SRVC.      NL McCullough:   SERVICE COMPANY
 DATE.        11-AUG-1961:   LOGDATE
 API .       490250656900:   API NUMBER
~CURVE INFORMATION
#MNEM.UNIT       API CODE    CURVE DESCRIPTION
#----------   ------------   ------------------------------
 DEPT.F                  :   
 GRN .GAPI   35 310 30 00:   GAMMA RAY
 NEUT.NAPI   35 330 22 00:   NEUTRON POROSITY
~PARAMETER INFORMATION
#MNEM.UNIT          VALUE    DESCRIPTION
#----------   ------------   ------------------------------
 PD  .                 GL:   PERMANENT DATUM
 EPD .F              5043:   ELEVATION PERMANENT DATUM
 LMF .                 KB:   LOG MEASURED FROM
 DAPD.F                 5:   FEET ABOVE PERMANENT DATUM
 DMF .                 KB:   DRILLING MEASURED FROM
 EKB .F              5048:   KELLING BUSHING
 EGL .F              5043:   GROUND LEVEL
 DATE.        11-AUG-1961:   RUN DATE
 RUN .                  1:   RUN NUMBER
 DD  .F               750:   DEPTH DRILLER
 DL  .F             748.5:   DEPTH LOGGER
 BLI .F               747:   BOTTOM LOG INTERVAL
 TLI .F                 0:   TOP LOG INTERVAL
 BS  .IN            7.875:   BIT SIZE
 BSD .F               750:   BIT SIZE AT DEPTH
 DFT .       OIL EMULSION:   DRILLING FLUID TYPE
 DFD .                9.5:   DRILLING FLUID DENSITY
 ENGI.            JACKSON:   RECORDING ENGINEER
 WITN.          JORGENSON:   WITNESSED BY
 CLNT.            A2DTECH:   CLIENT CODE
 ORIG.        2" 5" PRINT:   ORIGIN OF DATA
 UWI .       490250656900:   UNIQUE WELL ID
 DICO. A2D Technologies, Inc.:   DIGITIZING COMPANY
~OTHER INFORMATION
~A    DEPT       GRN     NEUT   
# ...
  611.5000     4.5697   627.0524
  612.0000     4.5765   627.0748
  612.5000     4.5249   639.1747
  613.0000     4.5325   710.1532
  613.5000     4.5330   720.7435
  614.0000     4.5057   825.6903
  614.5000     4.2983   900.4431
  615.0000     4.3374   957.0793
  615.5000     4.5333  1074.8586
  616.0000     4.7368  1079.4102
  616.5000     5.0080  1046.2190
  617.0000     5.2341  1001.7050
  617.5000     5.2718   846.2277
  618.0000     5.3021   784.8147
  618.5000     5.3776   706.2768
  619.0000     5.2572   686.1509
  619.5000     5.0240   654.5900
  620.0000     5.0090   644.7951
  620.5000     4.9866   625.9465
  621.0000     4.9566   613.8912
  621.5000     4.9417   613.9926
  622.0000     4.9587   618.4649
  622.5000     5.0769   601.1313
  623.0000     5.1681   604.1730
  623.5000     5.0026   635.1443
  624.0000     4.8597   636.6707
  624.5000     4.8447   635.1833
  625.0000     4.7922   638.9855
  625.5000     4.7020   636.7433
  626.0000     4.8000   599.0175
  626.5000     4.7475   642.8268
  627.0000     4.6949   661.7205
  627.5000     4.7101   633.8132
  628.0000     4.9286   599.1124
  628.5000     5.1848   575.6558
  629.0000     4.9812   608.9701
  629.5000     4.7779   623.3496
  630.0000     4.8062   665.6216
  630.5000     5.0649   686.0320
  631.0000     5.1780   662.1243
  631.5000     5.1857   644.5654
  632.0000     5.2536   625.6062
  632.5000     5.1484   599.2906
  633.0000     5.0054   593.9990
  633.5000     4.9604   588.6946
  634.0000     4.9379   585.0400
  634.5000     4.9984   604.6940
  635.0000     5.0889   605.4712
  635.5000     5.0815   621.3455
  636.0000     5.0590   636.4648
  636.5000     5.0140   637.2420
  637.0000     4.9312   640.2837
  637.5000     4.8687   647.0942
  638.0000     4.7961   629.7549
  638.5000     4.8716   662.2415
  639.0000     4.9771   676.6060
  639.5000     4.9698   666.0604
  640.0000     4.9097   661.5536
  640.5000     4.8646   651.7628
  641.0000     4.8271   640.4624
  641.5000     4.8046   634.4459
  642.0000     5.0533   635.4344
  642.5000     5.3547   656.7221
  643.0000     5.3774   672.2611
  643.5000     5.2947   657.9412
  644.0000     4.9937   642.1116
  644.5000     4.9712   622.5078
  645.0000     4.9563   614.2267
  645.5000     4.9730   610.4749
  646.0000     5.0244   607.4777
  646.5000     5.0170   605.9848
  647.0000     4.9720   599.2172
  647.5000     4.9270   588.6337
  648.0000     4.9949   600.8212
  648.5000     5.1004   624.9500
  649.0000     5.0479   622.7125
  649.5000     4.9728   624.2445
  650.0000     4.9459   628.7960
  650.5000     4.9168   661.9897
  651.0000     4.7923   689.1642
  651.5000     4.7773   692.9311
  652.0000     4.7774   725.3823
  652.5000     4.9883   691.4065
  653.0000     4.9658   657.4307
  653.5000     4.9508   602.3190
  654.0000     5.0187   594.0082
  654.5000     5.3049   575.1293
  655.0000     5.3125   578.8962
  655.5000     5.2952   566.8111
  656.0000     5.5235   531.9804
  656.5000     5.6064   572.8350
  657.0000     5.5387   579.6462
  657.5000     5.5084   586.8485
  658.0000     5.4711   634.3584
  658.5000     5.3469   647.1402
  659.0000     5.1913   656.5863
  659.5000     5.1551   626.3829
  660.0000     5.1175   593.1619
  660.5000     5.0950   550.1279
  661.0000     5.0875   546.3481
  661.5000     5.1704   582.5717
  662.0000     5.0726   599.9258
  662.5000     4.9371   604.4474
  663.0000     4.9221   623.3113
  663.5000     4.9298   636.1364
  664.0000     4.9976   622.5416
  664.5000     5.1257   619.5165
  665.0000     5.2462   640.6431
  665.5000     5.5099   646.6744
  666.0000     5.3895   652.0012
  666.5000     5.1185   649.6790
  667.0000     5.1185   643.4269
  667.5000     5.1111   616.3244
  668.0000     5.0810   595.3069
  668.5000     5.1769   601.6145
  669.0000     5.4886   606.6151
  669.5000     5.5729   608.8704
  670.0000     5.8118   629.9988
  670.5000     5.8269   646.5981
  671.0000     5.7818   649.6119
  671.5000     5.8270   641.2992
  672.0000     5.7895   624.6849
  672.5000     5.7218   620.1502
  673.0000     5.7971   614.8570
  673.5000     5.8424   613.3398
  674.0000     5.7371   612.5794
  674.5000     5.7221   617.8540
  675.0000     5.7221   649.5504
  675.5000     5.6921   689.5501
  676.0000     5.6319   706.9043
  676.5000     5.7148   669.1542
  677.0000     5.7224   657.7238
  677.5000     5.7602   649.4500
  678.0000     5.8883   649.5056
  678.5000     5.8732   654.3869
  679.0000     5.9863   647.2243
  679.5000     5.7968   639.6683
  680.0000     5.7907   639.6609
  680.5000     5.9481   641.1631
  681.0000     6.1372   653.9882
  681.5000     5.9039   673.6069
  682.0000     5.9039   660.0121
  682.5000     5.9642   642.6430
  683.0000     5.8664   641.1277
  683.5000     5.6933   641.8751
  684.0000     5.4825   632.8076
  684.5000     5.4826   622.2322
  685.0000     5.4827   606.3728
  685.5000     5.5430   621.4624
  686.0000     5.3774   662.9718
  686.5000     5.3850   637.2994
  687.0000     5.4152   632.0079
  687.5000     5.0087   632.0634
  688.0000     4.9636   641.0513
  688.5000     4.6323   619.2812
  689.0000     4.4667   581.4012
  689.5000     4.3910   581.3937
  690.0000     4.2761   574.5926
  690.5000     4.2636   574.5851
  691.0000     4.3875   575.3344
  691.5000     4.4897   594.9512
  692.0000     4.5274   612.3054
  692.5000     4.7609   618.3367
  693.0000     4.7911   640.2200
  693.5000     4.7761   641.7241
  694.0000     4.9494   621.3338
  694.5000     5.0398   614.5345
  695.0000     5.0851   677.9329
  695.5000     5.0927   695.2870
  696.0000     4.8066   674.1436
  696.5000     4.7389   687.7235
  697.0000     4.8369   731.6225
  697.5000     4.9650   699.9737
  698.0000     4.8521   680.9072
  698.5000     5.0480   708.7105
  699.0000     5.1309   761.6600
  699.5000     5.1460   787.3193
  700.0000     5.0407   749.7277
  700.5000     4.9781   668.9612
  701.0000     4.9127   613.6952
  701.5000     4.8901   602.3724
  702.0000     4.9428   600.8627
  702.5000     5.0105   558.5526
  703.0000     4.9923   554.7511
  703.5000     4.9038   549.4146
  704.0000     4.9503   554.8167
  704.5000     5.0934   567.6491
  705.0000     5.2816   557.0813
  705.5000     5.1536   557.0813
  706.0000     4.9578   606.1467
  706.5000     4.9880   610.6758
  707.0000     5.1386   626.5277
  707.5000     5.1235   623.5082
  708.0000     5.0858   567.6491
  708.5000     5.0557   585.0108
  709.0000     5.1160   603.1273
  709.5000     5.1687   603.8821
  710.0000     5.1516   620.9914
  710.5000     5.1084   629.8566
  711.0000     5.1160   658.2315
  711.5000     5.0482   684.6513
  712.0000     5.1235   644.6441
  712.5000     5.5000   600.1078
  713.0000     5.5828   581.9913
  713.5000     5.4774   547.2681
  714.0000     5.1913   563.1201
  714.5000     5.4699   575.1977
  715.0000     5.4096   576.7075
  715.5000     5.1386   578.9719
  716.0000     5.0934   576.6370
  716.5000     5.2535   578.2172
  717.0000     5.3343   606.9016
  717.5000     5.1386   598.1240
  718.0000     5.1084   565.3846
  718.5000     5.2666   577.4623
  719.0000     5.4849   585.7656
  719.5000     5.4473   586.5205
  720.0000     5.5301   584.2559
  720.5000     5.7786   529.9066
  721.0000     5.8991   532.1711
  721.5000     5.8840   548.7778
  722.0000     6.0798   571.4235
  722.5000     6.0346   593.3141
  723.0000     6.1199   600.8627
  723.5000     6.3769   603.1273
  724.0000     6.4337   642.4771
  724.5000     6.0120   643.8893
  725.0000     5.8765   643.1344
  725.5000     5.6355   658.2315
  726.0000     5.5527   621.9985
  726.5000     5.7259   631.0568
  727.0000     5.8840   633.3214
  727.5000     5.9593   613.6952
  728.0000     6.0346   604.6370
  728.5000     5.9970   606.9016
  729.0000     5.9367   607.6564
  729.5000     5.8464   600.8627
  730.0000     5.8554   587.2753
  730.5000     5.9571   579.7268
  731.0000     5.8840   600.8724
  731.5000     5.8539   603.1273
  732.0000     5.8614   603.1273
  732.5000     5.9593   603.1273
