~VERSION INFORMATION
 VERS.                2.0:   CWLS LOG ASCII STANDARD - VERSION 2.0
 WRAP.                 NO:   ONE LINE PER DEPTH STEP
~WELL INFORMATION
#MNEM.UNIT      DATA TYPE    INFORMATION
#----------   ------------   ------------------------------
 STRT.F           70.0000:   START DEPTH
 STOP.F          806.0000:   STOP DEPTH
 STEP.F            0.5000:   STEP LENGTH
 NULL.          -999.2500:   NO VALUE
 COMP. U S NAVY/INTEX OIL CO:   COMPANY
 WELL. RES 3 TEAPOT DOME #33-S-2:   WELL
 FLD .             TEAPOT:   FIELD
 LOC .       S2 T38N R78W:   LOCATION
 CNTY.            NATRONA:   COUNTY
 STAT.            WYOMING:   STATE
 CTRY. UNITED STATES OF AMERICA:   COUNTRY
 SRVC.         Lane Wells:   SERVICE COMPANY
 DATE.        15-MAR-1980:   LOGDATE
 API .       490250644600:   API NUMBER
~CURVE INFORMATION
#MNEM.UNIT       API CODE    CURVE DESCRIPTION
#----------   ------------   ------------------------------
 DEPT.F                  :   
 GR  .GAPI   30 310 01 00:   GAMMA RAY
 SPR .MV     05 010 01 00:   SPONTANEOUS POTENTIAL FROM RES.
 CILD.MMHO   05 110 46 00:   CONDUCTIVITY INDUCTION LOG DEEP
 ASN .OHMM   05 041 16 00:   AMPLIFIED SHORT NORMAL 16"
 ILD .OHMM   05 120 46 00:   INDUCTION LOG DEEP
~PARAMETER INFORMATION
#MNEM.UNIT          VALUE    DESCRIPTION
#----------   ------------   ------------------------------
 PD  .                 GL:   PERMANENT DATUM
 EPD .F              5119:   ELEVATION PERMANENT DATUM
 LMF .                 KB:   LOG MEASURED FROM
 DAPD.F                 5:   FEET ABOVE PERMANENT DATUM
 DMF .                 KB:   DRILLING MEASURED FROM
 EKB .F              5124:   KELLING BUSHING
 EGL .F              5119:   GROUND LEVEL
 DATE.            3-15-60:   RUN DATE
 RUN .                  1:   RUN NUMBER
 DD  .F               810:   DEPTH DRILLER
 DL  .F               808:   DEPTH LOGGER
 BLI .F               806:   BOTTOM LOG INTERVAL
 TLI .F                70:   TOP LOG INTERVAL
 CS  .IN            8.625:   CASING SIZE
 CBD .F                12:   CASING BOTTOM DRILLER
 BS  .IN            7.875:   BIT SIZE
 BSD .F               810:   BIT SIZE AT DEPTH
 DFT .   GEL/OIL EMULSION:   DRILLING FLUID TYPE
 DFD .                6.8:   DRILLING FLUID DENSITY
 DFV .                 34:   DRILLING FLUID VISCOSITY
 DFPH.                7.6:   DRILLING FLUID PH
 DFL .                9.4:   DRILLING FLUID LOSS
 MSS .           FLOWLINE:   MUD SAMPLE SOURCE
 RMS .OHMM            4.2:   RESISTIVITY MUD SAMPLE
 MST .F                65:   MUD SAMPLE TEMPERATURE
 RMF .OHMM            3.3:   RESISTIVITY MUD FILTRATE SAMPLE
 MFST.F                68:   MUD FILTRATE SAMPLE TEMPERATURE
 RMC .OHMM              4:   RESISTIVITY MUD CAKE
 MCST.F                68:   MUD CAKE SAMPLE TEMPERATURE
 MFSS.                MUD:   MUD FILTRATE SAMPLE SOURCE
 MCSS.              PRESS:   MUD CAKE SAMPLE SOURCE
 RMB .OHMM            3.9:   RESISTIVITY MUD AT BHT
 BHT .F                71:   BOTTOM HOLE TEMPERATURE
 MRT .F                71:   MAXIMUM RECORDED TEMPERATURE
 LUN .             L-4474:   LOGGING UNIT NUMBER
 LUL .             CASPER:   LOGGING UNIT LOCATION
 ENGI.      GRIGGS/NELSON:   RECORDING ENGINEER
 WITN.   JORGENSEN/HUDSON:   WITNESSED BY
 CLNT.            A2DTECH:   CLIENT CODE
 ORIG. 1", 2.5", 5" PRINT:   ORIGIN OF DATA
 UWI .       490250644600:   UNIQUE WELL ID
 DICO. A2D Technologies, Inc.:   DIGITIZING COMPANY
~OTHER INFORMATION
~A   DEPT       GR        SPR        CILD         ASN        ILD 
# ...
  375.0000  -999.2500   -31.4350    29.0832     9.5457     8.5814
  375.5000  -999.2500   -31.4979    28.4390     9.6648     8.6503
  376.0000  -999.2500   -31.6544    27.7949     9.7048     8.6892
  376.5000  -999.2500   -31.8499    27.1508     9.6863     8.7098
  377.0000  -999.2500   -32.0352    26.5067     9.6771     8.7353
  377.5000  -999.2500   -32.1663    25.7515     9.6980     8.7682
  378.0000  -999.2500   -32.2854    24.6227     9.7023     8.7932
  378.5000  -999.2500   -32.5062    23.2586     9.6993     8.8139
  379.0000  -999.2500   -32.7625    21.8946     9.8340     8.8613
  379.5000  -999.2500   -32.7417    20.5306    10.2345     8.9560
  380.0000  -999.2500   -32.3204    19.1666    10.8010     9.0825
  380.5000  -999.2500   -31.8853    17.8025    11.2728     9.2117
  381.0000  -999.2500   -31.8912    16.4385    11.5173     9.3347
  381.5000  -999.2500   -32.2426    15.0745    11.6386     9.4577
  382.0000  -999.2500   -32.4608    13.7105    11.7821     9.5821
  382.5000  -999.2500   -32.3441    12.3465    11.9619     9.7060
  383.0000  -999.2500   -32.1035    10.9824    12.1284     9.8323
  383.5000  -999.2500   -31.9246     9.6184    12.2820     9.9594
  384.0000  -999.2500   -31.7570     8.2544    12.4442    10.0791
  384.5000  -999.2500   -31.5543     6.8904    12.6045    10.1984
  385.0000  -999.2500   -31.4191     5.5264    12.7601    10.3339
  385.5000  -999.2500   -31.4305     4.1623    12.9349    10.4677
  386.0000  -999.2500   -31.5166     2.9058    13.1087    10.5425
  386.5000  -999.2500   -31.5821     2.9058    13.1973    10.5278
  387.0000  -999.2500   -31.6354     2.9058    13.1543    10.4612
  387.5000  -999.2500   -31.7076     2.8841    13.0365    10.3989
  388.0000  -999.2500   -31.7521     3.5108    12.9256    10.3527
  388.5000  -999.2500   -31.7391     4.0693    12.8371    10.3037
  389.0000  -999.2500   -31.7805     4.6084    12.7453    10.2468
  389.5000  -999.2500   -32.0087     5.1817    12.6459    10.1926
  390.0000  -999.2500   -32.3279     5.7103    12.5475    10.1419
  390.5000  -999.2500   -32.4411     6.2896    12.4468    10.0882
  391.0000  -999.2500   -32.2157     6.6925    12.3511    10.0358
  391.5000  -999.2500   -31.8949     6.7136    12.2898     9.9965
  392.0000  -999.2500   -31.8091     6.7018    12.2740     9.9737
  392.5000  -999.2500   -31.9638     6.7028    12.2778     9.9592
  393.0000  -999.2500   -32.0835     6.7185    12.2795     9.9444
  393.5000  -999.2500   -32.0062     6.6860    12.2830     9.9265
  394.0000  -999.2500   -31.8323     6.7395    12.2854     9.9091
  394.5000  -999.2500   -31.6954     6.6643    12.2605     9.8951
  395.0000  -999.2500   -31.5908     6.7134    12.1931     9.8809
  395.5000  -999.2500   -31.4793     6.7134    12.1017     9.8618
  396.0000  -999.2500   -31.3954     6.7134    12.0135     9.8429
  396.5000  -999.2500   -31.3768     8.4840    11.9456     9.8330
  397.0000  -999.2500   -31.3928     9.7722    11.9077     9.8232
  397.5000  -999.2500   -31.3972    11.0604    11.8977     9.7884
  398.0000  -999.2500   -31.3891    12.3487    11.8979     9.7197
  398.5000  -999.2500   -31.3872    13.6369    11.8982     9.6380
  399.0000  -999.2500   -31.3917    14.3287    11.9055     9.5654
  399.5000  -999.2500   -31.3936    15.1986    11.9033     9.5008
  400.0000  -999.2500   -31.3913    15.7931    11.8436     9.4335
  400.5000  -999.2500   -31.3893    16.3877    11.7234     9.3624
  401.0000  -999.2500   -31.3908    16.9823    11.6072     9.2921
  401.5000  -999.2500   -31.3939    17.5769    11.5126     9.2231
  402.0000  -999.2500   -31.3923    18.1714    11.3450     9.1552
  402.5000  -999.2500   -31.3871    18.7660    11.0411     9.0876
  403.0000  -999.2500   -31.3910    19.3606    10.7048     9.0164
  403.5000  -999.2500   -31.4017    19.9551    10.4895     8.9397
  404.0000  -999.2500   -31.3846    20.5497    10.3966     8.8627
  404.5000  -999.2500   -31.3109    21.1443    10.2947     8.7853
  405.0000  -999.2500   -31.1968    21.9439    10.1031     8.6965
  405.5000  -999.2500   -31.0737    23.0693     9.8606     8.5958
  406.0000  -999.2500   -30.9436    24.7869     9.6290     8.4998
  406.5000  -999.2500   -30.8047    26.5046     9.4073     8.4108
  407.0000  -999.2500   -30.6940    28.2222     9.1597     8.3076
  407.5000  -999.2500   -30.6512    29.9399     8.8885     8.1922
  408.0000  -999.2500   -30.6596    31.6575     8.6563     8.1155
  408.5000  -999.2500   -30.6709    33.3752     8.5318     8.1208
  409.0000  -999.2500   -30.6682    35.0928     8.5270     8.1853
  409.5000  -999.2500   -30.6640    37.1744     8.6018     8.2545
  410.0000  -999.2500   -30.6622    35.1436     8.7189     8.3089
  410.5000  -999.2500   -30.6626    32.5671     8.8723     8.3630
  411.0000  -999.2500   -30.6697    29.5591     9.0600     8.4224
  411.5000  -999.2500   -30.6720    29.5591     9.2508     8.4808
  412.0000  -999.2500   -30.6562    29.6527     9.3978     8.5408
  412.5000  -999.2500   -30.6510    29.7631     9.4878     8.6035
  413.0000  -999.2500   -30.6842    29.8735     9.5543     8.6516
  413.5000  -999.2500   -30.6933    29.9839     9.6235     8.6687
  414.0000  -999.2500   -30.5819    30.0944     9.6710     8.6642
  414.5000  -999.2500   -30.3770    30.2048     9.6634     8.6598
  415.0000  -999.2500   -30.2137    30.3152     9.6131     8.6624
  415.5000  -999.2500   -30.1450    30.4256     9.5595     8.6648
  416.0000  -999.2500   -30.0920    30.5360     9.5195     8.6632
  416.5000  -999.2500   -30.0072    30.6465     9.4842     8.6617
  417.0000  -999.2500   -29.9573    30.7569     9.4421     8.6631
  417.5000  -999.2500   -30.0020    30.8673     9.3896     8.6644
  418.0000  -999.2500   -30.1024    30.9777     9.3409     8.6609
  418.5000  -999.2500   -30.1948    31.0882     9.3272     8.6512
  419.0000  -999.2500   -30.2689    31.1986     9.3632     8.6383
  419.5000  -999.2500   -30.3436    31.3090     9.4259     8.6255
  420.0000  -999.2500   -30.4275    31.4194     9.4876     8.6138
  420.5000  -999.2500   -30.5196    31.5298     9.5479     8.6019
  421.0000  -999.2500   -30.6041    31.6402     9.6069     8.5895
  421.5000  -999.2500   -30.6466    31.7507     9.6398     8.5774
  422.0000  -999.2500   -30.6287    31.8611     9.6277     8.5654
  422.5000  -999.2500   -30.5752    31.9715     9.5894     8.5532
  423.0000  -999.2500   -30.5247    32.0819     9.5546     8.5412
  423.5000  -999.2500   -30.4857    32.1924     9.5279     8.5294
  424.0000  -999.2500   -30.4457    32.3028     9.4994     8.5170
  424.5000  -999.2500   -30.4000    32.4132     9.4684     8.5044
  425.0000  -999.2500   -30.3538    32.5236     9.4384     8.4931
  425.5000  -999.2500   -30.3104    32.6340     9.4074     8.4824
  426.0000  -999.2500   -30.2700    32.7445     9.3842     8.4691
  426.5000  -999.2500   -30.2283    32.8549     9.3910     8.4515
  427.0000  -999.2500   -30.1799    32.9653     9.4316     8.4322
  427.5000  -999.2500   -30.1326    33.0757     9.4684     8.4139
  428.0000  -999.2500   -30.0980    33.1861     9.4519     8.3967
  428.5000  -999.2500   -30.0617    33.2966     9.3725     8.3797
  429.0000  -999.2500   -29.9998    33.3667     9.2722     8.3623
  429.5000  -999.2500   -29.9449    33.8461     9.2015     8.3441
  430.0000  -999.2500   -29.9796    34.1975     9.1695     8.3257
  430.5000  -999.2500   -30.1300    34.5488     9.1472     8.3093
  431.0000  -999.2500   -30.3211    34.9002     9.1164     8.2944
  431.5000  -999.2500   -30.4816    35.2515     9.0886     8.2768
  432.0000  -999.2500   -30.6298    35.6028     9.0679     8.2540
  432.5000  -999.2500   -30.7996    35.9542     9.0302     8.2292
  433.0000  -999.2500   -30.9434    36.3055     8.9649     8.2067
  433.5000  -999.2500   -30.9823    36.6569     8.9056     8.1861
  434.0000  -999.2500   -30.9152    37.0110     8.8889     8.1650
  434.5000  -999.2500   -30.8129    37.3638     8.9079     8.1431
  435.0000  -999.2500   -30.7252    37.7174     8.9326     8.1212
  435.5000  -999.2500   -30.6488    38.0659     8.9498     8.0993
