~VERSION INFORMATION
 VERS.                2.0:   CWLS LOG ASCII STANDARD - VERSION 2.0
 WRAP.                 NO:   ONE LINE PER DEPTH STEP
~WELL INFORMATION
#MNEM.UNIT      DATA TYPE    INFORMATION
#----------   ------------   ------------------------------
 STRT.F           20.0000:   START DEPTH
 STOP.F          488.0000:   STOP DEPTH
 STEP.F            0.5000:   STEP LENGTH
 NULL.          -999.2500:   NO VALUE
 COMP.    FENIX & SCISSON:   COMPANY
 WELL.  SX-3 NPR #3-3 #43:   WELL
 FLD .             TEAPOT:   FIELD
 LOC .       S3 T38N R78W:   LOCATION
 CNTY.            NATRONA:   COUNTY
 STAT.            WYOMING:   STATE
 CTRY. UNITED STATES OF AMERICA:   COUNTRY
 SRVC.           BIRDWELL:   SERVICE COMPANY
 DATE.        04-JAN-1978:   LOGDATE
 API .       490251044800:   API NUMBER
~CURVE INFORMATION
#MNEM.UNIT       API CODE    CURVE DESCRIPTION
#----------   ------------   ------------------------------
 DEPT.F                  :   
 ILD .OHMM   05 120 46 00:   INDUCTION LOG DEEP
 SN  .OHMM   05 040 16 00:   SHORT NORMAL 16"
 SPR .MV     05 010 01 00:   SPONTANEOUS POTENTIAL FROM RES.
 CALD.IN     45 280 60 00:   CALIPER FROM DENSITY LOG
 DPHI.DEC    45 890 12 00:   DENSITY POROSITY SANDSTONE
 DRHO.G/C3   45 356 01 00:   DENSITY CORRECTION
 GRD .GAPI   45 310 01 00:   GAMMA RAY FROM DENSITY LOG
 RHOB.G/C3   45 350 01 00:   BULK DENSITY
~PARAMETER INFORMATION
#MNEM.UNIT          VALUE    DESCRIPTION
#----------   ------------   ------------------------------
 PD  .                 GL:   PERMANENT DATUM
 LMF .                 KB:   LOG MEASURED FROM
 DAPD.F                 4:   FEET ABOVE PERMANENT DATUM
 DMF .                 KB:   DRILLING MEASURED FROM
 EKB .F              5163:   KELLING BUSHING
 EGL .F              5159:   GROUND LEVEL
 DATE.        04-JAN-1978:   RUN DATE
 RUN .                  1:   RUN NUMBER
 DD  .F               490:   DEPTH DRILLER
 DL  .F               490:   DEPTH LOGGER
 BLI .F               485:   BOTTOM LOG INTERVAL
 TLI .F                20:   TOP LOG INTERVAL
 CS  .IN            8.625:   CASING SIZE
 CBD .F                40:   CASING BOTTOM DRILLER
 CBL .F                44:   CASING BOTTOM LOGGER
 BS  .IN            7.875:   BIT SIZE
 BSD .F               490:   BIT SIZE AT DEPTH
 DFT .                KCL:   DRILLING FLUID TYPE
 DFD .                8.4:   DRILLING FLUID DENSITY
 DFV .                 32:   DRILLING FLUID VISCOSITY
 DFPH.                 11:   DRILLING FLUID PH
 DFL .                  8:   DRILLING FLUID LOSS
 MSS .                PIT:   MUD SAMPLE SOURCE
 RMS .OHMM           0.32:   RESISTIVITY MUD SAMPLE
 MST .F                62:   MUD SAMPLE TEMPERATURE
 RMF .OHMM           0.30:   RESISTIVITY MUD FILTRATE SAMPLE
 MFST.F                62:   MUD FILTRATE SAMPLE TEMPERATURE
 RMC .OHMM           0.35:   RESISTIVITY MUD CAKE
 MCST.F                62:   MUD CAKE SAMPLE TEMPERATURE
 MFSS.               MEAS:   MUD FILTRATE SAMPLE SOURCE
 MCSS.               MEAS:   MUD CAKE SAMPLE SOURCE
 RMB .OHMM           0.26:   RESISTIVITY MUD AT BHT
 BHT .F                75:   BOTTOM HOLE TEMPERATURE
 TCS .HRS               2:   TIME CURCULATED STOPPED
 MRT .F                75:   MAXIMUM RECORDED TEMPERATURE
 LUN .               2958:   LOGGING UNIT NUMBER
 LUL .             CASPER:   LOGGING UNIT LOCATION
 ENGI.             HUGHES:   RECORDING ENGINEER
 WITN.         HARRINGTON:   WITNESSED BY
 CLNT.            A2DTECH:   CLIENT CODE
 ORIG.           5" PRINT:   ORIGIN OF DATA
 UWI .       490251044800:   UNIQUE WELL ID
 DICO. A2D Technologies, Inc.:   DIGITIZING COMPANY
~OTHER INFORMATION
~A   DEPT      ILD         SN        SPR       CALD       DPHI       DRHO         GRD      RHOB   
# ...
  465.5000    16.3814    10.4735   -52.4812     8.2774     0.0932     0.0362   106.7883     2.4979
  466.0000    16.0415    10.2485   -52.3308     8.2774     0.0872     0.0400   104.7445     2.4964
  466.5000    15.9279    10.1102   -51.8797     8.2774     0.0776     0.0430   103.7226     2.5009
  467.0000    15.8147     9.9681   -51.8797     8.2774     0.0764     0.0445   104.5985     2.5129
  467.5000    15.4865     9.8962   -51.5789     8.2774     0.0920     0.0431   107.5037     2.5221
  468.0000    15.4840     9.8247   -51.8797     8.2774     0.0788     0.0379   104.8905     2.5265
  468.5000    15.0578     9.8209   -51.8797     8.2628     0.0782     0.0327   100.8029     2.5190
  469.0000    14.8474     9.8177   -50.6767     8.2628     0.0782     0.0298    99.4891     2.5131
  469.5000    14.6405     9.8145   -50.0752     8.2628     0.0811     0.0268   101.4311     2.5053
  470.0000    14.6381     9.7429   -50.0752     8.2774     0.0850     0.0246   108.1022     2.4952
  470.5000    14.4341     9.7398   -53.6842     8.2628     0.0883     0.0225   112.3358     2.4945
  471.0000    14.2324     9.7366   -53.8346     8.2628     0.0865     0.0218   116.4234     2.5035
  471.5000    14.2300     9.7811   -52.4812     8.2628     0.0856     0.0203   112.0438     2.5035
  472.0000    14.3273     9.6843   -50.6206     8.2628     0.0859     0.0188   106.3504     2.4998
  472.5000    14.2254     9.5501   -48.8722     8.2628     0.0844     0.0166   107.2263     2.4991
  473.0000    14.2225     9.4177   -48.2707     8.2628     0.0817     0.0143   113.0657     2.5037
  473.5000    14.2202     9.4161   -47.6692     8.2628     0.0793     0.0188   117.0073     2.5097
  474.0000    14.1196     9.3500   -47.0677     8.2628     0.0774     0.0315   113.4420     2.5172
  474.5000    13.8265     9.3488   -46.9173     8.2628     0.0765     0.0368  -999.2500     2.5187
  475.0000    13.8237     9.3476   -46.4662     8.2628     0.0846     0.0293  -999.2500     2.5195
  475.5000    13.4433     9.2177   -45.8461     8.2628     0.0888     0.0203  -999.2500     2.5166
  476.0000    13.3482     9.1530   -44.6617     8.2774     0.0933     0.0158  -999.2500     2.5031
  476.5000    13.0712     9.0887   -42.8571     8.2774     0.0894     0.0285  -999.2500     2.4949
  477.0000    12.8885     9.0875   -45.2632     8.2774     0.0893     0.0300  -999.2500     2.4935
  477.5000    12.7089     9.0237   -44.3609     8.2774     0.0917     0.0255  -999.2500     2.5017
  478.0000    12.7069     8.9601   -43.4586     8.2774     0.0942     0.0166  -999.2500     2.5010
  478.5000    12.6170     8.9589   -42.8571     8.2774     0.0965     0.0091  -999.2500     2.4966
  479.0000    12.4406     8.9577   -41.6541     8.2774     0.0980     0.0166  -999.2500     2.4921
  479.5000    12.3526     8.9541   -38.0451     8.2774     0.0986     0.0181  -999.2500     2.4892
  480.0000    12.1805     8.9554   -33.5338     8.2774     0.1006     0.0106  -999.2500     2.4870
  480.5000    12.0107     8.9539   -33.5338     8.2774     0.1012     0.0166  -999.2500     2.4855
  481.0000    11.6797     8.9528   -33.5338     8.2774     0.0979     0.0315  -999.2500     2.4885
  481.5000    11.5169     8.9516   -33.6842     8.2774     0.0934     0.0338  -999.2500     2.4946
  482.0000    11.2779     8.8884   -33.8346     8.2774     0.0874     0.0293  -999.2500     2.5015
  482.5000    11.0439     8.8873   -33.8346     8.2774     0.0856     0.0540  -999.2500     2.5066
  483.0000    11.3527     8.7641   -33.8346     8.2774     0.0874     0.0473  -999.2500     2.5074
  483.5000    11.3504     8.6426   -33.8346     8.2774     0.0973     0.0360  -999.2500     2.4999
  484.0000    11.6678     8.7014   -33.8346     8.2628     0.1006     0.0233  -999.2500     2.4931
  484.5000    11.6659     8.8823   -33.8346     8.2628     0.0934     0.0270  -999.2500     2.4843
  485.0000    11.6639     9.1641   -33.8346     8.2482     0.0883     0.0353  -999.2500     2.4888
  485.5000  -999.2500  -999.2500  -999.2500     8.2336     0.0862     0.0360  -999.2500     2.5016
  486.0000  -999.2500  -999.2500  -999.2500     8.2482     0.0859     0.0285  -999.2500     2.5032
  486.5000  -999.2500  -999.2500  -999.2500     8.2482     0.0855     0.0420  -999.2500     2.5054
  487.0000  -999.2500  -999.2500  -999.2500     8.2482     0.0840     0.0555  -999.2500     2.5040
  487.5000  -999.2500  -999.2500  -999.2500     8.2482     0.0804     0.0675  -999.2500     2.4988
  488.0000  -999.2500  -999.2500  -999.2500     8.2482     0.0742     0.0741  -999.2500     2.4950
