~VERSION INFORMATION
 VERS.                2.0:   CWLS LOG ASCII STANDARD - VERSION 2.0
 WRAP.                 NO:   ONE LINE PER DEPTH STEP
~WELL INFORMATION
#MNEM.UNIT      DATA TYPE    INFORMATION
#----------   ------------   ------------------------------
 STRT.F           19.5000:   START DEPTH
 STOP.F         1292.5000:   STOP DEPTH
 STEP.F            0.5000:   STEP LENGTH
 NULL.          -999.2500:   NO VALUE
 COMP. FENIX & SCISSON INC:   COMPANY
 WELL.  NPR-3 "SX" #74-14:   WELL
 FLD .             TEAPOT:   FIELD
 LOC .      S14 T38N R78W:   LOCATION
 CNTY.            NATRONA:   COUNTY
 STAT.            WYOMING:   STATE
 CTRY. UNITED STATES OF AMERICA:   COUNTRY
 SRVC.            Unknown:   SERVICE COMPANY
 DATE.        22-MAR-1978:   LOGDATE
 API .       490251060300:   API NUMBER
~CURVE INFORMATION
#MNEM.UNIT       API CODE    CURVE DESCRIPTION
#----------   ------------   ------------------------------
 DEPT.F                  :   
 SPR .MV     05 010 01 00:   SPONTANEOUS POTENTIAL
 SN  .OHMM   05 040 16 00:   SHORT NORMAL 16'
 ILD .OHMM   05 120 46 00:   INDUCTION LOG DEEP
 CALD.IN     45 280 60 00:   CALIPER
 GRD .GAPI   45 310 01 00:   GAMMA RAY FROM DENSITY LOG
 CORR.G/C3   45 356 01 00:   DENSITY CORRECTION
 RHOB.G/C3   45 350 01 00:   BULK DENSITY
 DPHI.DEC    45 890 12 00:   DENSITY POROSITY SANDSTONE
~PARAMETER INFORMATION
#MNEM.UNIT          VALUE    DESCRIPTION
#----------   ------------   ------------------------------
 PD  .                 GL:   PERMANENT DATUM
 EPD .F              5312:   ELEVATION PERMANENT DATUM
 LMF .                 KB:   LOG MEASURED FROM
 DMF .                 KB:   DRILLING MEASURED FROM
 EKB .F              5316:   KELLING BUSHING
 EGL .F              5312:   GROUND LEVEL
 DATE.          3-22-1978:   RUN DATE
 RUN .                  1:   RUN NUMBER
 DD  .F              1280:   DEPTH DRILLER
 DL  .F              1292:   DEPTH LOGGER
 BLI .F              1286:   BOTTOM LOG INTERVAL
 TLI .F                50:   TOP LOG INTERVAL
 CS  .IN            8.625:   CASING SIZE
 CBD .F                50:   CASING BOTTOM DRILLER
 CBL .F                50:   CASING BOTTOM LOGGER
 BS  .IN            7.875:   BIT SIZE
 BSD .F              1280:   BIT SIZE AT DEPTH
 DFT .                KCL:   DRILLING FLUID TYPE
 DFD .                8.6:   DRILLING FLUID DENSITY
 DFV .                 31:   DRILLING FLUID VISCOSITY
 DFPH.               10.5:   DRILLING FLUID PH
 DFL .               11.6:   DRILLING FLUID LOSS
 MSS .            MUD PIT:   MUD SAMPLE SOURCE
 RMS .OHMM            .38:   RESISTIVITY MUD SAMPLE
 MST .F                52:   MUD SAMPLE TEMPERATURE
 RMF .OHMM            .32:   RESISTIVITY MUD FILTRATE SAMPLE
 MFST.F                66:   MUD FILTRATE SAMPLE TEMPERATURE
 RMC .OHMM             .4:   RESISTIVITY MUD CAKE
 MCST.F                68:   MUD CAKE SAMPLE TEMPERATURE
 MFSS.           MEASURED:   MUD FILTRATE SAMPLE SOURCE
 RMB .OHMM            .24:   RESISTIVITY MUD AT BHT
 BHT .F                82:   BOTTOM HOLE TEMPERATURE
 TCS .HRS               4:   TIME CURCULATED STOPPED
 MRT .F                82:   MAXIMUM RECORDED TEMPERATURE
 LUN .               2958:   LOGGING UNIT NUMBER
 LUL .               CASP:   LOGGING UNIT LOCATION
 ENGI.            POINTER:   RECORDING ENGINEER
 WITN.           MCGINLEY:   WITNESSED BY
 CLNT.            A2DTECH:   CLIENT CODE
 ORIG.        2" 5" PRINT:   ORIGIN OF DATA
 UWI .       490251060300:   UNIQUE WELL ID
 DICO. A2D Technologies, Inc.:   DIGITIZING COMPANY
~OTHER INFORMATION
~A   DEPT      SPR         SN        ILD       CALD         GRD      CORR       RHOB       DPHI   
# ...
  303.0000   -49.0478     6.2859     6.0877     8.1714    82.6085     0.0417     2.4277     0.1207
  303.5000   -49.4121     6.3828     6.1773     8.1706    82.5857     0.0373     2.4276     0.1208
  304.0000   -49.7958     6.4813     6.2682     8.1699    84.1680     0.0352     2.4271     0.1210
  304.5000   -49.7014     6.4944     6.3237     8.1691    88.2435     0.0331     2.4276     0.1154
  305.0000   -49.4147     6.4944     6.3376     8.1683    89.5601     0.0289     2.4321     0.1185
  305.5000   -49.1242     6.4944     6.3514     8.1675    90.3797     0.0214     2.4279     0.1257
  306.0000   -48.8939     6.4944     6.3653     8.1668    89.4297     0.0257     2.4186     0.1276
  306.5000   -48.8804     6.4944     6.3971     8.1660    88.0563     0.0353     2.4104     0.1288
  307.0000   -48.8616     6.5871     6.4833     8.1652    87.8428     0.0421     2.4122     0.1247
  307.5000   -48.8423     6.7999     6.5707     8.1644    89.4188     0.0464     2.4218     0.1207
  308.0000   -48.8232     7.0195     6.6593     8.1636    93.3802     0.0506     2.4277     0.1206
  308.5000   -48.8042     7.0563     6.7491     8.1629    95.2176     0.0542     2.4297     0.1181
  309.0000   -48.7851     7.0563     6.8008     8.1621    95.0715     0.0554     2.4326     0.1142
  309.5000   -48.7660     7.0563     6.8126     8.1613    91.6855     0.0525     2.4354     0.1130
  310.0000   -48.7469     7.0563     6.8268     8.1606    83.6188     0.0469     2.4346     0.1153
  310.5000   -48.7279     7.0563     6.8411     8.1598    80.9558     0.0419     2.4307     0.1230
  311.0000   -48.7104     7.0563     6.8638     8.1589    80.0165     0.0411     2.4253     0.1260
  311.5000   -48.6530     7.0563     6.8236     8.1561    83.0016     0.0403     2.4186     0.1245
  312.0000   -48.5894     7.0563     6.7264     8.1463    86.4165     0.0371     2.4182     0.1280
  312.5000   -48.5253     6.9132     6.6306     8.1366    89.8440     0.0317     2.4164     0.1312
  313.0000   -48.4609     6.7742     6.5074     8.1270    93.3373     0.0314     2.4107     0.1327
  313.5000   -48.3969     6.6384     6.2727     8.1174    93.5932     0.0309     2.4049     0.1325
  314.0000   -48.3356     6.4963     6.0465     8.1077    88.7415     0.0304     2.4097     0.1294
  314.5000   -48.3100     6.4281     5.8681     8.0993    83.2989     0.0300     2.4177     0.1266
  315.0000   -48.7166     6.3600     5.8681     8.1052    81.2625     0.0309     2.4196     0.1257
  315.5000   -49.4020     6.3155     5.8681     8.1111    81.9073     0.0322     2.4208     0.1233
  316.0000   -50.0727     6.5063     6.0251     8.1169    82.6843     0.0397     2.4235     0.1185
  316.5000   -49.9085     6.6773     6.2339     8.1227    80.6518     0.0464     2.4327     0.1137
  317.0000   -49.7016     6.8531     6.4499     8.1285    78.8593     0.0475     2.4368     0.1101
  317.5000   -49.4979     7.0338     6.6734     8.1343    82.4161     0.0498     2.4420     0.1127
  318.0000   -49.2955     7.2192     6.9046     8.1401    85.8661     0.0524     2.4370     0.1147
  318.5000   -49.0930     7.4095     7.1439     8.1459    87.3974     0.0492     2.4357     0.1153
  319.0000   -48.8906     7.5267     7.3256     8.1517    90.6367     0.0396     2.4360     0.1183
  319.5000   -48.6880     7.4945     7.2699     8.1575    90.6088     0.0312     2.4240     0.1218
  320.0000   -48.4853     7.4352     7.1822     8.1633    90.2959     0.0245     2.4124     0.1252
  320.5000   -48.2828     7.2776     7.0946     8.1691    89.2744     0.0178     2.4078     0.1281
  321.0000   -48.1062     7.1233     7.0074     8.1749    89.3665     0.0126     2.4144     0.1276
  321.5000   -48.1115     6.9888     6.9213     8.1807    89.4320     0.0169     2.4131     0.1261
  322.0000   -48.4314     6.9674     6.8467     8.1865    89.4929     0.0214     2.4139     0.1239
  322.5000   -48.7811     6.9461     6.7946     8.1923    90.4153     0.0208     2.4228     0.1209
  323.0000   -49.1314     6.8663     6.7384     8.1979    90.7860     0.0194     2.4303     0.1186
  323.5000   -49.2806     6.8085     6.6329     8.1980    91.0240     0.0180     2.4308     0.1193
  324.0000   -49.2419     6.7371     6.5723     8.1978    88.2965     0.0166     2.4286     0.1198
  324.5000   -49.2026     6.7396     6.5459     8.1977    86.9438     0.0205     2.4283     0.1171
  325.0000   -49.1620     6.6247     6.4629     8.1976    91.1910     0.0288     2.4296     0.1125
  325.5000   -49.1279     6.5382     6.3810     8.1975    95.4058     0.0374     2.4393     0.1012
  326.0000   -49.2732     6.4915     6.2593     8.1974    94.9326     0.0403     2.4502     0.1048
  326.5000   -49.9348     6.4798     6.2638     8.1973    91.9307     0.0296     2.4598     0.1101
  327.0000   -50.5773     6.4682     6.2731     8.1972    90.7787     0.0221     2.4474     0.1169
  327.5000   -51.2119     6.4568     6.2824     8.1971    90.5154     0.0229     2.4290     0.1189
  328.0000   -50.9903     6.4454     6.2917     8.1970    90.7780     0.0253     2.4286     0.1150
  328.5000   -50.3609     6.4348     6.3011     8.1969    91.0844     0.0278     2.4362     0.1058
  329.0000   -49.9065     6.6417     6.3104     8.1968    91.3926     0.0251     2.4463     0.1077
  329.5000   -50.4222     6.8407     6.3540     8.1966    91.8351     0.0123     2.4494     0.1116
  330.0000   -51.8320     6.9915     6.4944     8.1966    95.8300     0.0139     2.4464     0.1150
  330.5000   -52.6763     7.0152     6.6380     8.1964    94.5459     0.0238     2.4356     0.1153
  331.0000   -52.4690     7.0413     6.7847     8.1963    91.3867     0.0228     2.4367     0.1133
  331.5000   -51.8876     7.0557     6.9274     8.1962    90.7843     0.0143     2.4408     0.1143
  332.0000   -51.2882     7.0966     6.9915     8.1961    89.6446     0.0127     2.4340     0.1206
  332.5000   -51.6750     7.1455     7.0336     8.1960    86.5676     0.0114     2.4246     0.1270
  333.0000   -52.5700     7.1943     7.0741     8.1959    84.3736     0.0101     2.4204     0.1275
  333.5000   -52.8739     7.2434     7.1148     8.1958    83.1242     0.0088     2.4168     0.1259
  334.0000   -52.8568     7.3214     7.1557     8.1957    81.0286     0.0097     2.4189     0.1255
  334.5000   -52.8355     7.2806     7.1876     8.1956    79.1394     0.0141     2.4212     0.1260
  335.0000   -52.8129     7.1857     7.0447     8.1955    83.7838     0.0162     2.4198     0.1242
  335.5000   -52.7907     7.0921     6.9301     8.1954    88.8643     0.0166     2.4197     0.1238
  336.0000   -52.7686     6.9575     6.7775     8.1953    88.3458     0.0170     2.4214     0.1245
  336.5000   -52.7464     6.7996     6.5735     8.1952    87.2818     0.0173     2.4191     0.1240
  337.0000   -52.7246     6.6452     6.3750     8.1951    89.6129     0.0178     2.4207     0.1231
  337.5000   -52.7043     6.4944     6.1826     8.1950    90.6645     0.0209     2.4224     0.1232
  338.0000   -52.7865     6.3678     5.9962     8.1949    90.5021     0.0279     2.4205     0.1222
  338.5000   -53.0247     6.3276     5.9118     8.1948    89.2024     0.0333     2.4260     0.1156
  339.0000   -53.6735     6.2877     5.8940     8.1947    88.1088     0.0289     2.4372     0.1140
  339.5000   -53.9033     6.2480     5.8762     8.1945    87.7336     0.0245     2.4374     0.1167
  340.0000   -54.0120     6.2086     5.8585     8.1945    91.3331     0.0243     2.4307     0.1186
  340.5000   -53.5493     6.1694     5.8408     8.1943    94.7026     0.0247     2.4263     0.1162
  341.0000   -53.0978     6.1478     5.8232     8.1942    90.9875     0.0252     2.4303     0.1176
  341.5000   -53.2757     6.1773     5.8057     8.1941    88.6390     0.0256     2.4327     0.1190
  342.0000   -53.2042     6.2018     5.7881     8.1940    88.7451     0.0261     2.4308     0.1206
  342.5000   -52.9679     6.1676     5.7707     8.1939    87.5250     0.0272     2.4275     0.1206
  343.0000   -52.7327     6.1323     5.7533     8.1938    87.1371     0.0284     2.4267     0.1206
