~VERSION INFORMATION
 VERS.                2.0:   CWLS LOG ASCII STANDARD - VERSION 2.0
 WRAP.                 NO:   ONE LINE PER DEPTH STEP
~WELL INFORMATION
#MNEM.UNIT      DATA TYPE    INFORMATION
#----------   ------------   ------------------------------
 STRT.F           14.0000:   START DEPTH
 STOP.F          692.5000:   STOP DEPTH
 STEP.F            0.5000:   STEP LENGTH
 NULL.          -999.2500:   NO VALUE
 COMP. FENIX & SCISSON INC:   COMPANY
 WELL. NPR #3 #27-51 SX 11 WP:   WELL
 FLD .        TEAPOT DOME:   FIELD
 LOC .      S11 T38N R78W:   LOCATION
 CNTY.            NATRONA:   COUNTY
 STAT.            WYOMING:   STATE
 CTRY. UNITED STATES OF AMERICA:   COUNTRY
 SRVC.      Dresser Atlas:   SERVICE COMPANY
 DATE.        16-AUG-1980:   LOGDATE
 API .       490251083900:   API NUMBER
~CURVE INFORMATION
#MNEM.UNIT       API CODE    CURVE DESCRIPTION
#----------   ------------   ------------------------------
 DEPT.F                  :   
 RHOB.G/C3   45 350 01 00:   BULK DENSITY
 CORR.G/C3   45 356 01 00:   DENSITY CORRECTION
 GRD .GAPI   45 310 01 00:   GAMMA RAY FROM DENSITY LOG
 CALD.IN     45 280 60 00:   CALIPER
 NPOR.DEC    42 890 03 00:   NEUTRON POROSITY SANDSTONE
 DPOR.DEC    45 890 12 00:   DENSITY POROSITY SANDSTONE
 SPR .MV     07 010 01 00:   SPONTANEOUS POTENTIAL
 SFL .OHMM   07 220 01 00:   SHALLOW FOCUSED LOG RESISTIVITY
 ILM .OHMM   07 120 44 00:   INDUCTION LOG MEDIUM
 ILD .OHMM   07 120 46 00:   INDUCTION LOG DEEP
~PARAMETER INFORMATION
#MNEM.UNIT          VALUE    DESCRIPTION
#----------   ------------   ------------------------------
 PD  .                 GL:   PERMANENT DATUM
 EPD .F              5194:   ELEVATION PERMANENT DATUM
 LMF .                 KB:   LOG MEASURED FROM
 DAPD.F                 5:   FEET ABOVE PERMANENT DATUM
 DMF .                 KB:   DRILLING MEASURED FROM
 EKB .F              5199:   KELLING BUSHING
 EGL .F              5194:   GROUND LEVEL
 DATE.            8-16-80:   RUN DATE
 RUN .                  1:   RUN NUMBER
 DD  .F               685:   DEPTH DRILLER
 DL  .F               693:   DEPTH LOGGER
 BLI .F               692:   BOTTOM LOG INTERVAL
 TLI .F                25:   TOP LOG INTERVAL
 BS  .IN            7.875:   BIT SIZE
 BSD .F               685:   BIT SIZE AT DEPTH
 DFT .                KCL:   DRILLING FLUID TYPE
 DFD .                9.4:   DRILLING FLUID DENSITY
 DFV .                 45:   DRILLING FLUID VISCOSITY
 DFPH.                 11:   DRILLING FLUID PH
 DFL .                7.2:   DRILLING FLUID LOSS
 MSS .           FLOWLINE:   MUD SAMPLE SOURCE
 RMS .OHMM            .74:   RESISTIVITY MUD SAMPLE
 MST .F                60:   MUD SAMPLE TEMPERATURE
 RMF .OHMM            .44:   RESISTIVITY MUD FILTRATE SAMPLE
 MFST.F                60:   MUD FILTRATE SAMPLE TEMPERATURE
 RMC .OHMM           1.35:   RESISTIVITY MUD CAKE
 MCST.F                60:   MUD CAKE SAMPLE TEMPERATURE
 MFSS.               MEAS:   MUD FILTRATE SAMPLE SOURCE
 MCSS.               MEAS:   MUD CAKE SAMPLE SOURCE
 TCS .HRS               1:   TIME CURCULATED STOPPED
 LUN .               6180:   LOGGING UNIT NUMBER
 LUL .               CODY:   LOGGING UNIT LOCATION
 ENGI.              HOYER:   RECORDING ENGINEER
 WITN.           MCINTYRE:   WITNESSED BY
 CLNT.            A2DTECH:   CLIENT CODE
 ORIG.      2" 2.5" PRINT:   ORIGIN OF DATA
 UWI .       490251083900:   UNIQUE WELL ID
 DICO. A2D Technologies, Inc.:   DIGITIZING COMPANY
~OTHER INFORMATION
~A   DEPT     RHOB       CORR        GRD       CALD       NPOR       DPOR        SPR        SFL         ILM       ILD   
# ...
  382.5000     2.4905     0.0269   119.4173     8.2731     0.2847     0.1133   -79.2274     6.9966     5.7633     6.1739
  383.0000     2.4841     0.0247   118.7819     8.2774     0.2956     0.1169   -79.2408     6.7297     5.4753     5.7729
  383.5000     2.4802     0.0222   116.7029     8.2816     0.2932     0.1236   -79.0042     6.4742     5.2007     5.4120
  384.0000     2.4669     0.0199   114.6131     8.2858     0.2848     0.1298   -78.7701     6.2285     4.8779     5.0736
  384.5000     2.4550     0.0176   114.9762     8.2901     0.2897     0.1361   -78.5485     5.9924     4.3861     4.5170
  385.0000     2.4423     0.0141   116.2476     8.2944     0.2941     0.1417   -78.5415     5.7853     3.8548     3.8996
  385.5000     2.4182     0.0094   116.9961     8.2986     0.3252     0.1561   -78.5431     5.5916     3.2933     3.3665
  386.0000     2.3933     0.0083   116.3317     8.3029     0.3373     0.1690   -78.5104     5.3620     2.8115     2.9063
  386.5000     2.3676     0.0158   113.5045     8.3071     0.3403     0.1819   -78.4585     5.0911     2.4007     2.5090
  387.0000     2.3421     0.0247   114.4237     8.3114     0.3386     0.2014   -78.4063     4.6427     2.0512     2.1673
  387.5000     2.3055     0.0243   116.7826     8.3161     0.3478     0.2259   -78.3522     4.2369     1.9384     2.0189
  388.0000     2.2673     0.0154   115.8605     8.3170     0.3621     0.2547   -78.3469     3.8666     1.8532     1.8811
  388.5000     2.2283     0.0077   114.6642     8.3106     0.3621     0.2683   -78.0103     3.5287     1.8534     1.8541
  389.0000     2.2071     0.0004   112.9723     8.3047     0.3519     0.2621   -77.4489     3.1582     1.9583     2.1331
  389.5000     2.2191     0.0000   111.6767     8.2987     0.3419     0.2368   -77.3455     3.3998     2.0580     2.4058
  390.0000     2.2366    -0.0002   111.2973     8.2927     0.3320     0.2114   -77.4387     4.1237     2.3149     2.7997
  390.5000     2.3212     0.0013   113.5590     8.2867     0.3062     0.1861   -78.0259     6.1029     2.6770     3.2581
  391.0000     2.4007     0.0063   115.8783     8.2805     0.3001     0.1585   -78.2832     6.9099     3.1201     3.7898
  391.5000     2.4161     0.0113   118.3141     8.2780     0.2948     0.1566   -78.4653     6.4044     3.6367     4.3066
  392.0000     2.4355     0.0164   120.6916     8.2782     0.2833     0.1543   -78.4888     8.1248     4.2388     4.7986
  392.5000     2.4584     0.0215   122.5096     8.2782     0.2808     0.1189   -78.3542     7.7838     4.8805     5.2022
  393.0000     2.4789     0.0266   122.6341     8.2782     0.2803     0.1169   -78.5785     7.1793     5.2773     5.3837
  393.5000     2.4895     0.0316   124.0585     8.2782     0.2851     0.1151   -78.8317     6.6613     5.4458     5.5715
  394.0000     2.4998     0.0367   125.1147     8.2782     0.2843     0.1080   -78.6712     6.4036     5.6198     5.7659
  394.5000     2.5101     0.0419   124.9493     8.2782     0.2853     0.0999   -78.4150     6.2309     5.7366     5.8969
  395.0000     2.5147     0.0444   126.6992     8.2782     0.2898     0.1039   -78.6538     6.3633     5.6160     5.8631
  395.5000     2.5017     0.0377   124.0331     8.2782     0.2886     0.1130   -78.8932     6.5460     5.4001     5.6286
  396.0000     2.4919     0.0285   125.4393     8.2782     0.2837     0.1220   -78.7691     6.7340     5.1926     5.4034
  396.5000     2.4697     0.0195   126.5784     8.2782     0.2916     0.1312   -78.5368     6.9274     4.9930     5.1872
  397.0000     2.4500     0.0102   124.6529     8.2782     0.3034     0.1393   -78.3049     7.0209     4.8010     4.9790
  397.5000     2.4369     0.0079   125.0946     8.2782     0.3153     0.1447   -78.1593     6.5561     4.6020     4.7818
  398.0000     2.4267     0.0086   126.6059     8.2782     0.3253     0.1497   -78.3144     5.4352     4.5379     4.6609
  398.5000     2.4228     0.0173   125.1938     8.2782     0.3349     0.1479   -78.4680     4.6020     4.4693     4.5859
  399.0000     2.4343     0.0197   122.7211     8.2782     0.3429     0.1434   -78.4911     5.3145     4.4016     4.5169
  399.5000     2.4416     0.0152   121.6813     8.2782     0.3349     0.1426   -78.3929     6.1175     4.3351     4.5171
  400.0000     2.4408     0.0124   121.7017     8.2782     0.3280     0.1419   -78.3449     5.6214     4.3155     4.7360
  400.5000     2.4595     0.0168   119.3935     8.2782     0.3212     0.1295   -78.3420     5.3303     4.5660     4.9100
  401.0000     2.4847     0.0236   119.4391     8.2782     0.3156     0.1114   -78.2330     5.8278     4.7683     5.0903
  401.5000     2.4979     0.0241   121.4945     8.2783     0.3091     0.1114   -77.8636     6.3464     4.9797     5.2772
  402.0000     2.4904     0.0242   123.9352     8.2772     0.3013     0.1140   -77.5745     5.6842     5.2003     5.4711
  402.5000     2.4845     0.0240   125.3225     8.2752     0.2905     0.1176   -77.8986     5.8806     5.4308     5.6842
  403.0000     2.4873     0.0241   127.7972     8.2733     0.2762     0.1125   -78.2184     6.1592     5.6829     5.8215
  403.5000     2.5013     0.0241   126.8143     8.2715     0.2690     0.1051   -78.5318     6.4640     5.8604     5.9697
  404.0000     2.5173     0.0241   125.6853     8.2696     0.2907     0.1000   -78.7461     6.4640     6.0504     6.1226
  404.5000     2.5131     0.0241   123.6970     8.2678     0.2906     0.1069   -78.5828     6.7590     6.2474     6.2787
  405.0000     2.5042     0.0241   121.7757     8.2659     0.2907     0.1088   -78.3452     6.9567     6.4508     6.3464
  405.5000     2.5031     0.0241   121.0119     8.2640     0.2930     0.1049   -78.4071     6.9567     6.6608     6.3162
  406.0000     2.5097     0.0241   123.0536     8.2622     0.2971     0.1040   -78.4637     6.9567     6.7059     6.2648
  406.5000     2.5076     0.0241   124.4961     8.2603     0.2987     0.1064   -78.5194     6.9581     6.7059     6.2140
  407.0000     2.5000     0.0239   123.7276     8.2585     0.2960     0.1088   -78.5129     6.9584     6.5925     6.1739
  407.5000     2.4952     0.0259   123.4151     8.2566     0.2948     0.1094   -78.4334     6.7017     6.4545     6.1746
  408.0000     2.4994     0.0287   125.2090     8.2548     0.2965     0.1088   -78.3542     6.4981     6.3194     6.0970
  408.5000     2.5001     0.0315   123.5042     8.2529     0.2980     0.1104   -78.2749     6.4640     6.1871     5.9756
  409.0000     2.4907     0.0210   122.6139     8.2511     0.3036     0.1138   -78.1956     6.3526     6.0576     5.8565
  409.5000     2.4814     0.0090   124.8509     8.2492     0.3116     0.1191   -78.1163     6.1819     5.9300     5.7398
  410.0000     2.4733     0.0088   124.3242     8.2473     0.3166     0.1216   -78.0363     6.0159     5.8092     5.6322
  410.5000     2.4797     0.0175   126.4843     8.2455     0.3221     0.1168   -77.9528     5.8969     5.7335     5.6309
  411.0000     2.4890     0.0261   128.5362     8.2437     0.3254     0.1124   -78.0909     5.7948     5.6244     5.6357
  411.5000     2.4984     0.0264   127.5168     8.2417     0.3225     0.1095   -78.2673     5.6459     5.4612     5.3542
  412.0000     2.4837     0.0207   125.6290     8.2400     0.3168     0.1182   -78.4411     5.5008     5.2356     5.0569
  412.5000     2.4615     0.0152   123.7511     8.2381     0.3111     0.1271   -78.3576     5.4291     4.9528     4.7741
  413.0000     2.4472     0.0098   122.9040     8.2414     0.3044     0.1376   -77.9355     5.4291     4.6852     4.5076
  413.5000     2.4356     0.0044   123.7539     8.2451     0.2997     0.1543   -77.5460     5.3509     4.4321     4.2559
  414.0000     2.3705    -0.0014   125.0594     8.2491     0.3015     0.1748   -77.4342     5.0911     4.1927     4.0468
  414.5000     2.3335    -0.0045   123.5052     8.2529     0.2965     0.2018   -77.3614     4.1497     4.0841     4.0468
  415.0000     2.3517    -0.0010   123.9269     8.2568     0.2933     0.1951   -77.6827     3.3989     4.2843     4.4886
  415.5000     2.4412     0.0089   123.6881     8.2606     0.2899     0.1674   -78.0033     3.7561     4.4048     4.8529
