~VERSION INFORMATION
 VERS.                2.0:   CWLS LOG ASCII STANDARD - VERSION 2.0
 WRAP.                 NO:   ONE LINE PER DEPTH STEP
~WELL INFORMATION
#MNEM.UNIT      DATA TYPE    INFORMATION
#----------   ------------   ------------------------------
 STRT.F          648.0000:   START DEPTH
 STOP.F         2443.0000:   STOP DEPTH
 STEP.F            0.5000:   STEP LENGTH
 NULL.          -999.2500:   NO VALUE
 COMP.    FENIX & SCISSON:   COMPANY
 WELL.  NPR #3 SHX-11 #22:   WELL
 FLD .             TEAPOT:   FIELD
 LOC .      S11 T38N R78W:   LOCATION
 CNTY.            NATRONA:   COUNTY
 STAT.            WYOMING:   STATE
 CTRY. UNITED STATES OF AMERICA:   COUNTRY
 SRVC.           BIRDWELL:   SERVICE COMPANY
 DATE.        23-APR-1978:   LOGDATE
 API .       490251061300:   API NUMBER
~CURVE INFORMATION
#MNEM.UNIT       API CODE    CURVE DESCRIPTION
#----------   ------------   ------------------------------
 DEPT.F                  :   
 CALD.IN     45 280 60 00:   CALIPER FROM DENSITY LOG
 CORR.G/C3   45 356 01 00:   DENSITY CORRECTION
 DPHI.DEC    45 890 12 00:   DENSITY POROSITY SANDSTONE
 GRD .GAPI   45 310 01 00:   GAMMA RAY FROM DENSITY LOG
 RHOB.G/C3   45 350 01 00:   BULK DENSITY
~PARAMETER INFORMATION
#MNEM.UNIT          VALUE    DESCRIPTION
#----------   ------------   ------------------------------
 PD  .                 GL:   PERMANENT DATUM
 EPD .F              5166:   ELEVATION PERMANENT DATUM
 LMF .                 KB:   LOG MEASURED FROM
 DMF .                 KB:   DRILLING MEASURED FROM
 EKB .F              5176:   KELLING BUSHING
 EGL .F              5166:   GROUND LEVEL
 DATE.        23-APR-1978:   RUN DATE
 RUN .                  1:   RUN NUMBER
 DD  .F              2450:   DEPTH DRILLER
 DL  .F              2450:   DEPTH LOGGER
 BLI .F              2443:   BOTTOM LOG INTERVAL
 TLI .F               670:   TOP LOG INTERVAL
 CS  .IN            9.625:   CASING SIZE
 CBD .F               660:   CASING BOTTOM DRILLER
 CBL .F               670:   CASING BOTTOM LOGGER
 BS  .IN             8.75:   BIT SIZE
 BSD .F              2450:   BIT SIZE AT DEPTH
 DFT .               MIST:   DRILLING FLUID TYPE
 LUN .               2958:   LOGGING UNIT NUMBER
 LUL .             CASPER:   LOGGING UNIT LOCATION
 ENGI.             MILLER:   RECORDING ENGINEER
 WITN.          MC GINLEY:   WITNESSED BY
 CLNT.            A2DTECH:   CLIENT CODE
 ORIG.           5" PRINT:   ORIGIN OF DATA
 UWI .       490251061300:   UNIQUE WELL ID
 DICO. A2D Technologies, Inc.:   DIGITIZING COMPANY
~OTHER INFORMATION
~A   DEPT     CALD       CORR       DPHI        GRD       RHOB   
# ...
 2234.0000     9.0954     0.0060     0.0254    88.8775     2.5021
 2234.5000     9.1018     0.0059     0.0270    89.4687     2.5014
 2235.0000     9.1018     0.0044     0.0258    90.2098     2.5021
 2235.5000     9.1018     0.0043     0.0210    90.6489     2.5021
 2236.0000     9.1018     0.0058     0.0227    91.3901     2.5081
 2236.5000     9.1018     0.0042     0.0304    96.6289     2.5119
 2237.0000     9.1018     0.0042     0.0403   122.4075     2.4968
 2237.5000     9.0868     0.0057     0.0403   126.8208     2.4863
 2238.0000     9.0719     0.0071     0.0376   129.1349     2.4817
 2238.5000     9.0868     0.0086     0.0307   126.5777     2.5043
 2239.0000     9.1467     0.0085     0.0272   125.3698     2.4998
 2239.5000     9.1916     0.0070     0.0251   125.9610     2.4998
 2240.0000     9.1766     0.0054     0.0248   130.7479     2.5005
 2240.5000     9.1018     0.0054     0.0336   135.2372     2.5013
 2241.0000     9.0719     0.0053     0.0417   134.3291     2.4998
 2241.5000     9.0719     0.0053     0.0393   128.4735     2.4967
 2242.0000     9.0868     0.0068     0.0351   119.6996     2.4779
 2242.5000     9.0868     0.0082     0.0351   118.5614     2.4839
 2243.0000     9.1018     0.0112     0.0345   119.6002     2.4839
 2243.5000     9.1168     0.0171     0.0316   120.0436     2.4839
 2244.0000     9.1168     0.0201     0.0268   120.4828     2.4869
 2244.5000     9.1168     0.0231     0.0072   119.7225     2.4990
 2245.0000     9.1018     0.0230     0.0045   118.6645     2.5114
 2245.5000     9.0868     0.0199     0.0033   119.4056     2.5320
 2246.0000     9.0868     0.0139     0.0079   121.6459     2.5403
 2246.5000     9.0868     0.0109     0.0127   122.2371     2.5373
 2247.0000     9.0868     0.0063     0.0145   122.5263     2.5350
 2247.5000     9.0868     0.0047     0.0158   125.8161     2.5305
 2248.0000     9.1018     0.0064     0.0176   142.1494     2.5170
 2248.5000     9.1168     0.0137     0.0195   149.9370     2.5200
 2249.0000     9.1317     0.0182     0.0237   158.1722     2.5177
 2249.5000     9.1766     0.0181     0.0300   159.8129     2.5085
 2250.0000     9.1916     0.0211     0.0384   156.3561     2.4974
 2250.5000     9.2071     0.0225     0.0327   150.9503     2.4898
 2251.0000     9.2375     0.0225     0.0382   147.8750     2.4898
 2251.5000     9.1481     0.0240     0.0409   144.3344     2.4988
 2252.0000     9.0886     0.0269     0.0349   144.6258     2.4778
 2252.5000     9.1956     0.0284     0.0422   144.9192     2.4717
 2253.0000     9.2692     0.0223     0.0464   144.9067     2.4755
 2253.5000     9.2547     0.0162     0.0494   136.8020     2.4920
 2254.0000     9.0755     0.0087     0.0507   136.3458     2.4656
 2254.5000     9.0458     0.0041     0.0468   139.0338     2.4625
 2255.0000     9.0165     0.0043     0.0429   143.8229     2.4655
 2255.5000     8.9869     0.0085     0.0501   155.6179     2.4730
 2256.0000     8.9724     0.0115     0.0459   154.1485     2.4655
 2256.5000     8.9729     0.0160     0.0423   150.8417     2.4715
 2257.0000     8.9883     0.0159     0.0399   149.9357     2.4752
 2257.5000     9.0338     0.0144     0.0457   153.5307     2.4791
 2258.0000     9.0941     0.0113     0.0466   153.9645     2.4737
 2258.5000     9.1544     0.0098     0.0433   152.9044     2.4729
 2259.0000     9.2299     0.0037     0.0412   151.9963     2.4751
 2259.5000     9.1703     0.0068     0.0425   147.3401     2.4774
 2260.0000     9.1108     0.0126     0.0413   136.2285     2.4758
 2260.5000     9.0513     0.0171     0.0335   134.5795     2.4773
 2261.0000     9.0069     0.0201     0.0319   135.7682     2.4811
 2261.5000     8.9774     0.0216     0.0386   138.7582     2.4893
 2262.0000     8.9779     0.0185     0.0426   141.6183     2.4833
 2262.5000     8.9783     0.0154     0.0471   145.7855     2.4727
 2263.0000     8.9937     0.0184     0.0519   146.9785     2.4682
 2263.5000     8.9942     0.0244     0.0520   143.9694     2.4621
 2264.0000     9.0246     0.0545     0.0405   141.7120     2.4591
 2264.5000     9.0550     0.0529     0.0349   141.9384     2.4613
 2265.0000     9.0854     0.0438     0.0451   145.4409     2.4824
 2265.5000     9.1157     0.0332     0.0343   146.7817     2.4741
 2266.0000     9.1804     0.0211     0.0353   146.1735     2.4802
 2266.5000     9.2814     0.0106     0.0422   143.7272     2.4891
 2267.0000     9.3416     0.0045     0.0443   136.7091     2.4808
 2267.5000     9.1774     0.0014     0.0488   131.6031     2.4800
 2268.0000     9.1180    -0.0016     0.0540   128.7460     2.4650
 2268.5000     9.0884    -0.0032     0.0576   124.2397     2.4506
 2269.0000     9.0739    -0.0017     0.0549   123.5854     2.4483
 2269.5000     9.0594    -0.0018     0.0483   123.1711     2.4498
 2270.0000     9.0449    -0.0002     0.0477   123.6123     2.4588
 2270.5000     9.0454     0.0012     0.0477   123.9037     2.4641
 2271.0000     9.0308     0.0026     0.0500   123.4240     2.4626
 2271.5000     9.0462     0.0026     0.0538   121.1859     2.4618
 2272.0000     9.0316     0.0025     0.0559   118.6286     2.4557
 2272.5000     9.0322     0.0025     0.0562   116.2213     2.4520
 2273.0000     9.0176     0.0024     0.0502   115.1633     2.4564
 2273.5000     9.0144     0.0024     0.0602   118.9008     2.4594
 2274.0000     9.0035     0.0023     0.0572   121.7408     2.4504
 2274.5000     9.0190     0.0023     0.0560   122.9317     2.4466
 2275.0000     9.0345     0.0023     0.0558   123.0752     2.4481
 2275.5000     9.2595     0.0022     0.0515   122.7479     2.4541
 2276.0000     9.0353     0.0037     0.0469   120.3553     2.4608
 2276.5000     9.0058     0.0036     0.0523   118.5477     2.4625
 2277.0000     8.9913     0.0051     0.0569   116.8900     2.4585
 2277.5000     8.9918     0.0050     0.0575   114.7825     2.4525
 2278.0000     9.0072     0.0050     0.0560   115.0717     2.4487
 2278.5000     9.0076     0.0050     0.0536   123.0092     2.4472
 2279.0000     9.0295     0.0064     0.0509   127.0508     2.4502
 2279.5000     9.0535     0.0064     0.0545   125.8407     2.4554
 2280.0000     9.0689     0.0078     0.0554   125.3724     2.4584
 2280.5000     9.0843     0.0093     0.0557   124.6222     2.4561
 2281.0000     9.0998     0.0155     0.0551   122.2149     2.4523
 2281.5000     9.1152     0.0288     0.0445   119.8304     2.4478
 2282.0000     9.1306     0.0333     0.0380   119.8290     2.4470
 2282.5000     9.1310     0.0076     0.0447   120.2774     2.4816
 2283.0000     9.1314     0.0030     0.0429   121.4750     2.4733
 2283.5000     9.1320     0.0105     0.0398   116.6760     2.4733
 2284.0000     9.1323     0.0165     0.0402   114.8758     2.4763
 2284.5000     9.1328     0.0195     0.0405   120.8866     2.4823
 2285.0000     9.1183     0.0196     0.0212   126.4165     2.5003
 2285.5000     9.1038     0.0149     0.0246   126.2652     2.5055
 2286.0000     9.1043     0.0133     0.0273   122.0659     2.5003
 2286.5000     9.0747     0.0148     0.0345   122.0682     2.4942
 2287.0000     9.0752     0.0169     0.0357   123.8618     2.4897
 2287.5000     9.0606     0.0183     0.0261   122.6610     2.4866
 2288.0000     9.1061     0.0198     0.0210   122.0599     2.4944
 2288.5000     9.2712     0.0221     0.0105   124.4573     2.5031
 2289.0000     9.4063     0.0221     0.0081   126.5548     2.5159
 2289.5000     9.4220     0.0190     0.0158   125.6535     2.5362
 2290.0000     9.1827     0.0069     0.0202   122.0539     2.5512
 2290.5000     9.1083     0.0024     0.0192   120.2534     2.5332
 2291.0000     9.0787     0.0023     0.0214   115.4540     2.5203
 2291.5000     9.0642     0.0068     0.0256   114.8529     2.5151
 2292.0000     9.0796     0.0158     0.0271   115.3012     2.5068
 2292.5000     9.0951     0.0248     0.0249   117.6986     2.5018
 2293.0000     9.1105     0.0308     0.0208   124.5934     2.5029
 2293.5000     9.1259     0.0337     0.0323   127.5905     2.5059
 2294.0000     9.1263     0.0352     0.0287   128.0392     2.5097
 2294.5000     9.1118     0.0321     0.0383   127.4378     2.4969
