~VERSION INFORMATION
 VERS.                2.0:   CWLS LOG ASCII STANDARD - VERSION 2.0
 WRAP.                 NO:   ONE LINE PER DEPTH STEP
~WELL INFORMATION
#MNEM.UNIT      DATA TYPE    INFORMATION
#----------   ------------   ------------------------------
 STRT.F           70.0000:   START DEPTH
 STOP.F         1236.0000:   STOP DEPTH
 STEP.F            0.5000:   STEP LENGTH
 NULL.          -999.2500:   NO VALUE
 COMP. U S NAVY/INTEX OIL CO:   COMPANY
 WELL. NAVAL PETROLEUM TE ##3 75S-11:   WELL
 FLD .             TEAPOT:   FIELD
 LOC .      S11 T38N R78W:   LOCATION
 CNTY.            NATRONA:   COUNTY
 STAT.            WYOMING:   STATE
 CTRY. UNITED STATES OF AMERICA:   COUNTRY
 SRVC.         Lane Wells:   SERVICE COMPANY
 DATE.        04-MAR-1960:   LOGDATE
 API .       490250633900:   API NUMBER
~CURVE INFORMATION
#MNEM.UNIT       API CODE    CURVE DESCRIPTION
#----------   ------------   ------------------------------
 DEPT.F                  :   
 GR  .GAPI   30 310 01 00:   GAMMA RAY
 SPR .MV     05 010 01 00:   SPONTANEOUS POTENTIAL FROM RES.
 ILD .OHMM   05 120 46 00:   INDUCTION LOG DEEP
 CILD.MMHO   05 110 46 00:   CONDUCTIVITY INDUCTION LOG DEEP
 ASN .OHMM   05 041 18 00:   AMPLIFIED SHORT NORMAL 18"
~PARAMETER INFORMATION
#MNEM.UNIT          VALUE    DESCRIPTION
#----------   ------------   ------------------------------
 PD  .                 GL:   PERMANENT DATUM
 EPD .F              5252:   ELEVATION PERMANENT DATUM
 LMF .                 KB:   LOG MEASURED FROM
 DAPD.F                 5:   FEET ABOVE PERMANENT DATUM
 DMF .                 KB:   DRILLING MEASURED FROM
 EKB .F              5257:   KELLING BUSHING
 EGL .F              5252:   GROUND LEVEL
 DATE.             3-4-60:   RUN DATE
 RUN .                  1:   RUN NUMBER
 DD  .F              1239:   DEPTH DRILLER
 DL  .F              1238:   DEPTH LOGGER
 BLI .F              1236:   BOTTOM LOG INTERVAL
 TLI .F                70:   TOP LOG INTERVAL
 CS  .IN            8.625:   CASING SIZE
 CBD .F                12:   CASING BOTTOM DRILLER
 BS  .IN            7.875:   BIT SIZE
 BSD .F              1239:   BIT SIZE AT DEPTH
 DFT .                GEL:   DRILLING FLUID TYPE
 DFD .                9.2:   DRILLING FLUID DENSITY
 DFV .                 34:   DRILLING FLUID VISCOSITY
 DFPH.                7.5:   DRILLING FLUID PH
 DFL .                8.5:   DRILLING FLUID LOSS
 MSS .                PIT:   MUD SAMPLE SOURCE
 RMS .OHMM              3:   RESISTIVITY MUD SAMPLE
 MST .F                52:   MUD SAMPLE TEMPERATURE
 RMF .OHMM            2.8:   RESISTIVITY MUD FILTRATE SAMPLE
 MFST.F                55:   MUD FILTRATE SAMPLE TEMPERATURE
 RMC .OHMM            3.3:   RESISTIVITY MUD CAKE
 MCST.F                55:   MUD CAKE SAMPLE TEMPERATURE
 MFSS.                MUD:   MUD FILTRATE SAMPLE SOURCE
 MCSS.              PRESS:   MUD CAKE SAMPLE SOURCE
 RMB .OHMM            2.2:   RESISTIVITY MUD AT BHT
 BHT .F                77:   BOTTOM HOLE TEMPERATURE
 TCS .HRS              .5:   TIME CURCULATED STOPPED
 MRT .F                77:   MAXIMUM RECORDED TEMPERATURE
 LUN .               4474:   LOGGING UNIT NUMBER
 LUL .             CASPER:   LOGGING UNIT LOCATION
 ENGI.      GRIGGS/NELSON:   RECORDING ENGINEER
 WITN.  JORGENSEN/HOLLAND:   WITNESSED BY
 CLNT.            A2DTECH:   CLIENT CODE
 ORIG.       2", 5" PRINT:   ORIGIN OF DATA
 UWI .       490250633900:   UNIQUE WELL ID
 DICO. A2D Technologies, Inc.:   DIGITIZING COMPANY
~OTHER INFORMATION
~A   DEPT       GR        SPR          ILD      CILD         ASN 
# ...
 1107.0000    70.5743   -37.6211    10.4342   103.6893    12.0610
 1107.5000    64.4473   -37.3231    10.4506   103.9715    12.0851
 1108.0000    62.6120   -37.6817    10.4660   104.2569    12.1175
 1108.5000    57.4806   -38.0363    10.4299   104.5431    12.1561
 1109.0000    65.1838   -38.0662    10.3095   104.8291    12.1905
 1109.5000    56.7134   -38.1018    10.1902   105.1152    12.0200
 1110.0000    53.2677   -38.1385    10.0705   106.2632    11.8197
 1110.5000    65.6418   -38.1747     9.9528   107.8788    11.6174
 1111.0000    75.2899   -38.1920     9.8843   109.4943    11.5086
 1111.5000    74.1559   -38.1392     9.8247   111.1249    11.4399
 1112.0000    67.8725   -38.0882     9.7650   112.7894    11.3713
 1112.5000    58.6650   -38.0353     9.7057   114.2086    11.3008
 1113.0000    70.9423   -37.9586     9.6493   114.2086    11.2700
 1113.5000    74.6724   -37.8324     9.6000   114.2086    11.2413
 1114.0000    57.7962   -37.7066     9.5504   114.6339    11.2122
 1114.5000    62.4577   -37.5806     9.5009   115.1724    11.1490
 1115.0000    67.8036   -37.4542     9.4514   115.7110    11.0338
 1115.5000    56.2916   -37.3252     9.4019   114.2086    10.9200
 1116.0000    57.7874   -37.3364     9.3523   114.7778    10.8396
 1116.5000    53.6733   -37.3778     9.3078   115.3163    10.8639
 1117.0000    56.8318   -37.4197     9.3075   115.8549    10.8858
 1117.5000    69.2603   -37.4597     9.3061   115.7496    10.9076
 1118.0000    57.6341   -37.4058     9.3013   115.2562    10.9264
 1118.5000    74.8637   -37.2390     9.3944   114.7604    10.9445
 1119.0000    73.0582   -37.0734     9.3969   114.2650    10.9685
 1119.5000    55.4219   -36.9072     9.3977   113.7702    10.9929
 1120.0000    55.5913   -36.7413     9.3975   113.2753    11.0148
 1120.5000    64.4447   -36.5758     9.3975   112.7805    10.9920
 1121.0000    67.1331   -36.4035     9.3975   112.4104    10.9676
 1121.5000    58.4785   -36.0999     9.3977   112.7849    10.9434
 1122.0000    65.3703   -35.7855     9.3821   113.3652    10.9193
 1122.5000    45.6413   -35.4714     9.3600   113.9332    10.8915
 1123.0000    47.3528   -35.1569     9.3377   113.4781    10.8642
 1123.5000    53.5982   -34.8430     9.3153   112.0697    10.8381
 1124.0000    61.4062   -34.5288     9.2930   110.6115    10.8754
 1124.5000    58.8767   -34.5938     9.2706   112.0059    10.9181
 1125.0000    62.8596   -34.9480     9.2483   113.4513    10.9423
 1125.5000    69.1875   -34.9911     9.2259   114.8968    10.9691
 1126.0000    60.2717   -35.0205     9.2127   116.0072    10.9960
 1126.5000    57.4017   -35.0514     9.2046   115.7668    11.0214
 1127.0000    57.6556   -35.0831     9.1965   114.8031    11.0434
 1127.5000    62.4859   -35.1151     9.1885   113.8394    11.0653
 1128.0000    70.4279   -35.1490     9.1805   112.8758    11.0872
 1128.5000    73.5835   -34.9972     9.1725   112.6667    11.1041
 1129.0000    78.0830   -34.8105     9.1644   113.5051    11.0829
 1129.5000    72.7041   -34.6232     9.1564   114.3475    11.0619
 1130.0000    59.7981   -34.4364     9.1484   115.2023    11.0412
 1130.5000    71.4958   -34.2496     9.1403   116.0616    11.0210
 1131.0000    73.2455   -34.0628     9.1323   116.9200    10.9755
 1131.5000    75.1371   -33.8759     9.1257   117.7790    10.9248
 1132.0000    68.7244   -33.6892     9.1210   118.6374    10.8737
 1132.5000    75.0155   -33.4932     9.1164   119.5012    10.8193
 1133.0000    50.1124   -33.2683     9.1117   119.3419    10.7467
 1133.5000    55.2157   -33.0389     9.1070   119.0438    10.6801
 1134.0000    54.6236   -32.8146     9.1024   118.7425    10.6043
 1134.5000    80.2712   -32.7496     9.0977   118.4420    10.7417
 1135.0000    68.7778   -32.6916     9.0930   118.1419    10.7774
 1135.5000    56.6763   -32.6329     9.0883   117.8417    10.8126
 1136.0000    60.9811   -32.5739     9.0837   117.5416    10.9049
 1136.5000    70.3294   -32.5142     9.0790   117.2414    10.9282
 1137.0000    77.2033   -32.4515     9.0743   116.9413    10.9272
 1137.5000    64.9591   -32.6026     9.0697   116.6411    10.8876
 1138.0000    75.8663   -32.7769     9.0650   116.3410    10.8287
 1138.5000    84.3378   -32.9519     9.0603   116.0408    10.7701
 1139.0000    73.9654   -33.1338     9.0556   116.4854    10.7145
 1139.5000    60.1141   -33.0500     9.0510   117.0239    10.5224
 1140.0000    69.7162   -32.8936     9.0465   117.5624     9.9867
 1140.5000    66.2379   -32.7353     9.0418   118.1009     9.9070
 1141.0000    61.3988   -32.5779     9.0248   118.6412     9.8396
 1141.5000    58.1925   -32.4215     8.9433   119.1761     9.7740
 1142.0000    74.6533   -32.2616     8.8623   119.4394     9.7030
 1142.5000    68.9133   -31.9857     8.7815   118.5988     9.6121
 1143.0000    59.7077   -31.7225     8.7007   117.8058     9.5196
 1143.5000    68.7658   -31.4862     8.6199   118.7644     9.4298
 1144.0000    78.0104   -31.2583     8.5392   119.6043     9.3183
 1144.5000    78.8081   -30.9768     8.4584   121.3260     9.2046
 1145.0000    73.8361   -30.8739     8.3779   123.8228     9.0822
 1145.5000    67.9756   -30.9229     8.2971   127.6390     8.9528
 1146.0000    64.1825   -30.9775     8.1953   132.6324     8.8347
 1146.5000    85.4462   -30.9970     7.9788   135.7914     8.7242
 1147.0000    83.3611   -30.9076     7.7616   135.7914     8.6254
 1147.5000    85.6398   -30.8199     7.5445   135.7914     8.5166
 1148.0000    58.7006   -30.7322     7.3401   140.4137     8.3215
 1148.5000    63.7170   -30.6446     7.1530   144.9910     8.0777
 1149.0000    80.4276   -30.5570     6.9660   149.5683     7.8366
 1149.5000    87.6362   -30.4694     6.7807   156.2681     7.5925
 1150.0000    89.4497   -30.3818     6.5931   163.2952     7.2977
 1150.5000    82.5974   -30.2944     6.2474   170.4886     6.9409
 1151.0000    85.7719   -30.2076     5.9133   178.5971     6.5688
 1151.5000    95.0503   -30.1130     5.5814   190.7074     6.1573
 1152.0000   104.7608   -29.7910     5.2487   202.8177     5.7363
 1152.5000    78.5233   -29.4421     4.8923   214.9281     5.3172
 1153.0000    86.1145   -29.0932     4.8109   227.5180     4.9336
 1153.5000    77.3634   -28.7442     4.8108   232.9137     4.6468
 1154.0000    83.2778   -28.3869     4.8704   230.5396     4.6561
 1154.5000    71.4033   -28.2270     5.0347   223.2734     5.2618
 1155.0000    77.1926   -28.1890     5.1942   216.0072     5.9169
 1155.5000    98.4206   -28.5489     5.5514   203.7717     6.6347
 1156.0000    89.3883   -28.9014     6.0273   188.2776     7.2693
 1156.5000    91.1452   -29.2533     6.5063   172.7835     7.7483
 1157.0000    82.3050   -29.4378     6.9841   159.6484     7.9784
 1157.5000    68.5009   -29.3624     7.2226   154.0816     8.1655
 1158.0000    69.8799   -29.0441     7.4158   148.5147     8.3407
 1158.5000    66.0098   -28.9195     7.6086   142.9479     8.5024
 1159.0000    76.3661   -29.2532     7.8017   137.3811     8.6563
 1159.5000    73.9621   -29.5756     7.9950   131.8142     8.7888
 1160.0000    76.0999   -29.7338     8.1882   126.5844     8.9136
 1160.5000    60.3562   -29.6883     8.3815   124.4219     9.0612
 1161.0000    75.7760   -29.6445     8.5744   122.2593     9.2637
 1161.5000    74.2588   -29.6000     8.7680   120.0968     9.4655
 1162.0000    85.6584   -29.5558     8.9423   117.8058     9.6810
 1162.5000    86.5955   -29.5120     9.1040   116.3738     9.9093
 1163.0000    67.6078   -29.4657     9.2642   114.8675    10.4156
 1163.5000    81.1192   -29.4205     9.4245   113.3486    11.0266
 1164.0000    82.7874   -29.2127     9.5848   112.0722    11.1419
 1164.5000  -999.2500   -29.0865     9.7452   111.1586    11.3139
 1165.0000  -999.2500   -29.1784     9.9071   110.2540    11.4529
 1165.5000  -999.2500   -29.2702     9.9951   109.3340    11.5935
 1166.0000  -999.2500   -29.3643    10.0675   108.2477    11.6967
 1166.5000  -999.2500   -29.4576    10.1395   105.6526    11.8247
 1167.0000  -999.2500   -29.5485    10.2117   103.0575    11.9510
 1167.5000  -999.2500   -29.8148    10.2840   101.4838    12.0785
