~VERSION INFORMATION
 VERS.                2.0:   CWLS LOG ASCII STANDARD - VERSION 2.0
 WRAP.                 NO:   ONE LINE PER DEPTH STEP
~WELL INFORMATION
#MNEM.UNIT      DATA TYPE    INFORMATION
#----------   ------------   ------------------------------
 STRT.F           61.0000:   START DEPTH
 STOP.F          527.0000:   STOP DEPTH
 STEP.F            0.5000:   STEP LENGTH
 NULL.          -999.2500:   NO VALUE
 COMP.       F D SERV INC:   COMPANY
 WELL.  82-5 SX 10 #82-10:   WELL
 FLD .             TEAPOT:   FIELD
 LOC .      S10 T38N R78W:   LOCATION
 CNTY.            NATRONA:   COUNTY
 STAT.            WYOMING:   STATE
 CTRY. UNITED STATES OF AMERICA:   COUNTRY
 SRVC.     Atlas Wireline:   SERVICE COMPANY
 DATE.        08-FEB-1993:   LOGDATE
 API .       490252258800:   API NUMBER
~CURVE INFORMATION
#MNEM.UNIT       API CODE    CURVE DESCRIPTION
#----------   ------------   ------------------------------
 DEPT.F                  :   
 C13 .IN     45 280 13 00:   CALIPER
 GRD .GAPI   45 310 01 00:   GAMMA RAY FROM DENSITY LOG
 NPHI.DEC    42 890 03 00:   NEUTRON POROSITY SANDSTONE
 PORZ.DEC    45 890 12 00:   DENSITY POROSITY SANDSTONE
 ZCOR.G/C3   45 356 01 00:   DENSITY CORRECTION
 ZDEN.G/C3   45 350 01 00:   BULK DENSITY
 RILD.OHMM   07 120 46 00:   INDUCTION LOG DEEP RESISTIVITY
 RILM.OHMM   07 120 44 00:   RESITIVITY LONG MEDIUM
~PARAMETER INFORMATION
#MNEM.UNIT          VALUE    DESCRIPTION
#----------   ------------   ------------------------------
 PD  .                 GL:   PERMANENT DATUM
 EPD .F              5166:   ELEVATION PERMANENT DATUM
 LMF .                 KB:   LOG MEASURED FROM
 DAPD.F                10:   FEET ABOVE PERMANENT DATUM
 DMF .                 KB:   DRILLING MEASURED FROM
 EKB .F              5176:   KELLING BUSHING
 EDF .F              5175:   DRILLING FLOOR
 EGL .F              5166:   GROUND LEVEL
 DATE.        08-FEB-1993:   RUN DATE
 RUN .                  1:   RUN NUMBER
 DD  .F               530:   DEPTH DRILLER
 DL  .F               532:   DEPTH LOGGER
 BLI .F               529:   BOTTOM LOG INTERVAL
 TLI .F                96:   TOP LOG INTERVAL
 CS  .IN            8.625:   CASING SIZE
 CBD .F                90:   CASING BOTTOM DRILLER
 CBL .F                96:   CASING BOTTOM LOGGER
 BS  .IN            7.875:   BIT SIZE
 BSD .F               530:   BIT SIZE AT DEPTH
 DFT .                AIR:   DRILLING FLUID TYPE
 MRT .F                60:   MAXIMUM RECORDED TEMPERATURE
 LUN .            HL 6274:   LOGGING UNIT NUMBER
 LUL .             CASPER:   LOGGING UNIT LOCATION
 ENGI.          V. RAUTIO:   RECORDING ENGINEER
 WITN.          G. STRONG:   WITNESSED BY
 CLNT.            A2DTECH:   CLIENT CODE
 ORIG.           5" PRINT:   ORIGIN OF DATA
 UWI .       490252258800:   UNIQUE WELL ID
 DICO. A2D Technologies, Inc.:   DIGITIZING COMPANY
~OTHER INFORMATION
~A   DEPT      C13        GRD       NPHI       PORZ       ZCOR       ZDEN       RILD       RILM   
# ...
  466.0000     7.8899   151.2409     0.2643     0.0995     0.0005     2.4852     9.5369     9.6487
  466.5000     7.8898   152.1084     0.2643     0.0995    -0.0115     2.4860     9.2095     9.3855
  467.0000     7.9047   154.2169     0.2637     0.0983    -0.0025     2.4882     8.5384     8.6371
  467.5000     7.9045   157.9817     0.2646     0.0971     0.0110     2.4890     7.8581     7.7311
  468.0000     7.9043   167.7711     0.2697     0.0995     0.0105     2.4830     6.9857     6.7778
  468.5000     7.9042   175.9036     0.2844     0.1106    -0.0084     2.4635     6.2530     6.1943
  469.0000     7.9040   180.7952     0.3181     0.1208    -0.0069     2.4297     6.1680     5.7003
  469.5000     7.9039   182.8313     0.3253     0.1374     0.0087     2.4140     6.2551     5.7404
  470.0000     7.9038   174.3976     0.3061     0.1446     0.0246     2.4260     6.2995     6.0681
  470.5000     7.9036   160.1507     0.2919     0.1253     0.0156     2.4838     6.3441     6.4590
  471.0000     7.9034   156.9277     0.2621     0.0961     0.0066     2.5191     6.4337     7.0196
  471.5000     7.9033   156.6265     0.2552     0.0778     0.0036     2.5258     6.5697     7.5239
  472.0000     7.8881   156.9277     0.2552     0.0748     0.0037     2.5266     6.8495     8.0644
  472.5000     7.8880   156.6265     0.2573     0.0748     0.0052     2.5281     7.4445     8.5247
  473.0000     7.8878   155.4217     0.2582     0.0736     0.0037     2.5281     8.6122     8.9491
  473.5000     7.8876   153.3132     0.2597     0.0733     0.0037     2.5266     9.4909     9.4598
  474.0000     7.8875   153.0121     0.2600     0.0747     0.0112     2.5251     9.8951     9.9309
  474.5000     7.9024   153.3132     0.2600     0.0756     0.0187     2.5266    10.1043    10.2107
  475.0000     7.9022   154.5181     0.2597     0.0735     0.0232     2.5312    10.3183    10.3539
  475.5000     7.9172   160.2410     0.2594     0.0708     0.0217     2.5379    10.3914    10.4991
  476.0000     7.9170   163.2530     0.2591     0.0675     0.0158     2.5417    10.4650    10.5730
  476.5000     7.9018   163.8554     0.2590     0.0651     0.0098     2.5379    10.6125    10.7212
  477.0000     7.8866   162.6506     0.2581     0.0669     0.0008     2.5357    10.7725    10.8716
  477.5000     7.8865   162.6506     0.2569     0.0681     0.0008     2.5364    10.9899    11.0240
  478.0000     7.8863   162.6506     0.2557     0.0684     0.0038     2.5372    11.2222    11.1900
  478.5000     7.8861   160.8434     0.2551     0.0684     0.0098     2.5402    11.5392    11.4938
  479.0000     7.8860   159.3374     0.2539     0.0675     0.0188     2.5372    11.7111    11.7360
  479.5000     7.8858   156.9277     0.2482     0.0663     0.0278     2.5290    12.0327    11.9006
  480.0000     7.8857   152.7108     0.2431     0.0672     0.0608     2.5229    12.2022    12.0787
  480.5000     7.8856   149.0964     0.2358     0.0759     0.0818     2.5320    12.3741    12.4077
  481.0000     7.8854   143.9759     0.2310     0.0768     0.0952     2.5553    12.5485    12.4948
  481.5000     7.8852   143.3735     0.2235     0.0692     0.0788     2.5810    12.5505    12.7581
  482.0000     7.8851   146.3855     0.2193     0.0548     0.0354     2.5793    12.5522    12.7590
  482.5000     7.9000   148.4940     0.2198     0.0443     0.0100     2.5733    12.7290    12.8003
  483.0000     7.8848   149.3976     0.2310     0.0404     0.0010     2.5601    12.7307    12.9389
  483.5000     7.8997   150.6024     0.2448     0.0434     0.0025     2.5433    12.9105    12.9398
  484.0000     7.8845   152.1084     0.2572     0.0530     0.0040     2.5275    12.9122    12.9406
  484.5000     7.8843   152.7108     0.2656     0.0680     0.0040     2.5206    12.9138    12.9417
  485.0000     7.8842   150.6024     0.2683     0.0758     0.0040     2.5170    13.0054    12.9425
  485.5000     7.8841   147.5904     0.2671     0.0794     0.0041     2.5133    13.0075    12.9434
  486.0000     7.8989   145.7831     0.2628     0.0818     0.0041     2.5088    13.0996    12.9359
  486.5000     7.8838   146.0843     0.2582     0.0839     0.0026     2.5133    13.1014    12.7669
  487.0000     7.8836   147.8916     0.2544     0.0839    -0.0004     2.5171    13.1031    12.7679
  487.5000     7.8834   151.8072     0.2538     0.0791    -0.0004     2.5223    13.1052    12.6803
  488.0000     7.8833   153.6145     0.2538     0.0761     0.0041     2.5238    13.1069    12.6814
  488.5000     7.8982   152.4096     0.2538     0.0752     0.0101     2.5246    13.1086    12.7706
  489.0000     7.9131   150.9036     0.2538     0.0749     0.0161     2.5246    13.1103    12.7714
  489.5000     7.9129   151.8072     0.2538     0.0755     0.0117     2.5239    13.0215    12.7723
  490.0000     7.9128   154.2169     0.2541     0.0758     0.0057     2.5224    13.1142    12.7731
  490.5000     7.9126   155.4217     0.2541     0.0764    -0.0003     2.5216    13.0249    12.7742
  491.0000     7.9125   154.2169     0.2538     0.0770    -0.0018     2.5194    13.0270    12.7750
  491.5000     7.9115   151.8072     0.2531     0.0781    -0.0018     2.5164    12.9392    12.6874
  492.0000     7.8971   150.2691     0.2534     0.0811    -0.0047     2.5134    12.9409    12.6008
  492.5000     7.8970   150.0000     0.2546     0.0829    -0.0032     2.5126    12.7644    12.5146
  493.0000     7.8968   152.1084     0.2573     0.0811    -0.0017     2.5157    12.5904    12.4290
  493.5000     7.8967   155.4478     0.2604     0.0790    -0.0002     2.5195    12.2477    12.2587
  494.0000     7.8965   159.0361     0.2646     0.0778     0.0028     2.5224    11.9803    12.0843
  494.5000     7.8964   161.1446     0.2694     0.0769     0.0058     2.5239    11.6712    11.7611
  495.0000     7.9113   162.9518     0.2733     0.0754     0.0073     2.5255    11.5920    11.4403
  495.5000     7.9111   163.8554     0.2766     0.0751     0.0074     2.5262    11.2766    10.9753
  496.0000     7.8959   163.8554     0.2760     0.0769     0.0074     2.5232    10.9701    10.8229
  496.5000     7.8958   163.8554     0.2751     0.0781     0.0059     2.5202    10.8205    10.6028
  497.0000     7.8956   164.4578     0.2748     0.0760     0.0044     2.5210    10.6729    10.5303
  497.5000     7.8805   165.0602     0.2753     0.0748     0.0014     2.5255    10.4463    10.3145
  498.0000     7.8803   163.8394     0.2771     0.0748    -0.0016     2.5255    10.2413    10.2439
  498.5000     7.8801   161.4458     0.2805     0.0742    -0.0015     2.5248    10.1719    10.1036
  499.0000     7.8800   163.5542     0.2839     0.0732     0.0000     2.5263    10.1026     9.9651
  499.5000     7.8648   166.8757     0.2883     0.0729     0.0030     2.5270    10.1043     9.8970
  500.0000     7.8797   168.0723     0.2916     0.0720     0.0045     2.5293    10.1059     9.8294
  500.5000     7.8795   164.1566     0.2919     0.0693     0.0060     2.5323    10.0371     9.7622
  501.0000     7.8944   162.6506     0.2910     0.0672     0.0015     2.5361    10.1086     9.8309
  501.5000     7.8943   164.7590     0.2916     0.0675    -0.0015     2.5353    10.1802     9.8315
  502.0000     7.8941   166.2651     0.2922     0.0697    -0.0044     2.5316    10.1112     9.8321
  502.5000     7.8940   167.7711     0.2921     0.0744    -0.0059     2.5263     9.9737     9.7649
  503.0000     7.8938   169.2771     0.2915     0.0777    -0.0029     2.5218     9.9057     9.6981
  503.5000     7.8937   171.0843     0.2906     0.0777     0.0016     2.5181     9.9074     9.6989
  504.0000     7.8785   172.2892     0.2903     0.0762     0.0031     2.5166     9.8402     9.5660
  504.5000     7.8934   171.6868     0.2918     0.0762     0.0016     2.5166     9.7064     9.4349
  505.0000     7.8932   171.0843     0.2927     0.0765     0.0031     2.5166     9.6403     9.2415
  505.5000     7.8780   173.4940     0.2961     0.0777     0.0032     2.5173     9.5753     9.1782
  506.0000     7.8779   174.3976     0.3005     0.0792     0.0047     2.5174     9.5768     9.0526
