~VERSION INFORMATION
 VERS.                2.0:   CWLS LOG ASCII STANDARD - VERSION 2.0
 WRAP.                 NO:   ONE LINE PER DEPTH STEP
~WELL INFORMATION
#MNEM.UNIT      DATA TYPE    INFORMATION
#----------   ------------   ------------------------------
 STRT.F            0.0000:   START DEPTH
 STOP.F          384.0000:   STOP DEPTH
 STEP.F            0.5000:   STEP LENGTH
 NULL.          -999.2500:   NO VALUE
 COMP. DEPARTMENT OF ENERGY:   COMPANY
 WELL. NPR 3 #65-15 SX3 C4:   WELL
 FLD .        TEAPOT EAST:   FIELD
 LOC .       S3 T38N R78W:   LOCATION
 CNTY.            NATRONA:   COUNTY
 STAT.            WYOMING:   STATE
 CTRY. UNITED STATES OF AMERICA:   COUNTRY
 SRVC.      Dresser Atlas:   SERVICE COMPANY
 DATE.        02-JUL-1985:   LOGDATE
 API .       490251134600:   API NUMBER
~CURVE INFORMATION
#MNEM.UNIT       API CODE    CURVE DESCRIPTION
#----------   ------------   ------------------------------
 DEPT.F                  :   
 CALD.IN     45 280 60 00:   CALIPER FROM DENSITY LOG
 CORR.G/C3   45 356 01 00:   DENSITY CORRECTION
 DEN .G/C3   45 350 01 00:   COMPENSATED BULK DENSTIY
 NPOR.DEC    42 890 03 00:   NEUTRON POROSITY SANDSTONE
 PORD.DEC    45 890 12 00:   POROSITY DENSITY SANDSTONE
 GRR .GAPI   07 310 01 00:   GAMMA RAY
 RILD.OHMM   07 120 46 00:   INDUCTION LOG DEEP RESISTIVITY
 RILM.OHMM   07 120 44 00:   RESITIVITY LONG MEDIUM
~PARAMETER INFORMATION
#MNEM.UNIT          VALUE    DESCRIPTION
#----------   ------------   ------------------------------
 PD  .                 GL:   PERMANENT DATUM
 EPD .F              5162:   ELEVATION PERMANENT DATUM
 LMF .                 GL:   LOG MEASURED FROM
 DMF .                 GL:   DRILLING MEASURED FROM
 EGL .F              5162:   GROUND LEVEL
 DATE.        02-JUL-1985:   RUN DATE
 RUN .                  1:   RUN NUMBER
 DD  .F               399:   DEPTH DRILLER
 DL  .F               388:   DEPTH LOGGER
 BLI .F               380:   BOTTOM LOG INTERVAL
 CS  .IN                7:   CASING SIZE
 CBD .F                80:   CASING BOTTOM DRILLER
 CBL .F                68:   CASING BOTTOM LOGGER
 BS  .IN            4.875:   BIT SIZE
 BSD .F               399:   BIT SIZE AT DEPTH
 DFT .                OIL:   DRILLING FLUID TYPE
 TCS .HRS               4:   TIME CURCULATED STOPPED
 MRT .F               158:   MAXIMUM RECORDED TEMPERATURE
 LUN .               6274:   LOGGING UNIT NUMBER
 LUL .           GILLETTE:   LOGGING UNIT LOCATION
 ENGI.             RAUTIO:   RECORDING ENGINEER
 WITN.            SCHULTE:   WITNESSED BY
 CLNT.            A2DTECH:   CLIENT CODE
 ORIG.           5" PRINT:   ORIGIN OF DATA
 UWI .       490251134600:   UNIQUE WELL ID
 DICO. A2D Technologies, Inc.:   DIGITIZING COMPANY
~OTHER INFORMATION
~A    DEPT    CALD       CORR        DEN       NPOR       PORD         GRR      RILD       RILM   
# ...
  283.5000     5.2985    -0.0300     2.0436     0.1339     0.3518    80.4114     8.4925     8.9778
  284.0000     5.2692    -0.0194     2.1090     0.1855     0.3001    82.5473     7.2910     6.0442
  284.5000     5.2549    -0.0133     2.1692     0.2036     0.2653    78.9256     6.4807     5.7191
  285.0000     5.2556    -0.0117     2.2248     0.2060     0.2475    73.1827     5.9228     5.5639
  285.5000     5.2714    -0.0011     2.2436     0.2120     0.2414    71.6818     5.4125     5.2979
  286.0000     5.2874     0.0335     2.2602     0.2543     0.2311    70.7636     4.9777     5.0050
  286.5000     5.2731     0.0501     2.2805     0.2763     0.2139    67.3272     4.6811     4.6486
  287.0000     5.2738     0.0487     2.2979     0.2811     0.2260    64.1541     4.4601     4.3986
  287.5000     5.2593     0.0352     2.2801     0.2826     0.2405    65.3809     4.2792     4.2792
  288.0000     5.2602     0.0359     2.2439     0.2751     0.2486    71.4562     4.1343     4.1342
  288.5000     5.2610     0.0610     2.2409     0.2718     0.2353    75.4103     3.9942     3.9942
  289.0000     5.2617     0.0701     2.2830     0.2730     0.2054    77.8492     3.8858     3.8322
  289.5000     5.2624     0.0597     2.3274     0.2748     0.1851    79.3790     3.7803     3.7024
  290.0000     5.2632     0.0403     2.3425     0.2751     0.1876    80.9293     3.7292     3.6003
  290.5000     5.2639     0.0223     2.3410     0.2729     0.1888    82.7454     3.7572     3.6282
  291.0000     5.2647     0.0269     2.3425     0.2581     0.1770    79.4267     3.9484     3.9447
  291.5000     5.2505     0.0360     2.3644     0.2509     0.1563    77.3165     4.1713     4.3487
  292.0000     5.2513     0.0496     2.4065     0.2503     0.1332    77.6379     4.4108     4.7610
  292.5000     5.2520     0.0722     2.4381     0.2497     0.1361    76.7435     4.5998     5.1404
  293.0000     5.2375     0.0828     2.4144     0.2343     0.1552    74.6369     4.6979     5.2137
  293.5000     5.2232     0.0587     2.3833     0.1956     0.1645    71.6213     4.7649     5.1076
  294.0000     5.2241     0.0335     2.3774     0.1775     0.1473    70.7269     4.7004     4.9346
  294.5000     5.2249     0.0711     2.4315     0.1977     0.1264    77.4119     4.6047     4.7646
  295.0000     5.2406     0.1132     2.4473     0.2352     0.1240    81.0629     4.4798     4.5744
  295.5000     5.2414     0.1208     2.4294     0.2649     0.1481    85.3200     4.3865     4.4191
  296.0000     5.2571     0.1119     2.3866     0.2714     0.1614    86.8499     4.2941     4.2995
  296.5000     5.2428     0.0760     2.3828     0.2747     0.1635    88.3797     4.1829     4.2119
  297.0000     5.2436     0.0325     2.3799     0.2771     0.1667    88.3944     4.0977     4.1836
  297.5000     5.2445     0.0146     2.3747     0.2798     0.1711    85.6768     4.0702     4.1850
  298.0000     5.2452     0.0162     2.3680     0.2768     0.1741    85.0904     4.0716     4.2154
  298.5000     5.2460     0.0193     2.3611     0.2713     0.1774    84.8020     4.1010     4.2459
  299.0000     5.2467     0.0226     2.3528     0.2707     0.1813    84.8204     4.1480     4.2767
  299.5000     5.2474     0.0255     2.3493     0.2722     0.1807    85.1381     4.1897     4.3379
  300.0000     5.2482     0.0210     2.3531     0.2746     0.1798    86.0618     4.3089     4.3995
  300.5000     5.2336     0.0082     2.3554     0.2783     0.1788    84.5626     4.3695     4.3799
  301.0000     5.2192    -0.0004     2.3570     0.2819     0.1788    84.8804     4.4618     4.5355
  301.5000     5.2349     0.0071     2.3555     0.2828     0.1803    86.1073     4.5257     4.6640
  302.0000     5.2355     0.0116     2.3510     0.2804     0.1855    88.2432     4.6304     4.7630
  302.5000     5.2362     0.0056     2.3458     0.2789     0.1903    90.3792     4.8507     4.7968
  303.0000     5.2216    -0.0020     2.3404     0.2816     0.1906    90.3939     4.9877     4.8986
  303.5000     5.2223    -0.0037     2.3301     0.2852     0.1918    88.1728     5.0930     5.0375
  304.0000     5.2229    -0.0005     2.3234     0.2879     0.1968    84.9725     5.2006     5.1803
  304.5000     5.2235     0.0042     2.3181     0.2900     0.1996    83.4721     5.3105     5.2902
  305.0000     5.2391     0.0070     2.3212     0.2915     0.1963    82.8808     5.4227     5.4024
  305.5000     5.2397    -0.0096     2.3272     0.2915     0.1945    82.5888     5.5758     5.5169
  306.0000     5.2403    -0.0231     2.3220     0.2906     0.1993    82.3005     5.6936     5.5949
  306.5000     5.2410    -0.0306     2.3145     0.2891     0.2026    83.5310     5.7737     5.6740
  307.0000     5.2416    -0.0231     2.3138     0.2879     0.2032    84.7579     5.8549     5.7542
  307.5000     5.2422    -0.0126     2.3191     0.2876     0.2014    85.9950     5.8961     5.7954
  308.0000     5.2428    -0.0020     2.3199     0.2891     0.1999    87.5596     5.9376     5.8366
  308.5000     5.2434     0.0054     2.3192     0.2928     0.2005    85.7148     5.9380     5.8781
  309.0000     5.2288    -0.0006     2.3155     0.2967     0.2017    83.6084     5.9798     5.9199
  309.5000     5.2295    -0.0142     2.3095     0.2982     0.2044    82.1043     6.0219     5.9620
  310.0000     5.2150    -0.0262     2.3050     0.2969     0.2074    82.7287     6.0279     5.9628
  310.5000     5.2156    -0.0157     2.3066     0.2952     0.2086    84.5617     6.0648     6.0052
  311.0000     5.2012     0.0083     2.3143     0.2934     0.2040    84.5764     6.0652     6.0060
  311.5000     5.2019     0.0143     2.3266     0.2912     0.2004    82.7729     6.1079     6.0487
  312.0000     5.2025     0.0173     2.3367     0.2894     0.1934    84.3516     6.1083     6.0919
  312.5000     5.2031     0.0088     2.3323     0.2906     0.1900    86.4394     6.1513     6.1352
  313.0000     5.2037    -0.0203     2.3158     0.2970     0.1967    85.5481     6.1946     6.1789
  313.5000     5.1892    -0.0308     2.3083     0.2970     0.2019    83.1386     6.2382     6.1797
  314.0000     5.1898    -0.0158     2.3061     0.2924     0.2059    82.8466     6.3312     6.2671
  314.5000     5.1911    -0.0083     2.3106     0.2875     0.2073    86.1984     6.5046     6.3556
  315.0000     5.1910    -0.0189     2.3229     0.2867     0.2012    88.3343     6.6420     6.4920
  315.5000     5.2067    -0.0249     2.3445     0.2952     0.1852    89.8642     6.7824     6.6354
  316.0000     5.2073    -0.0279     2.3543     0.2976     0.1801    90.1820     6.9256     6.8161
  316.5000     5.2079    -0.0204     2.3453     0.2991     0.1837    89.5465     7.0230     6.9125
  317.0000     5.2085    -0.0039     2.3341     0.2994     0.1903    87.4878     7.1217     7.0102
  317.5000     5.2091     0.0111     2.3274     0.2997     0.1933    85.3814     7.2218     7.1093
  318.0000     5.2096     0.0216     2.3440     0.2994     0.1903    84.7864     7.2727     7.2098
  318.5000     5.2102     0.0351     2.3613     0.2988     0.1817    88.4411     7.3240     7.2611
  319.0000     5.2108     0.0441     2.3718     0.2979     0.1710    90.2704     7.3245     7.2621
  319.5000     5.2115     0.0516     2.3734     0.2973     0.1670    86.6524     7.3760     7.2631
  320.0000     5.2121     0.0576     2.3749     0.2976     0.1673    85.9392     7.4279     7.3149
  320.5000     5.2126     0.0396     2.3772     0.2988     0.1664    88.8031     7.5323     7.3670
  321.0000     5.2133     0.0215     2.3795     0.2994     0.1649    89.4525     7.7990     7.6165
  321.5000     5.2139     0.0080     2.3840     0.2991     0.1609    90.0484     8.0193     8.0100
  322.0000     5.2145     0.0215     2.3946     0.2909     0.1534    89.4571     8.2512     8.2944
  322.5000     5.2151     0.0530     2.4104     0.2680     0.1401    88.2597     8.5379     8.6488
  323.0000     5.2006     0.0455     2.4353     0.2372     0.1340    86.4562     8.7183     9.0817
  323.5000     5.1861     0.0260     2.4646     0.2188     0.1183    84.9558     8.9025     9.3386
