~VERSION INFORMATION
 VERS.                2.0:   CWLS LOG ASCII STANDARD - VERSION 2.0
 WRAP.                 NO:   ONE LINE PER DEPTH STEP
~WELL INFORMATION
#MNEM.UNIT      DATA TYPE    INFORMATION
#----------   ------------   ------------------------------
 STRT.F           29.0000:   START DEPTH
 STOP.F          720.0000:   STOP DEPTH
 STEP.F            0.5000:   STEP LENGTH
 NULL.          -999.2500:   NO VALUE
 COMP.    FENIX & SCISSON:   COMPANY
 WELL. RES 3 TEAPOT DOM #21-S-14:   WELL
 FLD .        TEAPOT DOME:   FIELD
 LOC .      S14 T38N R78W:   LOCATION
 CNTY.            NATRONA:   COUNTY
 STAT.            WYOMING:   STATE
 CTRY. UNITED STATES OF AMERICA:   COUNTRY
 SRVC.            Unknown:   SERVICE COMPANY
 DATE.        25-MAY-1978:   LOGDATE
 API .       490251063300:   API NUMBER
~CURVE INFORMATION
#MNEM.UNIT       API CODE    CURVE DESCRIPTION
#----------   ------------   ------------------------------
 DEPT.F                  :   
 CALD.IN     45 280 60 00:   CALIPER FROM DENSITY LOG
 CORR.G/C3   45 356 01 00:   DENSITY CORRECTION
 DPHI.DEC    45 890 12 00:   DENSITY POROSITY SANDSTONE
 GRD .GAPI   45 310 01 00:   GAMMA RAY FROM DENSITY LOG
 RHOB.G/C3   45 350 01 00:   BULK DENSITY
 ILD .OHMM   05 120 46 00:   INDUCTION LOG DEEP
 SN  .OHMM   05 040 16 00:   SHORT NORMAL 16"
 SPR .MV     05 010 01 00:   SPONTANEOUS POTENTIAL FROM RES.
~PARAMETER INFORMATION
#MNEM.UNIT          VALUE    DESCRIPTION
#----------   ------------   ------------------------------
 PD  .                 GL:   PERMANENT DATUM
 EPD .F              5232:   ELEVATION PERMANENT DATUM
 LMF .                 KB:   LOG MEASURED FROM
 DAPD.F                 4:   FEET ABOVE PERMANENT DATUM
 DMF .                 KB:   DRILLING MEASURED FROM
 EKB .F              5236:   KELLING BUSHING
 EGL .F              5232:   GROUND LEVEL
 DATE.        25-MAY-1978:   RUN DATE
 RUN .                  1:   RUN NUMBER
 DD  .F               716:   DEPTH DRILLER
 DL  .F               727:   DEPTH LOGGER
 BLI .F               720:   BOTTOM LOG INTERVAL
 TLI .F                44:   TOP LOG INTERVAL
 CS  .IN            8.625:   CASING SIZE
 CBD .F                40:   CASING BOTTOM DRILLER
 CBL .F                44:   CASING BOTTOM LOGGER
 BS  .IN            7.875:   BIT SIZE
 BSD .F               716:   BIT SIZE AT DEPTH
 DFT .                KCL:   DRILLING FLUID TYPE
 DFD .                8.6:   DRILLING FLUID DENSITY
 DFV .                 31:   DRILLING FLUID VISCOSITY
 DFPH.                9.5:   DRILLING FLUID PH
 DFL .               10.8:   DRILLING FLUID LOSS
 MSS .            MUD PIT:   MUD SAMPLE SOURCE
 RMS .OHMM           0.32:   RESISTIVITY MUD SAMPLE
 MST .F                82:   MUD SAMPLE TEMPERATURE
 RMF .OHMM           0.34:   RESISTIVITY MUD FILTRATE SAMPLE
 MFST.F                72:   MUD FILTRATE SAMPLE TEMPERATURE
 RMC .OHMM            0.8:   RESISTIVITY MUD CAKE
 MCST.F                72:   MUD CAKE SAMPLE TEMPERATURE
 MFSS.               MEAS:   MUD FILTRATE SAMPLE SOURCE
 RMB .OHMM           0.35:   RESISTIVITY MUD AT BHT
 BHT .F                74:   BOTTOM HOLE TEMPERATURE
 TCS .HRS               1:   TIME CURCULATED STOPPED
 MRT .F                74:   MAXIMUM RECORDED TEMPERATURE
 LUN .               2958:   LOGGING UNIT NUMBER
 LUL .               CASP:   LOGGING UNIT LOCATION
 ENGI.             MILLER:   RECORDING ENGINEER
 WITN.           MCGINLEY:   WITNESSED BY
 CLNT.            A2DTECH:   CLIENT CODE
 ORIG.           5" PRINT:   ORIGIN OF DATA
 UWI .       490251063300:   UNIQUE WELL ID
 DICO. A2D Technologies, Inc.:   DIGITIZING COMPANY
~OTHER INFORMATION
~A   DEPT     CALD       CORR       DPHI         GRD      RHOB        ILD         SN        SPR   
# ...
   69.5000     7.0547     0.0417     0.2580    78.3448     2.2476     2.5908     2.5888   -30.1071
   70.0000     7.1624     0.0809     0.2194    78.3592     2.2462     2.5750     2.4569   -30.0861
   70.5000     7.1639     0.0990     0.2019    78.3736     2.2815     2.5963     2.4250   -30.0689
   71.0000     7.1505     0.0828     0.2065    78.0836     2.3182     2.6534     2.4448   -30.0516
   71.5000     7.1530     0.0561     0.2091    77.4831     2.3505     2.7306     2.5159   -29.7367
   72.0000     7.3344     0.0428     0.1917    73.1965     2.3242     2.8306     2.5890   -29.7195
   72.5000     8.1735     0.0415     0.1881    59.9238     2.3499     2.9530     2.7388   -29.7022
   73.0000     8.5133     0.0403     0.1797    70.6880     2.3545     3.0811     2.9444   -29.6845
   73.5000     7.9235     0.0330     0.1868    73.3890     2.3666     3.2370     3.1737   -29.6634
   74.0000     7.5931     0.0048     0.1987    74.1497     2.3696     3.3774     3.3343   -29.9438
   74.5000     7.4497     0.0020     0.2086    74.7751     2.3384     3.5483     3.4075   -29.9265
   75.0000     7.3770     0.0023     0.2142    77.9354     2.3250     3.6768     3.4109   -29.9093
   75.5000     7.3636     0.0025     0.2203    78.8198     2.3176     3.7319     3.3900   -29.8920
   76.0000     7.3507     0.0027     0.2276    75.2557     2.3107     3.6571     3.3477   -30.0236
   76.5000     7.3532     0.0029     0.2350    75.2701     2.2969     3.5882     3.2804   -30.1551
   77.0000     7.3552     0.0046     0.2415    75.5830     2.2790     3.4952     3.1960   -30.4355
   77.5000     7.3573     0.0034     0.2499    76.7915     2.2701     3.3571     3.0700   -30.4139
   78.0000     7.3892     0.0036     0.2684    79.9602     2.2545     3.2022     2.9688   -30.2479
   78.5000     7.3917     0.0038     0.2821    85.5567     2.2284     2.9801     2.8708   -29.9330
   79.0000     7.4087     0.0086     0.2940    87.1332     2.1971     2.6821     2.6819   -29.4693
   79.5000     7.4257     0.0282     0.2996    85.8079     2.1800     2.5939     2.5402   -29.4521
   80.0000     7.4427     0.0689     0.2763    87.1656     2.1904     2.5766     2.4542   -29.4345
   80.5000     7.4447     0.1350     0.2132    87.3293     2.2812     2.6363     2.3272   -29.4132
   81.0000     7.4467     0.0465     0.1682    86.8959     2.3636     2.7507     2.3457   -28.8008
   81.5000     7.4487     0.0137     0.1646    85.5358     2.3606     2.8700     2.4987   -28.1883
   82.0000     7.4358     0.0099     0.1706    76.6298     2.3862     2.9739     2.6070   -27.4270
   82.5000     7.4384     0.0146     0.1663    75.0025     2.3908     3.0816     2.7390   -27.5628
   83.0000     7.4404     0.0148     0.1651    71.5840     2.3953     3.1712     2.9787   -27.8393
   83.5000     7.4424     0.0166     0.1642    69.9566     2.3984     3.4549     3.6303   -27.8214
   84.0000     7.4444     0.0198     0.1638    72.5084     2.3985     4.1559     4.4880   -27.8001
   84.5000     7.4614     0.0215     0.1635    74.3138     2.3986     4.8809     4.5866   -27.7828
   85.0000     7.5083     0.0217     0.1577    74.6269     2.3987     5.0576     4.6231   -27.7656
   85.5000     7.6000     0.0204     0.1553    74.6448     2.4086     5.0980     4.6598   -27.7483
   86.0000     7.6469     0.0192     0.1511    74.6592     2.4154     5.1035     4.7293   -27.5822
   86.5000     7.6340     0.0209     0.1475    74.6736     2.4215     5.0725     4.8332   -27.4162
   87.0000     7.6365     0.0256     0.1450    74.6880     2.4268     5.1498     5.0438   -27.3988
   87.5000     7.6385     0.0288     0.1438    76.1949     2.4308     5.3395     5.3044   -27.3810
   88.0000     7.6256     0.0291     0.1450    78.0004     2.4330     5.6078     5.5676   -27.6577
   88.5000     7.6122     0.0262     0.1437    78.3133     2.4308     5.8108     5.7691   -27.7893
   89.0000     7.5848     0.0190     0.1452    76.8388     2.4324     5.9798     5.9778   -27.9208
   89.5000     7.5569     0.0118     0.1487    75.3606     2.4280     6.0694     6.1515   -27.9036
   90.0000     7.5291     0.0196     0.1469    74.4795     2.4251     6.1603     6.2434   -27.8863
   90.5000     7.5012     0.0257     0.1477    76.8820     2.4260     6.1669     6.2496   -27.7202
   91.0000     7.4584     0.0274     0.1477    77.7919     2.4276     6.1735     6.2128   -27.5536
   91.5000     7.3862     0.0306     0.1470    77.8063     2.4284     6.1803     6.2637   -27.3838
   92.0000     7.3429     0.0309     0.1458    80.2090     2.4308     6.1883     6.2253   -27.2178
   92.5000     7.3454     0.0311     0.1397    79.9283     2.4316     6.1950     6.2331   -27.2005
   93.0000     7.3324     0.0253     0.1430    80.0920     2.4347     6.2016     6.1948   -27.1833
   93.5000     7.2744     0.0165     0.1457    81.3004     2.4363     6.2082     6.2025   -27.3155
   94.0000     7.2170     0.0108     0.1480    81.7590     2.4244     6.2149     6.1660   -27.4464
   94.5000     7.2344     0.0095     0.1495    81.1764     2.4245     6.2215     6.1724   -27.4286
   95.0000     7.2664     0.0158     0.1468    80.8955     2.4231     6.2282     6.1799   -27.4076
   95.5000     7.2833     0.0190     0.1470    80.4497     2.4256     6.2351     6.0997   -27.3903
   96.0000     7.2854     0.0176     0.1482    77.7940     2.4233     6.1986     6.0637   -27.5219
   96.5000     7.2874     0.0164     0.1521    77.0585     2.4197     6.1625     6.0280   -27.5046
   97.0000     7.2595     0.0181     0.1532    78.2706     2.4175     6.1708     5.9527   -27.4873
   97.5000     7.2162     0.0198     0.1522    78.4342     2.4169     6.1774     5.9587   -27.3213
   98.0000     7.2188     0.0186     0.1507    78.2958     2.4200     6.1840     5.9648   -27.3036
   98.5000     7.1914     0.0173     0.1501    78.6123     2.4201     6.1480     6.0136   -27.2825
   99.0000     7.1486     0.0160     0.1536    80.7512     2.4194     6.1974     6.0613   -27.5628
   99.5000     7.1202     0.0178     0.1500    83.4208     2.4165     6.2055     6.0674   -27.6987
  100.0000     7.0923     0.0194     0.1469    81.2913     2.4221     6.2146     6.0720   -27.8400
  100.5000     7.1059     0.0152     0.1499    79.2695     2.4258     6.2656     6.0084   -27.9008
  101.0000     7.1267     0.0004     0.1582    79.4424     2.4161     6.3095     6.0858   -27.9386
  101.5000     7.1435    -0.0039     0.1594    79.3121     2.4102     6.3174     6.1763   -28.0639
  102.0000     7.1903     0.0068     0.1498    74.6249     2.4140     6.3238     6.2681   -28.0451
  102.5000     7.2370     0.0100     0.1455    71.6642     2.4224     6.4181     6.3613   -28.0263
  103.0000     7.2837     0.0042     0.1482    73.1050     2.4262     6.4246     6.4114   -28.0075
  103.5000     7.3160    -0.0050     0.1538    77.1537     2.4248     6.4313     6.4620   -27.9887
  104.0000     7.3643    -0.0133     0.1631    75.0831     2.4167     6.4836     6.4680   -27.9699
  104.5000     7.3945    -0.0011     0.1481    73.9080     2.4063     6.4902     6.4742   -27.9511
  105.0000     7.4114     0.0051     0.1483    72.7329     2.4157     6.4967     6.4817   -28.3788
  105.5000     7.4282     0.0083     0.1492    71.8563     2.4224     6.5032     6.4878   -28.5088
  106.0000     7.4451     0.0115     0.1501    69.9350     2.4246     6.5097     6.4048   -28.4853
  106.5000     7.4619     0.0057     0.1452    69.6552     2.4262     6.4713     6.4093   -28.4665
  107.0000     7.4788     0.0014     0.1586    70.5403     2.4181     6.4780     6.3705   -28.7500
  107.5000     7.4806    -0.0014     0.1691    74.3209     2.4032     6.4399     6.3347   -28.8800
  108.0000     7.5124    -0.0026     0.1812    73.1497     2.3981     6.4021     6.2536   -29.0060
  108.5000     7.5143    -0.0069     0.1911    72.7209     2.3802     6.4101     6.1736   -28.9865
  109.0000     7.5332    -0.0097     0.2075    72.7398     2.3504     6.4166     6.0462   -29.1165
  109.5000     7.5485    -0.0110     0.2281    73.0573     2.3332     6.3350     5.8137   -29.0930
