~VERSION INFORMATION
 VERS.                2.0:   CWLS LOG ASCII STANDARD - VERSION 2.0
 WRAP.                 NO:   ONE LINE PER DEPTH STEP
~WELL INFORMATION
#MNEM.UNIT      DATA TYPE    INFORMATION
#----------   ------------   ------------------------------
 STRT.F           30.5000:   START DEPTH
 STOP.F          692.0000:   STOP DEPTH
 STEP.F            0.5000:   STEP LENGTH
 NULL.          -999.2500:   NO VALUE
 COMP. FENIX & SCISSON INC:   COMPANY
 WELL.   27-S-11-WP #3-11:   WELL
 FLD .  TEAPOT DOME NPR-3:   FIELD
 LOC .      S11 T38N R78W:   LOCATION
 CNTY.            NATRONA:   COUNTY
 STAT.            WYOMING:   STATE
 CTRY. UNITED STATES OF AMERICA:   COUNTRY
 SRVC.       Schlumberger:   SERVICE COMPANY
 DATE.        18-FEB-1978:   LOGDATE
 API .       490251058100:   API NUMBER
~CURVE INFORMATION
#MNEM.UNIT       API CODE    CURVE DESCRIPTION
#----------   ------------   ------------------------------
 DEPT.F                  :   
 CALD.IN     45 280 60 00:   CALIPER FROM DENSITY LOG
 CORR.G/C3   45 356 01 00:   DENSITY CORRECTION
 DPHI.DEC    45 890 12 00:   DENSITY POROSITY SANDSTONE
 GRD .GAPI   45 310 01 00:   GAMMA RAY FROM DENSITY LOG
 RHOB.G/C3   45 350 01 00:   BULK DENSITY
 ILD .OHMM   05 110 46 00:   INDUCTION LOG DEEP
 SN  .OHMM   05 040 16 00:   SHORT NORMAL 16"
 SPR .MV     05 010 01 00:   SPONTANEOUS POTENSIAL FROM RES.
~PARAMETER INFORMATION
#MNEM.UNIT          VALUE    DESCRIPTION
#----------   ------------   ------------------------------
 PD  .                 GL:   PERMANENT DATUM
 EPD .F              5195:   ELEVATION PERMANENT DATUM
 LMF .                 KB:   LOG MEASURED FROM
 DAPD.F                 4:   FEET ABOVE PERMANENT DATUM
 DMF .                 KB:   DRILLING MEASURED FROM
 EKB .F              5199:   KELLING BUSHING
 EGL .F              5195:   GROUND LEVEL
 DATE.        18-FEB-1978:   RUN DATE
 RUN .                  1:   RUN NUMBER
 DD  .F               690:   DEPTH DRILLER
 DL  .F               695:   DEPTH LOGGER
 BLI .F               688:   BOTTOM LOG INTERVAL
 TLI .F                40:   TOP LOG INTERVAL
 CS  .IN            8.625:   CASING SIZE
 CBD .F                40:   CASING BOTTOM DRILLER
 CBL .F                40:   CASING BOTTOM LOGGER
 BS  .IN            7.875:   BIT SIZE
 BSD .F               690:   BIT SIZE AT DEPTH
 DFT .       LIGNO/ SULF.:   DRILLING FLUID TYPE
 DFD .                8.8:   DRILLING FLUID DENSITY
 DFV .                 33:   DRILLING FLUID VISCOSITY
 DFPH.               10.0:   DRILLING FLUID PH
 DFL .                5.0:   DRILLING FLUID LOSS
 MSS .           FLOWLINE:   MUD SAMPLE SOURCE
 RMS .OHMM            1.7:   RESISTIVITY MUD SAMPLE
 MST .F                66:   MUD SAMPLE TEMPERATURE
 RMF .OHMM            2.0:   RESISTIVITY MUD FILTRATE SAMPLE
 MFST.F                58:   MUD FILTRATE SAMPLE TEMPERATURE
 RMC .OHMM            3.0:   RESISTIVITY MUD CAKE
 MCST.F                60:   MUD CAKE SAMPLE TEMPERATURE
 MFSS.               MEAS:   MUD FILTRATE SAMPLE SOURCE
 RMB .OHMM           1.65:   RESISTIVITY MUD AT BHT
 BHT .F                68:   BOTTOM HOLE TEMPERATURE
 TCS .HRS               2:   TIME CURCULATED STOPPED
 MRT .F                68:   MAXIMUM RECORDED TEMPERATURE
 LUN .               2958:   LOGGING UNIT NUMBER
 LUL .             CASPER:   LOGGING UNIT LOCATION
 ENGI.            POINTER:   RECORDING ENGINEER
 WITN.           MCGINLEY:   WITNESSED BY
 CLNT.            A2DTECH:   CLIENT CODE
 ORIG.           5" PRINT:   ORIGIN OF DATA
 UWI .       490251058100:   UNIQUE WELL ID
~OTHER INFORMATION
~A   DEPT     CALD       CORR       DPHI         GRD      RHOB        ILD         SN        SPR   
# ...
  192.5000     7.9591     0.0195     0.0963    97.3775     2.4901    10.2202    10.8803   -31.9314
  193.0000     7.9575     0.0209     0.0951    94.9083     2.4870    10.2851    11.0181   -32.8715
  193.5000     7.9558     0.0237     0.0840    94.5703     2.4884    10.2763    11.1640   -33.2018
  194.0000     7.9541     0.0235     0.0755    93.9123     2.5133    10.1988    11.2331   -32.9223
  194.5000     7.9682     0.0251     0.0744    92.6050     2.5223    10.1907    11.3025   -32.1856
  195.0000     7.9816     0.0231     0.0795    91.4481     2.5237    10.1127    11.2123   -31.6012
  195.5000     7.9798     0.0214     0.0919    92.9544     2.5158    10.1065    11.2031   -31.3216
  196.0000     7.9628     0.0197     0.0943    98.1306     2.5077    10.0989    11.1939   -31.5081
  196.5000     7.9458     0.0211     0.0952   101.6247     2.4929    10.0216    11.1847   -32.3079
  197.0000     7.9441     0.0208     0.0977   101.7606     2.4890    10.0853    11.0977   -32.4715
  197.5000     7.9424     0.0222     0.0996   100.5090     2.4850    10.0079    11.0886   -32.3445
  198.0000     7.9407     0.0220     0.0990    97.4282     2.4811    10.0010    11.0023   -32.2111
  198.5000     7.9391     0.0249     0.0967    95.8765     2.4825     9.9940    10.9931   -32.2429
  199.0000     7.9528     0.0262     0.0900    96.7713     2.4900     9.9870    11.0613   -32.2683
  199.5000     7.9507     0.0260     0.0804    97.6717     2.5043     9.9788    11.0500   -32.2938
  200.0000     7.9492     0.0273     0.0732    96.8792     2.5209     9.9718    11.0373   -32.3192
  200.5000     7.9937     0.0271     0.0769    93.4973     2.5246     9.8949    10.9559   -32.9512
  201.0000     8.0233     0.0284     0.0830    90.5741     2.5146     9.9587    10.8714   -32.6621
  201.5000     8.0369     0.0298     0.0873    90.3848     2.5031     9.9493    10.6714   -32.0785
  202.0000     8.0353     0.0296     0.0846    92.2199     2.5015     9.8726    10.4822   -31.7893
  202.5000     8.0338     0.0294     0.0792    96.4934     2.5068     9.7964    10.1856   -31.8154
  203.0000     8.0323     0.0292     0.0780    97.8542     2.5135     9.6530     9.9668   -31.8363
  203.5000     8.0000     0.0260     0.0791    98.1292     2.5180     9.5786     9.6847   -32.0097
  204.0000     7.9985     0.0228     0.0837    97.6479     2.5163     9.3725     9.5431   -32.3355
  204.5000     7.9969     0.0195     0.0852    97.3240     2.5084     9.2353     9.4695   -32.5091
  205.0000     7.9951     0.0193     0.0852    97.1531     2.5020     9.0353     9.4622   -32.2053
  205.5000     7.9936     0.0192     0.0853    97.1351     2.4979     8.9655     9.5212   -31.6361
  206.0000     7.9921     0.0220     0.0932    97.7287     2.5023     8.9588     9.5126   -31.8147
  206.5000     7.9905     0.0218     0.0933   100.3100     2.4992     8.9521     9.5054   -32.2929
  207.0000     7.9890     0.0231     0.0930   101.2139     2.4915     8.8830     9.4982   -33.2285
  207.5000     7.9875     0.0229     0.0916   101.1914     2.4914     8.8145     9.4250   -33.4018
  208.0000     7.9860     0.0243     0.0889   100.8675     2.4913     8.8082     9.3523   -33.2651
  208.5000     7.9845     0.0241     0.0874   100.3908     2.4943     8.8012     9.2802   -32.8339
  209.0000     7.9830     0.0284     0.0869   100.5257     2.5002     8.7946     9.1445   -32.6972
  209.5000     7.9814     0.0298     0.0915   101.1192     2.5032     8.7852     9.0107   -32.7233
  210.0000     7.9799     0.0327     0.1003   103.5881     2.4978     8.7199     8.9413   -33.2016
  210.5000     7.9784     0.0324     0.1028   105.4057     2.4802     8.6513     8.9345   -33.2226
  211.0000     7.9769     0.0307     0.0950   105.6523     2.4786     8.5845     8.8656   -33.0910
  211.5000     7.9754     0.0290     0.0929   105.9356     2.4861     8.4589     8.8588   -32.7287
  212.0000     7.9739     0.0288     0.0912   106.3763     2.4929     8.3351     8.8413   -31.6137
  212.5000     7.9724     0.0286     0.0909   108.3460     2.4951     8.1559     8.7823   -31.3245
  213.0000     7.9708     0.0300     0.0916   110.4686     2.4950     8.0366     8.6539   -31.6555
  213.5000     7.9693     0.0298     0.0947   111.5209     2.4918     7.9190     8.4680   -32.1337
  214.0000     7.9677     0.0281     0.0969   111.6603     2.4902     7.7488     8.2860   -32.3071
  214.5000     7.9352     0.0294     0.0975   111.4849     2.4893     7.6890     8.1649   -32.0232
  215.0000     7.9337     0.0307     0.0976   111.3139     2.4822     7.5765     7.9895   -31.5868
  215.5000     7.9322     0.0290     0.0976   110.9901     2.4785     7.5179     7.8726   -31.4500
  216.0000     7.9306     0.0304     0.0973   110.9721     2.4784     7.5110     7.8119   -31.6286
  216.5000     7.9291     0.0301     0.0950   110.6482     2.4791     7.5580     7.8060   -31.9544
  217.0000     7.9587     0.0299     0.0926   110.0041     2.4828     7.6601     7.9099   -32.2805
  217.5000     7.9568     0.0297     0.0914   103.1295     2.4926     7.8700     8.1289   -32.3018
  218.0000     7.9553     0.0296     0.0912    98.3572     2.4956     7.9749     8.4160   -31.8700
  218.5000     7.9538     0.0294     0.0922    94.0578     2.4963     8.0263     8.7133   -31.2811
  219.0000     7.9523     0.0307     0.0934    93.8914     2.4939     8.0766     8.9431   -31.3021
  219.5000     7.9507     0.0305     0.0965    95.7037     2.4900     8.1258     8.9347   -31.6279
  220.0000     7.9492     0.0288     0.0975    97.9792     2.4846     8.2916     9.0536   -31.9537
  220.5000     7.9477     0.0286     0.0930    99.1845     2.4830     8.4034     9.1120   -32.8892
  221.0000     7.9462     0.0315     0.0867    99.4767     2.4905     8.5804     9.3614   -32.9101
  221.5000     7.9447     0.0313     0.0798    98.8426     2.5071     8.7490     9.5526   -32.6262
  222.0000     7.9430     0.0493     0.0677    96.0723     2.5306     8.5593     9.6815   -32.4947
  222.5000     7.8945     0.0886     0.0623    94.6781     2.5465     8.4829     9.6724   -32.6680
  223.0000     7.8135     0.1081     0.0636    93.5897     2.5403     8.4277     9.5978   -32.9939
  223.5000     7.6875     0.1216     0.0956    85.9264     2.4953     8.3634     9.4575   -33.0152
  224.0000     7.5066     0.1396     0.1055    84.6851     2.4648     8.3564     9.2542   -32.7053
  224.5000     7.3976     0.1500     0.1244    87.7787     2.4404     8.3501     9.0496   -31.9948
  225.0000     7.3500     0.1574     0.1232    96.4220     2.4395     8.3438     8.8606   -31.5584
  225.5000     7.3638     0.1588     0.1196   100.3758     2.4465     8.3376     8.7297   -31.2692
  226.0000     7.4391     0.1343     0.1218   100.8210     2.4569     8.3313     8.7231   -31.1429
  226.5000     7.5605     0.0865     0.1343   100.7984     2.4447     8.3834     8.7165   -31.4687
  227.0000     7.7433     0.0366     0.1368   100.7804     2.4246     8.4343     8.8325   -31.7945
  227.5000     7.8954     0.0168     0.1338   100.7623     2.4254     8.4280     8.9057   -31.9679
  228.0000     7.8939     0.0136     0.0993   100.7443     2.4656     8.4824     9.0061   -31.8311
  228.5000     7.8924     0.0134     0.0984   100.1147     2.4853     8.5355     9.0624   -31.8573
  229.0000     7.8908     0.0148     0.0997    99.3321     2.4829     8.5274     9.0556   -32.0306
  229.5000     7.8893     0.0161     0.0949    97.0205     2.4843     8.5210     9.0487   -32.3567
  230.0000     7.8878     0.0189     0.0867    95.6263     2.4972     8.5146     9.0419   -32.7033
  230.5000     7.8863     0.0218     0.0862    95.4554     2.5024     8.5082     8.9721   -33.0133
  231.0000     7.8848     0.0262     0.0975    96.6626     2.5054     8.4426     8.9653   -33.0342
  231.5000     7.8833     0.0275     0.0984    98.2064     2.4825     8.4362     8.9584   -32.9027
  232.0000     7.8817     0.0273     0.0985   100.0775     2.4808     8.4297     8.9502   -32.6135
  232.5000     7.8802     0.0271     0.0979   101.4949     2.4823     8.4220     8.9435   -32.4820
