~VERSION INFORMATION
 VERS.                2.0:   CWLS LOG ASCII STANDARD - VERSION 2.0
 WRAP.                 NO:   ONE LINE PER DEPTH STEP
~WELL INFORMATION
#MNEM.UNIT      DATA TYPE    INFORMATION
#----------   ------------   ------------------------------
 STRT.F           36.5000:   START DEPTH
 STOP.F          476.0000:   STOP DEPTH
 STEP.F            0.5000:   STEP LENGTH
 NULL.          -999.2500:   NO VALUE
 COMP. LAWRENCE/ALLISON INC:   COMPANY
 WELL.    54-36 SXFO #3-3:   WELL
 FLD .            WILDCAT:   FIELD
 LOC .       S3 T38N R78W:   LOCATION
 CNTY.            NATRONA:   COUNTY
 STAT.            WYOMING:   STATE
 CTRY. UNITED STATES OF AMERICA:   COUNTRY
 SRVC.      Dresser Atlas:   SERVICE COMPANY
 DATE.        09-DEC-1983:   LOGDATE
 API .       490251095500:   API NUMBER
~CURVE INFORMATION
#MNEM.UNIT       API CODE    CURVE DESCRIPTION
#----------   ------------   ------------------------------
 DEPT.F                  :   
 GRD .GAPI   45 310 01 00:   GAMMA RAY FROM DENSITY LOG
 PORD.DEC    45 890 12 00:   POROSITY DENSITY SANDSTONE
 DEN .G/C3   45 350 01 00:   COMPENSATED BULK DENSTIY
 CORR.G/C3   45 356 01 00:   DENSITY CORRECTION
 CALD.IN     45 280 60 00:   CALIPER
 RFOC.OHMM   07 220 04 00:   RESISTIVITY FOCUSED LOG
 RILD.OHMM   07 120 46 00:   INDUCTION LOG DEEP RESISTIVITY
 RILM.OHMM   07 120 44 00:   INDUCTION LOG MEDIUM RESISTIVITY
~PARAMETER INFORMATION
#MNEM.UNIT          VALUE    DESCRIPTION
#----------   ------------   ------------------------------
 PD  .                 GL:   PERMANENT DATUM
 EPD .F              5166:   ELEVATION PERMANENT DATUM
 LMF .                 KB:   LOG MEASURED FROM
 DAPD.F                10:   FEET ABOVE PERMANENT DATUM
 DMF .                 KB:   DRILLING MEASURED FROM
 EKB .F              5176:   KELLING BUSHING
 EGL .F              5166:   GROUND LEVEL
 DATE.            12-9-83:   RUN DATE
 RUN .                  1:   RUN NUMBER
 DD  .F               478:   DEPTH DRILLER
 DL  .F               475:   DEPTH LOGGER
 BLI .F               473:   BOTTOM LOG INTERVAL
 TLI .F                44:   TOP LOG INTERVAL
 CBD .F                40:   CASING BOTTOM DRILLER
 CBL .F                44:   CASING BOTTOM LOGGER
 BS  .IN             8.75:   BIT SIZE
 BSD .F               478:   BIT SIZE AT DEPTH
 DFT .           AIR FOAM:   DRILLING FLUID TYPE
 MRT .F               100:   MAXIMUM RECORDED TEMPERATURE
 LUN .               6307:   LOGGING UNIT NUMBER
 LUL .               GLTE:   LOGGING UNIT LOCATION
 ENGI.            DEYOUNG:   RECORDING ENGINEER
 WITN.             GROOMS:   WITNESSED BY
 CLNT.            A2DTECH:   CLIENT CODE
 ORIG.       2", 5" PRINT:   ORIGIN OF DATA
 UWI .       490251095500:   UNIQUE WELL ID
 DICO. A2D Technologies, Inc.:   DIGITIZING COMPANY
~OTHER INFORMATION
~A   DEPT       GRD      PORD        DEN       CORR       CALD       RFOC       RILD       RILM   
# ...
   77.0000   109.5654     0.1750     2.3923     0.0415    11.0799  -999.2500     7.1368     7.4842
   77.5000   113.5933     0.1661     2.4093     0.0517    11.0802  -999.2500     7.1332     7.5071
   78.0000   113.9702     0.1542     2.4275     0.0619    11.0802  -999.2500     7.1294     7.5299
   78.5000   112.1606     0.1461     2.4360     0.0721    11.0802  -999.2500     7.1258     7.5529
   79.0000   111.4631     0.1476     2.4337     0.0824    11.0802  -999.2500     7.1220     7.5689
   79.5000   112.4648     0.1486     2.4367     0.0926    11.0802  -999.2500     7.1184     7.5427
   80.0000   113.5259     0.1394     2.4528     0.0896    11.0802  -999.2500     7.1147     7.5193
   80.5000   114.5844     0.1284     2.4705     0.0518    11.0802  -999.2500     7.1110     7.4959
   81.0000   115.6085     0.1186     2.4859     0.0340    11.0802  -999.2500     7.1073     7.4726
   81.5000   115.2960     0.1204     2.4820     0.0259    11.0802  -999.2500     7.1035     7.4494
   82.0000   116.0879     0.1320     2.4766     0.0286    11.0802  -999.2500     7.0992     7.4307
   82.5000   118.2588     0.1516     2.4405     0.0655    11.0802  -999.2500     7.0965     7.5468
   83.0000   119.2691     0.1713     2.4027     0.1098    11.0802  -999.2500     7.1921     7.6652
   83.5000   117.0843     0.1851     2.3685     0.1414    11.0802  -999.2500     7.2890     7.7853
   84.0000   114.2943     0.1748     2.3702     0.1332    11.0802  -999.2500     7.3870     7.8881
   84.5000   111.4814     0.1557     2.4260     0.0733    11.0802  -999.2500     7.4862     7.9665
   85.0000   109.1291     0.1366     2.4753     0.0242    11.0802  -999.2500     7.5868     8.0461
   85.5000   110.3271     0.1174     2.4869     0.0173    11.0802  -999.2500     7.6887     8.1264
   86.0000   111.6920     0.1152     2.4873     0.0305    11.0802  -999.2500     7.7920     8.2075
   86.5000   112.7586     0.1237     2.4758     0.0444    11.0802  -999.2500     7.8966     8.2895
   87.0000   113.1077     0.1312     2.4646     0.0580    11.0802  -999.2500     8.0036     8.3723
   87.5000   113.5989     0.1387     2.4534     0.0661    11.0802  -999.2500     8.0740     8.4559
   88.0000   117.3948     0.1462     2.4423     0.0533    11.0802  -999.2500     8.0726     8.5403
   88.5000   119.7940     0.1523     2.4311     0.0410    11.0802  -999.2500     8.0730     8.6105
   89.0000   116.5881     0.1551     2.4229     0.0287    11.0802  -999.2500     8.0519     8.6105
   89.5000   114.8346     0.1572     2.4167     0.0158    11.0802  -999.2500     8.0304     8.6105
   90.0000   116.1548     0.1566     2.4220     0.0028    11.0802  -999.2500     8.0090     8.6105
   90.5000   115.9665     0.1513     2.4294    -0.0018    11.0802  -999.2500     7.9877     8.5357
   91.0000   114.9237     0.1469     2.4368     0.0082    11.0802  -999.2500     7.9664     8.4456
   91.5000   112.0015     0.1464     2.4356     0.0063    11.0802  -999.2500     7.9462     8.3564
   92.0000   109.4000     0.1459     2.4334     0.0016    11.0802  -999.2500     7.9244     8.2682
   92.5000   109.5568     0.1454     2.4414     0.0046    11.0802  -999.2500     7.7302     8.0847
   93.0000   113.6933     0.1405     2.4497     0.0347    11.0802  -999.2500     7.5508     7.9559
   93.5000   114.9705     0.1352     2.4582     0.0544    11.0802  -999.2500     7.3765     7.8292
   94.0000   114.6753     0.1326     2.4599     0.0433    11.0799  -999.2500     7.2063     7.7045
   94.5000   117.9427     0.1320     2.4608     0.0313    11.0744  -999.2500     7.1325     7.5819
   95.0000   121.6732     0.1314     2.4618     0.0499    11.0691  -999.2500     7.0926     7.4611
   95.5000   122.5535     0.1308     2.4627     0.0733    11.0639  -999.2500     7.0530     7.3527
   96.0000   119.6464     0.1298     2.4637     0.0971    11.0586  -999.2500     7.0136     7.2958
   96.5000   117.1345     0.1289     2.4639     0.1023    11.0534  -999.2500     6.9672     7.2392
   97.0000   114.6148     0.1303     2.4615     0.0603    11.0481  -999.2500     7.0423     7.1619
   97.5000   111.7176     0.1320     2.4592     0.0305    11.0427  -999.2500     7.1381     7.3468
   98.0000   108.7871     0.1337     2.4567     0.0265    11.0301  -999.2500     7.2282     7.4809
   98.5000   107.6566     0.1339     2.4565     0.0347    11.0090  -999.2500     7.2025     7.6173
   99.0000   111.9544     0.1336     2.4568     0.0433    10.9880  -999.2500     7.2507     7.7562
   99.5000   116.8058     0.1333     2.4570     0.0386    10.9666  -999.2500     7.2951     7.8977
  100.0000   119.1522     0.1360     2.4556     0.0285    10.9711  -999.2500     7.4699     8.0135
  100.5000   111.5581     0.1397     2.4475     0.0332    10.9872  -999.2500     7.6347     8.0631
  101.0000   106.2706     0.1455     2.4397     0.0372    11.0037  -999.2500     7.8529     8.1130
  101.5000   102.9832     0.1482     2.4321     0.0542    11.0202  -999.2500     7.8002     8.1552
  102.0000   104.5971     0.1465     2.4395     0.0652    11.0366  -999.2500     7.7096     8.2241
  102.5000   107.4789     0.1401     2.4506     0.0698    11.0531  -999.2500     7.8512     8.2935
  103.0000   110.3613     0.1341     2.4621     0.0689    11.0695  -999.2500     7.9804     8.3635
  103.5000   112.2588     0.1282     2.4678     0.0678    11.0859  -999.2500     8.1476     8.4534
  104.0000   112.7765     0.1239     2.4720     0.0668    11.1024  -999.2500     8.1227     8.4218
  104.5000   112.4419     0.1255     2.4692     0.0701    11.1188  -999.2500     8.0886     8.3786
  105.0000   111.3379     0.1303     2.4586     0.0547    11.1353  -999.2500     8.0547     8.3357
  105.5000   110.2218     0.1374     2.4482     0.0372    11.1517  -999.2500     8.0206     8.2930
  106.0000   109.0694     0.1441     2.4404     0.0317    11.1614  -999.2500     7.9879     8.2505
  106.5000   110.6677     0.1469     2.4364     0.0287    11.1637  -999.2500     7.9100     8.2082
  107.0000   113.8263     0.1495     2.4324     0.0253    11.1660  -999.2500     7.8334     8.1661
  107.5000   116.6981     0.1520     2.4292     0.0197    11.1683  -999.2500     7.7575     8.1382
  108.0000   118.7002     0.1562     2.4195     0.0141    11.1706  -999.2500     7.7096     8.1221
  108.5000   118.8366     0.1637     2.4075     0.0083    11.1728  -999.2500     7.7352     8.1057
  109.0000   117.0993     0.1709     2.3956     0.0027    11.1751  -999.2500     7.7540     8.0895
  109.5000   114.1394     0.1742     2.3896    -0.0015    11.1774  -999.2500     7.7729     8.0729
  110.0000   110.3654     0.1714     2.4020     0.0030    11.1798  -999.2500     7.8540     8.1514
  110.5000   113.1217     0.1599     2.4143     0.0074    11.1707  -999.2500     7.9820     8.2325
  111.0000   117.2604     0.1577     2.4149     0.0117    11.1525  -999.2500     8.1123     8.3355
  111.5000   116.2104     0.1600     2.4106     0.0209    11.1343  -999.2500     8.2446     8.5328
  112.0000   113.1727     0.1622     2.4075     0.0330    11.1161  -999.2500     8.3754     8.7347
  112.5000   113.2778     0.1619     2.4110     0.0434    11.0890  -999.2500     8.5054     8.9414
  113.0000   113.5980     0.1607     2.4137     0.0285    11.0101  -999.2500     8.6375     9.1530
  113.5000   113.4483     0.1653     2.4069     0.0173    10.9316  -999.2500     8.7684     9.3696
  114.0000   111.5313     0.1810     2.3831     0.1030    10.8836  -999.2500     8.9732     9.5914
  114.5000   109.7041     0.1967     2.3546     0.1743    10.8414  -999.2500     9.2278     9.8184
  115.0000   110.3740     0.2107     2.3355     0.1574    10.8007  -999.2500     9.4910    10.0507
  115.5000   111.1950     0.1902     2.3822     0.0840    10.7993  -999.2500     9.7615    10.2886
  116.0000   111.3697     0.1670     2.4206     0.0302    10.7996  -999.2500    10.0398    10.5321
  116.5000   110.1870     0.1438     2.4589     0.0359    10.7996  -999.2500    10.3259    10.7813
  117.0000   107.5840     0.1221     2.4803     0.0457    10.7996  -999.2500    10.6202    11.0365
