~VERSION INFORMATION
 VERS.                2.0:   CWLS LOG ASCII STANDARD - VERSION 2.0
 WRAP.                 NO:   ONE LINE PER DEPTH STEP
~WELL INFORMATION
#MNEM.UNIT      DATA TYPE    INFORMATION
#----------   ------------   ------------------------------
 STRT.F          131.0000:   START DEPTH
 STOP.F         1085.0000:   STOP DEPTH
 STEP.F            0.5000:   STEP LENGTH
 NULL.          -999.2500:   NO VALUE
 COMP. U S NAVY-INTEX OIL:   COMPANY
 WELL.     UPR #3 #66-S-2:   WELL
 FLD .             TEAPOT:   FIELD
 LOC .       S2 T38N R78W:   LOCATION
 CNTY.            NATRONA:   COUNTY
 STAT.            WYOMING:   STATE
 CTRY. UNITED STATES OF AMERICA:   COUNTRY
 SRVC.       Schlumberger:   SERVICE COMPANY
 DATE.        18-JUL-1964:   LOGDATE
 API .       490250641300:   API NUMBER
~CURVE INFORMATION
#MNEM.UNIT       API CODE    CURVE DESCRIPTION
#----------   ------------   ------------------------------
 DEPT.F                  :   
 ASN .OHMM   05 041 16 00:   AMPLIFIED SHORT NORMAL 16"
 CILD.MMHO   05 110 46 00:   CONDUCTIVITY INDUCTION LOG DEEP
 ILD .OHMM   05 120 46 00:   INDUCTION LOG DEEP
 SPR .MV     05 010 01 00:   SPONTANEOUS POTENTIAL FROM RES.
 GR  .GAPI   30 310 01 00:   GAMMA RAY
 CALS.IN     60 280 50 00:   CALIPER FROM SONIC LOG
 DT  .US/F   60 520 33 00:   INTERVAL TRANSIT TIME
~PARAMETER INFORMATION
#MNEM.UNIT          VALUE    DESCRIPTION
#----------   ------------   ------------------------------
 PD  .                 GL:   PERMANENT DATUM
 EPD .F              5204:   ELEVATION PERMANENT DATUM
 LMF .                 KB:   LOG MEASURED FROM
 DAPD.F                 5:   FEET ABOVE PERMANENT DATUM
 DMF .                 KB:   DRILLING MEASURED FROM
 EKB .F              5209:   KELLING BUSHING
 EGL .F              5204:   GROUND LEVEL
 DATE.          7-18-1964:   RUN DATE
 RUN .                  1:   RUN NUMBER
 DD  .F              1085:   DEPTH DRILLER
 DL  .F              1086:   DEPTH LOGGER
 BLI .F              1085:   BOTTOM LOG INTERVAL
 TLI .F               131:   TOP LOG INTERVAL
 CS  .IN            8.625:   CASING SIZE
 CBD .F                10:   CASING BOTTOM DRILLER
 BS  .IN             6.75:   BIT SIZE
 BSD .F              5204:   BIT SIZE AT DEPTH
 DFT .                GEL:   DRILLING FLUID TYPE
 DFD .                9.5:   DRILLING FLUID DENSITY
 DFV .                 47:   DRILLING FLUID VISCOSITY
 DFL .                 10:   DRILLING FLUID LOSS
 MSS .           FLOWLINE:   MUD SAMPLE SOURCE
 RMS .OHMM           2.58:   RESISTIVITY MUD SAMPLE
 MST .F                93:   MUD SAMPLE TEMPERATURE
 RMF .OHMM           2.27:   RESISTIVITY MUD FILTRATE SAMPLE
 MFST.F                93:   MUD FILTRATE SAMPLE TEMPERATURE
 MFSS.                 FP:   MUD FILTRATE SAMPLE SOURCE
 TCS .HRS             1.5:   TIME CURCULATED STOPPED
 LUN .               3527:   LOGGING UNIT NUMBER
 LUL .              CSPR.:   LOGGING UNIT LOCATION
 ENGI.            WINKLER:   RECORDING ENGINEER
 WITN.          JORGENSEN:   WITNESSED BY
 CLNT.            A2DTECH:   CLIENT CODE
 ORIG.    1" , 2.5" PRINT:   ORIGIN OF DATA
 UWI .       490250641300:   UNIQUE WELL ID
 DICO. A2D Technologies, Inc.:   DIGITIZING COMPANY
~OTHER INFORMATION
~A   DEPT      ASN       CILD        ILD        SPR         GR       CALS         DT   
# ...
  449.5000     3.9835   249.2801     3.5947   -37.0549    63.3234     6.7005   115.8445
  450.0000     4.1988   232.8334     4.0427   -36.7558    62.5748     6.7024   113.5805
  450.5000     4.3425   225.3420     4.4673   -36.7544    64.7079     6.7196   113.6492
  451.0000     4.4664   222.3281     4.5184   -36.7530    62.6015     6.7215   113.7195
  451.5000     4.5903   222.2985     4.6818   -37.3468    62.3074     6.7386   113.1092
  452.0000     4.7051   222.4675     4.8452   -37.6865    62.9283     6.7406   112.3502
  452.5000     4.7055   225.2269     5.0087   -38.2368    62.7857     6.7577   111.5158
  453.0000     4.6466   225.6171     4.9286   -38.2351    62.6461     6.7748   111.0578
  453.5000     4.5877   226.6619     4.6343   -37.8224    62.6609     6.7312   110.8254
  454.0000     4.4694   228.1194     4.4881   -37.3393    62.3698     6.6875   110.9812
  454.5000     4.3480   233.3509     4.1936   -37.3378    63.4747     6.6742   111.9073
  455.0000     4.2547   245.8458     3.8989   -37.9313    65.4242     6.6918   113.4375
  455.5000     4.1254   290.7115     3.7488   -38.2275    64.5296     6.7242   114.1080
  456.0000     3.9703   310.0857     3.4425   -38.2260    64.3870     6.6653   114.6281
  456.5000     3.8560   314.5346     3.2850   -37.9270    65.1594     6.5760   115.5997
  457.0000     3.7196   316.0000     3.1275   -37.3303    67.7441     6.5172   116.4960
  457.5000     3.5645   314.4770     3.0203   -36.7311    62.6074     6.4887   117.5428
  458.0000     3.4641   311.4632     3.0238   -36.1369    55.1951     6.4754   118.4391
  458.5000     3.4943   319.3803     3.0268   -36.1354    54.4494     6.4926   119.7299
  459.0000     3.1386   330.4083     3.0298   -36.2063    54.7643     6.5564   118.3456
  459.5000     3.1050   340.5026     3.0332   -36.7279    55.5338     6.6663   117.1401
  460.0000     3.1988   344.1839     3.0361   -36.7262    55.5151     6.7572   123.6781
  460.5000     3.2289   345.6476     2.8902   -36.7247    57.6788     6.7743   121.8656
  461.0000     3.1673   346.3333     2.8930   -37.0208    58.0081     6.7459   119.9027
  461.5000     3.1008   351.7261     2.7470   -36.7215    58.1576     6.7169   118.3159
  462.0000     2.9778   366.4425     2.5942   -36.7200    57.7174     6.7036   122.8240
  462.5000     2.8944   382.8316     2.4368   -36.7186    56.6686     6.6904   130.6428
  463.0000     2.6602   466.3849     2.1604   -36.4196    56.2230     6.7080   132.2163
  463.5000     2.4902   496.4205     2.0145   -36.1205    58.2076     6.6947   133.9403
  464.0000     2.3842   512.5961     1.8155   -36.1190    55.4922     6.6809   134.6270
  464.5000     2.3423   526.0246     1.6580   -36.0863    59.2919     6.6530   132.3469
  465.0000     2.3428   523.8557     1.5774   -35.8185    63.3947     6.6706   136.6293
  465.5000     2.4026   502.0572     1.5809   -35.8949    68.4066     6.6725   130.3021
  466.0000     2.6107   453.3226     1.7326   -36.1133    69.9336     6.6588   132.1749
  466.5000     2.5518   435.5195     2.0331   -36.2361    69.3395     6.6612   130.5882
  467.0000     2.5225   416.7957     2.3336   -36.5556    65.0768     6.6783   129.1519
  467.5000     2.8395   376.1940     2.7829   -36.5327    62.6966     6.7106   126.0603
  468.0000     3.5810   321.4134     3.3810   -36.4045    65.7417     6.7581   122.0657
  468.5000     3.7492   277.9944     3.7009   -36.1055    65.2991     6.8057   116.7920
  469.0000     3.7817   257.0701     4.0035   -36.1040    66.3716     6.8685   113.7756
  469.5000     3.7873   251.0712     4.1339   -36.1026    68.6562     6.9160   114.4462
  470.0000     3.7557   257.0125     3.9877   -36.1012    74.5771     6.7967   115.2672
  470.5000     3.7126   265.9390     3.7860   -36.1131    77.7708     6.7222   114.7216
  471.0000     3.6537   277.8505     3.6285   -36.4325    80.0555     6.7089   114.8025
  471.5000     3.6245   290.1097     3.3222   -36.6921    75.6734     6.7113   114.4180
  472.0000     3.6293   300.9753     2.9589   -36.6905    73.4126     6.6677   114.4867
  472.5000     3.5067   316.3806     2.6641   -36.6890    73.5760     6.6240   115.4582
  473.0000     3.4173   345.9149     2.3694   -36.2599    74.3455     6.5500   116.2040
  473.5000     3.2915   391.0464     2.2232   -35.7932    74.0543     6.5063   117.1756
  474.0000     3.1120   415.8799     2.0774   -35.4938    73.4081     6.5234   118.3729
  474.5000     2.9815   432.1566     1.9315   -35.7899    71.8083     6.6198   119.6454
  475.0000     2.8660   442.2885     1.9345   -35.7885    74.3959     6.7756   121.2190
  475.5000     2.9230   419.3682     2.1104   -35.4895    75.7714     6.8944   123.8948
  476.0000     3.0350   399.9365     2.2738   -35.4880    74.1167     6.8204   126.7722
  476.5000     2.9591   389.4599     2.4372   -35.4866    73.4566     6.7154   124.4330
  477.0000     2.8876   380.4760     2.8393   -35.4851    74.4435     6.9909   122.4700
  477.5000     2.8880   367.0143     3.1399   -35.4836    73.6978     6.7350   120.7327
  478.0000     3.6006   340.8634     3.4405   -35.5476    75.6793     6.5089   117.2649
  478.5000     3.9868   304.1431     3.7416   -35.7785    72.9640     6.3892   114.7752
  479.0000     4.1356   272.1984     4.0421   -35.8889    71.4606     6.4672   112.4360
  479.5000     4.3204   251.1490     4.3426   -36.3705    70.0687     6.6836   110.9245
  480.0000     4.5598   236.0199     4.4942   -36.6667    70.2929     6.8379   111.4446
  480.5000     4.6837   221.7240     4.6459   -37.2601    69.0751     6.8686   111.8181
  481.0000     4.8373   216.1092     4.9464   -37.2587    65.6021     6.8249   112.0421
  481.5000     4.9723   210.7188     5.1133   -37.5549    63.4928     6.6749   111.9498
  482.0000     5.1282   202.5619     5.2500   -37.5535    61.8380     6.4641   111.3412
  482.5000     5.3138   193.5779     5.4402   -37.5520    62.4559     6.4052   110.6574
  483.0000     5.7713   184.5939     5.6037   -37.5506    62.4678     6.4071   109.7478
  483.5000     6.1278   177.1024     5.8542   -37.5248    62.1737     6.4243   108.8383
  484.0000     6.3953   171.1035     5.8571   -37.2500    62.9461     6.4262   107.9287
  484.5000     6.5144   168.0771     6.0089   -37.2485    65.5338     6.4281   106.7935
  485.0000     6.5742   166.5672     6.1612   -36.9494    66.7578     6.4468   105.7334
  485.5000     6.5746   166.5373     6.1641   -36.6503    68.7454     6.5084   105.1248
  486.0000     6.5751   166.5075     6.1379   -36.7897    69.5088     6.6016   105.0430
  486.5000     6.5407   166.4776     6.1698   -37.1091    68.3818     6.5731   105.2839
  487.0000     6.5091   166.4478     6.1727   -37.2411    66.8083     6.3471   106.1568
  487.5000     6.4576   167.1020     6.1756   -37.5372    70.4565     6.1818   106.4511
  488.0000     6.4582   169.3731     6.1786   -37.5356    73.0442     6.1078   106.5197
  488.5000     6.4586   170.8302     6.1815   -37.5341    72.6015     6.0940   106.5884
  489.0000     6.4591   173.7865     6.1845   -37.5327    71.2498     6.1268   106.6570
  489.5000     6.4596   175.2537     6.1875   -37.5377    71.4131     6.1591   107.0266
  490.0000     6.4600   175.2215     6.1905   -37.8571    72.1826     6.1763   107.1721
  490.5000     6.4901   175.1927     6.1935   -38.4213    80.5278     6.1478   107.3896
  491.0000     6.4608   175.1639     6.1970   -38.4196    82.5094     6.2262   108.2107
  491.5000     6.4316   178.1202     6.0506   -38.3184    83.8849     6.4257   107.3462
  492.0000     6.3711   179.5840     6.0539   -37.8214    87.1112     6.5036   104.8867
  492.5000     6.3098   178.0597     6.0568   -37.3760    87.2420     6.5207   107.4367
  493.0000     6.2782   177.6070     5.9109   -37.2232    82.5599     6.4619   108.2578
  493.5000     6.2256   175.0149     5.9137   -36.9239    79.3900     5.7951   108.7779
  494.0000     6.2261   174.3382     6.0655   -36.9224    77.4322     5.4779   109.2980
  494.5000     6.2697   171.9702     6.0890   -37.2188    76.9895     5.4759   109.5940
