~VERSION INFORMATION
 VERS.                2.0:   CWLS LOG ASCII STANDARD - VERSION 2.0
 WRAP.                 NO:   ONE LINE PER DEPTH STEP
~WELL INFORMATION
#MNEM.UNIT      DATA TYPE    INFORMATION
#----------   ------------   ------------------------------
 STRT.F           16.0000:   START DEPTH
 STOP.F          306.0000:   STOP DEPTH
 STEP.F            0.5000:   STEP LENGTH
 NULL.          -999.2500:   NO VALUE
 COMP. LAWRENCE-ALLISON &AS:   COMPANY
 WELL. NPR ##3 51-66SX10UI2:   WELL
 FLD .             TEAPOT:   FIELD
 LOC .      S10 T38N R78W:   LOCATION
 CNTY.            NATRONA:   COUNTY
 STAT.            WYOMING:   STATE
 CTRY. UNITED STATES OF AMERICA:   COUNTRY
 SRVC.      Dresser Atlas:   SERVICE COMPANY
 DATE.        16-JAN-1985:   LOGDATE
 API .       490251100300:   API NUMBER
~CURVE INFORMATION
#MNEM.UNIT       API CODE    CURVE DESCRIPTION
#----------   ------------   ------------------------------
 DEPT.F                  :   
 AC  .US/F   60 520 00 00:   ACOUSTIC SONIC
 CALD.IN     45 280 60 00:   CALIPER FROM DENSITY LOG
 CNC .DEC    42 890 03 00:   COMPENSATED NEUTRON POROSITY SANDSTONE
 CORR.G/C3   45 356 01 00:   DENSITY CORRECTION
 GRD .GAPI   45 310 01 00:   GAMMA RAY FROM DENSITY LOG
 PORD.DEC    45 890 12 00:   POROSITY DENSITY SANDSTONE
 RHOB.G/C3   45 350 01 00:   BULK DENSITY
~PARAMETER INFORMATION
#MNEM.UNIT          VALUE    DESCRIPTION
#----------   ------------   ------------------------------
 PD  .                 GL:   PERMANENT DATUM
 EPD .F              5156:   ELEVATION PERMANENT DATUM
 LMF .                 GL:   LOG MEASURED FROM
 DMF .                 GL:   DRILLING MEASURED FROM
 EGL .F              5156:   GROUND LEVEL
 DATE.        16-JAN-1985:   RUN DATE
 RUN .                  1:   RUN NUMBER
 DD  .F               308:   DEPTH DRILLER
 DL  .F               308:   DEPTH LOGGER
 BLI .F               306:   BOTTOM LOG INTERVAL
 TLI .F                20:   TOP LOG INTERVAL
 CS  .IN            8.625:   CASING SIZE
 CBD .F                20:   CASING BOTTOM DRILLER
 CBL .F                20:   CASING BOTTOM LOGGER
 BS  .IN            7.875:   BIT SIZE
 BSD .F               308:   BIT SIZE AT DEPTH
 DFT .          KCL-WATER:   DRILLING FLUID TYPE
 MSS .               TANK:   MUD SAMPLE SOURCE
 RMS .OHMM           0.11:   RESISTIVITY MUD SAMPLE
 MST .F                88:   MUD SAMPLE TEMPERATURE
 RMF .OHMM           0.08:   RESISTIVITY MUD FILTRATE SAMPLE
 MFST.F                88:   MUD FILTRATE SAMPLE TEMPERATURE
 RMC .OHMM           0.13:   RESISTIVITY MUD CAKE
 MCST.F                88:   MUD CAKE SAMPLE TEMPERATURE
 MFSS.               CALC:   MUD FILTRATE SAMPLE SOURCE
 MCSS.               CALC:   MUD CAKE SAMPLE SOURCE
 BHT .F               100:   BOTTOM HOLE TEMPERATURE
 TCS .HRS               2:   TIME CURCULATED STOPPED
 MRT .F               100:   MAXIMUM RECORDED TEMPERATURE
 LUN .               6270:   LOGGING UNIT NUMBER
 LUL .                 FM:   LOGGING UNIT LOCATION
 ENGI.          E. GOVETT:   RECORDING ENGINEER
 WITN.             GROOMS:   WITNESSED BY
 CLNT.            A2DTECH:   CLIENT CODE
 ORIG.           5" PRINT:   ORIGIN OF DATA
 UWI .       490251100300:   UNIQUE WELL ID
 DICO. A2D Technologies, Inc.:   DIGITIZING COMPANY
~OTHER INFORMATION
~A   DEPT        AC      CALD          CNC     CORR         GRD      PORD       RHOB   
# ...
   61.5000    98.4759     8.0636     0.2744    -0.0076    96.6570     0.1241     2.4738
   62.0000    98.9236     8.0337     0.2752    -0.0030   102.6706     0.1253     2.4662
   62.5000   100.6155     8.0188     0.2758    -0.0045   103.3333     0.1307     2.4557
   63.0000   102.2572     8.0039     0.2771    -0.0091    98.4170     0.1374     2.4451
   63.5000   103.1042     8.0041     0.2734    -0.0106    93.9368     0.1428     2.4398
   64.0000   103.5480     8.0343     0.2623    -0.0091    90.1832     0.1452     2.4375
   64.5000   103.3907     8.0495     0.2547    -0.0015    88.8283     0.1424     2.4391
   65.0000   102.6324     8.0647     0.2541     0.0106    90.7818     0.1365     2.4477
   65.5000   101.2730     8.0799     0.2562     0.0183    93.6375     0.1307     2.4594
   66.0000    99.9887     8.0649     0.2553     0.0136    92.8841     0.1250     2.4715
   66.5000    99.4558     8.0651     0.2538     0.0045    91.6796     0.1208     2.4790
   67.0000    99.3754     8.0653     0.2619    -0.0030    90.4752     0.1241     2.4692
   67.5000   100.2682     8.0654     0.2698    -0.0091    91.1003     0.1320     2.4533
   68.0000   101.7638     8.0656     0.2707    -0.0136    93.4794     0.1380     2.4465
   68.5000   103.1092     8.0657     0.2686    -0.0106    94.8317     0.1404     2.4442
   69.0000   103.4778     8.0809     0.2689     0.0060    93.1757     0.1383     2.4467
   69.5000   103.7713     8.1262     0.2680     0.0196    92.5728     0.1365     2.4518
   70.0000   103.9244     8.0662     0.2644     0.0242    94.2254     0.1392     2.4480
   70.5000   104.2815     8.0212     0.2722     0.0210    96.0285     0.1425     2.4420
   71.0000   104.4265     7.9763     0.2765     0.0121    97.5308     0.1447     2.4374
   71.5000   104.4177     7.9914     0.2798     0.0076    97.2186     0.1459     2.4367
   72.0000   103.9599     8.0066     0.2887     0.0015    94.6306     0.1425     2.4382
   72.5000   103.6524     8.0218     0.2928     0.0076    93.0148     0.1383     2.4427
   73.0000   103.4951     8.0220     0.2822     0.0121    92.4118     0.1368     2.4457
   73.5000   103.5639     7.9920     0.2758     0.0106    92.2603     0.1377     2.4487
   74.0000   103.4811     7.9771     0.2734     0.0030    94.6645     0.1380     2.4494
   74.5000   103.3989     7.9773     0.2698    -0.0030    96.0164     0.1365     2.4502
   75.0000   103.2416     8.0226     0.2662    -0.0121    96.4662     0.1350     2.4517
   75.5000   103.0844     8.0678     0.2614    -0.0069    92.7052     0.1341     2.4524
   76.0000   103.0022     8.0830     0.2641     0.0287    90.4381     0.1335     2.4539
   76.5000   103.4524     8.0677     0.2680     0.0529    92.7020     0.1320     2.4570
   77.0000   103.9732     8.0382     0.2637     0.0680    95.7080     0.1308     2.4600
   77.5000   104.3335     8.0384     0.2608     0.0619    94.9547     0.1290     2.4622
   78.0000   104.5519     8.0385     0.2719     0.0363    93.2991     0.1263     2.4652
   78.5000   104.7685     8.0387     0.2834     0.0257    91.4931     0.1269     2.4690
   79.0000   104.9118     8.0689     0.2979     0.0242    90.1383     0.1302     2.4630
   79.5000   105.0550     8.0540     0.3106     0.0347    92.0917     0.1317     2.4592
   80.0000   105.0480     8.0541     0.3033     0.0423    94.6466     0.1326     2.4569
   80.5000   104.8907     8.0693     0.3011     0.0329    95.6978     0.1329     2.4561
   81.0000   104.8086     8.0995     0.2994     0.0181    94.6433     0.1393     2.4524
   81.5000   104.7269     8.1148     0.2961     0.0030    93.4389     0.1432     2.4433
   82.0000   104.7946     8.0698     0.2828    -0.0076    93.8885     0.1453     2.4379
   82.5000   104.9380     8.0485     0.2771    -0.0045    96.2931     0.1462     2.4365
   83.0000   105.1562     8.0249     0.2737    -0.0076    97.7954     0.1465     2.4350
   83.5000   105.3746     8.0100     0.2789    -0.0060    98.2454     0.1444     2.4387
   84.0000   105.3604     7.9952     0.2843     0.0060    99.1458     0.1366     2.4508
   84.5000   105.1977     7.9502     0.2864     0.0151   100.8210     0.1308     2.4614
   85.0000   105.4269     7.9353     0.2943     0.0211   102.1504     0.1337     2.4493
   85.5000   105.9458     7.9204     0.3066     0.0180   101.2464     0.1387     2.4417
   86.0000   106.6150     7.9206     0.3124     0.0121   100.6434     0.1423     2.4379
   86.5000   107.2841     7.9208     0.2912     0.0030   101.5442     0.1438     2.4364
   87.0000   107.0517     7.9209     0.2925    -0.0060   102.2950     0.1457     2.4357
   87.5000   106.2183     7.9361     0.3039    -0.0136    97.4811     0.1466     2.4379
   88.0000   105.4599     7.9513     0.3115    -0.0060    96.1263     0.1417     2.4447
   88.5000   105.0773     7.9514     0.2964     0.0106    95.6687     0.1375     2.4507
   89.0000   105.3708     7.9666     0.2925     0.0287    98.8902     0.1360     2.4522
   89.5000   105.8146     7.9818     0.2958     0.0305   101.0839     0.1375     2.4439
   90.0000   106.2583     7.9820     0.3078     0.0196   100.3306     0.1418     2.4371
   90.5000   106.4016     7.9971     0.2955     0.0166    99.4269     0.1465     2.4325
   91.0000   106.1690     7.9998     0.2801     0.0181    98.5231     0.1508     2.4288
   91.5000   106.0868     8.0125     0.2843    -0.0030    97.7698     0.1517     2.4258
   92.0000   106.0783     8.0277     0.2894    -0.0211    97.3172     0.1496     2.4288
   92.5000   106.0712     8.0278     0.2915    -0.0287    98.3684     0.1472     2.4333
   93.0000   106.0642     8.0282     0.2928    -0.0106    98.0611     0.1457     2.4348
   93.5000   105.9070     8.0281     0.2931    -0.0015    97.7639     0.1478     2.4310
   94.0000   105.6745     8.0283     0.2873    -0.0151    99.5667     0.1499     2.4280
   94.5000   105.3670     8.0134     0.2819    -0.0091   101.9712     0.1503     2.4319
   95.0000   105.2097     7.9835     0.2789     0.0181   103.7743     0.1429     2.4382
   95.5000   104.7519     7.9792     0.2774     0.0364   104.2243     0.1391     2.4446
   96.0000   104.3692     7.9634     0.2758    -0.0030   102.1172     0.1421     2.4401
   96.5000   103.9866     7.9538     0.2834    -0.0257   100.0105     0.1445     2.4363
   97.0000   103.8981     7.9389     0.2949    -0.0302    99.1068     0.1457     2.4340
   97.5000   104.1228     7.9391     0.3021    -0.0242   100.1955     0.1445     2.4340
   98.0000   104.8750     7.9543     0.2946    -0.0060   104.0659     0.1421     2.4378
   98.5000   105.4702     7.9545     0.2734    -0.0045   105.7186     0.1394     2.4415
   99.0000   105.8280     7.9546     0.2780    -0.0136   106.0178     0.1364     2.4461
   99.5000   106.1215     7.9397     0.2831    -0.0211   106.6179     0.1373     2.4506
  100.0000   106.2160     7.9513     0.2861    -0.0230   107.5190     0.1412     2.4432
  100.5000   106.4089     7.9699     0.2815    -0.0184   104.8152     0.1466     2.4364
  101.0000   106.0983     7.9699     0.2937    -0.0121    98.9535     0.1461     2.4340
  101.5000   105.5644     7.9699     0.3027     0.0045    97.1520     0.1412     2.4446
  102.0000   105.0304     7.9549     0.3021     0.0226    96.5534     0.1361     2.4521
  102.5000   104.5716     7.9398     0.2873     0.0332    96.1027     0.1343     2.4491
  103.0000   105.1670     7.9248     0.2719     0.0362    95.1800     0.1370     2.4461
  103.5000   105.4681     7.9248     0.2779     0.0301    95.4772     0.1404     2.4424
  104.0000   105.6745     7.9248     0.2852     0.0127    99.1224     0.1434     2.4401
  104.5000   105.5893     7.9398     0.2798    -0.0168   103.0351     0.1428     2.4394
  105.0000   105.5061     7.9549     0.2707    -0.0137   105.8952     0.1392     2.4432
  105.5000   105.3478     7.9549     0.2783    -0.0047   108.6049     0.1355     2.4500
  106.0000   105.1144     7.9699     0.2949    -0.0002   109.9605     0.1407     2.4470
  106.5000   104.9561     7.9699     0.3040    -0.0213   105.3026     0.1470     2.4326
