~VERSION INFORMATION
 VERS.                2.0:   CWLS LOG ASCII STANDARD - VERSION 2.0
 WRAP.                 NO:   ONE LINE PER DEPTH STEP
~WELL INFORMATION
#MNEM.UNIT      DATA TYPE    INFORMATION
#----------   ------------   ------------------------------
 STRT.F            0.0000:   START DEPTH
 STOP.F         2660.0000:   STOP DEPTH
 STEP.F            0.5000:   STEP LENGTH
 NULL.          -999.2500:   NO VALUE
 COMP. FENIX & SCISSON INC:   COMPANY
 WELL.     101-20 #101-20:   WELL
 FLD .        TEAPOT DOME:   FIELD
 LOC .      S20 T39N R78W:   LOCATION
 CNTY.            NATRONA:   COUNTY
 STAT.            WYOMING:   STATE
 CTRY. UNITED STATES OF AMERICA:   COUNTRY
 SRVC.      NL McCullough:   SERVICE COMPANY
 DATE.        19-SEP-1965:   LOGDATE
 API .       490251022100:   API NUMBER
~CURVE INFORMATION
#MNEM.UNIT       API CODE    CURVE DESCRIPTION
#----------   ------------   ------------------------------
 DEPT.F                  :   
 GR  .GAPI   30 310 01 00:   GAMMA RAY
 CALI.IN     30 280 01 00:   CALIPER
~PARAMETER INFORMATION
#MNEM.UNIT          VALUE    DESCRIPTION
#----------   ------------   ------------------------------
 PD  .                 GL:   PERMANENT DATUM
 LMF .                 GL:   LOG MEASURED FROM
 DMF .                 GL:   DRILLING MEASURED FROM
 DATE.          9-19-1965:   RUN DATE
 RUN .                  1:   RUN NUMBER
 DD  .F              2661:   DEPTH DRILLER
 DL  .F              2659:   DEPTH LOGGER
 BLI .F              2657:   BOTTOM LOG INTERVAL
 TLI .F              2000:   TOP LOG INTERVAL
 CS  .IN              6.5:   CASING SIZE
 CBD .F              2619:   CASING BOTTOM DRILLER
 BSD .F              2661:   BIT SIZE AT DEPTH
 DFT .              WATER:   DRILLING FLUID TYPE
 TCS .HRS               1:   TIME CURCULATED STOPPED
 ENGI.        FITZSIMMONS:   RECORDING ENGINEER
 WITN.          JORGENSEN:   WITNESSED BY
 CLNT.            A2DTECH:   CLIENT CODE
 ORIG.           5" PRINT:   ORIGIN OF DATA
 UWI .       490251022100:   UNIQUE WELL ID
 DICO. A2D Technologies, Inc.:   DIGITIZING COMPANY
~OTHER INFORMATION
~A    DEPT      GR         CALI 
# ...
 1215.0000  -999.2500     6.5848
 1215.5000  -999.2500     6.5827
 1216.0000  -999.2500     6.5805
 1216.5000  -999.2500     6.5783
 1217.0000  -999.2500     6.5783
 1217.5000  -999.2500     6.5943
 1218.0000  -999.2500     6.6102
 1218.5000  -999.2500     6.6037
 1219.0000  -999.2500     6.5863
 1219.5000  -999.2500     6.5865
 1220.0000  -999.2500     6.5941
 1220.5000  -999.2500     6.6258
 1221.0000  -999.2500     6.6479
 1221.5000  -999.2500     6.5941
 1222.0000  -999.2500     6.5583
 1222.5000  -999.2500     6.5563
 1223.0000  -999.2500     6.5563
 1223.5000  -999.2500     6.5564
 1224.0000  -999.2500     6.5570
 1224.5000  -999.2500     6.5585
 1225.0000  -999.2500     6.5601
 1225.5000  -999.2500     6.5616
 1226.0000  -999.2500     6.5631
 1226.5000  -999.2500     6.5646
 1227.0000  -999.2500     6.5658
 1227.5000  -999.2500     6.5814
 1228.0000  -999.2500     6.5772
 1228.5000  -999.2500     6.5652
 1229.0000  -999.2500     6.5587
 1229.5000  -999.2500     6.5519
 1230.0000  -999.2500     6.5451
 1230.5000  -999.2500     6.5379
 1231.0000  -999.2500     6.5433
 1231.5000  -999.2500     6.5532
 1232.0000  -999.2500     6.5631
 1232.5000  -999.2500     6.5730
 1233.0000  -999.2500     6.5833
 1233.5000  -999.2500     6.5942
 1234.0000  -999.2500     6.5871
 1234.5000  -999.2500     6.5769
 1235.0000  -999.2500     6.5815
 1235.5000  -999.2500     6.5858
 1236.0000  -999.2500     6.5902
 1236.5000  -999.2500     6.5945
 1237.0000  -999.2500     6.6076
 1237.5000  -999.2500     6.6245
 1238.0000  -999.2500     6.5743
 1238.5000  -999.2500     6.5736
 1239.0000  -999.2500     6.5822
 1239.5000  -999.2500     6.5910
 1240.0000  -999.2500     6.5997
 1240.5000  -999.2500     6.6057
 1241.0000  -999.2500     6.5999
 1241.5000  -999.2500     6.5945
 1242.0000  -999.2500     6.5890
 1242.5000  -999.2500     6.5865
 1243.0000  -999.2500     6.5865
 1243.5000  -999.2500     6.5819
 1244.0000  -999.2500     6.5763
 1244.5000  -999.2500     6.5764
 1245.0000  -999.2500     6.5764
 1245.5000  -999.2500     6.5764
 1246.0000  -999.2500     6.5764
 1246.5000  -999.2500     6.5764
 1247.0000  -999.2500     6.5764
 1247.5000  -999.2500     6.5764
 1248.0000  -999.2500     6.5764
 1248.5000  -999.2500     6.5766
 1249.0000  -999.2500     6.5807
 1249.5000  -999.2500     6.5850
 1250.0000  -999.2500     6.5828
 1250.5000  -999.2500     6.5754
 1251.0000  -999.2500     6.5684
 1251.5000  -999.2500     6.5559
 1252.0000  -999.2500     6.5541
 1252.5000  -999.2500     6.5521
 1253.0000  -999.2500     6.5501
 1253.5000  -999.2500     6.5482
 1254.0000  -999.2500     6.5465
 1254.5000  -999.2500     6.5491
 1255.0000  -999.2500     6.5519
 1255.5000  -999.2500     6.5546
 1256.0000  -999.2500     6.5572
 1256.5000  -999.2500     6.5599
 1257.0000  -999.2500     6.5626
 1257.5000  -999.2500     6.5652
 1258.0000  -999.2500     6.5732
 1258.5000  -999.2500     6.5852
 1259.0000  -999.2500     6.5737
 1259.5000  -999.2500     6.5559
 1260.0000  -999.2500     6.5563
 1260.5000  -999.2500     6.5564
 1261.0000  -999.2500     6.5564
 1261.5000  -999.2500     6.5564
 1262.0000  -999.2500     6.5563
 1262.5000  -999.2500     6.5528
 1263.0000  -999.2500     6.5490
 1263.5000  -999.2500     6.5469
 1264.0000  -999.2500     6.5605
 1264.5000  -999.2500     6.5605
 1265.0000  -999.2500     6.5502
 1265.5000  -999.2500     6.5395
 1266.0000  -999.2500     6.5415
 1266.5000  -999.2500     6.5489
 1267.0000  -999.2500     6.5562
 1267.5000  -999.2500     6.5557
 1268.0000  -999.2500     6.5549
 1268.5000  -999.2500     6.5540
 1269.0000  -999.2500     6.5531
 1269.5000  -999.2500     6.5523
 1270.0000  -999.2500     6.5514
 1270.5000  -999.2500     6.5505
 1271.0000  -999.2500     6.5497
 1271.5000  -999.2500     6.5488
 1272.0000  -999.2500     6.5480
 1272.5000  -999.2500     6.5471
 1273.0000  -999.2500     6.5461
 1273.5000  -999.2500     6.5443
 1274.0000  -999.2500     6.5424
 1274.5000  -999.2500     6.5405
 1275.0000  -999.2500     6.5387
 1275.5000  -999.2500     6.5367
 1276.0000  -999.2500     6.5403
 1276.5000  -999.2500     6.5455
 1277.0000  -999.2500     6.5507
 1277.5000  -999.2500     6.5563
 1278.0000  -999.2500     6.5691
 1278.5000  -999.2500     6.5830
 1279.0000  -999.2500     6.5966
 1279.5000  -999.2500     6.6004
 1280.0000  -999.2500     6.5721
 1280.5000  -999.2500     6.5656
 1281.0000  -999.2500     6.5644
 1281.5000  -999.2500     6.5634
 1282.0000  -999.2500     6.5623
 1282.5000  -999.2500     6.5612
 1283.0000  -999.2500     6.5602
 1283.5000  -999.2500     6.5591
 1284.0000  -999.2500     6.5580
 1284.5000  -999.2500     6.5569
 1285.0000  -999.2500     6.5559
 1285.5000  -999.2500     6.5551
 1286.0000  -999.2500     6.5542
 1286.5000  -999.2500     6.5533
 1287.0000  -999.2500     6.5525
 1287.5000  -999.2500     6.5516
 1288.0000  -999.2500     6.5508
 1288.5000  -999.2500     6.5499
 1289.0000  -999.2500     6.5490
 1289.5000  -999.2500     6.5482
 1290.0000  -999.2500     6.5473
 1290.5000  -999.2500     6.5465
 1291.0000  -999.2500     6.5464
 1291.5000  -999.2500     6.5464
 1292.0000  -999.2500     6.5464
 1292.5000  -999.2500     6.5464
 1293.0000  -999.2500     6.5464
 1293.5000  -999.2500     6.5464
 1294.0000  -999.2500     6.5464
 1294.5000  -999.2500     6.5464
 1295.0000  -999.2500     6.5464
 1295.5000  -999.2500     6.5464
 1296.0000  -999.2500     6.5464
 1296.5000  -999.2500     6.5463
 1297.0000  -999.2500     6.5464
 1297.5000  -999.2500     6.5484
 1298.0000  -999.2500     6.5574
 1298.5000  -999.2500     6.5667
 1299.0000  -999.2500     6.5890
 1299.5000  -999.2500     6.6013
 1300.0000  -999.2500     6.5726
 1300.5000  -999.2500     6.5557
 1301.0000  -999.2500     6.5562
 1301.5000  -999.2500     6.5564
 1302.0000  -999.2500     6.5564
 1302.5000  -999.2500     6.5564
 1303.0000  -999.2500     6.5564
 1303.5000  -999.2500     6.5564
 1304.0000  -999.2500     6.5564
 1304.5000  -999.2500     6.5564
 1305.0000  -999.2500     6.5564
 1305.5000  -999.2500     6.5563
 1306.0000  -999.2500     6.5716
 1306.5000  -999.2500     6.5948
 1307.0000  -999.2500     6.5852
 1307.5000  -999.2500     6.5719
 1308.0000  -999.2500     6.5663
 1308.5000  -999.2500     6.5664
 1309.0000  -999.2500     6.5664
 1309.5000  -999.2500     6.5664
 1310.0000  -999.2500     6.5664
 1310.5000  -999.2500     6.5664
 1311.0000  -999.2500     6.5664
 1311.5000  -999.2500     6.5651
 1312.0000  -999.2500     6.5574
 1312.5000  -999.2500     6.5625
 1313.0000  -999.2500     6.5699
 1313.5000  -999.2500     6.5762
 1314.0000  -999.2500     6.5719
 1314.5000  -999.2500     6.5677
 1315.0000  -999.2500     6.5636
 1315.5000  -999.2500     6.5595
 1316.0000  -999.2500     6.5570
 1316.5000  -999.2500     6.5600
 1317.0000  -999.2500     6.5628
 1317.5000  -999.2500     6.5657
 1318.0000  -999.2500     6.5686
 1318.5000  -999.2500     6.5714
 1319.0000  -999.2500     6.5745
 1319.5000  -999.2500     6.5834
 1320.0000  -999.2500     6.5956
 1320.5000  -999.2500     6.5483
 1321.0000  -999.2500     6.5460
 1321.5000  -999.2500     6.5463
 1322.0000  -999.2500     6.5465
 1322.5000  -999.2500     6.5531
 1323.0000  -999.2500     6.5685
 1323.5000  -999.2500     6.5688
 1324.0000  -999.2500     6.5532
 1324.5000  -999.2500     6.5472
 1325.0000  -999.2500     6.5483
 1325.5000  -999.2500     6.5496
 1326.0000  -999.2500     6.5508
 1326.5000  -999.2500     6.5521
 1327.0000  -999.2500     6.5534
 1327.5000  -999.2500     6.5546
 1328.0000  -999.2500     6.5559
 1328.5000  -999.2500     6.5571
 1329.0000  -999.2500     6.5584
 1329.5000  -999.2500     6.5597
 1330.0000  -999.2500     6.5609
 1330.5000  -999.2500     6.5622
 1331.0000  -999.2500     6.5634
 1331.5000  -999.2500     6.5647
 1332.0000  -999.2500     6.5659
 1332.5000  -999.2500     6.5693
 1333.0000  -999.2500     6.5737
 1333.5000  -999.2500     6.5782
 1334.0000  -999.2500     6.5827
 1334.5000  -999.2500     6.5860
 1335.0000  -999.2500     6.5822
 1335.5000  -999.2500     6.5785
 1336.0000  -999.2500     6.5748
