~VERSION INFORMATION
 VERS.                2.0:   CWLS LOG ASCII STANDARD - VERSION 2.0
 WRAP.                 NO:   ONE LINE PER DEPTH STEP
~WELL INFORMATION
#MNEM.UNIT      DATA TYPE    INFORMATION
#----------   ------------   ------------------------------
 STRT.F            3.0000:   START DEPTH
 STOP.F         1011.0000:   STOP DEPTH
 STEP.F            0.5000:   STEP LENGTH
 NULL.          -999.2500:   NO VALUE
 COMP. BROWN JOHN E&C INC:   COMPANY
 WELL. NPR 3 SHX-38 #2-35:   WELL
 FLD .             TEAPOT:   FIELD
 LOC .      S35 T39N R78W:   LOCATION
 CNTY.            NATRONA:   COUNTY
 STAT.            WYOMING:   STATE
 CTRY. UNITED STATES OF AMERICA:   COUNTRY
 SRVC.     Atlas Wireline:   SERVICE COMPANY
 DATE.        15-NOV-1991:   LOGDATE
 API .       490252248100:   API NUMBER
~CURVE INFORMATION
#MNEM.UNIT       API CODE    CURVE DESCRIPTION
#----------   ------------   ------------------------------
 DEPT.F                  :   
 GRR .GAPI   07 310 01 00:   GAMMA RAY
 RILD.OHMM   07 120 46 00:   INDUCTION LOG DEEP RESISTIVITY
 RILM.OHMM   07 120 44 00:   INDUCTION LOG MEDIUM RESISTIVITY
~PARAMETER INFORMATION
#MNEM.UNIT          VALUE    DESCRIPTION
#----------   ------------   ------------------------------
 PD  .                 GL:   PERMANENT DATUM
 EPD .F              5119:   ELEVATION PERMANENT DATUM
 LMF .                 KB:   LOG MEASURED FROM
 DAPD.F                11:   FEET ABOVE PERMANENT DATUM
 DMF .                 KB:   DRILLING MEASURED FROM
 EKB .F              5120:   KELLING BUSHING
 EGL .F              5119:   GROUND LEVEL
 DATE.        15-NOV-1991:   RUN DATE
 RUN .                  1:   RUN NUMBER
 DD  .F              1015:   DEPTH DRILLER
 DL  .F              1017:   DEPTH LOGGER
 BLI .F              1015:   BOTTOM LOG INTERVAL
 CS  .IN            8.625:   CASING SIZE
 CBD .F                60:   CASING BOTTOM DRILLER
 CBL .F                60:   CASING BOTTOM LOGGER
 BS  .IN            7.875:   BIT SIZE
 BSD .F              1015:   BIT SIZE AT DEPTH
 DFT .                AIR:   DRILLING FLUID TYPE
 LUN .            HL-6272:   LOGGING UNIT NUMBER
 LUL .         CASPER, WY:   LOGGING UNIT LOCATION
 ENGI.             ZIFGER:   RECORDING ENGINEER
 WITN.         MR. STRONG:   WITNESSED BY
 CLNT.            A2DTECH:   CLIENT CODE
 ORIG.           5" PRINT:   ORIGIN OF DATA
 UWI .       490252248100:   UNIQUE WELL ID
 DICO. A2D Technologies, Inc.:   DIGITIZING COMPANY
~OTHER INFORMATION
~A    DEPT      GRR      RILD       RILM   
# ...
  185.0000   129.4093     6.6588     6.9106
  185.5000   128.8069     6.4303     6.6277
  186.0000   128.5094     6.2532     6.3564
  186.5000   127.3030     6.1236     6.1389
  187.0000   123.9707     6.0810     6.0542
  187.5000   117.9069     6.0386     5.9292
  188.0000   117.3045     5.9966     5.8885
  188.5000   121.2574     5.9549     5.8479
  189.0000   125.2088     5.8723     5.8077
  189.5000   125.2149     5.8314     5.7276
  190.0000   126.4349     5.7909     5.7280
  190.5000   127.9584     5.7506     5.6885
  191.0000   129.1784     5.6708     5.6494
  191.5000   126.4530     5.6314     5.6105
  192.0000   125.2436     5.5533     5.6109
  192.5000   124.9462     5.5533     5.5722
  193.0000   126.4712     5.4762     5.5339
  193.5000   128.9052     5.3627     5.4958
  194.0000   129.2132     5.2883     5.4200
  194.5000   128.0068     5.1787     5.3081
  195.0000   128.3163     5.0714     5.1624
  195.5000   129.8398     5.0361     5.0558
  196.0000   130.4529     5.0010     4.9861
  196.5000   128.6380     4.9662     4.9517
  197.0000   127.7320     4.9662     4.9521
  197.5000   128.3466     5.0010     4.9871
  198.0000   129.2631     5.0714     4.9875
  198.5000   129.8761     5.1069     5.0227
  199.0000   128.9717     5.1427     5.0937
  199.5000   123.8184     5.1427     5.1297
  200.0000   116.8442     5.1069     5.1660
  200.5000   116.2418     5.0714     5.1663
  201.0000   120.1947     5.0361     5.1671
  201.5000   119.2888     5.0361     5.1680
  202.0000   118.9913     5.0361     5.0619
  202.5000   120.8198     5.0361     4.9924
  203.0000   123.8280     5.0410     4.9931
  203.5000   123.8361     5.0714     5.0288
  204.0000   123.8240     5.1069     5.0295
  204.5000   124.1275     5.2150     5.1074
  205.0000   125.6449     5.2373     5.2508
  205.5000   127.7693     5.3192     5.3203
  206.0000   127.4659     5.3348     5.3211
  206.5000   124.7344     5.2245     5.2848
  207.0000   123.8240     5.1528     5.2488
  207.5000   123.8240     5.1896     5.1768
  208.0000   125.3414     5.2267     5.1775
  208.5000   131.1077     5.3381     5.2145
  209.0000   133.8392     5.3763     5.2886
  209.5000   134.7496     5.4147     5.3263
  210.0000   134.4461     5.4155     5.4020
  210.5000   133.5357     5.3786     5.4027
  211.0000   131.2656     5.2312     5.4035
  211.5000   127.6398     5.0172     5.3665
  212.0000   123.4719     4.8458     5.2562
  212.5000   121.6995     4.7791     5.1123
  213.0000   120.4856     4.7465     5.0069
  213.5000   120.7891     4.7472     4.9041
  214.0000   121.0926     4.7811     4.8705
  214.5000   121.0926     4.8153     4.8373
  215.0000   120.7891     4.8497     4.8380
  215.5000   119.5751     4.9186     4.8391
  216.0000   118.6646     4.9538     4.9074
  216.5000   118.3612     4.9892     4.9424
  217.0000   118.0577     5.0601     4.9777
  217.5000   117.7542     5.0963     5.0133
  218.0000   117.4507     5.1687     5.0491
  218.5000   114.4158     5.2056     5.1208
  219.0000   111.0774     5.2428     5.1574
  219.5000   113.8088     5.2436     5.1942
  220.0000   113.6874     5.2078     5.1949
  220.5000   112.5948     5.2086     5.1596
  221.0000   112.5948     5.1729     5.1603
  221.5000   113.8331     5.1376     5.1609
  222.0000   117.4507     5.1026     5.1257
  222.5000   123.8240     5.1033     5.1266
  223.0000   123.2170     5.0685     5.0915
  223.5000   121.6995     5.0692     5.0568
  224.0000   124.7344     5.0699     5.0575
  224.5000   128.3763     5.0707     5.0582
  225.0000   129.2868     5.0361     5.0589
  225.5000   125.9484     5.0016     5.0597
  226.0000   122.3065     5.0375     5.0958
  226.5000   120.7891     5.0735     5.1322
  227.0000   122.3065     5.1456     5.1689
  227.5000   126.5554     5.1464     5.2058
  228.0000   127.1624     5.1471     5.1702
  228.5000   126.2519     5.1478     5.1351
  229.0000   125.0379     5.1127     5.1001
  229.5000   124.0708     5.0779     5.1009
  230.0000   122.8730     5.0832     5.1016
  230.5000   121.6752     5.1223     5.1023
  231.0000   122.3227     5.2237     5.2110
  231.5000   125.3414     5.3725     5.3220
  232.0000   125.9484     5.5285     5.4734
  232.5000   123.8240     5.7626     5.6763
  233.0000   122.3065     5.9267     5.9237
  233.5000   120.4856     6.2681     6.2123
  234.0000   119.5751     6.4917     6.3422
  234.5000   123.5205     6.4926     6.3858
  235.0000   125.3414     6.4481     6.2981
  235.5000   125.9484     6.3598     6.2117
  236.0000   124.1275     6.0998     5.9996
  236.5000   122.9135     5.8503     5.8353
  237.0000   123.8240     5.5720     5.5968
  237.5000   126.8589     5.4191     5.4817
  238.0000   129.8938     5.3822     5.4825
  238.5000   129.2868     5.4208     5.5216
  239.0000   126.7536     5.4596     5.5611
  239.5000   123.5205     5.5758     5.6008
  240.0000   124.4715     5.6603     5.6803
  240.5000   126.2600     5.7755     5.7209
  241.0000   127.7693     5.8986     5.8021
  241.5000   131.7147     5.9824     5.8845
  242.0000   135.0531     6.1527     6.0096
  242.5000   132.3217     6.3279     6.1922
  243.0000   132.6252     6.5996     6.5437
  243.5000   137.1775     6.9797     6.8180
  244.0000   140.5159     7.2794     7.0106
  244.5000   141.1229     7.3828     7.0607
  245.0000   133.4143     7.3325     7.1112
  245.5000   127.7693     7.2825     7.1620
  246.0000   128.9833     7.1823     7.1129
  246.5000   132.3217     6.8888     6.9184
  247.0000   130.8042     6.5154     6.7289
  247.5000   129.2868     6.1194     6.3645
  248.0000   133.8392     5.9515     6.0198
  248.5000   136.2671     5.9040     5.9370
  249.0000   133.2322     5.9118     5.8966
  249.5000   132.9287     5.9541     5.8976
  250.0000   133.8392     5.9966     5.8984
  250.5000   132.6252     6.0818     5.9822
  251.0000   124.1275     6.0900     6.0249
  251.5000   124.3905     6.1249     6.1103
  252.0000   130.7085     6.1253     6.1539
  252.5000   137.4810     6.1257     6.1519
  253.0000   137.8169     6.0412     6.0698
  253.5000   134.7496     5.9578     5.9870
  254.0000   135.6601     5.7925     5.7761
  254.5000   134.7233     5.6315     5.6565
  255.0000   133.1512     5.4801     5.5781
  255.5000   132.9287     5.4355     5.5008
  256.0000   135.3566     5.3299     5.4625
  256.5000   136.5706     5.2931     5.3868
  257.0000   137.1775     5.2567     5.3868
  257.5000   134.7496     5.2204     5.3494
  258.0000   130.8042     5.1845     5.3122
  258.5000   129.8938     5.1849     5.2752
  259.0000   135.0531     5.1853     5.2752
  259.5000   139.6055     5.2220     5.2386
  260.0000   141.7299     5.2223     5.2021
  260.5000   140.5159     5.2227     5.2021
  261.0000   137.7845     5.2230     5.2021
  261.5000   132.6252     5.2600     5.2021
  262.0000   128.9833     5.2972     5.2386
  262.5000   131.1077     5.3347     5.2752
  263.0000   133.5357     5.3725     5.3122
  263.5000   135.6601     5.4105     5.3122
  264.0000   138.0880     5.3732     5.2752
  264.5000   139.9211     5.3355     5.2386
  265.0000   141.4264     5.2577     5.1660
  265.5000   141.3920     5.1179     5.0944
  266.0000   139.7147     5.0011     5.0238
  266.5000   133.5357     4.7735     4.9165
  267.0000   135.6601     4.6749     4.7794
  267.5000   137.1775     4.6103     4.6526
  268.0000   135.6601     4.5785     4.5881
  268.5000   136.2671     4.5154     4.5562
  269.0000   138.3915     4.5157     4.5562
  269.5000   135.9636     4.4845     4.5562
  270.0000   135.3566     4.5163     4.5562
  270.5000   135.0531     4.5166     4.5562
  271.0000   137.1775     4.5170     4.5562
  271.5000   138.6950     4.5173     4.5562
  272.0000   139.6055     4.5492     4.5881
  272.5000   139.6055     4.5814     4.6203
  273.0000   139.3020     4.6139     4.6203
  273.5000   139.3020     4.6465     4.6203
  274.0000   140.8194     4.6794     4.6526
  274.5000   142.9438     4.7125     4.7180
  275.0000   144.1578     4.7791     4.8178
  275.5000   140.1420     4.8822     4.8873
