~VERSION INFORMATION
 VERS.                2.0:   CWLS LOG ASCII STANDARD - VERSION 2.0
 WRAP.                 NO:   ONE LINE PER DEPTH STEP
~WELL INFORMATION
#MNEM.UNIT      DATA TYPE    INFORMATION
#----------   ------------   ------------------------------
 STRT.F            0.0000:   START DEPTH
 STOP.F          580.0000:   STOP DEPTH
 STEP.F            0.5000:   STEP LENGTH
 NULL.          -999.2500:   NO VALUE
 COMP. Fluor Daniel (NPOSR) Inc:   COMPANY
 WELL.    NPR 3 #53-3-X-3:   WELL
 FLD .             TEAPOT:   FIELD
 LOC .       S3 T38N R78W:   LOCATION
 CNTY.            NATRONA:   COUNTY
 STAT.            WYOMING:   STATE
 CTRY. UNITED STATES OF AMERICA:   COUNTRY
 SRVC.      Western Atlas:   SERVICE COMPANY
 DATE.        15-APR-1996:   LOGDATE
 API .       490252277800:   API NUMBER
~CURVE INFORMATION
#MNEM.UNIT       API CODE    CURVE DESCRIPTION
#----------   ------------   ------------------------------
 DEPT.F                  :   
 GRR .GAPI   07 310 01 00:   GAMMA RAY FROM RES. LOG.
 RILD.OHMM   07 120 46 00:   INDUCTION LOG DEEP RESISTIVITY
 RILM.OHMM   07 120 44 00:   INDUCTION LOG MEDIUM RESISTIVITY
~PARAMETER INFORMATION
#MNEM.UNIT          VALUE    DESCRIPTION
#----------   ------------   ------------------------------
 PD  .                 GL:   PERMANENT DATUM
 EPD .F              5105:   ELEVATION PERMANENT DATUM
 LMF .                 KB:   LOG MEASURED FROM
 DAPD.F                10:   FEET ABOVE PERMANENT DATUM
 DMF .                 KB:   DRILLING MEASURED FROM
 EKB .F              5115:   KELLING BUSHING
 EDF .F              5114:   DRILLING FLOOR
 EGL .F              5105:   GROUND LEVEL
 DATE.        15-APR-1996:   RUN DATE
 RUN .                  1:   RUN NUMBER
 DD  .F               594:   DEPTH DRILLER
 DL  .F               588:   DEPTH LOGGER
 BLI .F               580:   BOTTOM LOG INTERVAL
 CS  .IN            9.625:   CASING SIZE
 CBD .F                54:   CASING BOTTOM DRILLER
 CBL .F                56:   CASING BOTTOM LOGGER
 BS  .IN             8.75:   BIT SIZE
 BSD .F               594:   BIT SIZE AT DEPTH
 DFT .                AIR:   DRILLING FLUID TYPE
 MRT .F                85:   MAXIMUM RECORDED TEMPERATURE
 LUN .            HL-6530:   LOGGING UNIT NUMBER
 LUL .             CASPER:   LOGGING UNIT LOCATION
 ENGI.             RAUTIO:   RECORDING ENGINEER
 WITN.              HARDY:   WITNESSED BY
 CLNT.            A2DTECH:   CLIENT CODE
 ORIG.       2", 5" PRINT:   ORIGIN OF DATA
 UWI .       490252277800:   UNIQUE WELL ID
 DICO. A2D Technologies, Inc.:   DIGITIZING COMPANY
~OTHER INFORMATION
~A    DEPT      GRR      RILD       RILM   
# ...
  455.0000    93.5418    13.2849    13.6363
  455.5000    93.4166    13.2989    13.4908
  456.0000    95.0194    13.3130    13.3869
  456.5000    97.6462    13.3270    13.5488
  457.0000    99.2565    13.3410    13.6239
  457.5000    98.1721    13.3552    13.7008
  458.0000    96.9509    13.3705    13.7782
  458.5000    98.9379    13.3933    13.8546
  459.0000   100.4780    13.2440    14.0191
  459.5000   100.1139    13.1548    14.0191
  460.0000    99.4626    13.1421    13.7570
  460.5000   100.0648    13.1421    13.4579
  461.0000   100.8068    13.1076    13.2301
  461.5000   102.2178    13.0066    13.1310
  462.0000   102.9362    12.9063    13.0324
  462.5000   100.9748    12.8069    12.9349
  463.0000    99.6116    12.7081    12.8379
  463.5000    98.1949    12.6310    12.7417
  464.0000    99.9358    12.5701    12.6462
  464.5000   102.5013    12.4768    12.5515
  465.0000   104.5743    12.3676    12.4574
  465.5000   103.1805    12.2593    12.3441
  466.0000   101.4603    12.1520    12.2068
  466.5000   102.2779    12.0946    12.3035
  467.0000   104.1984    12.1310    12.4488
  467.5000   106.1871    12.1596    12.5659
  468.0000   108.2901    12.1883    12.6841
  468.5000   109.7598    12.2171    12.8034
  469.0000   108.6591    12.2460    12.9240
  469.5000   105.1140    12.2749    13.0453
  470.0000   101.4476    12.3038    13.1421
  470.5000   100.1933    12.3189    13.0844
  471.0000   100.2019    12.2768    12.9943
  471.5000   101.9025    12.2473    12.9018
  472.0000   104.5900    12.2177    12.7765
  472.5000   104.8324    12.1551    12.6481
  473.0000   104.6926    12.0384    12.5209
  473.5000   105.2978    11.9223    12.3950
  474.0000   104.9896    11.8074    12.2704
  474.5000   102.8944    11.6938    12.1470
  475.0000   101.0766    11.5813    12.0249
  475.5000   104.1076    11.5268    11.9040
  476.0000   106.1752    11.4840    11.7843
  476.5000   106.2466    11.4431    11.6658
  477.0000   105.3345    11.3474    11.5485
  477.5000   104.1895    11.2563    11.4324
  478.0000   104.3103    11.0315    11.2965
  478.5000   107.7870    10.7679    11.0677
  479.0000   112.5554    10.5107    10.8436
  479.5000   113.0261    10.2596    10.6240
  480.0000   109.1172    10.0145    10.4088
  480.5000   105.1592     9.8127    10.1757
  481.0000   106.6973     9.6248     9.8696
  481.5000   110.6331     9.4289     9.5727
  482.0000   114.6365     8.9751     9.2847
  482.5000   117.3982     8.5170     8.7242
  483.0000   118.8827     7.7973     8.0198
  483.5000   119.8371     7.1501     7.3723
  484.0000   121.4125     6.5567     6.7766
  484.5000   124.0072     6.0125     6.2293
  485.0000   127.5195     5.6746     5.8598
  485.5000   126.2526     5.7161     5.7272
  486.0000   116.4575     5.7804     5.9124
  486.5000   103.5990     5.8350     6.3189
  487.0000    99.0369     6.0397     6.7675
  487.5000   100.4325     6.3979     7.3609
  488.0000   104.9115     7.0476     8.1386
  488.5000   107.4430     7.9408     9.0020
  489.0000   108.4565     9.0114     9.4918
  489.5000   111.1160     9.8723     9.9638
  490.0000   112.9633     9.8723    10.0999
  490.5000   113.9137     9.8723    10.1494
  491.0000   115.2298    10.0996    10.4138
  491.5000   117.9789    10.3349    10.7278
  492.0000   117.9629    10.5762    10.8212
  492.5000   115.4012    10.8261    10.9082
  493.0000   113.8036    10.9814    11.0820
  493.5000   115.3362    11.1401    11.2812
  494.0000   116.0221    11.3017    11.4840
  494.5000   116.2499    11.4657    11.6795
  495.0000   115.9933    11.6321    11.8215
  495.5000   114.5943    11.8008    11.9653
  496.0000   111.6260    11.9721    12.1108
  496.5000   109.4584    12.1460    12.2582
  497.0000   109.0512    12.3199    12.4072
  497.5000   108.2495    12.4157    12.5499
  498.0000   107.2432    12.5107    12.6340
  498.5000   108.1470    12.6066    12.7145
  499.0000   110.2449    12.7074    12.7954
  499.5000   112.3759    12.8161    12.8769
  500.0000   112.7522    12.9258    12.9589
  500.5000   111.4755    13.0214    13.0414
  501.0000   109.7541    12.9906    13.1245
  501.5000   108.6247    12.9635    13.2253
  502.0000   107.9114    12.9365    13.3315
  502.5000   108.0802    12.9095    13.3869
  503.0000   109.3168    12.8826    13.2293
  503.5000   110.9645    12.8558    13.1421
  504.0000   112.2207    12.8290    13.1421
  504.5000   112.2582    12.8021    13.1421
  505.0000   112.2600    12.7776    13.1421
  505.5000   111.8298    12.7223    13.1423
  506.0000   111.0456    12.6669    13.1436
  506.5000   109.1254    12.6117    13.1439
  507.0000   106.6086    12.5568    13.0156
  507.5000   108.0566    12.4157    12.8149
  508.0000   111.4598    12.2629    12.6188
  508.5000   113.0284    12.1119    12.4257
  509.0000   112.6494    11.9629    12.2347
  509.5000   112.2613    11.8156    12.0396
  510.0000   113.2722    11.6702    11.8158
  510.5000   115.2533    11.4416    11.5973
  511.0000   117.9894    11.2087    11.3829
  511.5000   120.0322    10.9805    11.1724
  512.0000   119.9373    10.7570    10.9658
  512.5000   120.0510    10.5380    10.7631
  513.0000   120.2558    10.4071    10.5984
  513.5000   119.2497    10.3242    10.5064
  514.0000   115.8887    10.2419    10.4030
  514.5000   115.1525    10.1603    10.2561
  515.0000   118.2598    10.0017    10.1114
  515.5000   120.6188     9.8337     9.9684
  516.0000   121.4129     9.6686     9.8278
  516.5000   123.1826     9.5938     9.6917
  517.0000   127.3329     9.5719     9.6917
  517.5000   130.7719     9.5501     9.6917
  518.0000   131.6274     9.5283     9.6917
  518.5000   128.9649     9.5023     9.6917
  519.0000   125.1174     9.4324     9.6917
  519.5000   121.5501     9.3623     9.6917
  520.0000   120.6481     9.2520     9.6108
  520.5000   115.8516     9.1197     9.4445
  521.0000   114.9719     8.9903     9.2811
  521.5000   118.4526     8.8627     9.1205
  522.0000   122.2831     8.7369     8.9646
  522.5000   123.0418     8.6129     8.8169
  523.0000   121.4367     8.4907     8.6717
  523.5000   122.8701     8.3701     8.5288
  524.0000   125.4275     8.2514     8.3883
  524.5000   125.2827     8.1668     8.2845
  525.0000   125.2689     8.1017     8.2463
  525.5000   126.9973     8.0098     8.2084
  526.0000   127.6184     7.8633     8.0612
  526.5000   125.9524     7.7195     7.9079
  527.0000   126.3836     7.5138     7.7662
  527.5000   127.1423     7.2978     7.4980
  528.0000   127.1749     7.0864     7.1472
  528.5000   126.5631     6.9472     7.1832
  529.0000   125.7900     7.0887     7.2481
  529.5000   126.4455     7.1472     7.3136
  530.0000   127.9514     7.1803     7.4480
  530.5000   128.0669     7.5090     7.7892
  531.0000   126.5621     7.7343     8.1460
  531.5000   124.9544     8.0441     8.5191
  532.0000   124.9142     8.3915     8.9094
  532.5000   124.9886     8.8534     9.3175
  533.0000   122.9841     9.2855     9.7037
  533.5000   120.5825     9.6601    10.0191
  534.0000   117.8616     9.9638    10.3385
  534.5000   113.6726    10.0727    10.3651
  535.0000   107.8627    10.1624    10.3913
  535.5000   104.6014    10.2072    10.4176
  536.0000   102.8207    10.2438    10.4343
  536.5000   102.3822    10.1174    10.1856
  537.0000   101.5352     9.9904     9.9783
  537.5000   100.5560     9.8651     9.7751
  538.0000   100.0186     9.7816     9.6027
  538.5000   100.1360     9.8773     9.6657
  539.0000   101.2461     9.9634     9.7809
  539.5000   104.1869     9.8939     9.7086
  540.0000   105.2113     9.8108     9.5917
  540.5000   102.9303     9.7281     9.4773
  541.0000    99.5269     9.6917     9.3642
  541.5000    96.2359     9.8291     9.2525
  542.0000    95.4425     9.9477     9.1397
  542.5000    96.7726    10.0562     9.0209
  543.0000    97.6106    10.0227     8.9036
  543.5000    97.7301     9.9858     8.7878
  544.0000   100.4753     9.8132     8.6757
  544.5000   103.3576     9.4501     8.3122
  545.0000   105.6001     9.1004     7.9704
  545.5000   106.1452     8.7368     7.6259
