~VERSION INFORMATION
 VERS.                2.0:   CWLS LOG ASCII STANDARD - VERSION 2.0
 WRAP.                 NO:   ONE LINE PER DEPTH STEP
~WELL INFORMATION
#MNEM.UNIT      DATA TYPE    INFORMATION
#----------   ------------   ------------------------------
 STRT.F           95.0000:   START DEPTH
 STOP.F          914.0000:   STOP DEPTH
 STEP.F            0.5000:   STEP LENGTH
 NULL.          -999.2500:   NO VALUE
 COMP. LAWRENCE/ALLISON INC:   COMPANY
 WELL. NPR ##3 31-61 SX 2:   WELL
 FLD .             TEAPOT:   FIELD
 LOC .       S2 T38N R78W:   LOCATION
 CNTY.            NATRONA:   COUNTY
 STAT.            WYOMING:   STATE
 CTRY. UNITED STATES OF AMERICA:   COUNTRY
 SRVC.      Dresser Atlas:   SERVICE COMPANY
 DATE.        30-JAN-1986:   LOGDATE
 API .       490251106800:   API NUMBER
~CURVE INFORMATION
#MNEM.UNIT       API CODE    CURVE DESCRIPTION
#----------   ------------   ------------------------------
 DEPT.F                  :   
 RILD.OHMM   07 120 46 00:   INDUCTION LOG DEEP RESISTIVITY
 RILM.OHMM   07 120 44 00:   INDUCTION LOG MEDIUM RESISTIVITY
 CALD.IN     45 280 60 00:   CALIPER FROM DENSITY
 GRD .GAPI   45 310 01 00:   GAMMA RAY FROM DENSITY LOG
 CORR.G/C3   45 356 01 00:   DENSITY CORRECTION
 PORD.DEC    45 890 10 00:   POROSITY DENSITY LIMESTONE
 DEN .G/C3   45 350 01 00:   COMPENSATED BULK DENSITY
~PARAMETER INFORMATION
#MNEM.UNIT          VALUE    DESCRIPTION
#----------   ------------   ------------------------------
 PD  .                 GL:   PERMANENT DATUM
 EPD .F              5126:   ELEVATION PERMANENT DATUM
 LMF .                 GL:   LOG MEASURED FROM
 DMF .                 GL:   DRILLING MEASURED FROM
 EGL .F              5126:   GROUND LEVEL
 DATE.        30-JAN-1986:   RUN DATE
 RUN .                  1:   RUN NUMBER
 DD  .F               925:   DEPTH DRILLER
 DL  .F               918:   DEPTH LOGGER
 BLI .F               910:   BOTTOM LOG INTERVAL
 CS  .IN            8.625:   CASING SIZE
 CBD .F               127:   CASING BOTTOM DRILLER
 CBL .F               127:   CASING BOTTOM LOGGER
 BS  .IN             6.25:   BIT SIZE
 BSD .F               925:   BIT SIZE AT DEPTH
 DFT .                AIR:   DRILLING FLUID TYPE
 LUN .            HL-6264:   LOGGING UNIT NUMBER
 LUL .           GILLETTE:   LOGGING UNIT LOCATION
 ENGI.     P. M. FAHLSING:   RECORDING ENGINEER
 WITN.        LINOA FIVAS:   WITNESSED BY
 CLNT.            A2DTECH:   CLIENT CODE
 ORIG.           5" PRINT:   ORIGIN OF DATA
 UWI .       490251106800:   UNIQUE WELL ID
 DICO. A2D Technologies, Inc.:   DIGITIZING COMPANY
~OTHER INFORMATION
~A   DEPT     RILD       RILM       CALD         GRD      CORR       PORD        DEN   
# ...
  823.0000    16.1555    16.1553     6.5778    93.0060     0.1130     0.2073     2.3340
  823.5000    16.0384    15.9274     6.5931    95.7372     0.1219     0.2046     2.3393
  824.0000    15.7030    15.7027     6.5934    96.6556     0.1189     0.2015     2.3468
  824.5000    15.3745    15.2681     6.5937    96.3595     0.1098     0.1946     2.3535
  825.0000    14.9490    14.6412     6.5940    96.0725     0.0977     0.1906     2.3581
  825.5000    14.5353    14.1377     6.5943    96.9940     0.0872     0.1922     2.3588
  826.0000    14.2313    13.8420     6.5946    97.6103     0.0811     0.1935     2.3483
  826.5000    14.1281    13.7417     6.5949    98.8248     0.0766     0.1948     2.3505
  827.0000    14.1232    13.9298     6.5952    97.0302     0.0810     0.1897     2.3603
  827.5000    14.2167    14.1182     6.5955    97.0423     0.0945     0.1835     2.3746
  828.0000    14.3106    14.2127     6.5958    97.3504     0.1065     0.1772     2.3836
  828.5000    14.4051    14.3066     6.5961    94.9517     0.1125     0.1807     2.3738
  829.0000    14.5003    14.5000     6.5813    93.1511     0.1034     0.1882     2.3572
  829.5000    14.6976    14.6973     6.5817    94.6737     0.1064     0.1976     2.3482
  830.0000    14.8974    14.7957     6.5820    97.1027     0.1168     0.1992     2.3459
  830.5000    14.9959    14.8921     6.5823    97.4169     0.1183     0.1959     2.3489
  831.0000    15.0950    14.8870     6.5826    97.4290     0.1122     0.1935     2.3550
  831.5000    15.0897    14.7791     6.5829    97.4411     0.1077     0.1902     2.3632
  832.0000    15.0845    14.6719     6.5832    97.4532     0.1076     0.1866     2.3723
  832.5000    14.9751    14.4650     6.5835    95.9517     0.1166     0.1820     2.3775
  833.0000    14.8666    14.4600     6.5838    96.5710     0.1241     0.1772     2.3866
  833.5000    14.6569    14.3552     6.5841    97.4864     0.1240     0.1697     2.3986
  834.0000    14.4501    14.2511     6.5844    99.6163     0.1105     0.1570     2.4129
  834.5000    14.2463    14.1478     6.5847    97.8157     0.0954     0.1625     2.4114
  835.0000    14.0453    13.8519     6.5850    97.5196     0.0848     0.1731     2.3888
  835.5000    13.7474    13.6565     6.5853    98.4441     0.0803     0.1818     2.3775
  836.0000    13.4590    13.2785     6.5856   100.5710     0.0802     0.1840     2.3707
  836.5000    13.2682    13.0912     6.5859   103.3021     0.0817     0.1843     2.3706
  837.0000    12.9898    12.7289     6.5862   105.4290     0.0906     0.1831     2.3722
  837.5000    12.7172    12.3766     6.6015   105.4411     0.0981     0.1816     2.3759
  838.0000    12.3723    12.2009     6.6018   104.8489     0.1056     0.1798     2.3789
  838.5000    12.1891    11.9446     6.6021   104.2508     0.1146     0.1780     2.3820
  839.0000    11.9334    11.6970     6.6024   104.5710     0.1220     0.1756     2.3865
  839.5000    11.6929    11.5277     6.5876   101.5619     0.1280     0.1699     2.3947
  840.0000    11.5173    11.2908     6.5880    97.9486     0.1220     0.1617     2.4060
  840.5000    11.2757    11.1253     6.5883    95.8459     0.1159     0.1530     2.4196
  841.0000    11.1159    11.0436     6.5886    95.5499     0.1113     0.1503     2.4256
  841.5000    11.0469    10.8949     6.5889    97.6828     0.1128     0.1527     2.4248
  842.0000    10.9669    10.8911     6.5892    99.8097     0.1158     0.1515     2.4271
  842.5000    10.9492    10.8121     6.5744    98.9124     0.1217     0.1503     2.4278
  843.0000    10.8836    10.8084     6.5597    97.7160     0.1232     0.1531     2.4233
  843.5000    10.8790    10.7300     6.5450    97.4230     0.1186     0.1549     2.4218
  844.0000    10.8753    10.7135     6.5453    99.2538     0.1141     0.1528     2.4248
  844.5000    10.8715    10.6348     6.5305    98.9637     0.1080     0.1495     2.4308
  845.0000    10.8678    10.5706     6.5308    98.0665     0.0989     0.1454     2.4368
  845.5000    10.8640    10.5670     6.5311    98.9879     0.0959     0.1422     2.4421
  846.0000    10.8603    10.5633     6.5314   100.8127     0.0943     0.1402     2.4451
  846.5000    10.9330    10.5597     6.5468   101.4290     0.1033     0.1378     2.4473
  847.0000    10.9282    10.6303     6.5471   100.2326     0.1168     0.1339     2.4549
  847.5000    10.8490    10.6997     6.5474    98.1299     0.1228     0.1309     2.4609
  848.0000    10.9216    10.6960     6.5477    97.5317     0.1272     0.1272     2.4654
  848.5000    10.9169    10.7676     6.5480    97.8459     0.1272     0.1291     2.4654
  849.0000    10.9900    10.8387     6.5483    96.9517     0.1272     0.1324     2.4571
  849.5000    10.9852    10.9103     6.5486    97.2719     0.1226     0.1357     2.4533
  850.0000    11.2121    10.9824     6.5489    97.5968     0.1180     0.1342     2.4541
  850.5000    11.2083    10.9021     6.5490    97.8957     0.1165     0.1306     2.4556
  851.0000    11.2833    10.8984     6.5492    97.8912     0.1209     0.1273     2.4616
  851.5000    11.2784    10.9714     6.5493    98.7891     0.1314     0.1222     2.4685
  852.0000    11.2746    11.0429     6.5495   100.2876     0.1524     0.1122     2.4791
  852.5000    11.2707    11.0391     6.5346   102.0864     0.1614     0.1083     2.4913
  853.0000    11.1890    10.9591     6.5347   104.1855     0.1372     0.1074     2.4993
  853.5000    11.1079    10.9553     6.5349   105.6848     0.1281     0.1081     2.4992
  854.0000    11.0274    10.9515     6.5351   102.9784     0.1236     0.1099     2.4976
  854.5000    11.0236    10.8722     6.5503   102.3755     0.1220     0.1117     2.4944
  855.0000    11.0198    10.8684     6.5504   104.1736     0.1189     0.1147     2.4879
  855.5000    10.9399    10.7897     6.5355   105.6721     0.1189     0.1180     2.4826
  856.0000    10.9361    10.7114     6.5357   106.2705     0.1263     0.1205     2.4773
  856.5000    10.7819    10.5604     6.5358   104.7652     0.1428     0.1208     2.4751
  857.0000    10.7037    10.5538     6.5360   105.6632     0.1503     0.1205     2.4765
  857.5000    10.5528    10.4030     6.5361   107.4620     0.1397     0.1193     2.4788
  858.0000    10.5491    10.1835     6.5363   108.6602     0.1216     0.1178     2.4833
  858.5000    10.5455     9.9770     6.5364   109.2586     0.1110     0.1163     2.4841
  859.0000    10.5419     9.9735     6.5366   110.1557     0.1004     0.1160     2.4841
  859.5000    10.6124     9.9820     6.5216   111.9545     0.1094     0.1151     2.4863
  860.0000    10.6079    10.1059     6.5218   113.1528     0.1198     0.1136     2.4886
  860.5000    10.5310    10.2425     6.5220   114.0507     0.1215     0.1127     2.4901
  861.0000    10.5273    10.2390     6.5221   115.2489     0.1137     0.1142     2.4855
  861.5000    10.5237    10.3075     6.5223   117.0477     0.1152     0.1169     2.4818
  862.0000    10.5201    10.2319     6.5375   116.4441     0.1226     0.1185     2.4802
  862.5000    10.5896    10.2284     6.5376   114.3390     0.1331     0.1158     2.4817
  863.0000    10.5859    10.2969     6.5378   112.8345     0.1390     0.1179     2.4832
  863.5000    10.5823    10.2925     6.5379   110.7295     0.1314     0.1197     2.4802
  864.0000    10.5787    10.2889     6.5381   110.4262     0.1299     0.1188     2.4810
  864.5000    10.5020    10.2854     6.5382   110.7242     0.1330     0.1161     2.4855
  865.0000    10.4959    10.2818     6.5383   111.0215     0.1358     0.1134     2.4900
  865.5000    10.4181    10.2073     6.5385   110.7175     0.1202     0.1110     2.4930
  866.0000    10.3409    10.2038     6.5386   110.4150     0.1083     0.1107     2.4945
  866.5000    10.2716    10.0599     6.5388   111.3121     0.1025     0.1113     2.4937
  867.0000    10.1972    10.0564     6.5389   110.7078     0.1175     0.1116     2.4922
  867.5000    10.1232     9.9835     6.5391   109.2033     0.1430     0.1134     2.4899
  868.0000    10.1076     9.7747     6.5392   107.9991     0.1490     0.1146     2.4862
