~VERSION INFORMATION
 VERS.                2.0:   CWLS LOG ASCII STANDARD - VERSION 2.0
 WRAP.                 NO:   ONE LINE PER DEPTH STEP
~WELL INFORMATION
#MNEM.UNIT      DATA TYPE    INFORMATION
#----------   ------------   ------------------------------
 STRT.F           18.0000:   START DEPTH
 STOP.F          449.0000:   STOP DEPTH
 STEP.F            0.5000:   STEP LENGTH
 NULL.          -999.2500:   NO VALUE
 COMP.   LAWRENCE-ALLISON:   COMPANY
 WELL. NPR 3 #52-51SX10OB5:   WELL
 FLD .             TEAPOT:   FIELD
 LOC .      S10 T38N R78W:   LOCATION
 CNTY.            NATRONA:   COUNTY
 STAT.            WYOMING:   STATE
 CTRY. UNITED STATES OF AMERICA:   COUNTRY
 SRVC.      Dresser Atlas:   SERVICE COMPANY
 DATE.        20-DEC-1984:   LOGDATE
 API .       490251101000:   API NUMBER
~CURVE INFORMATION
#MNEM.UNIT       API CODE    CURVE DESCRIPTION
#----------   ------------   ------------------------------
 DEPT.F                  :   
 CALD.IN     45 280 60 00:   CALIPER FROM DENSITY LOG
 CNC .DEC    42 890 03 00:   NEUTRON POROSITY SANDSTONE
 CORR.G/C3   45 356 01 00:   DENSITY CORRECTION
 DEN .G/C3   45 350 01 00:   COMPENSATED BULK DENSTIY
 GRD .GAPI   45 310 01 00:   GAMMA RAY FROM DENSITY LOG
 PORD.DEC    45 890 12 00:   POROSITY DENSITY SANDSTONE
 DT  .US/F   60 520 00 00:   INTERVAL TRANSIT TIME
~PARAMETER INFORMATION
#MNEM.UNIT          VALUE    DESCRIPTION
#----------   ------------   ------------------------------
 PD  .                 GL:   PERMANENT DATUM
 EPD .F              5159:   ELEVATION PERMANENT DATUM
 LMF .                 GL:   LOG MEASURED FROM
 DMF .                 GL:   DRILLING MEASURED FROM
 EGL .F              5159:   GROUND LEVEL
 DATE.        20-DEC-1984:   RUN DATE
 RUN .                  1:   RUN NUMBER
 DD  .F               451:   DEPTH DRILLER
 DL  .F               451:   DEPTH LOGGER
 BLI .F               449:   BOTTOM LOG INTERVAL
 TLI .F                20:   TOP LOG INTERVAL
 CS  .IN            8.625:   CASING SIZE
 CBD .F                20:   CASING BOTTOM DRILLER
 CBL .F                20:   CASING BOTTOM LOGGER
 BS  .IN             6.25:   BIT SIZE
 BSD .F               451:   BIT SIZE AT DEPTH
 DFT .          KCL/WATER:   DRILLING FLUID TYPE
 MSS .            MUDTANK:   MUD SAMPLE SOURCE
 RMS .OHMM           .141:   RESISTIVITY MUD SAMPLE
 MST .F                54:   MUD SAMPLE TEMPERATURE
 RMF .OHMM           .106:   RESISTIVITY MUD FILTRATE SAMPLE
 MFST.F                54:   MUD FILTRATE SAMPLE TEMPERATURE
 RMC .OHMM           .176:   RESISTIVITY MUD CAKE
 MCST.F                54:   MUD CAKE SAMPLE TEMPERATURE
 MFSS.               CALC:   MUD FILTRATE SAMPLE SOURCE
 MCSS.               CALC:   MUD CAKE SAMPLE SOURCE
 TCS .HRS               2:   TIME CURCULATED STOPPED
 MRT .F               100:   MAXIMUM RECORDED TEMPERATURE
 LUN .               6270:   LOGGING UNIT NUMBER
 LUL .                 FM:   LOGGING UNIT LOCATION
 ENGI.        TOM GAUGHAN:   RECORDING ENGINEER
 WITN.              LUERS:   WITNESSED BY
 CLNT.            A2DTECH:   CLIENT CODE
 ORIG.           5" PRINT:   ORIGIN OF DATA
 UWI .       490251101000:   UNIQUE WELL ID
 DICO. A2D Technologies, Inc.:   DIGITIZING COMPANY
~OTHER INFORMATION
~A   DEPT     CALD         CNC      CORR        DEN         GRD      PORD         DT   
# ...
  336.5000     6.2315     0.2454     0.0587     2.4197    69.0578     0.1579    91.2137
  337.0000     6.2324     0.2508     0.0558     2.3832    76.7101     0.1848    95.1570
  337.5000     6.2334     0.2478     0.0441     2.3600    78.5008     0.1938    97.1735
  338.0000     6.2344     0.2511     0.0204     2.3556    76.8891     0.1938    97.9123
  338.5000     6.2354     0.2854     0.0190     2.3519    75.5733     0.1940    98.5016
  339.0000     6.2364     0.2877     0.0207     2.3483    74.4055     0.1956    98.6427
  339.5000     6.2377     0.2865     0.0269     2.3484    73.8077     0.1964    98.4723
  340.0000     6.2387     0.2793     0.0271     2.3500    77.3990     0.1952    98.6232
  340.5000     6.2396     0.2805     0.0213     2.3546    77.7066     0.1939    98.9136
  341.0000     6.2406     0.2878    -0.0027     2.3517    76.2467     0.1945    99.2040
  341.5000     6.2268     0.2963    -0.0038     2.3464    73.8954     0.1987    99.3449
  342.0000     6.2281     0.2971     0.0039     2.3459    73.6151     0.1999    99.4858
  342.5000     6.2291     0.2840     0.0145     2.3639    77.7766     0.1915    98.5783
  343.0000     6.2300     0.2732     0.0266     2.3760    82.2300     0.1795    97.9718
  343.5000     6.2310     0.2731     0.0496     2.3881    82.3896     0.1696    97.5148
  344.0000     6.2468     0.2803     0.0688     2.3971    79.3026     0.1689    97.3567
  344.5000     6.2479     0.2755     0.0511     2.3972    77.8388     0.1707    97.3482
  345.0000     6.2491     0.2734     0.0304     2.3853    76.8228     0.1770    97.1799
  345.5000     6.2501     0.2730     0.0216     2.3764    76.2466     0.1805    97.0299
  346.0000     6.2510     0.2742     0.0471     2.3765    77.5935     0.1793    97.0214
  346.5000     6.2669     0.2670     0.0473     2.3916    81.6032     0.1715    96.7138
  347.0000     6.2530     0.2649     0.0356     2.4037    81.7667     0.1658    96.4811
  347.5000     6.2541     0.2669     0.0313     2.4037    80.8703     0.1646    96.3976
  348.0000     6.2553     0.2711     0.0299     2.4009    81.3579     0.1673    96.1628
  348.5000     6.2415     0.2669     0.0286     2.3920    82.4089     0.1738    95.8553
  349.0000     6.2425     0.2669     0.0244     2.3831    83.6079     0.1801    95.3983
  349.5000     6.2435     0.2668     0.0200     2.3772    83.9155     0.1816    94.2687
  350.0000     6.2444     0.2674     0.0217     2.3772    83.6391     0.1755    91.8685
  350.5000     6.2457     0.2531     0.0248     2.3833    80.6999     0.1683    87.9714
  351.0000     6.2612     0.2195     0.0369     2.4074    77.6090     0.1599    85.2722
  351.5000     6.2326     0.1962     0.0281     2.4307    76.5851     0.1423    82.5731
  352.0000     6.2339     0.1938     0.0073     2.4757    76.7525     0.1162    80.4718
  352.5000     6.2052     0.2021    -0.0045     2.4877    76.7365     0.1156    80.5380
  353.0000     6.2062     0.2285    -0.0043     2.4856    76.1573     0.1183    81.6861
  353.5000     6.2485     0.2347     0.0108     2.4587    75.5754     0.1335    85.2272
  354.0000     6.2047     0.2428     0.0319     2.4336    75.4376     0.1527    90.3073
  354.5000     6.2053     0.2511     0.0350     2.4100    76.1898     0.1598    91.8689
  355.0000     6.2059     0.2526     0.0292     2.4100    77.3832     0.1619    92.9821
  355.5000     6.2066     0.2458     0.0188     2.4101    76.7990     0.1610    93.2977
  356.0000     6.2072     0.2260     0.0055     2.4004    76.8116     0.1634    93.5642
  356.5000     6.2078     0.2248     0.0042     2.4012    78.4488     0.1658    93.3301
  357.0000     6.2083     0.2307     0.0204     2.4050    80.3819     0.1640    93.0980
  357.5000     6.2089     0.2319     0.0359     2.4051    80.2145     0.1633    92.6417
  358.0000     6.2095     0.2334     0.0270     2.4051    77.1500     0.1639    92.0359
  358.5000     6.2077     0.2394     0.0272     2.4037    80.2665     0.1642    91.4048
  359.0000     6.1810     0.2438     0.0154     2.4053    83.0872     0.1609    90.8223
  359.5000     6.1965     0.2438     0.0200     2.4203    83.3930     0.1531    90.4407
  360.0000     6.2119     0.2420     0.0366     2.4323    83.1072     0.1492    90.2086
  360.5000     6.2125     0.2378     0.0368     2.4354    81.9338     0.1474    89.9018
  361.0000     6.2131     0.2414     0.0279     2.4354    81.4990     0.1477    89.8939
  361.5000     6.2284     0.2555     0.0221     2.4295    81.0454     0.1501    89.8857
  362.0000     6.2440     0.2653     0.0163     2.4214    79.3036     0.1539    89.8761
  362.5000     6.2445     0.2652     0.0045     2.4207    80.4970     0.1536    89.8682
  363.0000     6.2599     0.2652    -0.0014     2.4222    81.0987     0.1548    90.0098
  363.5000     6.2455     0.2640    -0.0057     2.4208    80.8129     0.1560    89.9272
  364.0000     6.2166     0.2562    -0.0040     2.4178    79.9353     0.1560    89.6951
  364.5000     6.2172     0.2455    -0.0024     2.4224    79.6440     0.1536    89.2384
  365.0000     6.2178     0.2377    -0.0007     2.4299    79.9556     0.1487    88.9299
  365.5000     6.2035     0.2365     0.0248     2.4360    80.2637     0.1476    88.9220
  366.0000     6.2042     0.2418     0.0459     2.4331    81.1613     0.1475    88.9141
  366.5000     6.1899     0.2490     0.0416     2.4331    84.1299     0.1475    88.9062
  367.0000     6.1906     0.2523     0.0325     2.4362    85.9151     0.1460    88.8984
  367.5000     6.1911     0.2482     0.0239     2.4385    85.9251     0.1418    88.7390
  368.0000     6.2065     0.2468     0.0062     2.4445    83.5682     0.1394    88.5816
  368.5000     6.2219     0.2471    -0.0191     2.4483    80.6197     0.1406    88.4243
  369.0000     6.2226     0.2450    -0.0175     2.4454    81.5198     0.1415    88.1174
  369.5000     6.2082     0.2420     0.0036     2.4425    83.6008     0.1426    87.8853
  370.0000     6.1940     0.2459     0.0292     2.4485    86.1231     0.1372    87.6532
  370.5000     6.1947     0.2489     0.0428     2.4531    84.8017     0.1342    87.8817
  371.0000     6.1953     0.2494     0.0349     2.4569    85.4060     0.1330    87.9364
  371.5000     6.1959     0.2494     0.0251     2.4592    87.7829     0.1294    88.0760
  372.0000     6.1964     0.2506     0.0163     2.4637    89.5760     0.1282    88.2196
  372.5000     6.1971     0.2506     0.0419     2.4645    88.7722     0.1294    88.5090
  373.0000     6.1977     0.2446     0.0480     2.4638    87.6650     0.1297    88.7250
  373.5000     6.1941     0.2401     0.0317     2.4632    89.6006     0.1282    88.7918
  374.0000     6.1692     0.2410     0.0438     2.4662    91.9774     0.1245    88.7819
  374.5000     6.1698     0.2592     0.0484     2.4760    92.5767     0.1207    88.4751
  375.0000     6.1704     0.2625     0.0371     2.4761    90.2223     0.1239    88.1683
  375.5000     6.1710     0.2601     0.0024     2.4709    89.0489     0.1269    87.9361
  376.0000     6.1717     0.2541    -0.0005     2.4732    90.1104     0.1236    87.8535
  376.5000     6.1722     0.2457     0.0027     2.4778    89.0714     0.1221    88.0820
  377.0000     6.1728     0.2448     0.0103     2.4793    88.4872     0.1203    88.4356
  377.5000     6.1734     0.2510     0.0329     2.4794    87.7601     0.1209    88.7267
  378.0000     6.1739     0.2567     0.0629     2.4734    92.6518     0.1268    89.0178
  378.5000     6.1745     0.2531     0.0511     2.4660    94.4369     0.1295    89.3072
  379.0000     6.1752     0.2522     0.0393     2.4638    95.1866     0.1280    89.3737
  379.5000     6.1758     0.2519     0.0335     2.4654    93.5508     0.1235    89.2783
  380.0000     6.1764     0.2516     0.0351     2.4737    93.1356     0.1196    88.9822
  380.5000     6.1769     0.2516     0.0428     2.4799    93.1481     0.1165    88.8996
  381.0000     6.1775     0.2515     0.0564     2.4858    93.0077     0.1124    88.8170
  381.5000     6.1781     0.2515     0.0584     2.4918    92.5764     0.1115    88.9589
