~VERSION INFORMATION
 VERS.                2.0:   CWLS LOG ASCII STANDARD - VERSION 2.0
 WRAP.                 NO:   ONE LINE PER DEPTH STEP
~WELL INFORMATION
#MNEM.UNIT      DATA TYPE    INFORMATION
#----------   ------------   ------------------------------
 STRT.F           36.0000:   START DEPTH
 STOP.F          518.0000:   STOP DEPTH
 STEP.F            0.5000:   STEP LENGTH
 NULL.          -999.2500:   NO VALUE
 COMP.    FENIX & SCISSON:   COMPANY
 WELL.        NPR #57S-10:   WELL
 FLD .             TEAPOT:   FIELD
 LOC .      S10 T38N R78W:   LOCATION
 CNTY.            NATRONA:   COUNTY
 STAT.            WYOMING:   STATE
 CTRY. UNITED STATES OF AMERICA:   COUNTRY
 SRVC.              Welex:   SERVICE COMPANY
 DATE.        11-MAR-1977:   LOGDATE
 API .       490251029100:   API NUMBER
~CURVE INFORMATION
#MNEM.UNIT       API CODE    CURVE DESCRIPTION
#----------   ------------   ------------------------------
 DEPT.F                  :   
 SPR .MV     07 010 01 00:   SPONTANEOUS POTENTIAL
 ILD .OHMM   07 120 46 00:   INDUCTION LOG DEEP
 ILM .OHMM   07 120 44 00:   INDUCTION LOG MEDIUM
 SGUR.OHMM   07 220 01 00:   SHORT GUARD RESISITIVITY
 CORR.G/C3   45 356 01 00:   DENSITY CORRECTION
 CALD.IN     45 280 60 00:   CALIPER
 GRD .GAPI   45 310 01 00:   GAMMA RAY FROM DENSITY LOG
 RHOB.G/C3   45 350 01 00:   BULK DENSITY
 DPOR.DEC    45 890 12 00:   DENSITY POROSITY SANDSTONE
~PARAMETER INFORMATION
#MNEM.UNIT          VALUE    DESCRIPTION
#----------   ------------   ------------------------------
 PD  .                 GL:   PERMANENT DATUM
 EPD .F              5244:   ELEVATION PERMANENT DATUM
 LMF .                 GL:   LOG MEASURED FROM
 DMF .                 GL:   DRILLING MEASURED FROM
 EGL .F              5244:   GROUND LEVEL
 DATE.          3-11-1977:   RUN DATE
 RUN .                  1:   RUN NUMBER
 DD  .F               530:   DEPTH DRILLER
 DL  .F               522:   DEPTH LOGGER
 BLI .F               520:   BOTTOM LOG INTERVAL
 TLI .F                35:   TOP LOG INTERVAL
 CS  .IN            8.625:   CASING SIZE
 CBD .F                40:   CASING BOTTOM DRILLER
 CBL .F                44:   CASING BOTTOM LOGGER
 BS  .IN            7.875:   BIT SIZE
 BSD .F               530:   BIT SIZE AT DEPTH
 DFT .            KCL MUD:   DRILLING FLUID TYPE
 DFD .                8.8:   DRILLING FLUID DENSITY
 DFV .                  8:   DRILLING FLUID VISCOSITY
 DFPH.                 10:   DRILLING FLUID PH
 DFL .               12.4:   DRILLING FLUID LOSS
 MSS .           FLOWLINE:   MUD SAMPLE SOURCE
 RMS .OHMM           .398:   RESISTIVITY MUD SAMPLE
 MST .F                50:   MUD SAMPLE TEMPERATURE
 RMF .OHMM           .276:   RESISTIVITY MUD FILTRATE SAMPLE
 MFST.F                60:   MUD FILTRATE SAMPLE TEMPERATURE
 RMC .OHMM            .42:   RESISTIVITY MUD CAKE
 MCST.F                60:   MUD CAKE SAMPLE TEMPERATURE
 MFSS.           MEASURED:   MUD FILTRATE SAMPLE SOURCE
 RMB .OHMM            .31:   RESISTIVITY MUD AT BHT
 BHT .F                64:   BOTTOM HOLE TEMPERATURE
 TCS .HRS             2.5:   TIME CURCULATED STOPPED
 MRT .F                64:   MAXIMUM RECORDED TEMPERATURE
 LUN .               8611:   LOGGING UNIT NUMBER
 LUL .           GILLETTE:   LOGGING UNIT LOCATION
 ENGI.               DOAK:   RECORDING ENGINEER
 WITN.         STUEBINGER:   WITNESSED BY
 CLNT.            A2DTECH:   CLIENT CODE
 ORIG.      2" & 5" PRINT:   ORIGIN OF DATA
 UWI .       490251029100:   UNIQUE WELL ID
 DICO. A2D Technologies, Inc.:   DIGITIZING COMPANY
~OTHER INFORMATION
~A   DEPT      SPR        ILD        ILM       SGUR        CORR        CALD      GRD       RHOB       DPOR   
# ...
  437.5000   -39.4318    11.9447    15.7108    17.4231     0.0288     7.8646   101.7663     2.4753     0.0997
  438.0000   -39.2341    11.9003    16.0371    17.4907     0.0297     7.8667   102.9440     2.4712     0.1035
  438.5000   -39.0325    11.8558    14.6274    17.5805     0.0305     7.8689   104.1249     2.4696     0.1054
  439.0000   -38.8991    11.7613    14.8716    17.2204     0.0314     7.8711   103.7935     2.4706     0.1048
  439.5000   -38.7806    11.6310    15.1903    16.9263     0.0329     7.8733   101.8718     2.4771     0.1001
  440.0000   -38.6628    11.5024    15.3160    16.8737     0.0353     7.8755    99.9624     2.4835     0.0953
  440.5000   -38.5447    11.3744    14.8190    16.8213     0.0376     7.8777    98.6809     2.4897     0.0930
  441.0000   -38.4265    11.3056    14.6274    16.6390     0.0399     7.8798    99.3517     2.4904     0.0955
  441.5000   -38.3083    11.4043    15.0886    16.1853     0.0413     7.8820   100.3102     2.4880     0.0974
  442.0000   -38.1901    11.4744    15.4576    16.4106     0.0425     7.8842   101.2777     2.4883     0.0962
  442.5000   -38.0733    11.5444    15.0414    16.7544     0.0438     7.8864   102.2466     2.4952     0.0925
  443.0000   -38.0039    11.6216    14.6274    16.9324     0.0451     7.8886   103.2181     2.5020     0.0890
  443.5000   -38.0315    11.6216    14.8439    17.0911     0.0464     7.8908   104.2019     2.5089     0.0857
  444.0000   -38.0573    11.6215    15.0431    17.2621     0.0477     7.8930   104.9811     2.5157     0.0767
  444.5000   -38.0834    11.6215    15.1757    17.1196     0.0490     7.8952   103.0365     2.5226     0.0738
  445.0000   -38.1095    11.6215    14.4626    16.9682     0.0498     7.8973   101.1194     2.5168     0.0801
  445.5000   -38.1356    11.6216    13.8417    16.8181     0.0455     7.8995   100.1206     2.5069     0.0860
  446.0000   -38.1618    11.5577    14.1803    16.6372     0.0413     7.9019   102.7849     2.4968     0.0919
  446.5000   -38.1903    11.4760    14.6283    16.6387     0.0371     7.8955   104.8759     2.4868     0.0969
  447.0000   -38.1154    11.3948    14.8990    16.6384     0.0330     7.8857   106.9819     2.4768     0.1015
  447.5000   -38.0091    11.3142    14.4169    16.6388     0.0306     7.8757   108.8263     2.4669     0.1060
  448.0000   -37.9021    11.2342    14.0845    16.6356     0.0339     7.8657   105.3910     2.4618     0.1066
  448.5000   -37.7953    11.1548    13.9683    16.6383     0.0371     7.8558   101.5578     2.4786     0.1011
  449.0000   -37.6883    11.0759    13.9693    16.2407     0.0402     7.8458   103.9774     2.4919     0.0916
  449.5000   -37.5811    10.9976    13.9693    15.9724     0.0433     7.8359   106.8092     2.5051     0.0820
  450.0000   -37.4771    10.8967    13.9697    15.8902     0.0465     7.8259   103.8103     2.5188     0.0770
  450.5000   -37.4877    10.9555    14.0415    16.3349     0.0495     7.8160   100.7208     2.5262     0.0724
  451.0000   -37.7955    11.0400    14.1861    16.0533     0.0494     7.8056   101.4807     2.5315     0.0683
  451.5000   -38.0977    11.0990    14.3322    15.5112     0.0488     7.8074   102.9989     2.5355     0.0655
  452.0000   -38.4002    10.7842    14.4934    15.0312     0.0482     7.8141   104.4541     2.5310     0.0705
  452.5000   -38.7025    10.5490    14.0945    15.0323     0.0476     7.8208   103.5320     2.5216     0.0786
  453.0000   -39.0048    10.3190    12.9630    15.0367     0.0470     7.8276   102.0819     2.5163     0.0814
  453.5000   -39.3071    10.0940    11.3140    14.7477     0.0465     7.8344   100.6314     2.5213     0.0777
  454.0000   -39.6096     9.8241    11.5346    14.4373     0.0460     7.8411    99.3543     2.5249     0.0741
  454.5000   -39.9159     9.5426    11.9434    14.1189     0.0490     7.8479   102.6853     2.5256     0.0705
  455.0000   -40.1483     9.2684    11.7585    13.7672     0.0521     7.8546   106.5414     2.5398     0.0668
  455.5000   -40.3660     8.9846    11.5055    13.4274     0.0553     7.8614   110.4738     2.5370     0.0649
  456.0000   -40.5829     8.3974    11.2554    13.0956     0.0551     7.8681   111.6021     2.5347     0.0666
  456.5000   -40.8005     7.8064    11.0104    12.7719     0.0541     7.8749   112.2269     2.5405     0.0631
  457.0000   -41.0390     7.2569    10.5665    12.4563     0.0531     7.8816   112.7467     2.5341     0.0682
  457.5000   -41.3754     6.7461     9.9672    12.1484     0.0523     7.8884   114.3103     2.5239     0.0771
  458.0000   -41.7090     6.2866     9.4019    11.2531     0.0470     7.8953   116.3185     2.4947     0.0899
  458.5000   -42.0423     5.9532     8.8686     9.3942     0.0404     7.9020   120.1238     2.4655     0.1027
  459.0000   -42.3759     5.6180     8.3656     7.7525     0.0338     7.8933   123.6670     2.4405     0.1154
  459.5000   -42.7087     5.5146     7.6837     6.0882     0.0273     7.8834   126.2088     2.4287     0.1245
  460.0000   -43.0487     5.6708     7.9525     4.5465     0.0290     7.8735   121.3457     2.4360     0.1180
  460.5000   -42.9920     5.8435     8.4972    11.8374     0.0389     7.8636   116.3781     2.4776     0.0964
  461.0000   -42.7565     6.0207     9.0748    13.8621     0.0477     7.8538   111.4750     2.5192     0.0749
  461.5000   -42.5160     6.2898     9.6906    14.3915     0.0463     7.8439   107.7227     2.5208     0.0723
  462.0000   -42.2752     6.6475    10.3482    14.4330     0.0448     7.8341   107.7279     2.5129     0.0820
  462.5000   -42.0192     7.0256    11.0504    14.4934     0.0433     7.8242   109.0954     2.5077     0.0838
  463.0000   -42.2567     7.4252    11.8374    14.3105     0.0418     7.8143   110.4275     2.5064     0.0822
  463.5000   -42.6673     7.8475    12.0951    13.9845     0.0403     7.8045   109.8882     2.5082     0.0836
  464.0000   -43.0821     8.2938    12.4461    13.6658     0.0388     7.7946   106.2438     2.5085     0.0850
  464.5000   -43.4968     8.7656    12.8074    13.4649     0.0384     7.7846   104.3354     2.5085     0.0826
  465.0000   -43.9141     9.2641    13.1791    14.1002     0.0395     7.7853   107.0370     2.5073     0.0810
  465.5000   -44.3257     9.5901    13.5620    14.5873     0.0406     7.7883   109.7553     2.5058     0.0818
  466.0000   -44.2265     9.8513    13.9683    15.0913     0.0417     7.7913   112.4885     2.5065     0.0838
  466.5000   -44.0947    10.1243    14.4513    15.5167     0.0428     7.7944   113.4584     2.5128     0.0846
  467.0000   -43.9648    10.4047    14.9670    15.8785     0.0439     7.7974   111.2110     2.5192     0.0791
  467.5000   -43.8357    10.6929    15.5135    16.2086     0.0450     7.8004   109.9573     2.5225     0.0746
  468.0000   -43.7059    10.9890    17.8309    16.6824     0.0455     7.8034   110.8987     2.5180     0.0780
  468.5000   -43.5709    11.2933    20.3455    16.7921     0.0425     7.8064   111.8074     2.5117     0.0841
  469.0000   -43.7112    11.6061    16.0666    16.9747     0.0395     7.8095   112.7118     2.5053     0.0886
  469.5000   -43.9119    11.9275    13.4649    17.5827     0.0365     7.8125   113.6023     2.4988     0.0895
  470.0000   -44.1215    12.2578    13.4917    17.5551     0.0335     7.8155   114.0769     2.4978     0.0905
  470.5000   -43.8657    12.5973    13.5263    17.5076     0.0305     7.8185   113.8370     2.4975     0.0910
  471.0000   -43.5237    12.7416    13.5610    17.4602     0.0276     7.8215   113.6555     2.4989     0.0899
  471.5000   -43.1796    12.7416    13.5893    17.4217     0.0278     7.8246   113.4893     2.4998     0.0886
  472.0000   -42.8366    12.7416    11.8538    18.4004     0.0318     7.8276   112.5079     2.5005     0.0884
  472.5000   -42.4935    12.5864    10.8967    18.9258     0.0357     7.8306   109.5941     2.5000     0.0890
  473.0000   -42.1482    12.4313    12.2714    18.4160     0.0396     7.8336   104.5216     2.4989     0.0896
  473.5000   -41.7991    12.2776    13.5604    18.0525     0.0415     7.8366   105.7277     2.4979     0.0903
