~VERSION INFORMATION
 VERS.                2.0:   CWLS LOG ASCII STANDARD - VERSION 2.0
 WRAP.                 NO:   ONE LINE PER DEPTH STEP
~WELL INFORMATION
#MNEM.UNIT      DATA TYPE    INFORMATION
#----------   ------------   ------------------------------
 STRT.F            0.0000:   START DEPTH
 STOP.F         3139.0000:   STOP DEPTH
 STEP.F            0.5000:   STEP LENGTH
 NULL.          -999.2500:   NO VALUE
 COMP. BROWN JOHN E&C INC:   COMPANY
 WELL.       TX-10 #63-10:   WELL
 FLD .             TEAPOT:   FIELD
 LOC .      S10 T38N R78W:   LOCATION
 CNTY.            NATRONA:   COUNTY
 STAT.            WYOMING:   STATE
 CTRY. UNITED STATES OF AMERICA:   COUNTRY
 SRVC.       Schlumberger:   SERVICE COMPANY
 DATE.        05-OCT-1982:   LOGDATE
 API .       490251090100:   API NUMBER
~CURVE INFORMATION
#MNEM.UNIT       API CODE    CURVE DESCRIPTION
#----------   ------------   ------------------------------
 DEPT.F                  :   
 DPHI.DEC    45 890 12 00:   DENSITY POROSITY  SANDSTONE
 GRD .GAPI   45 310 01 00:   GAMMA RAY FROM DENSITY LOG
 NPHI.DEC    42 890 03 00:   NEUTRON POROSITY SANDSTONE
 CALD.IN     45 280 60 00:   CALIPER FROM DENSITY LOG
 CORR.G/C3   45 356 01 00:   DENSITY CORRECTION
 RHOB.G/C3   45 350 01 00:   BULK DENSITY
 ILD .OHMM   07 120 46 00:   INDUCTION LOG DEEP
 ILM .OHMM   07 120 44 00:   INDUCTION LOG MEDIUM
 SFLU.OHMM   07 220 01 00:   SPHERICALLY FOCUSED LOG UNAVERAGED RESISTIVITY
 SPR .MV     07 010 01 00:   SPONTANEOUS POTENTIAL
~PARAMETER INFORMATION
#MNEM.UNIT          VALUE    DESCRIPTION
#----------   ------------   ------------------------------
 PD  .                 GL:   PERMANENT DATUM
 EPD .F              5189:   ELEVATION PERMANENT DATUM
 LMF .                 KB:   LOG MEASURED FROM
 DAPD.F                10:   FEET ABOVE PERMANENT DATUM
 DMF .                 KB:   DRILLING MEASURED FROM
 EKB .F              5199:   KELLING BUSHING
 EGL .F              5189:   GROUND LEVEL
 DATE.        05-OCT-1982:   RUN DATE
 RUN .                  1:   RUN NUMBER
 DD  .F              3200:   DEPTH DRILLER
 DL  .F              3142:   DEPTH LOGGER
 BLI .F              3139:   BOTTOM LOG INTERVAL
 TLI .F               484:   TOP LOG INTERVAL
 CS  .IN            9.625:   CASING SIZE
 CBD .F               482:   CASING BOTTOM DRILLER
 CBL .F               484:   CASING BOTTOM LOGGER
 BS  .IN            7.875:   BIT SIZE
 BSD .F              3200:   BIT SIZE AT DEPTH
 DFT .        KCL/POLYMER:   DRILLING FLUID TYPE
 DFD .                8.6:   DRILLING FLUID DENSITY
 DFV .                 38:   DRILLING FLUID VISCOSITY
 DFPH.                8.5:   DRILLING FLUID PH
 DFL .                6.8:   DRILLING FLUID LOSS
 MSS .           MUD TANK:   MUD SAMPLE SOURCE
 RMS .OHMM            .40:   RESISTIVITY MUD SAMPLE
 MST .F                64:   MUD SAMPLE TEMPERATURE
 RMF .OHMM            .34:   RESISTIVITY MUD FILTRATE SAMPLE
 MFST.F                64:   MUD FILTRATE SAMPLE TEMPERATURE
 RMC .OHMM            .36:   RESISTIVITY MUD CAKE
 MCST.F                64:   MUD CAKE SAMPLE TEMPERATURE
 MFSS.               MEAS:   MUD FILTRATE SAMPLE SOURCE
 MCSS.               CALC:   MUD CAKE SAMPLE SOURCE
 RMB .OHMM             .2:   RESISTIVITY MUD AT BHT
 BHT .F               125:   BOTTOM HOLE TEMPERATURE
 TCS .HRS            2300:   TIME CURCULATED STOPPED
 TLAB.HRS            0500:   TIME LOGGER AT BOTTOM
 MRT .F               125:   MAXIMUM RECORDED TEMPERATURE
 LUN .               8043:   LOGGING UNIT NUMBER
 LUL .                GLT:   LOGGING UNIT LOCATION
 ENGI.            NEUFFER:   RECORDING ENGINEER
 WITN.             STRONG:   WITNESSED BY
 CLNT.            A2DTECH:   CLIENT CODE
 ORIG.           5" PRINT:   ORIGIN OF DATA
 UWI .       490251090100:   UNIQUE WELL ID
 DICO. A2D Technologies, Inc.:   DIGITIZING COMPANY
~OTHER INFORMATION
~A    DEPT    DPHI          GRD     NPHI       CALD       CORR       RHOB        ILD        ILM       SFLU        SPR   
# ...
 1708.5000     0.1029   116.1758     0.3194    11.3969     0.0385     2.4865     7.6421     6.7253     7.8684   -79.1551
 1709.0000     0.0999   118.2354     0.3258    11.3966     0.0447     2.4895     7.6411     6.6703     7.8126   -79.1641
 1709.5000     0.1020   119.1175     0.3371    11.3812     0.0491     2.4789     7.5873     6.5373     7.7573   -79.1730
 1710.0000     0.1253   118.8197     0.3300    11.3809     0.0415     2.4601     7.5863     6.4902     7.7024   -79.1802
 1710.5000     0.1222   116.7520     0.3217    11.3654     0.0354     2.4481     7.6381     6.4881     7.9712   -79.1873
 1711.0000     0.1203   114.3893     0.3250    11.3650     0.0559     2.4578     7.7431     6.4860     8.3070   -79.4985
 1711.5000     0.1214   113.4828     0.3385    11.3647     0.0613     2.4532     7.8557     6.7576     8.1914   -79.6594
 1712.0000     0.1247   113.2030     0.3474    11.3645     0.0515     2.4442     8.0682     7.0899     8.1898   -79.8185
 1712.5000     0.1291   113.4959     0.3347    11.3642     0.0323     2.4509     8.2931     7.5942     8.6531   -79.9776
 1713.0000     0.1172   113.4923     0.3205    11.3639     0.0171     2.4639     8.5242     7.8584     9.5301   -80.2888
 1713.5000     0.1073   113.1945     0.3099    11.3464     0.0193     2.4755     8.7049     7.7474    10.3519   -80.4497
 1714.0000     0.1040   111.4218     0.3105    11.3177     0.0231     2.4830     8.8824     7.6916    10.1376   -80.6088
 1714.5000     0.0996   108.9498     0.3111    11.3327     0.0293     2.4889     8.9428     7.6362     9.6437   -80.6160
 1715.0000     0.0961   103.1559     0.3082    11.3323     0.0368     2.4957     8.7580     7.5290     9.2626   -80.6232
 1715.5000     0.0925    99.6132     0.3046    11.3320     0.0428     2.5039     8.6368     7.4233     9.0083   -80.4783
 1716.0000     0.0955    97.8405     0.3023    11.3469     0.0459     2.5001     8.5170     7.3693     8.8218   -80.4873
 1716.5000     0.1031    98.4276     0.3005    11.3618     0.0398     2.4783     8.3991     7.2658     8.6391   -80.4945
 1717.0000     0.1099   101.9730     0.3002    11.3311     0.0322     2.4707     8.3402     7.2635     8.5185   -80.3495
 1717.5000     0.1126   107.5658     0.3029    11.2853     0.0253     2.4692     8.2817     7.2111     8.5168   -80.2048
 1718.0000     0.1120   111.3978     0.3067    11.2850     0.0222     2.4699     8.2804     7.3084     8.6340   -80.2138
 1718.5000     0.1138   110.2150     0.3099    11.2695     0.0184     2.4668     8.2793     7.4076     8.8127   -80.2210
 1719.0000     0.1179   109.0322     0.3143    11.2540     0.0154     2.4646     8.3936     7.5088     9.0575   -80.0760
 1719.5000     0.1058   107.8495     0.3190    11.2385     0.0131     2.4735     8.5089     7.7159     9.3095   -79.9313
 1720.0000     0.0984   107.8466     0.3299    11.2382     0.0209     2.4915     8.6261     7.8206     9.6348   -79.9403
 1720.5000     0.0940   109.0231     0.3374    11.2379     0.0275     2.5004     8.7449     7.6572     9.8347   -79.9474
 1721.0000     0.0913   109.6109     0.3317    11.2376     0.0336     2.5026     8.7435     7.6020     9.7560   -79.9544
 1721.5000     0.0910   109.3124     0.3226    11.2373     0.0404     2.5018     8.7423     7.4953     9.4965   -79.9620
 1722.0000     0.0963   108.4246     0.3149    11.2370     0.0480     2.4935     8.6810     7.3900     9.2359   -80.1227
 1722.5000     0.1046   104.8820     0.3228    11.2367     0.0460     2.4770     8.6796     7.4383     8.9823   -80.2818
 1723.0000     0.1169   100.6747     0.3334    11.2364     0.0305     2.4589     8.7389     7.6441     8.7963   -80.2890
 1723.5000     0.1149    95.4361     0.3230    11.2513     0.0228     2.4537     8.7375     7.8021     8.9784   -80.6003
 1724.0000     0.1025    94.5490     0.3028    11.2510     0.0327     2.4836     8.7363     7.7968     9.7526   -80.6091
 1724.5000     0.0996   108.1148     0.2999    11.2506     0.0410     2.4941     8.7349     7.5834    10.3049   -80.7682
 1725.0000     0.1096   114.6017     0.3105    11.2656     0.0365     2.4865     8.6140     7.4770     9.8164   -80.9274
 1725.5000     0.1087   116.9587     0.3258    11.2652     0.0304     2.4737     8.4948     7.3720     9.2223   -80.9346
 1726.0000     0.0971   114.5953     0.3242    11.2649     0.0296     2.4767     8.3772     7.2686     8.9692   -80.7915
 1726.5000     0.0881   113.7075     0.3128    11.2646     0.0387     2.4948     8.3182     7.1660     8.7834   -80.7987
 1727.0000     0.0916   114.2947     0.3063    11.2643     0.0402     2.5133     8.2599     7.1636     8.6016   -80.8058
 1727.5000     0.1010   115.4718     0.3022    11.2792     0.0341     2.5028     8.2588     7.1613     8.6591   -80.8131
 1728.0000     0.1063   115.4690     0.3078    11.2941     0.0240     2.4847     8.2577     7.1589     8.7178   -80.6682
 1728.5000     0.1048   115.4661     0.3181    11.3089     0.0166     2.4810     8.3139     7.1565     8.8982   -80.6771
 1729.0000     0.1031   116.0526     0.3291    11.3087     0.0189     2.4816     8.3704     7.2038     9.0828   -80.6843
 1729.5000     0.1077   116.0497     0.3399    11.3083     0.0196     2.4759     8.4854     7.2514     9.3355   -80.6915
 1730.0000     0.1175   116.6376     0.3310    11.3080     0.0211     2.4651     8.4843     7.2484     9.3333   -80.7004
 1730.5000     0.1181   117.8140     0.3163    11.3077     0.0211     2.4643     8.4862     7.2460     9.2672   -80.7076
 1731.0000     0.1143   117.8383     0.3063    11.3227     0.0219     2.4680     8.6000     7.2939     9.0753   -80.7147
 1731.5000     0.1134   114.7815     0.2978    11.3223     0.0226     2.4702     8.5987     7.2909     8.9469   -80.7219
 1732.0000     0.1137   111.6101     0.2975    11.3068     0.0241     2.4709     8.6573     7.2885     8.7029   -80.7309
 1732.5000     0.1137   111.3123     0.2986    11.3065     0.0218     2.4701     8.7159     7.3366     8.7012   -80.7380
 1733.0000     0.1136   112.4894     0.2998    11.3214     0.0195     2.4693     8.7145     7.3341     8.6995   -80.7452
 1733.5000     0.1148   115.4365     0.2983    11.3211     0.0134     2.4670     8.7133     7.3312     8.6978   -80.7523
 1734.0000     0.1274   118.3835     0.2935    11.3511     0.0088     2.4572     8.7122     7.3288     8.8171   -80.6093
 1734.5000     0.1298   118.6757     0.2910    11.3508     0.0065     2.4497     8.7111     7.3264     8.8149   -80.3125
 1735.0000     0.1231   116.6072     0.2945    11.3505     0.0073     2.4481     8.5902     7.2686     8.8132   -80.1659
 1735.5000     0.1104   114.2445     0.2984    11.3502     0.0088     2.4616     8.4713     7.1216     8.8115   -79.8708
 1736.0000     0.0995   112.4718     0.3010    11.3499     0.0166     2.4855     8.2965     6.9734     8.6888   -79.5741
 1736.5000     0.0939   110.9940     0.3074    11.3648     0.0247     2.4967     7.9588     6.8282     8.6269   -78.9752
 1737.0000     0.1001   111.2862     0.3130    11.3797     0.0285     2.4968     7.4781     6.6381     8.4483   -78.5264
 1737.5000     0.1089   111.8733     0.3101    11.3945     0.0255     2.4808     6.8826     5.8617     8.1598   -78.0777
 1738.0000     0.1180   111.8698     0.3048    11.4245     0.0251     2.4748     6.2909     4.8297     7.3893   -77.7809
 1738.5000     0.1233   110.0971     0.3104    11.4850     0.0514     2.4658     5.9934     4.0909     6.0180   -77.4859
 1739.0000     0.1527   105.3745     0.3415    11.5150     0.1234     2.4225     5.9926     4.3218     4.5325   -77.3393
 1739.5000     0.2244   101.8318     0.3792    11.5299     0.1196     2.3270     5.9094     4.6932     4.5947   -77.3482
 1740.0000     0.2531   100.6490     0.4055    11.5902     0.0793     2.2460     5.7875     5.2036     4.9909   -77.3556
 1740.5000     0.2241   102.4154     0.3737    11.6658     0.0254     2.2295     5.4758     5.1305     6.0547   -77.5163
 1741.0000     0.1677   105.3625     0.3587    11.7111     0.0116     2.3704     5.0322     4.8199     7.1454   -77.5235
 1741.5000     0.1347   108.6045     0.3501    11.8018     0.0314     2.4176     5.2521     4.5853     7.7616   -77.5306
