~VERSION INFORMATION
 VERS.                2.0:   CWLS LOG ASCII STANDARD - VERSION 2.0
 WRAP.                 NO:   ONE LINE PER DEPTH STEP
~WELL INFORMATION
#MNEM.UNIT      DATA TYPE    INFORMATION
#----------   ------------   ------------------------------
 STRT.F           20.0000:   START DEPTH
 STOP.F          744.0000:   STOP DEPTH
 STEP.F            0.5000:   STEP LENGTH
 NULL.          -999.2500:   NO VALUE
 COMP. FENIX & SCISSON INCORP.:   COMPANY
 WELL.          SX #53-15:   WELL
 FLD .             TEAPOT:   FIELD
 LOC .      S15 T38N R78W:   LOCATION
 CNTY.            NATRONA:   COUNTY
 STAT.            WYOMING:   STATE
 CTRY. UNITED STATES OF AMERICA:   COUNTRY
 SRVC.              Welex:   SERVICE COMPANY
 DATE.        02-MAR-1977:   LOGDATE
 API .       490251030000:   API NUMBER
~CURVE INFORMATION
#MNEM.UNIT       API CODE    CURVE DESCRIPTION
#----------   ------------   ------------------------------
 DEPT.F                  :   
 SGRD.OHMM   07 220 05 00:   SHALLOW RESISTIVITY
 ILD .OHMM   07 120 46 00:   INDUCTION LOG DEEP
 ILM .OHMM   07 120 44 00:   INDUCTION LOG MEDIUM
 SPR .MV     07 010 01 00:   SPONTANEOUS POTENTIAL
 GRD .GAPI   45 310 01 00:   GAMMA RAY FROM DENSITY LOG
 CALD.IN     45 280 60 00:   CALIPER
 RHOB.G/C3   45 350 01 00:   BULK DENSITY
 DPHI.DEC    45 890 10 00:   DENSITY POROSITY SANDSTONE
 CORR.G/C3   45 356 01 00:   DENSITY CORRECTION
~PARAMETER INFORMATION
#MNEM.UNIT          VALUE    DESCRIPTION
#----------   ------------   ------------------------------
 PD  .                 GL:   PERMANENT DATUM
 EPD .F              5253:   ELEVATION PERMANENT DATUM
 LMF .                 GL:   LOG MEASURED FROM
 DMF .                 GL:   DRILLING MEASURED FROM
 EGL .F              5253:   GROUND LEVEL
 DATE.             3-2-77:   RUN DATE
 RUN .                  1:   RUN NUMBER
 DD  .F               750:   DEPTH DRILLER
 DL  .F               747:   DEPTH LOGGER
 BLI .F               745:   BOTTOM LOG INTERVAL
 TLI .F                44:   TOP LOG INTERVAL
 CS  .IN            8.625:   CASING SIZE
 CBD .F                40:   CASING BOTTOM DRILLER
 CBL .F                44:   CASING BOTTOM LOGGER
 BS  .IN            7.875:   BIT SIZE
 BSD .F               750:   BIT SIZE AT DEPTH
 DFT .           CHEM-GEL:   DRILLING FLUID TYPE
 MSS .          FLOW LINE:   MUD SAMPLE SOURCE
 RMS .OHMM           .425:   RESISTIVITY MUD SAMPLE
 MST .F                56:   MUD SAMPLE TEMPERATURE
 RMF .OHMM           .436:   RESISTIVITY MUD FILTRATE SAMPLE
 MFST.F                56:   MUD FILTRATE SAMPLE TEMPERATURE
 RMC .OHMM           .712:   RESISTIVITY MUD CAKE
 MCST.F                56:   MUD CAKE SAMPLE TEMPERATURE
 MFSS.           MEASURED:   MUD FILTRATE SAMPLE SOURCE
 MCSS.           MEASURED:   MUD CAKE SAMPLE SOURCE
 RMB .OHMM            .35:   RESISTIVITY MUD AT BHT
 BHT .F                68:   BOTTOM HOLE TEMPERATURE
 TCS .HRS               2:   TIME CURCULATED STOPPED
 MRT .F                68:   MAXIMUM RECORDED TEMPERATURE
 LUN .               8611:   LOGGING UNIT NUMBER
 LUL .           GILLETTE:   LOGGING UNIT LOCATION
 ENGI.          D. LAWSON:   RECORDING ENGINEER
 WITN.           S. BURKE:   WITNESSED BY
 CLNT.            A2DTECH:   CLIENT CODE
 ORIG.        2" 5" PRINT:   ORIGIN OF DATA
 UWI .       490251030000:   UNIQUE WELL ID
 DICO. A2D Technologies, Inc.:   DIGITIZING COMPANY
~OTHER INFORMATION
~A   DEPT     SGRD        ILD        ILM        SPR         GRD      CALD         RHOB       DPHI      CORR  
# ...
  129.5000    11.9698     6.4326     7.7099   -22.2112   109.2709     8.6099     2.4501     0.1146     0.0604
  130.0000    11.1659     5.8508     6.8878   -22.2418   115.8690     8.6100     2.4277     0.1270     0.0560
  130.5000     9.1886     5.3217     6.1533   -22.2724   121.8361     8.6100     2.4053     0.1394     0.0517
  131.0000     5.0549     4.8644     5.2848   -22.3029   126.0505     8.6100     2.3827     0.1518     0.0474
  131.5000     3.7403     4.7736     5.3483   -22.3335   126.3072     8.6100     2.3779     0.1605     0.0439
  132.0000     3.6562     4.8795     5.8492   -22.3641   119.8228     8.6101     2.4022     0.1518     0.0481
  132.5000     6.4850     5.0050     6.6507   -22.3947   110.1070     8.6062     2.4318     0.1289     0.0523
  133.0000    13.9005     5.1350     7.5623   -22.4252   102.8407     8.6017     2.4612     0.1140     0.0564
  133.5000    13.7083     5.3701     8.1188   -22.4558   101.8075     8.5971     2.4828     0.0982     0.0607
  134.0000    13.4109     5.9840     8.6510   -22.4864   101.6542     8.5926     2.4896     0.0938     0.0650
  134.5000    13.1214     6.6679     9.5140   -22.5170   102.6134     8.5881     2.4855     0.0965     0.0630
  135.0000    12.8311     7.4307    10.4479   -22.5475   104.2804     8.5835     2.4764     0.0994     0.0606
  135.5000    12.5639     8.2803    10.7503   -22.5780   103.7087     8.5790     2.4660     0.1068     0.0581
  136.0000    13.2675     9.1572    11.0559   -22.6091   100.0673     8.5745     2.4557     0.1147     0.0556
  136.5000    14.0015     9.8429    11.3688   -22.6741    99.1541     8.5700     2.4454     0.1195     0.0531
  137.0000    14.7761    10.2375    11.6912   -22.8066    98.0719     8.5747     2.4378     0.1230     0.0505
  137.5000    15.5935    10.5694    12.0228   -22.9380    96.5581     8.5806     2.4327     0.1245     0.0502
  138.0000    16.1556    10.9111    12.3640   -23.0696    95.0440     8.5864     2.4311     0.1261     0.0507
  138.5000    16.4288    11.2641    12.7143   -23.2010    93.5287     8.5923     2.4307     0.1258     0.0511
  139.0000    16.7001    11.6290    13.0775   -23.3325    92.0036     8.5982     2.4304     0.1253     0.0516
  139.5000    16.8667    12.0062    13.1953   -23.4641    91.4934     8.6039     2.4281     0.1249     0.0520
  140.0000    16.8667    12.5597    13.2523   -23.5957    92.0834     8.6097     2.4254     0.1263     0.0525
  140.5000    16.8667    12.5403    13.4517   -23.7256    93.4276     8.5872     2.4223     0.1281     0.0529
  141.0000    16.8667    12.4964    13.7642   -23.8101    94.7576     8.5487     2.4355     0.1233     0.0534
  141.5000    16.8667    12.4555    14.0291   -23.7909    95.2839     8.5095     2.4504     0.1181     0.0538
  142.0000    16.8670    12.4148    13.7415   -23.7739    96.0858     8.4725     2.4659     0.1114     0.0553
  142.5000    16.8667    12.3742    13.4504   -23.7565    97.4926     8.5293     2.4811     0.0991     0.0570
  143.0000    16.8447    12.3337    13.1532   -23.7392    97.9264     8.5921     2.4957     0.0907     0.0587
  143.5000    16.7048    12.2933    13.5037   -23.7219    98.4814     8.6561     2.4987     0.0938     0.0604
  144.0000    16.5610    12.2531    13.8820   -23.7046    98.9487     8.6595     2.4962     0.0918     0.0621
  144.5000    18.3078    12.2188    14.2939   -23.6873    97.2034     8.6464     2.4961     0.0884     0.0638
  145.0000    20.4806    12.4972    14.2881   -23.6700    97.1616     8.6326     2.5014     0.0852     0.0654
  145.5000    20.2769    12.6749    14.2911   -23.6527    99.5205     8.6193     2.5066     0.0811     0.0671
  146.0000    20.2957    12.8550    14.2899   -23.6351    99.6984     8.6187     2.5038     0.0872     0.0676
  146.5000    16.9956    13.0377    14.2899   -23.6178    99.1182     8.6499     2.4859     0.0961     0.0672
  147.0000    17.0759    13.2749    14.2899   -23.6469    99.6151     8.6799     2.4750     0.1012     0.0667
  147.5000    17.1455    13.2611    14.2899   -23.6805   100.4238     8.7093     2.4703     0.1066     0.0663
  148.0000    17.1810    13.2421    14.2899   -23.7141   100.7588     8.7253     2.4713     0.1062     0.0657
  148.5000    17.0829    13.2231    14.2899   -23.7475    99.8210     8.7059     2.4722     0.1058     0.0643
  149.0000    16.9466    13.2041    14.2899   -23.7810    97.3800     8.6876     2.4672     0.1098     0.0628
  149.5000    16.8106    13.1850    14.2899   -23.8145    95.5180     8.6693     2.4567     0.1141     0.0614
  150.0000    16.6774    13.1663    14.2899   -23.8479    94.3874     8.6510     2.4467     0.1184     0.0600
  150.5000    16.5588    13.1532    14.3040   -23.8814    94.3888     8.6327     2.4364     0.1249     0.0586
  151.0000    17.6279    13.4900    14.3321   -23.9148    95.8346     8.6144     2.4331     0.1232     0.0572
  151.5000    18.3931    13.7544    14.3603   -23.9484    97.7012     8.5961     2.4443     0.1195     0.0558
  152.0000    18.6575    14.0245    14.3885   -23.9819    97.7453     8.5779     2.4529     0.1159     0.0543
  152.5000    18.9120    14.2996    14.4168   -24.0111    97.7746     8.5597     2.4601     0.1123     0.0542
  153.0000    19.1665    14.5804    14.4451   -24.0056    96.5178     8.5563     2.4578     0.1125     0.0547
  153.5000    19.4275    14.8662    14.4735   -23.9995    94.7769     8.5693     2.4555     0.1122     0.0552
  154.0000    19.7042    15.2416    14.5015   -23.9936    93.8050     8.5822     2.4641     0.1106     0.0557
  154.5000    29.5056    15.1932    14.5290   -23.9877    92.8864     8.5952     2.4686     0.1090     0.0561
  155.0000    25.4590    15.1005    14.5567   -23.9819    92.4661     8.6082     2.4669     0.1093     0.0566
  155.5000    20.6804    15.0076    14.1097   -23.9760    92.8097     8.6233     2.4517     0.1158     0.0571
  156.0000    18.6463    14.9155    13.6369   -23.9701    93.8607     8.6384     2.4369     0.1224     0.0576
  156.5000    18.9145    14.8243    13.1557   -23.9642    96.3987     8.6469     2.4221     0.1289     0.0581
  157.0000    19.5488    14.7337    13.3578   -23.9583    98.9121     8.6309     2.4139     0.1317     0.0585
  157.5000    19.2443    14.4741    13.5882   -23.9524   100.5263     8.6153     2.4289     0.1263     0.0590
  158.0000    18.6651    14.0728    13.8207   -23.9466   100.9367     8.6067     2.4442     0.1211     0.0595
  158.5000    19.9081    13.6830    14.0566   -23.9407   101.0009     8.5907     2.4513     0.1174     0.0594
  159.0000    19.2636    13.3040    14.2964   -23.9348   100.9608     8.5752     2.4488     0.1180     0.0569
  159.5000    17.8250    12.9131    14.5556   -23.9289   102.2068     8.5596     2.4480     0.1194     0.0544
  160.0000    18.3290    12.9790    14.3213   -23.9230   103.6682     8.5441     2.4527     0.1167     0.0549
  160.5000    19.3656    13.0497    14.0100   -23.9172   103.5776     8.5285     2.4574     0.1133     0.0562
  161.0000    19.1799    13.1532    13.7056   -23.9113   102.5759     8.5130     2.4621     0.1105     0.0576
  161.5000    18.8425    12.9345    13.4077   -23.9054   101.6500     8.5040     2.4645     0.1131     0.0563
  162.0000    18.4940    12.4174    12.8684   -23.8995   103.6082     8.4966     2.4522     0.1165     0.0542
  162.5000    19.1179    11.6981    12.1572   -23.8936   105.0132     8.4893     2.4447     0.1201     0.0521
  163.0000    19.5589    11.0205    11.4853   -23.8878   105.4037     8.4819     2.4427     0.1210     0.0500
  163.5000    18.9357    10.3822    10.8505   -23.8819   104.0243     8.4745     2.4407     0.1218     0.0479
  164.0000    15.2332     9.7808    10.2508   -23.8760   102.5103     8.4661     2.4389     0.1226     0.0457
  164.5000    12.9131     9.2143     9.6842   -23.8701   101.3255     8.4562     2.4428     0.1216     0.0442
  165.0000    14.6903     8.6805     9.1490   -23.8642   102.6753     8.4462     2.4588     0.1165     0.0464
  165.5000    11.3834     8.1777     8.6433   -23.8583   107.5140     8.4363     2.4744     0.1050     0.0487
