~VERSION INFORMATION
 VERS.                2.0:   CWLS LOG ASCII STANDARD - VERSION 2.0
 WRAP.                 NO:   ONE LINE PER DEPTH STEP
~WELL INFORMATION
#MNEM.UNIT      DATA TYPE    INFORMATION
#----------   ------------   ------------------------------
 STRT.F           94.0000:   START DEPTH
 STOP.F          939.0000:   STOP DEPTH
 STEP.F            0.5000:   STEP LENGTH
 NULL.          -999.2500:   NO VALUE
 COMP. U S NAVY/INTEX OIL CO:   COMPANY
 WELL.    NPR #3 #88-S-27:   WELL
 FLD .             TEAPOT:   FIELD
 LOC .      S27 T39N R78W:   LOCATION
 CNTY.            NATRONA:   COUNTY
 STAT.            WYOMING:   STATE
 CTRY. UNITED STATES OF AMERICA:   COUNTRY
 SRVC.       Schlumberger:   SERVICE COMPANY
 DATE.        30-JUL-1963:   LOGDATE
 API .       490250658100:   API NUMBER
~CURVE INFORMATION
#MNEM.UNIT       API CODE    CURVE DESCRIPTION
#----------   ------------   ------------------------------
 DEPT.F                  :   
 SPR .MV     05 010 01 00:   SPONTANEOUS POTENTIAL FROM RES.
 CILD.MMHO   05 110 46 00:   CONDUCTIVITY INDUCTION LOG DEEP
 ASN .OHMM   05 041 16 00:   AMPLIFIED SHORT NORMAL 16"
 ILD .OHMM   05 120 46 00:   INDUCTION LOG DEEP
 GR  .GAPI   30 310 01 00:   GAMMA RAY
~PARAMETER INFORMATION
#MNEM.UNIT          VALUE    DESCRIPTION
#----------   ------------   ------------------------------
 PD  .                 GL:   PERMANENT DATUM
 EPD .F              5069:   ELEVATION PERMANENT DATUM
 LMF .                 KB:   LOG MEASURED FROM
 DAPD.F                 5:   FEET ABOVE PERMANENT DATUM
 DMF .                 KB:   DRILLING MEASURED FROM
 EKB .F              5074:   KELLING BUSHING
 EGL .F              5069:   GROUND LEVEL
 DATE.          7-30-1969:   RUN DATE
 RUN .                  1:   RUN NUMBER
 DD  .F               940:   DEPTH DRILLER
 DL  .F               940:   DEPTH LOGGER
 BLI .F               939:   BOTTOM LOG INTERVAL
 TLI .F                94:   TOP LOG INTERVAL
 CS  .IN            8.625:   CASING SIZE
 CBD .F                10:   CASING BOTTOM DRILLER
 BS  .IN             6.75:   BIT SIZE
 BSD .F               940:   BIT SIZE AT DEPTH
 DFT .            GEL/OIL:   DRILLING FLUID TYPE
 DFD .                9.6:   DRILLING FLUID DENSITY
 DFV .                 40:   DRILLING FLUID VISCOSITY
 DFPH.                  9:   DRILLING FLUID PH
 DFL .                  6:   DRILLING FLUID LOSS
 MSS .          FLOW LINE:   MUD SAMPLE SOURCE
 RMS .OHMM           2.94:   RESISTIVITY MUD SAMPLE
 MST .F                89:   MUD SAMPLE TEMPERATURE
 RMF .OHMM           2.19:   RESISTIVITY MUD FILTRATE SAMPLE
 MFST.F                87:   MUD FILTRATE SAMPLE TEMPERATURE
 MFSS.           MEASURED:   MUD FILTRATE SAMPLE SOURCE
 TCS .HRS               1:   TIME CURCULATED STOPPED
 LUN .               4507:   LOGGING UNIT NUMBER
 LUL .               CSPR:   LOGGING UNIT LOCATION
 ENGI.            WINKLER:   RECORDING ENGINEER
 WITN.          JORGENSEN:   WITNESSED BY
 CLNT.            A2DTECH:   CLIENT CODE
 ORIG.           5" PRINT:   ORIGIN OF DATA
 UWI .       490250658100:   UNIQUE WELL ID
 DICO. A2D Technologies, Inc.:   DIGITIZING COMPANY
~OTHER INFORMATION
~A   DEPT      SPR        CILD         ASN        ILD       GR   
# ...
  399.0000   -46.5511    85.0706    12.7279    11.6080  -999.2500
  399.5000   -46.6857    83.9196    12.8984    11.5883  -999.2500
  400.0000   -46.8203    85.4976    12.7902    11.5053  -999.2500
  400.5000   -46.8992    87.2651    12.6158    11.4256  -999.2500
  401.0000   -47.0183    89.0324    12.4384    11.3455  -999.2500
  401.5000   -47.1379    90.9548    12.2542    11.3072  -999.2500
  402.0000   -47.2612    90.8203    12.2106    11.3065  -999.2500
  402.5000   -47.2891    89.6560    12.2122    11.3063  -999.2500
  403.0000   -47.2906    88.4917    12.3744    11.3055  -999.2500
  403.5000   -47.2848    87.9397    12.5532    11.3098  -999.2500
  404.0000   -47.0788    87.9397    12.7249    11.5143  -999.2500
  404.5000   -46.8795    87.7119    12.9196    11.7135  -999.2500
  405.0000   -47.3035    86.0302    12.9131    11.7086  -999.2500
  405.5000   -48.0457    84.3453    12.9086    11.7001  -999.2500
  406.0000   -48.7905    81.9294    13.1973    12.0852  -999.2500
  406.5000   -49.5456    79.2431    13.5710    12.5882  -999.2500
  407.0000   -50.0515    76.5623    13.8210    13.0966  -999.2500
  407.5000   -50.4888    73.8813    14.0420    13.6004  -999.2500
  408.0000   -50.5053    71.2005    14.4398    13.7685  -999.2500
  408.5000   -50.5005    68.5006    14.8382    14.1821  -999.2500
  409.0000   -50.3675    66.8342    15.3268    14.5320  -999.2500
  409.5000   -50.0279    66.8342    15.1220    14.5218  -999.2500
  410.0000   -49.6881    68.5140    14.7702    14.3828  -999.2500
  410.5000   -49.4551    70.6762    14.6293    14.0015  -999.2500
  411.0000   -51.0282    72.8643    15.1026    13.6229  -999.2500
  411.5000   -52.8787    76.0899    14.8531    13.1835  -999.2500
  412.0000   -54.7364    79.3544    14.4043    12.4585  -999.2500
  412.5000   -56.3088    82.6190    13.9504    11.7407  -999.2500
  413.0000   -56.3311    85.8835    13.4962    11.2392  -999.2500
  413.5000   -56.1791    89.1481    13.1429    11.0856  -999.2500
  414.0000   -55.4982    92.4127    12.8546    10.9275  -999.2500
  414.5000   -54.8386    94.9749    12.5606    10.8010  -999.2500
  415.0000   -54.1878    94.8967    12.5122    10.8036  -999.2500
  415.5000   -53.8291    94.7098    12.5114    10.8036  -999.2500
  416.0000   -54.3607    94.5230    12.5164    10.8061  -999.2500
  416.5000   -54.7262    94.3361    12.5992    10.8612  -999.2500
  417.0000   -54.3484    94.1493    12.5684    10.9158  -999.2500
  417.5000   -53.6109    93.9698    12.3465    10.9669  -999.2500
  418.0000   -52.8636    92.3556    12.1301    11.0202  -999.2500
  418.5000   -52.3563    90.8033    12.0066    11.0891  -999.2500
  419.0000   -51.5334    89.9498    12.1024    11.1575  -999.2500
  419.5000   -50.6908    89.9498    12.2121    11.1969  -999.2500
  420.0000   -50.5001    89.9498    12.2974    10.9830  -999.2500
  420.5000   -51.0905    93.9698    12.0136    10.5539  -999.2500
  421.0000   -51.7349    98.4422    11.7290    10.0345  -999.2500
  421.5000   -51.9295   102.6466    11.4548     9.5104  -999.2500
  422.0000   -50.8942   108.7112    10.7575     8.9862  -999.2500
  422.5000   -48.5383   115.6784    10.8103     8.4598  -999.2500
  423.0000   -45.4175   122.6456     9.9139     8.0316  -999.2500
  423.5000   -42.3547   129.6128     9.0331     7.7014  -999.2500
  424.0000   -41.4395   136.5212     8.6858     7.3718  -999.2500
  424.5000   -40.6101   143.3365     8.4246     7.0417  -999.2500
  425.0000   -40.4623   150.2903     8.2603     6.7165  -999.2500
  425.5000   -40.4895   154.1148     8.1035     6.4780  -999.2500
  426.0000   -40.5667   156.8389     7.9463     6.4830  -999.2500
  426.5000   -40.6417   159.5296     7.7711     6.4823  -999.2500
  427.0000   -40.7166   161.0211     7.5752     6.4823  -999.2500
  427.5000   -40.7917   161.3079     7.3794     6.4733  -999.2500
  428.0000   -40.8619   161.3099     7.2879     6.4432  -999.2500
  428.5000   -40.8639   160.6474     7.3355     6.4131  -999.2500
  429.0000   -40.8635   159.3819     7.4284     6.3840  -999.2500
  429.5000   -40.8635   158.1206     7.5217     6.4310  -999.2500
  430.0000   -40.8640   156.8593     7.6150     6.4846  -999.2500
  430.5000   -40.8631   155.5980     7.7073     6.5378  -999.2500
  431.0000   -40.8194   155.6206     7.7718     6.5839  -999.2500
  431.5000   -40.6231   156.2513     7.6822     6.5667  -999.2500
  432.0000   -40.4334   156.8860     7.5674     6.5491  -999.2500
  432.5000   -40.2441   157.2848     7.4520     6.5316  -999.2500
  433.0000   -40.0546   157.2886     7.3359     6.5141  -999.2500
  433.5000   -39.8636   157.2864     7.2878     6.4963  -999.2500
  434.0000   -39.6683   156.1602     7.3244     6.4842  -999.2500
  434.5000   -39.6544   154.6954     7.4307     6.5761  -999.2500
  435.0000   -39.7926   153.2312     7.5360     6.6736  -999.2500
  435.5000   -39.9792   151.7643     7.6412     6.7708  -999.2500
  436.0000   -40.1666   150.2962     7.7477     6.8682  -999.2500
  436.5000   -40.3539   148.8364     7.7884     6.9685  -999.2500
  437.0000   -40.5389   148.9648     7.7902     6.9249  -999.2500
  437.5000   -40.6646   150.7995     7.7451     6.8497  -999.2500
  438.0000   -40.6624   152.6341     7.6904     6.7736  -999.2500
  438.5000   -40.6630   154.4687     7.6198     6.6979  -999.2500
  439.0000   -40.6655   156.2814     7.5401     6.6222  -999.2500
  439.5000   -40.5426   158.3236     7.4602     6.5465  -999.2500
  440.0000   -40.3879   160.3490     7.3801     6.4706  -999.2500
  440.5000   -40.2580   162.3098     7.2993     6.3940  -999.2500
  441.0000   -40.2608   162.3292     7.2862     6.3819  -999.2500
  441.5000   -40.2595   161.6877     7.2862     6.3920  -999.2500
  442.0000   -40.1610   160.2543     7.2923     6.4439  -999.2500
  442.5000   -39.9054   158.8106     7.3530     6.4946  -999.2500
  443.0000   -39.6649   157.3668     7.4605     6.5448  -999.2500
  443.5000   -39.6573   155.7621     7.5672     6.5837  -999.2500
  444.0000   -39.6808   153.6600     7.6687     6.5840  -999.2500
  444.5000   -39.7957   151.5578     7.7215     6.6384  -999.2500
  445.0000   -39.8600   149.4556     7.7487     6.7621  -999.2500
  445.5000   -39.8594   147.3534     7.7475     6.8849  -999.2500
  446.0000   -39.8595   145.2513     7.7563     7.0080  -999.2500
  446.5000   -39.8596   143.1491     7.9218     7.1310  -999.2500
  447.0000   -39.8600   141.0469     8.0865     7.2541  -999.2500
  447.5000   -39.8558   138.9447     8.2505     7.3772  -999.2500
  448.0000   -39.7769   136.8425     8.4122     7.5000  -999.2500
  448.5000   -39.6984   134.7404     8.4660     7.6035  -999.2500
  449.0000   -39.6588   132.6382     8.5037     7.6602  -999.2500
  449.5000   -39.6903   131.1558     8.5414     7.7164  -999.2500
  450.0000   -39.8272   131.1558     8.5737     7.7726  -999.2500
  450.5000   -39.8592   132.3622     8.6032     7.7600  -999.2500
  451.0000   -39.7587   133.7020     8.6321     7.6585  -999.2500
  451.5000   -39.5571   135.0419     8.6213     7.5578  -999.2500
  452.0000   -39.3558   136.9153     8.5064     7.4573  -999.2500
  452.5000   -39.1551   138.8481     8.3933     7.3568  -999.2500
  453.0000   -38.9531   140.7808     8.2802     7.2562  -999.2500
  453.5000   -38.8570   142.7136     8.1671     7.1556  -999.2500
  454.0000   -38.8559   144.6463     8.0540     7.0556  -999.2500
  454.5000   -38.8962   145.6658     7.9408     6.9836  -999.2500
  455.0000   -39.0323   146.2940     7.8282     6.9848  -999.2500
  455.5000   -39.1647   146.9221     7.7472     6.9849  -999.2500
  456.0000   -39.2587   147.2362     7.7483     6.9849  -999.2500
  456.5000   -39.2568   147.2362     7.7655     6.9849  -999.2500
  457.0000   -39.2571   147.2362     7.7894     6.9849  -999.2500
  457.5000   -39.2570   146.9012     7.8133     6.9849  -999.2500
  458.0000   -39.2570   146.2312     7.8373     6.9849  -999.2500
  458.5000   -39.2570   145.5611     7.8491     6.9849  -999.2500
  459.0000   -39.2570   144.8911     7.8495     6.9849  -999.2500
  459.5000   -39.2570   144.2211     7.8698     6.9850  -999.2500
