~VERSION INFORMATION
 VERS.                2.0:   CWLS LOG ASCII STANDARD - VERSION 2.0
 WRAP.                 NO:   ONE LINE PER DEPTH STEP
~WELL INFORMATION
#MNEM.UNIT      DATA TYPE    INFORMATION
#----------   ------------   ------------------------------
 STRT.F           30.0000:   START DEPTH
 STOP.F          637.0000:   STOP DEPTH
 STEP.F            0.5000:   STEP LENGTH
 NULL.          -999.2500:   NO VALUE
 COMP.    FENIX & SCISSON:   COMPANY
 WELL.        NPR #82-S-3:   WELL
 FLD .             TEAPOT:   FIELD
 LOC .       S3 T38N R78W:   LOCATION
 CNTY.            NATRONA:   COUNTY
 STAT.            WYOMING:   STATE
 CTRY. UNITED STATES OF AMERICA:   COUNTRY
 SRVC.              Welex:   SERVICE COMPANY
 DATE.        08-MAY-1977:   LOGDATE
 API .       490251035100:   API NUMBER
~CURVE INFORMATION
#MNEM.UNIT       API CODE    CURVE DESCRIPTION
#----------   ------------   ------------------------------
 DEPT.F                  :   
 SPR .MV     07 010 01 00:   SPONTANEOUS POTENTIAL FROM RES.
 ILD .OHMM   07 120 46 00:   INDUCTION LOG DEEP
 ILM .OHMM   07 120 44 00:   INDUCTION LOG MEDIUM
 SGRD.OHMM   07 220 05 00:   SHALLOW GUARD RESISTIVITY
 GRD .GAPI   45 310 01 00:   GAMMA RAY FROM DENSITY LOG
 CALD.IN     45 280 60 00:   CALIPER FROM DENSITY LOG
 CORR.G/C3   45 356 01 00:   DENSITY CORRECTION
 RHOB.G/C3   45 350 01 00:   BULK DENSITY
 DPHI.DEC    45 890 12 00:   DENSITY POROSITY SANDSTONE
~PARAMETER INFORMATION
#MNEM.UNIT          VALUE    DESCRIPTION
#----------   ------------   ------------------------------
 PD  .                 GL:   PERMANENT DATUM
 EPD .F              5100:   ELEVATION PERMANENT DATUM
 LMF .                 GL:   LOG MEASURED FROM
 DMF .                 GL:   DRILLING MEASURED FROM
 EGL .F              5100:   GROUND LEVEL
 DATE.        08-MAY-1977:   RUN DATE
 RUN .                  1:   RUN NUMBER
 DD  .F               635:   DEPTH DRILLER
 DL  .F               640:   DEPTH LOGGER
 BLI .F               638:   BOTTOM LOG INTERVAL
 TLI .F                30:   TOP LOG INTERVAL
 CS  .IN            8.625:   CASING SIZE
 CBD .F                40:   CASING BOTTOM DRILLER
 CBL .F                38:   CASING BOTTOM LOGGER
 BS  .IN            7.875:   BIT SIZE
 BSD .F               635:   BIT SIZE AT DEPTH
 DFT .            KCL MUD:   DRILLING FLUID TYPE
 DFD .                8.8:   DRILLING FLUID DENSITY
 DFV .                 32:   DRILLING FLUID VISCOSITY
 DFPH.                7.5:   DRILLING FLUID PH
 MSS .           FLOWLINE:   MUD SAMPLE SOURCE
 RMS .OHMM            .25:   RESISTIVITY MUD SAMPLE
 MST .F                80:   MUD SAMPLE TEMPERATURE
 RMF .OHMM            .22:   RESISTIVITY MUD FILTRATE SAMPLE
 MFST.F                80:   MUD FILTRATE SAMPLE TEMPERATURE
 RMC .OHMM            .31:   RESISTIVITY MUD CAKE
 MCST.F                80:   MUD CAKE SAMPLE TEMPERATURE
 MFSS.               MEAS:   MUD FILTRATE SAMPLE SOURCE
 MCSS.               MEAS:   MUD CAKE SAMPLE SOURCE
 RMB .OHMM            .23:   RESISTIVITY MUD AT BHT
 BHT .F                87:   BOTTOM HOLE TEMPERATURE
 TCS .HRS            0130:   TIME CURCULATED STOPPED
 MRT .F                87:   MAXIMUM RECORDED TEMPERATURE
 LUN .               8611:   LOGGING UNIT NUMBER
 LUL .             CASPER:   LOGGING UNIT LOCATION
 ENGI.            C. DOAK:   RECORDING ENGINEER
 WITN.            R. LYON:   WITNESSED BY
 CLNT.            A2DTECH:   CLIENT CODE
 ORIG.           5" PRINT:   ORIGIN OF DATA
 UWI .       490251035100:   UNIQUE WELL ID
 DICO. A2D Technologies, Inc.:   DIGITIZING COMPANY
~OTHER INFORMATION
~A   DEPT      SPR        ILD        ILM       SGRD         GRD      CALD        CORR        RHOB     DPHI   
# ...
  468.0000   -36.2071    14.6913    15.4431    23.8612    89.2811     7.8784     0.0262     2.3728     0.1798
  468.5000   -36.3417    14.5139    15.4548    22.5965    92.4184     7.9094     0.0248     2.3692     0.1818
  469.0000   -36.3282    14.5222    16.0086    22.1455    88.5698     7.9256     0.0264     2.3685     0.1839
  469.5000   -36.4630    14.4303    15.6931    23.5836    87.0981     7.9562     0.0280     2.3760     0.1787
  470.0000   -36.4493    14.3327    14.8630    22.9581    89.0490     7.9133     0.0326     2.3843     0.1730
  470.5000   -36.4358    14.2486    14.5673    21.7413    91.1487     7.9146     0.0357     2.3881     0.1695
  471.0000   -36.4224    14.1586    15.3016    20.8748    92.2067     7.9159     0.0388     2.4009     0.1625
  471.5000   -36.5569    14.1665    15.4161    21.1794    93.2648     7.9172     0.0419     2.4077     0.1602
  472.0000   -36.6947    14.1743    14.4009    22.3958    91.9418     7.9185     0.0435     2.4010     0.1605
  472.5000   -36.6779    14.1822    15.8741    23.8460    90.1725     7.9046     0.0451     2.4130     0.1563
  473.0000   -36.8124    14.1901    16.7862    24.6994    88.4032     7.8911     0.0437     2.3997     0.1634
  473.5000   -36.9469    14.1979    17.1498    25.0598    82.9136     7.8778     0.0394     2.3811     0.1740
  474.0000   -37.2327    14.3040    16.5786    24.0611    81.2930     7.8791     0.0305     2.3602     0.1821
  474.5000   -37.5118    14.3119    17.2914    22.6293    81.4582     7.8804     0.0276     2.3595     0.1870
  475.0000   -37.7975    14.3199    16.7187    22.4855    82.2186     7.8665     0.0307     2.3738     0.1771
  475.5000   -38.2245    14.3278    17.3211    22.6608    83.2767     7.8682     0.0368     2.3940     0.1676
  476.0000   -38.5103    14.3358    17.2120    22.6765    85.0787     7.8695     0.0399     2.4016     0.1600
  476.5000   -38.7927    14.5427    17.7098    21.9234    89.2618     7.8708     0.0400     2.4031     0.1629
  477.0000   -39.0718    14.6513    17.1232    21.4571    91.0639     7.8721     0.0341     2.3972     0.1678
  477.5000   -39.2096    14.8628    18.2323    21.3531    92.4195     7.8734     0.0282     2.3920     0.1690
  478.0000   -39.3441    14.9739    19.2800    22.8643    92.7294     7.8747     0.0251     2.4108     0.1537
  478.5000   -39.4753    14.9822    19.6938    26.2257    90.3689     7.8760     0.0329     2.4385     0.1405
  479.0000   -39.4645    14.8855    18.9108    30.2185    88.4508     7.8773     0.0390     2.4640     0.1268
  479.5000   -39.4512    14.2927    18.7953    29.5999    85.6398     7.8786     0.0406     2.4752     0.1199
  480.0000   -39.4379    13.9119    18.0515    27.4634    80.5966     7.8799     0.0407     2.4663     0.1213
  480.5000   -39.4246    13.3560    17.3338    23.1316    82.1011     7.8812     0.0408     2.4500     0.1363
  481.0000   -39.4112    13.0002    16.8723    20.5878    83.3079     7.8825     0.0409     2.4306     0.1488
  481.5000   -39.3979    12.7396    16.6323    20.3197    85.4076     7.8838     0.0395     2.4023     0.1646
  482.0000   -39.3846    12.4877    16.2877    20.1944    87.6561     7.8851     0.0352     2.3859     0.1712
  482.5000   -39.3711    12.1550    15.6611    19.9318    89.4582     7.8864     0.0293     2.3890     0.1715
  483.0000   -39.3577    11.9130    15.3679    19.6725    90.8139     7.8877     0.0264     2.4033     0.1652
  483.5000   -39.3443    11.7565    15.5933    19.4132    93.2112     7.8741     0.0310     2.4130     0.1580
  484.0000   -39.3308    11.6807    15.6051    19.2933    95.0133     7.8754     0.0341     2.4161     0.1556
  484.5000   -39.3174    11.6069    15.0650    19.3100    94.1368     7.8767     0.0342     2.4176     0.1526
  485.0000   -39.4552    11.5336    14.3887    19.3235    91.6234     7.8780     0.0313     2.4244     0.1508
  485.5000   -39.4384    11.4608    14.8019    19.2007    90.5940     7.8942     0.0284     2.4148     0.1543
  486.0000   -39.5763    11.4687    14.8132    19.0854    92.1026     7.8803     0.0238     2.4044     0.1630
  486.5000   -39.8587    11.6343    14.4216    18.8339    93.1606     7.8819     0.0196     2.3940     0.1672
  487.0000   -39.8419    11.6407    13.6587    18.7207    92.1353     7.8832     0.0288     2.4023     0.1632
  487.5000   -39.8285    11.7277    14.3444    18.8633    91.4035     7.8845     0.0319     2.4180     0.1516
  488.0000   -39.9663    11.7342    15.1687    19.0070    93.2056     7.8858     0.0349     2.4316     0.1462
  488.5000   -40.1008    11.7394    15.2986    19.1518    90.8451     7.8871     0.0350     2.4346     0.1456
  489.0000   -40.2320    11.6650    14.8807    19.2977    93.6889     7.8884     0.0351     2.4257     0.1497
  489.5000   -40.2185    11.6717    14.5874    19.1752    96.0862     7.8897     0.0307     2.4243     0.1503
  490.0000   -40.3564    11.6781    14.4982    18.7990    93.1264     7.8910     0.0357     2.4475     0.1350
  490.5000   -40.3396    11.5956    14.4102    18.4270    92.5434     7.8923     0.0429     2.4513     0.1341
  491.0000   -40.4741    11.3665    14.1235    18.0623    92.8615     7.8936     0.0415     2.4484     0.1365
  491.5000   -40.7565    11.2965    14.3331    17.7049    94.0683     7.8949     0.0384     2.4470     0.1377
  492.0000   -40.8943    11.2299    15.1567    17.5688    92.5966     7.8962     0.0372     2.4388     0.1397
  492.5000   -41.0288    11.2362    15.8084    17.4837    91.4225     7.8975     0.0391     2.4351     0.1424
  493.0000   -41.1633    11.2424    15.0756    17.4963    91.1371     7.8988     0.0419     2.4434     0.1388
  493.5000   -41.1494    11.0947    14.9807    17.6417    92.6457     7.9001     0.0436     2.4457     0.1397
  494.0000   -41.1361    10.9490    15.3081    18.1433    93.4061     7.9014     0.0422     2.4324     0.1448
  494.5000   -40.9749    10.9550    15.2146    18.2728    94.4642     7.9027     0.0408     2.4324     0.1456
  495.0000   -40.6657    10.9611    15.1188    17.7882    99.3912     7.9189     0.0379     2.4332     0.1453
  495.5000   -40.2086    10.9672    15.6635    17.5567   102.3838     7.9202     0.0305     2.4348     0.1444
  496.0000   -39.8993    10.9733    16.0028    17.4483   106.4139     7.9215     0.0276     2.4446     0.1393
  496.5000   -39.5900    10.9793    16.0150    17.4605   104.0535     7.9228     0.0262     2.4484     0.1372
  497.0000   -39.4286    10.9854    15.5916    17.5935   102.2841     7.9241     0.0263     2.4485     0.1366
  497.5000   -39.1193    10.9915    14.7669    17.6057   100.8124     7.9102     0.0234     2.4500     0.1363
  498.0000   -38.9580    10.9976    15.1910    17.4963   102.6104     7.9118     0.0206     2.4463     0.1386
  498.5000   -38.9445    11.1564    15.4135    17.6302    99.5058     7.9131     0.0207     2.4449     0.1401
  499.0000   -38.9311    11.3174    15.4252    17.7645    96.2484     7.9144     0.0223     2.4435     0.1395
  499.5000   -38.9176    11.5601    15.5437    17.7769    92.9910     7.9157     0.0239     2.4421     0.1410
  500.0000   -38.9743    11.5663    15.6612    18.4795    91.9498     7.9167     0.0257     2.4411     0.1422
  500.5000   -39.3705    11.4939    15.6741    19.2029    90.9859     7.9037     0.0296     2.4422     0.1373
  501.0000   -39.7668    11.5834    15.6872    19.0841    91.8570     7.9200     0.0346     2.4594     0.1254
  501.5000   -39.8945    11.6715    15.5922    18.1976    93.6639     7.9364     0.0362     2.4617     0.1259
  502.0000   -40.0261    11.8417    15.6054    17.8373    92.9223     7.9378     0.0378     2.4409     0.1406
  502.5000   -40.4495    11.8499    15.6184    18.0976    89.3724     7.9245     0.0379     2.4365     0.1426
  503.0000   -40.5852    11.8581    15.6314    18.2354    87.0178     7.9107     0.0380     2.4395     0.1414
  503.5000   -41.1564    11.8646    15.4303    18.2480    88.1025     7.8973     0.0381     2.4418     0.1396
  504.0000   -41.4400    11.7772    15.2318    17.7639    91.8371     7.8840     0.0381     2.4442     0.1366
