~VERSION INFORMATION
 VERS.                2.0:   CWLS LOG ASCII STANDARD - VERSION 2.0
 WRAP.                 NO:   ONE LINE PER DEPTH STEP
~WELL INFORMATION
#MNEM.UNIT      DATA TYPE    INFORMATION
#----------   ------------   ------------------------------
 STRT.F          149.5000:   START DEPTH
 STOP.F          864.5000:   STOP DEPTH
 STEP.F            0.5000:   STEP LENGTH
 NULL.          -999.2500:   NO VALUE
 COMP. U S NAVY/INTEX OIL CO:   COMPANY
 WELL.    NPR #3 #78-S-27:   WELL
 FLD .             TEAPOT:   FIELD
 LOC .      S27 T39N R78W:   LOCATION
 CNTY.            NATRONA:   COUNTY
 STAT.            WYOMING:   STATE
 CTRY. UNITED STATES OF AMERICA:   COUNTRY
 SRVC. Schlumberger Well Surveying Corp:   SERVICE COMPANY
 DATE.        25-FEB-1961:   LOGDATE
 API .       490250657800:   API NUMBER
~CURVE INFORMATION
#MNEM.UNIT       API CODE    CURVE DESCRIPTION
#----------   ------------   ------------------------------
 DEPT.F                  :   
 SPR .MV     05 010 01 00:   SPONTANEOUS POTENTIAL FROM RES.
 CILD.MMHO   05 110 46 00:   CONDUCTIVITY INDUCTION LOG DEEP
 ASN .OHMM   05 041 16 00:   AMPLIFIED SHORT NORMAL 16"
 ILD .OHMM   05 120 46 00:   INDUCTION LOG DEEP
 GR  .GAPI   81 310 01 00:   GAMMA RAY
~PARAMETER INFORMATION
#MNEM.UNIT          VALUE    DESCRIPTION
#----------   ------------   ------------------------------
 PD  .                 GL:   PERMANENT DATUM
 EPD .F              5038:   ELEVATION PERMANENT DATUM
 LMF .                 KB:   LOG MEASURED FROM
 DAPD.F                 4:   FEET ABOVE PERMANENT DATUM
 DMF .                 KB:   DRILLING MEASURED FROM
 EKB .F              5042:   KELLING BUSHING
 EGL .F              5038:   GROUND LEVEL
 DATE.            2-25-61:   RUN DATE
 RUN .                  1:   RUN NUMBER
 DD  .F               865:   DEPTH DRILLER
 DL  .F               869:   DEPTH LOGGER
 BLI .F               864:   BOTTOM LOG INTERVAL
 TLI .F               150:   TOP LOG INTERVAL
 CBD .F                12:   CASING BOTTOM DRILLER
 BS  .IN            7.875:   BIT SIZE
 BSD .F               865:   BIT SIZE AT DEPTH
 DFT .       OIL EMULSION:   DRILLING FLUID TYPE
 DFD .               10.2:   DRILLING FLUID DENSITY
 DFV .                 48:   DRILLING FLUID VISCOSITY
 DFPH.                8.5:   DRILLING FLUID PH
 DFL .               10.2:   DRILLING FLUID LOSS
 RMS .OHMM            1.7:   RESISTIVITY MUD SAMPLE
 MST .F                57:   MUD SAMPLE TEMPERATURE
 MFSS.                  C:   MUD FILTRATE SAMPLE SOURCE
 MCSS.                  C:   MUD CAKE SAMPLE SOURCE
 RMB .OHMM            1.3:   RESISTIVITY MUD AT BHT
 BHT .F                75:   BOTTOM HOLE TEMPERATURE
 TCS .HRS               1:   TIME CURCULATED STOPPED
 MRT .F                75:   MAXIMUM RECORDED TEMPERATURE
 LUN .               2572:   LOGGING UNIT NUMBER
 LUL .                 NC:   LOGGING UNIT LOCATION
 ENGI.             ROUSER:   RECORDING ENGINEER
 WITN.          JORGENSEN:   WITNESSED BY
 CLNT.            A2DTECH:   CLIENT CODE
 ORIG.       2", 5" PRINT:   ORIGIN OF DATA
 UWI .       490250657800:   UNIQUE WELL ID
 DICO. A2D Technologies, Inc.:   DIGITIZING COMPANY
~OTHER INFORMATION
~A   DEPT      SPR       CILD        ASN        ILD         GR   
# ...
  332.5000   -60.6279    85.6713    13.5466    12.1118  -999.2500
  333.0000   -60.7743    86.5882    13.4067    11.8910  -999.2500
  333.5000   -60.9192    87.6753    13.2592    11.6542  -999.2500
  334.0000   -61.0624    87.6753    13.1097    11.5884  -999.2500
  334.5000   -61.1068    87.6753    13.0044    11.5964  -999.2500
  335.0000   -61.0992    87.6753    13.0039    11.5936  -999.2500
  335.5000   -61.0992    87.6753    13.0013    11.5972  -999.2500
  336.0000   -60.9458    87.6753    13.0022    11.6278  -999.2500
  336.5000   -60.7223    87.6753    13.0040    11.6763  -999.2500
  337.0000   -60.5102    87.6753    13.0016    11.7186  -999.2500
  337.5000   -60.2927    87.6753    13.0079    11.7681  -999.2500
  338.0000   -60.0778    87.6753    12.9978    11.7970  -999.2500
  338.5000   -59.8626    87.6753    13.0205    11.7946  -999.2500
  339.0000   -59.6400    87.6753    12.8574    11.5739  -999.2500
  339.5000   -59.4000    87.6753    12.3125    11.2506  -999.2500
  340.0000   -59.1602    91.0505    11.7656    10.9402  -999.2500
  340.5000   -58.9197    96.3374    11.2091    10.6321  -999.2500
  341.0000   -58.6799   101.6243    10.6607    10.2624  -999.2500
  341.5000   -58.4389   106.9112    10.1117     9.7517  -999.2500
  342.0000   -58.2001   112.1981     9.7525     9.2428  -999.2500
  342.5000   -57.9574   117.4850     9.4865     8.7276  -999.2500
  343.0000   -57.7217   122.7719     9.2018     8.2193  -999.2500
  343.5000   -57.4718   128.0587     8.9310     7.7123  -999.2500
  344.0000   -57.3027   133.3284     8.6527     7.4617  -999.2500
  344.5000   -57.2998   138.7574     8.4167     7.3367  -999.2500
  345.0000   -57.2981   141.1005     8.2965     7.1881  -999.2500
  345.5000   -57.2998   143.5152     8.1736     7.0531  -999.2500
  346.0000   -57.2990   145.7793     8.0731     6.9132  -999.2500
  346.5000   -57.3003   145.7814     8.0944     6.9118  -999.2500
  347.0000   -57.2992   145.7843     8.2141     6.9743  -999.2500
  347.5000   -57.3022   144.4009     8.3311     7.0265  -999.2500
  348.0000   -57.2826   143.0000     8.4573     7.0825  -999.2500
  348.5000   -57.2168   141.5937     8.5429     7.1386  -999.2500
  349.0000   -57.1505   140.1874     8.5324     7.1779  -999.2500
  349.5000   -57.0834   138.7776     8.4526     7.1784  -999.2500
  350.0000   -57.0166   139.3501     8.3532     7.1790  -999.2500
  350.5000   -56.9501   140.4981     8.2546     7.1785  -999.2500
  351.0000   -56.8827   141.6461     8.1811     7.1788  -999.2500
  351.5000   -56.8172   142.7856     8.2088     7.1784  -999.2500
  352.0000   -56.7477   142.7856     8.3028     7.1788  -999.2500
  352.5000   -56.7007   141.9639     8.3998     7.1801  -999.2500
  353.0000   -56.6999   140.3567     8.4955     7.2266  -999.2500
  353.5000   -56.6995   138.7495     8.5946     7.2978  -999.2500
  354.0000   -56.6999   137.1423     8.6657     7.3611  -999.2500
  354.5000   -56.6997   135.5351     8.6456     7.4342  -999.2500
  355.0000   -56.6999   135.4503     8.5744     7.4625  -999.2500
  355.5000   -56.6999   136.7089     8.5016     7.4015  -999.2500
  356.0000   -56.7000   138.0221     8.4283     7.3397  -999.2500
  356.5000   -56.7000   139.3354     8.3555     7.2758  -999.2500
  357.0000   -56.7000   140.6453     8.2818     7.2137  -999.2500
  357.5000   -56.7001   141.9497     8.2098     7.1496  -999.2500
  358.0000   -56.7000   143.2528     8.1346     7.0884  -999.2500
  358.5000   -56.7002   144.5596     8.0739     7.0219  -999.2500
  359.0000   -56.6999   145.8113     8.0573     6.9793  -999.2500
  359.5000   -56.7006   145.7916     8.0903     6.9748  -999.2500
  360.0000   -56.6950   145.7916     8.1959     7.0007  -999.2500
  360.5000   -56.6762   144.5992     8.3020     7.0892  -999.2500
  361.0000   -56.6573   142.4356     8.4108     7.1778  -999.2500
  361.5000   -56.6381   140.2721     8.5155     7.2677  -999.2500
  362.0000   -56.6191   138.1085     8.6276     7.3570  -999.2500
  362.5000   -56.5999   135.9450     8.7037     7.4460  -999.2500
  363.0000   -56.5808   133.7814     8.7244     7.5361  -999.2500
  363.5000   -56.5615   131.7635     8.7211     7.6240  -999.2500
  364.0000   -56.5427   131.7635     8.7651     7.7163  -999.2500
  364.5000   -56.5228   131.7635     8.9151     7.7800  -999.2500
  365.0000   -56.5056   131.7635     9.0661     7.7827  -999.2500
  365.5000   -56.4964   129.6042     9.2180     7.8661  -999.2500
  366.0000   -56.5227   127.5952     9.3679     7.9876  -999.2500
  366.5000   -56.6069   125.5862     9.4392     8.1033  -999.2500
  367.0000   -56.6926   123.5771     9.4713     8.2211  -999.2500
  367.5000   -56.7785   121.5681     9.5109     8.3393  -999.2500
  368.0000   -56.8649   119.7395     9.5459     8.4509  -999.2500
  368.5000   -56.9497   119.7395     9.5849     8.4945  -999.2500
  369.0000   -57.0382   119.7395     9.6177     8.4318  -999.2500
  369.5000   -57.1005   120.5724     9.6355     8.3098  -999.2500
  370.0000   -57.0988   121.9700     9.5849     8.2186  -999.2500
  370.5000   -57.1011   123.3676     9.4232     8.1203  -999.2500
  371.0000   -56.9996   124.7652     9.2584     8.0258  -999.2500
  371.5000   -56.9036   126.1628     9.0940     7.9293  -999.2500
  372.0000   -56.8806   127.5603     8.9267     7.8335  -999.2500
  372.5000   -56.7991   128.9579     8.7836     7.7380  -999.2500
  373.0000   -56.7211   130.3555     8.6972     7.6414  -999.2500
  373.5000   -56.6396   131.7531     8.6057     7.5473  -999.2500
  374.0000   -56.5602   133.1507     8.5450     7.4480  -999.2500
  374.5000   -56.4796   134.5482     8.5439     7.3801  -999.2500
  375.0000   -56.4000   135.7783     8.5598     7.3797  -999.2500
  375.5000   -56.3190   135.7811     8.5836     7.3772  -999.2500
  376.0000   -56.2404   135.7846     8.6073     7.3907  -999.2500
  376.5000   -56.1569   135.4556     8.6234     7.4336  -999.2500
  377.0000   -56.1007   134.9304     8.6244     7.4772  -999.2500
  377.5000   -56.0991   134.4030     8.6262     7.5212  -999.2500
  378.0000   -56.0992   133.8748     8.6968     7.5648  -999.2500
  378.5000   -56.1009   133.3468     8.8018     7.6087  -999.2500
  379.0000   -56.1670   132.8202     8.9000     7.6524  -999.2500
  379.5000   -56.2654   132.2956     8.9993     7.6961  -999.2500
  380.0000   -56.3577   131.7714     9.0303     7.7397  -999.2500
  380.5000   -56.4535   131.2486     9.0139     7.7834  -999.2500
  381.0000   -56.5467   130.7274     8.9770     7.8270  -999.2500
  381.5000   -56.6427   130.2076     8.9339     7.8697  -999.2500
  382.0000   -56.7345   129.7717     8.9069     7.8836  -999.2500
  382.5000   -56.8339   129.7747     8.9074     7.8799  -999.2500
  383.0000   -56.8981   129.3612     8.9816     7.8956  -999.2500
  383.5000   -56.9039   128.7368     9.0892     7.9450  -999.2500
  384.0000   -56.8723   128.1125     9.1945     7.9948  -999.2500
  384.5000   -56.7640   127.4937     9.2957     8.0465  -999.2500
  385.0000   -56.6558   126.8831     9.4237     8.0803  -999.2500
  385.5000   -56.5458   126.2786     9.3787     8.0002  -999.2500
  386.0000   -56.4368   125.7842     9.1750     7.8810  -999.2500
  386.5000   -56.3274   125.7515     8.9791     7.7681  -999.2500
  387.0000   -56.2178   128.7595     8.7722     7.6521  -999.2500
  387.5000   -56.1090   131.3043     8.5964     7.5378  -999.2500
  388.0000   -55.9986   133.8490     8.4732     7.4222  -999.2500
  388.5000   -55.8914   136.3938     8.3534     7.3080  -999.2500
  389.0000   -55.7779   138.9385     8.2325     7.1919  -999.2500
  389.5000   -55.7005   141.4833     8.1802     7.0791  -999.2500
  390.0000   -55.6998   144.0281     8.1834     6.9599  -999.2500
  390.5000   -55.7001   144.7896     8.1815     6.8786  -999.2500
  391.0000   -55.7613   144.7896     8.1832     6.8781  -999.2500
  391.5000   -55.8504   145.3349     8.1813     6.8706  -999.2500
  392.0000   -55.9350   146.1076     8.1745     6.8493  -999.2500
  392.5000   -56.0218   146.8803     8.1438     6.8268  -999.2500
  393.0000   -56.1075   147.6530     8.0763     6.8044  -999.2500
