~VERSION INFORMATION
 VERS.                2.0:   CWLS LOG ASCII STANDARD - VERSION 2.0
 WRAP.                 NO:   ONE LINE PER DEPTH STEP
~WELL INFORMATION
#MNEM.UNIT      DATA TYPE    INFORMATION
#----------   ------------   ------------------------------
 STRT.F           22.5000:   START DEPTH
 STOP.F          644.0000:   STOP DEPTH
 STEP.F            0.5000:   STEP LENGTH
 NULL.          -999.2500:   NO VALUE
 COMP.    FELIX & SCISION:   COMPANY
 WELL.     NPR #3 #14-S-2:   WELL
 FLD .             TEAPOT:   FIELD
 LOC .       S2 T38N R78W:   LOCATION
 CNTY.            NATRONA:   COUNTY
 STAT.            WYOMING:   STATE
 CTRY. UNITED STATES OF AMERICA:   COUNTRY
 SRVC.           BIRDWELL:   SERVICE COMPANY
 DATE.        18-JAN-1978:   LOGDATE
 API .       490251055600:   API NUMBER
~CURVE INFORMATION
#MNEM.UNIT       API CODE    CURVE DESCRIPTION
#----------   ------------   ------------------------------
 DEPT.F                  :   
 CALD.IN     45 280 60 00:   CALIPER FROM DENSITY LOG
 CORR.G/C3   45 356 01 00:   DENSITY CORRECTION
 DPHI.DEC    45 890 12 00:   DENSITY POROSITY SANDSTONE
 GRD .GAPI   45 310 01 00:   GAMMA RAY FROM DENSITY LOG
 RHOB.G/C3   45 350 01 00:   BULK DENSITY
 ILD .OHMM   05 120 46 00:   INDUCTION LOG DEEP
 SPR .MV     05 010 01 00:   SPONTANEOUS POTENTIAL FROM RES.
 SN  .OHMM   05 040 16 00:   SHORT NORMAL 16"
~PARAMETER INFORMATION
#MNEM.UNIT          VALUE    DESCRIPTION
#----------   ------------   ------------------------------
 PD  .                 GL:   PERMANENT DATUM
 EPD .F              5121:   ELEVATION PERMANENT DATUM
 LMF .                 KB:   LOG MEASURED FROM
 DAPD.F                 4:   FEET ABOVE PERMANENT DATUM
 DMF .                 KB:   DRILLING MEASURED FROM
 EKB .F              5126:   KELLING BUSHING
 EGL .F              5121:   GROUND LEVEL
 DATE.          1-18-1978:   RUN DATE
 RUN .                  1:   RUN NUMBER
 DD  .F               645:   DEPTH DRILLER
 DL  .F               648:   DEPTH LOGGER
 BLI .F               642:   BOTTOM LOG INTERVAL
 TLI .F                39:   TOP LOG INTERVAL
 CS  .IN            8.625:   CASING SIZE
 CBD .F                39:   CASING BOTTOM DRILLER
 BS  .IN            7.875:   BIT SIZE
 BSD .F               645:   BIT SIZE AT DEPTH
 DFT .                KCL:   DRILLING FLUID TYPE
 DFD .                8.8:   DRILLING FLUID DENSITY
 DFV .                 34:   DRILLING FLUID VISCOSITY
 DFPH.                9.5:   DRILLING FLUID PH
 DFL .                6.4:   DRILLING FLUID LOSS
 MSS .                PIT:   MUD SAMPLE SOURCE
 RMS .OHMM            .38:   RESISTIVITY MUD SAMPLE
 MST .F                43:   MUD SAMPLE TEMPERATURE
 RMF .OHMM            .26:   RESISTIVITY MUD FILTRATE SAMPLE
 MFST.F                70:   MUD FILTRATE SAMPLE TEMPERATURE
 RMC .OHMM            .42:   RESISTIVITY MUD CAKE
 MCST.F                70:   MUD CAKE SAMPLE TEMPERATURE
 MFSS.           MEASURED:   MUD FILTRATE SAMPLE SOURCE
 MCSS.           MEASURED:   MUD CAKE SAMPLE SOURCE
 RMB .OHMM            .24:   RESISTIVITY MUD AT BHT
 BHT .F                69:   BOTTOM HOLE TEMPERATURE
 TCS .HRS               2:   TIME CURCULATED STOPPED
 MRT .F                69:   MAXIMUM RECORDED TEMPERATURE
 LUN .               2958:   LOGGING UNIT NUMBER
 LUL .             CASPER:   LOGGING UNIT LOCATION
 ENGI.           REYNOLDS:   RECORDING ENGINEER
 WITN.         HARRINGTON:   WITNESSED BY
 CLNT.            A2DTECH:   CLIENT CODE
 ORIG.      2" , 5" PRINT:   ORIGIN OF DATA
 UWI .       490251055600:   UNIQUE WELL ID
 DICO. A2D Technologies, Inc.:   DIGITIZING COMPANY
~OTHER INFORMATION
~A   DEPT     CALD       CORR       DPHI         GRD      RHOB        ILD        SPR         SN   
# ...
   63.0000     8.1251     0.1520     0.1861    76.4935     2.3625    18.3845    -9.0332    18.6637
   63.5000     7.9825     0.1400     0.1640    76.0551     2.3836    18.1275    -9.3234    17.7820
   64.0000     7.8056     0.1166     0.1610    73.8296     2.3829    17.9000    -9.3143    17.1593
   64.5000     7.7621     0.1016     0.1655    72.6522     2.3776    17.7852    -9.3069    16.1668
   65.0000     7.7937     0.0925     0.1687    73.1649     2.3731    17.7958    -9.4484    15.4086
   65.5000     7.7799     0.0911     0.1702    76.2348     2.3678    17.8043    -9.4411    13.8952
   66.0000     7.7665     0.0873     0.1705    85.7517     2.3751    17.5661   -10.1778    13.5214
   66.5000     7.7832     0.0797     0.1633    92.8913     2.3822    17.2157   -12.8491    13.4322
   67.0000     7.7996     0.0768     0.1656    97.3563     2.3747    16.1847   -14.7762    13.4391
   67.5000     7.8307     0.0761     0.1716    96.6207     2.3650    15.6422   -15.2172    13.4446
   68.0000     7.8768     0.0889     0.1770    92.9133     2.3597    15.2227   -15.3568    13.4501
   68.5000     7.8931     0.0905     0.1764    88.3143     2.3771    14.6111   -15.6471    13.4557
   69.0000     7.9391     0.0913     0.1653    87.4283     2.3861    14.3162   -16.0862    13.3670
   69.5000     8.0000     0.0905     0.1580    87.1403     2.3891    14.3248   -16.8239    13.1900
   70.0000     8.0461     0.0891     0.1526    86.7000     2.4020    13.7492   -17.5596    12.5715
   70.5000     8.0773     0.0906     0.1514    87.1549     2.4027    13.1968   -18.5015    11.7358
   71.0000     8.1437     0.0974     0.1525    87.6080     2.3990    12.8429   -19.8046    10.8801
   71.5000     8.3477     0.1035     0.1515    87.4667     2.4050    12.1575   -21.2561    10.0172
   72.0000     8.0519     0.1088     0.1494    85.8396     2.4051    11.3466   -22.4392     9.2843
   72.5000     8.0538     0.1126     0.1501    85.2525     2.4043    10.1484   -23.6224     8.6018
   73.0000     8.0701     0.1156     0.1561    86.3695     2.3908     8.8975   -24.9543     8.0733
   73.5000     8.0563     0.1187     0.1612    90.9594     2.3841     7.7973   -26.1375     7.5896
   74.0000     8.0429     0.1309     0.1617    90.7741     2.3842     7.4588   -27.3206     7.2016
   74.5000     8.0448     0.1392     0.1599    90.3338     2.3904     7.5151   -28.2080     7.0079
   75.0000     8.0310     0.1429     0.1536    91.5317     2.3995     7.5186   -28.4982     6.8193
   75.5000     8.0176     0.1445     0.1502    91.8362     2.4052     7.5222   -28.6379     6.7277
   76.0000     7.9897     0.1437     0.1496    90.0604     2.4067     7.4225   -28.9282     6.6840
   76.5000     7.9615     0.1423     0.1421    89.3230     2.4233     7.2736   -29.3673     6.7339
   77.0000     7.9332     0.1362     0.1366    89.6293     2.4316     7.1268   -29.6577     6.6902
   77.5000     7.8901     0.1250     0.1348    89.3394     2.4331     7.0811   -29.9479     6.4653
   78.0000     7.8322     0.1152     0.1351    87.1180     2.4339     7.0853   -30.0893     6.2907
   78.5000     7.7593     0.0994     0.1354    85.4908     2.4339     7.0887   -30.0818     6.2068
   79.0000     7.7014     0.0919     0.1356    85.6467     2.4302     7.0921   -30.0744     6.2100
   79.5000     7.6582     0.0859     0.1396    86.3970     2.4159     7.0954   -30.0655     6.2125
   80.0000     7.6300     0.0829     0.1441    88.4845     2.4092     7.0498   -30.0582     6.2151
   80.5000     7.6315     0.0799     0.1513    89.8291     2.3994     6.9563   -30.0508     6.2176
   81.0000     7.6181     0.0822     0.1540    91.4017     2.3957     7.0567   -30.0435     6.2634
   81.5000     7.6348     0.0830     0.1545    95.8212     2.3942     7.0600   -30.0362     6.3545
   82.0000     7.6362     0.0861     0.1545    96.5379     2.3942     7.0147   -30.0289     6.4001
   82.5000     7.6377     0.0883     0.1542    95.9524     2.3958     7.0182   -30.0215     6.4027
   83.0000     7.6391     0.0883     0.1532    94.3252     2.3981     6.9730   -30.0142     6.4054
   83.5000     7.6555     0.0869     0.1529    90.1721     2.4003     6.9283   -30.0069     6.3198
   84.0000     7.6718     0.0854     0.1562    84.9788     2.3970     6.9324   -29.9995     6.2355
   84.5000     7.7030     0.0824     0.1592    83.5002     2.3898     6.9358   -29.8434     6.1523
   85.0000     7.7044     0.0802     0.1616    83.5075     2.3808     6.9391   -29.6873     6.1124
   85.5000     7.7356     0.0787     0.1634    83.9606     2.3771     6.9424   -29.6799     6.1155
   86.0000     7.7520     0.0780     0.1636    86.3454     2.3779     6.9939   -29.6726     6.1710
   86.5000     7.7683     0.0772     0.1639    87.5414     2.3839     7.1439   -29.8141     6.2489
   87.0000     7.7846     0.0765     0.1609    86.2114     2.3892     7.2468   -29.8065     6.2949
   87.5000     7.8306     0.0743     0.1567    81.4639     2.3937     7.3513   -29.7991     6.3412
   88.0000     7.8767     0.0721     0.1524    78.6478     2.4050     7.3548   -29.7903     6.3438
   88.5000     7.9529     0.0713     0.1491    79.2497     2.4051     7.3067   -29.7829     6.4348
   89.0000     7.9998     0.0691     0.1497    82.8271     2.4051     7.3618   -29.7756     6.5272
   89.5000     8.0467     0.0684     0.1519    83.7221     2.4021     7.4164   -29.7683     6.7131
   90.0000     8.0761     0.0745     0.1566    83.5612     2.3923     7.5233   -29.9116     6.8568
   90.5000     8.0920     0.0862     0.1592    82.9955     2.3863     7.6317   -30.0530     6.9072
   91.0000     8.0786     0.0994     0.1592    82.2599     2.3871     7.6884   -30.0439     6.9101
   91.5000     8.0652     0.1130     0.1592    81.0767     2.3879     7.7505   -29.7389     6.9129
   92.0000     8.0518     0.1304     0.1586    86.5836     2.3903     7.9117   -29.4340     6.9638
   92.5000     8.0537     0.1394     0.1570    90.3056     2.3939     8.0822   -29.2778     7.0157
   93.0000     8.0551     0.1561     0.1528    90.6083     2.3962     8.1986   -29.1217     7.0673
   93.5000     8.0414     0.1621     0.1522    87.9435     2.3962     8.2595   -29.1144     7.1193
   94.0000     8.0432     0.1689     0.1504    86.9088     2.4053     8.2634   -29.1070     7.2214
   94.5000     8.0595     0.1690     0.1470    87.3638     2.4144     8.2674   -29.0997     7.2244
   95.0000     8.0610     0.1683     0.1420    89.4513     2.4196     8.2143   -29.0823     7.2274
   95.5000     8.0625     0.1668     0.1398    90.9445     2.4197     8.2182   -28.7872     7.2805
   96.0000     8.0639     0.1615     0.1376    90.3575     2.4287     8.2222   -28.6310     7.2333
   96.5000     8.0654     0.1600     0.1331    89.9190     2.4333     8.2261   -28.6221     7.2363
   97.0000     8.0371     0.1563     0.1292    89.6292     2.4370     8.2300   -28.9124     7.2392
   97.5000     8.0074     0.1495     0.1273    87.5563     2.4468     8.1209   -29.6491     7.2422
   98.0000     7.9181     0.1442     0.1279    82.5116     2.4446     8.0132   -29.4930     7.1448
   98.5000     7.7693     0.1388     0.1288    82.8161     2.4439     7.7983   -29.1880     7.0016
   99.0000     7.5679     0.1315     0.1285    86.2409     2.4424     7.6948   -29.1807     6.9082
   99.5000     7.4505     0.1248     0.1282    88.9228     2.4394     7.6454   -28.8758     6.8161
  100.0000     7.3922     0.1158     0.1290    88.6330     2.4364     7.6491   -28.5708     6.6788
  100.5000     7.3940     0.1090     0.1384    88.0506     2.4148     7.6528   -28.8636     6.6815
  101.0000     7.4404     0.1008     0.1468    87.0198     2.3932     7.5964   -28.7075     6.6843
  101.5000     7.5040     0.0978     0.1543    86.7325     2.3813     7.7022   -28.7016     6.6871
  102.0000     7.5781     0.1009     0.1639    86.4458     2.3771     7.7022   -28.8460     6.6904
  102.5000     7.6541     0.1002     0.1633    86.4562     2.3794     7.7022   -28.9874     6.6932
  103.0000     7.7004     0.0964     0.1602    86.3179     2.3847     7.7022   -28.9815     6.6959
