~VERSION INFORMATION
 VERS.                2.0:   CWLS LOG ASCII STANDARD - VERSION 2.0
 WRAP.                 NO:   ONE LINE PER DEPTH STEP
~WELL INFORMATION
#MNEM.UNIT      DATA TYPE    INFORMATION
#----------   ------------   ------------------------------
 STRT.M         1049.9000:   START DEPTH
 STOP.M         2123.5000:   STOP DEPTH
 STEP.M            0.1000:   STEP LENGTH
 NULL.          -999.2500:   NO VALUE
 COMP. BROWN JOHN E&C INC:   COMPANY
 WELL. NAVAL PETROLEUM RESERVE 3 STX- #34-3:   WELL
 FLD .            WILDCAT:   FIELD
 LOC .       S3 T38N R78W:   LOCATION
 CNTY.            NATRONA:   COUNTY
 STAT.            WYOMING:   STATE
 CTRY. UNITED STATES OF AMERICA:   COUNTRY
 SRVC.            Unknown:   SERVICE COMPANY
 DATE.        04-SEP-1991:   LOGDATE
 API .       490251090400:   API NUMBER
~CURVE INFORMATION
#MNEM.UNIT       API CODE    CURVE DESCRIPTION
#----------   ------------   ------------------------------
 DEPT.M                  :   
 ROP .MIN/FT 91 810 01 00:   RAT OF DRILLING PENETRATION
 TGAS.UNITS  91 830 01 00:   TOTAL GAS FROM HOTWIRE
~PARAMETER INFORMATION
#MNEM.UNIT          VALUE    DESCRIPTION
#----------   ------------   ------------------------------
 EKB .F              5189:   KELLING BUSHING
 EGL .F              5179:   GROUND LEVEL
 DATE.             9-4-91:   RUN DATE
 DD  .F              2123:   DEPTH DRILLER
 CS  .IN            9.625:   CASING SIZE
 BS  .IN             8.75:   BIT SIZE
 BSD .F              2123:   BIT SIZE AT DEPTH
 ENGI.              TOWER:   RECORDING ENGINEER
 WITN.               HUSK:   WITNESSED BY
 CLNT.            A2DTECH:   CLIENT CODE
 ORIG.           5" PRINT:   ORIGIN OF DATA
 UWI .       490251090400:   UNIQUE WELL ID
 DICO. A2D Technologies, Inc.:   DIGITIZING COMPANY
~OTHER INFORMATION
~A  DEPT       ROP         TGAS 
# ...
 2021.9000     0.6845    20.1711
 2022.0000     0.6844    20.1771
 2022.1000     0.6842    20.1831
 2022.2000     0.6841    20.1891
 2022.3000     0.6839    20.1951
 2022.4000     0.6838    20.2011
 2022.5000     0.6836    20.2071
 2022.6000     0.6835    20.2131
 2022.7000     0.6833    20.2191
 2022.8000     0.6832    20.2251
 2022.9000     0.6841    20.2311
 2023.0000     0.6861    20.2371
 2023.1000     0.6882    20.2431
 2023.2000     0.6902    20.2491
 2023.3000     0.6923    20.2563
 2023.4000     0.6943    20.2611
 2023.5000     0.6964    20.2671
 2023.6000     0.6984    20.2731
 2023.7000     0.7005    20.2791
 2023.8000     0.7025    20.2851
 2023.9000     0.7029    20.2911
 2024.0000     0.7028    20.2971
 2024.1000     0.7026    20.3031
 2024.2000     0.7025    20.3091
 2024.3000     0.7023    20.3151
 2024.4000     0.7022    20.3211
 2024.5000     0.7020    20.3271
 2024.6000     0.7019    20.3341
 2024.7000     0.7017    20.3391
 2024.8000     0.7016    20.3451
 2024.9000     0.7014    20.3511
 2025.0000     0.7013    20.3571
 2025.1000     0.7011    20.3631
 2025.2000     0.7010    20.3691
 2025.3000     0.7005    20.3751
 2025.4000     0.6981    20.3811
 2025.5000     0.6958    20.3871
 2025.6000     0.6934    20.3931
 2025.7000     0.6911    20.3991
 2025.8000     0.6894    20.4051
 2025.9000     0.6892    20.4118
 2026.0000     0.6891    20.4171
 2026.1000     0.6889    20.4231
 2026.2000     0.6888    20.4291
 2026.3000     0.6877    20.4351
 2026.4000     0.6853    20.4411
 2026.5000     0.6830    20.4471
 2026.6000     0.6806    20.4531
 2026.7000     0.6783    20.4591
 2026.8000     0.6759    20.4651
 2026.9000     0.6736    20.4711
 2027.0000     0.6712    20.4771
 2027.1000     0.6688    20.4831
 2027.2000     0.6665    20.4891
 2027.3000     0.6641    20.4951
 2027.4000     0.6618    20.5011
 2027.5000     0.6594    20.5071
 2027.6000     0.6571    20.5131
 2027.7000     0.6544    20.5191
 2027.8000     0.6543    20.5251
 2027.9000     0.6541    20.5311
 2028.0000     0.6540    20.5371
 2028.1000     0.6538    20.5431
 2028.2000     0.6537    20.5491
 2028.3000     0.6535    20.5551
 2028.4000     0.6534    20.5611
 2028.5000     0.6532    20.5671
 2028.6000     0.6531    20.5731
 2028.7000     0.6529    20.5791
 2028.8000     0.6528    20.5851
 2028.9000     0.6526    20.5916
 2029.0000     0.6525    20.5971
 2029.1000     0.6523    20.6031
 2029.2000     0.6522    20.6091
 2029.3000     0.6520    20.6151
 2029.4000     0.6519    20.6211
 2029.5000     0.6517    20.6280
 2029.6000     0.6516    20.6331
 2029.7000     0.6514    20.7233
 2029.8000     0.6513    21.0737
 2029.9000     0.6511    21.0809
 2030.0000     0.6510    21.0857
 2030.1000     0.6508    21.0917
 2030.2000     0.6507    21.0977
 2030.3000     0.6505    21.1037
 2030.4000     0.6504    21.1100
 2030.5000     0.6502    21.1157
 2030.6000     0.6501    21.1217
 2030.7000     0.6499    21.2384
 2030.8000     0.6498    21.4560
 2030.9000     0.6496    21.5683
 2031.0000     0.6495    21.5743
 2031.1000     0.6493    21.5803
 2031.2000     0.6492    21.5872
 2031.3000     0.6490    21.5923
 2031.4000     0.6489    21.5983
 2031.5000     0.6487    21.6043
 2031.6000     0.6486    21.6103
 2031.7000     0.6484    21.6163
 2031.8000     0.6483    21.6223
 2031.9000     0.6481    21.6283
 2032.0000     0.6480    21.6343
 2032.1000     0.6482    21.6403
 2032.2000     0.6525    21.6463
 2032.3000     0.6567    21.6527
 2032.4000     0.6610    21.6583
 2032.5000     0.6652    21.6643
 2032.6000     0.6690    21.6703
 2032.7000     0.6710    21.6763
 2032.8000     0.6731    21.6823
 2032.9000     0.6751    21.6892
 2033.0000     0.6772    21.6943
 2033.1000     0.6809    21.7003
 2033.2000     0.6873    21.5575
 2033.3000     0.6938    21.2837
 2033.4000     0.7002    21.2897
 2033.5000     0.7067    21.2957
 2033.6000     0.7120    21.3017
 2033.7000     0.7163    21.3077
 2033.8000     0.7205    21.3137
 2033.9000     0.7248    21.3197
 2034.0000     0.7291    21.3262
 2034.1000     0.7333    21.3317
 2034.2000     0.7376    21.3377
 2034.3000     0.7418    21.3437
 2034.4000     0.7461    21.3497
 2034.5000     0.7503    21.3557
 2034.6000     0.7511    21.3626
 2034.7000     0.7510    21.3677
 2034.8000     0.7508    21.3737
 2034.9000     0.7507    21.3797
 2035.0000     0.7505    21.3857
 2035.1000     0.7504    21.3918
 2035.2000     0.7502    21.3977
 2035.3000     0.7501    21.4037
 2035.4000     0.7499    21.4097
 2035.5000     0.7494    21.4157
 2035.6000     0.7427    21.4217
 2035.7000     0.7359    21.4282
 2035.8000     0.7291    21.4337
 2035.9000     0.7224    21.4397
 2036.0000     0.7156    21.2743
 2036.1000     0.7089    21.0231
 2036.2000     0.7021    21.0291
 2036.3000     0.6954    21.0361
 2036.4000     0.6886    21.0411
 2036.5000     0.6826    21.0471
 2036.6000     0.6780    21.0531
 2036.7000     0.6735    21.0591
 2036.8000     0.6689    21.0652
 2036.9000     0.6644    21.0711
 2037.0000     0.6598    21.0771
 2037.1000     0.6553    21.0831
 2037.2000     0.6507    21.0891
 2037.3000     0.6462    21.0951
 2037.4000     0.6416    21.1017
 2037.5000     0.6384    21.1071
 2037.6000     0.6360    21.1131
 2037.7000     0.6337    21.1191
 2037.8000     0.6313    21.1251
 2037.9000     0.6290    21.1311
 2038.0000     0.6283    21.1381
 2038.1000     0.6281    21.1431
 2038.2000     0.6280    21.1491
 2038.3000     0.6278    21.1551
 2038.4000     0.6276    21.1611
 2038.5000     0.6314    21.1673
 2038.6000     0.6357    21.1731
 2038.7000     0.6399    21.1791
 2038.8000     0.6442    21.1851
 2038.9000     0.6484    21.1911
 2039.0000     0.6527    21.1971
 2039.1000     0.6569    21.2037
 2039.2000     0.6612    21.2091
 2039.3000     0.6654    21.2151
 2039.4000     0.6697    21.2211
 2039.5000     0.6739    21.2271
 2039.6000     0.6782    21.2331
 2039.7000     0.6825    21.2401
 2039.8000     0.6867    21.2451
 2039.9000     0.6910    21.2511
 2040.0000     0.6952    21.2571
 2040.1000     0.6995    21.2631
 2040.2000     0.7037    21.2693
 2040.3000     0.7080    21.2751
 2040.4000     0.7113    21.2811
 2040.5000     0.7133    21.2871
 2040.6000     0.7154    21.2931
 2040.7000     0.7174    21.2991
 2040.8000     0.7195    21.3057
 2040.9000     0.7228    21.3111
 2041.0000     0.7271    21.3171
 2041.1000     0.7313    21.3231
 2041.2000     0.7356    21.3291
 2041.3000     0.7398    21.3509
 2041.4000     0.7409    21.7707
 2041.5000     0.7408    21.7757
 2041.6000     0.7406    21.7817
 2041.7000     0.7405    21.7877
 2041.8000     0.7403    21.7937
 2041.9000     0.7402    21.7999
 2042.0000     0.7400    21.8057
 2042.1000     0.7399    21.8117
 2042.2000     0.7397    21.8177
 2042.3000     0.7396    21.8237
 2042.4000     0.7394    21.8297
 2042.5000     0.7393    21.8363
 2042.6000     0.7391    21.8417
 2042.7000     0.7390    21.8477
 2042.8000     0.7388    21.8537
 2042.9000     0.7387    21.9497
 2043.0000     0.7385    22.2943
 2043.1000     0.7384    22.3013
 2043.2000     0.7382    22.3063
 2043.3000     0.7369    22.3123
 2043.4000     0.7324    22.3183
 2043.5000     0.7278    22.3243
 2043.6000     0.7233    22.3305
 2043.7000     0.7187    22.3363
 2043.8000     0.7142    22.3423
 2043.9000     0.7096    22.3483
 2044.0000     0.7051    22.3543
 2044.1000     0.7005    22.3603
 2044.2000     0.6960    22.3669
 2044.3000     0.6938    22.3723
 2044.4000     0.6936    22.3783
 2044.5000     0.6935    22.3843
 2044.6000     0.6933    22.3903
 2044.7000     0.6932    22.3963
 2044.8000     0.6945    22.4034
 2044.9000     0.6966    22.4083
 2045.0000     0.6986    22.4143
 2045.1000     0.7007    22.4203
 2045.2000     0.7031    22.4263
 2045.3000     0.7066    22.4325
 2045.4000     0.7108    22.4383
 2045.5000     0.7151    22.4443
 2045.6000     0.7193    22.4503
 2045.7000     0.7238    22.4563
 2045.8000     0.7257    22.4623
 2045.9000     0.7278    22.4689
 2046.0000     0.7298    22.4743
 2046.1000     0.7319    22.4803
