~VERSION INFORMATION
 VERS.                2.0:   CWLS LOG ASCII STANDARD - VERSION 2.0
 WRAP.                 NO:   ONE LINE PER DEPTH STEP
~WELL INFORMATION
#MNEM.UNIT      DATA TYPE    INFORMATION
#----------   ------------   ------------------------------
 STRT.F           50.0000:   START DEPTH
 STOP.F         1561.5000:   STOP DEPTH
 STEP.F            0.5000:   STEP LENGTH
 NULL.          -999.2500:   NO VALUE
 COMP. FENIX & SCISSON INC:   COMPANY
 WELL.  72 SH 3 STX #72-3:   WELL
 FLD .             TEAPOT:   FIELD
 LOC .       S3 T38N R78W:   LOCATION
 CNTY.            NATRONA:   COUNTY
 STAT.            WYOMING:   STATE
 CTRY. UNITED STATES OF AMERICA:   COUNTRY
 SRVC.           BIRDWELL:   SERVICE COMPANY
 DATE.        31-JUL-1979:   LOGDATE
 API .       490251078600:   API NUMBER
~CURVE INFORMATION
#MNEM.UNIT       API CODE    CURVE DESCRIPTION
#----------   ------------   ------------------------------
 DEPT.F                  :   
 CALD.IN     45 280 60 00:   CALIPER FROM DENSITY LOG
 GRD .GAPI   45 310 01 00:   GAMMA RAY FROM DENSITY LOG
 RHOB.G/C3   45 350 01 00:   BULK DENSITY
 CORR.G/C3   45 356 01 00:   DENSITY CORRECTION
 DPHI.DEC    45 890 12 00:   DENSITY POROSITY SANDSTONE
 GR  .GAPI   81 310 01 00:   GAMMA RAY
~PARAMETER INFORMATION
#MNEM.UNIT          VALUE    DESCRIPTION
#----------   ------------   ------------------------------
 PD  .                 GL:   PERMANENT DATUM
 EPD .F              5165:   ELEVATION PERMANENT DATUM
 LMF .                 KB:   LOG MEASURED FROM
 DAPD.F                10:   FEET ABOVE PERMANENT DATUM
 DMF .                 KB:   DRILLING MEASURED FROM
 EKB .F              5175:   KELLING BUSHING
 EGL .F              5165:   GROUND LEVEL
 DATE.            7-31-79:   RUN DATE
 RUN .                  1:   RUN NUMBER
 DD  .F              1564:   DEPTH DRILLER
 DL  .F              1560:   DEPTH LOGGER
 BLI .F              1560:   BOTTOM LOG INTERVAL
 TLI .F               700:   TOP LOG INTERVAL
 CS  .IN            9.625:   CASING SIZE
 CBD .F               691:   CASING BOTTOM DRILLER
 CBL .F               680:   CASING BOTTOM LOGGER
 BS  .IN            7.875:   BIT SIZE
 BSD .F              1564:   BIT SIZE AT DEPTH
 DFT .                OIL:   DRILLING FLUID TYPE
 BHT .F                92:   BOTTOM HOLE TEMPERATURE
 TCS .HRS               2:   TIME CURCULATED STOPPED
 MRT .F                92:   MAXIMUM RECORDED TEMPERATURE
 LUN .               3029:   LOGGING UNIT NUMBER
 LUL .                CPR:   LOGGING UNIT LOCATION
 ENGI.             MILLER:   RECORDING ENGINEER
 WITN.           DINSMORE:   WITNESSED BY
 CLNT.            A2DTECH:   CLIENT CODE
 ORIG.       2", 5" PRINT:   ORIGIN OF DATA
 UWI .       490251078600:   UNIQUE WELL ID
 DICO. A2D Technologies, Inc.:   DIGITIZING COMPANY
~OTHER INFORMATION
~A   DEPT     CALD        GRD       RHOB       CORR       DPHI          GR  
# ...
 1454.0000     8.6902   105.0084     2.5458    -0.0066    -0.0043    98.2068
 1454.5000     8.6882   105.8552     2.5532    -0.0045    -0.0072    93.3424
 1455.0000     8.6863   101.6203     2.5605    -0.0025    -0.0088    93.2604
 1455.5000     8.6843    98.1318     2.5623    -0.0005    -0.0104    93.4531
 1456.0000     8.6824    96.1362     2.5570    -0.0003    -0.0074    91.5501
 1456.5000     8.6804    97.9907     2.5517    -0.0069    -0.0036    89.6464
 1457.0000     8.6784   100.9525     2.5465    -0.0132     0.0001    89.9353
 1457.5000     8.6765   103.9640     2.5416    -0.0195     0.0030    91.8605
 1458.0000     8.6745   106.8415     2.5437    -0.0224     0.0064    93.8066
 1458.5000     8.6726   108.2070     2.5473    -0.0064     0.0097    94.1468
 1459.0000     8.6706   102.5447     2.5343     0.0001     0.0129    93.1676
 1459.5000     8.6687    98.9350     2.5183    -0.0148     0.0162    92.1544
 1460.0000     8.6667   101.2646     2.5120    -0.0115     0.0174    92.9018
 1460.5000     8.6648    99.3737     2.5173    -0.0051     0.0128    95.0905
 1461.0000     8.6628    96.1811     2.5250    -0.0057     0.0082    97.3169
 1461.5000     8.6608    93.4639     2.5329    -0.0150     0.0037    98.2382
 1462.0000     8.6589    93.8475     2.5415    -0.0080    -0.0008    95.3233
 1462.5000     8.6574    97.3141     2.5503    -0.0010    -0.0054    94.2048
 1463.0000     8.6583    99.7484     2.5590     0.0060    -0.0095    94.6874
 1463.5000     8.6591   101.7562     2.5680     0.0126    -0.0118    93.5198
 1464.0000     8.6599   102.2792     2.5675     0.0083    -0.0078    91.0560
 1464.5000     8.6607    98.8517     2.5509     0.0035    -0.0027    88.5917
 1465.0000     8.6615    98.7285     2.5391    -0.0013     0.0023    88.5206
 1465.5000     8.6623    99.5803     2.5284    -0.0061     0.0074    88.8806
 1466.0000     8.6631   100.4511     2.5236    -0.0109     0.0126    86.6571
 1466.5000     8.6639   100.2983     2.5259    -0.0080     0.0120    79.9669
 1467.0000     8.6647    98.2928     2.5417    -0.0041     0.0029    80.3625
 1467.5000     8.6655    96.9210     2.5574    -0.0003    -0.0087    84.5756
 1468.0000     8.6663    99.3547     2.5693     0.0030    -0.0142    88.3490
 1468.5000     8.6671   100.0579     2.5598    -0.0002    -0.0079    90.1097
 1469.0000     8.6679    99.0714     2.5439    -0.0026     0.0014    87.7753
 1469.5000     8.6687    98.0760     2.5416     0.0011    -0.0020    84.9094
 1470.0000     8.6695    98.0095     2.5494     0.0046    -0.0057    84.4516
 1470.5000     8.6704    99.1891     2.5570     0.0047    -0.0066    90.1690
 1471.0000     8.6712   100.3969     2.5473    -0.0027     0.0002    92.2756
 1471.5000     8.6720    98.9668     2.5360    -0.0091     0.0060    91.8394
 1472.0000     8.6728    96.9709     2.5407    -0.0061     0.0008    88.8071
 1472.5000     8.6736    94.9768     2.5505    -0.0030    -0.0051    85.6445
 1473.0000     8.6744    92.9642     2.5555     0.0003    -0.0012    82.8545
 1473.5000     8.6752    91.6396     2.5438    -0.0013     0.0052    83.7152
 1474.0000     8.6760    93.4875     2.5302    -0.0044     0.0122    86.3841
 1474.5000     8.6768    96.3335     2.5238    -0.0077     0.0126    88.8972
 1475.0000     8.6769    98.4517     2.5308    -0.0108     0.0087    90.6035
 1475.5000     8.6750    97.9187     2.5395    -0.0141     0.0049    89.4947
 1476.0000     8.6732    98.3543     2.5404    -0.0149     0.0010    88.8552
 1476.5000     8.6714   102.2437     2.5387    -0.0164     0.0008    90.9726
 1477.0000     8.6696   101.0954     2.5370    -0.0179     0.0013    93.0313
 1477.5000     8.6678    99.7478     2.5368    -0.0187     0.0017    95.1266
 1478.0000     8.6660    99.5386     2.5419    -0.0117     0.0014    95.4756
 1478.5000     8.6642    96.4398     2.5434    -0.0049    -0.0005    93.3615
 1479.0000     8.6624    94.5811     2.5426     0.0019    -0.0024    96.5764
 1479.5000     8.6606    96.3834     2.5461     0.0087    -0.0042    98.7773
 1480.0000     8.6588    98.9639     2.5575     0.0151    -0.0060    97.5079
 1480.5000     8.6570   101.3958     2.5518     0.0084    -0.0049    94.1135
 1481.0000     8.6552   100.4819     2.5464     0.0008    -0.0024    90.7577
 1481.5000     8.6534    99.0493     2.5421    -0.0051    -0.0010    88.7348
 1482.0000     8.6516    97.6073     2.5521    -0.0027    -0.0061    92.5791
 1482.5000     8.6498    96.1643     2.5625     0.0025    -0.0110    97.3215
 1483.0000     8.6480    94.7224     2.5727     0.0077    -0.0158    94.5434
 1483.5000     8.6462    94.7604     2.5770     0.0129    -0.0186    97.2054
 1484.0000     8.6445    97.4902     2.5690     0.0182    -0.0140   101.7209
 1484.5000     8.6426   100.1954     2.5617     0.0150    -0.0114   102.6790
 1485.0000     8.6409   100.4652     2.5641     0.0094    -0.0114    97.9295
 1485.5000     8.6390   101.9696     2.5706     0.0151    -0.0143    92.0119
 1486.0000     8.6373   104.4213     2.5806     0.0211    -0.0177    86.9596
 1486.5000     8.6364   106.7521     2.5906     0.0121    -0.0250    85.0586
 1487.0000     8.6355   103.5072     2.6005     0.0010    -0.0373    86.2309
 1487.5000     8.6346    99.3582     2.6106    -0.0025    -0.0378    88.0925
 1488.0000     8.6337    95.1745     2.6144     0.0042    -0.0381    88.2334
 1488.5000     8.6328    90.9801     2.6110     0.0162    -0.0312    85.1223
 1489.0000     8.6320    89.9650     2.5909     0.0191    -0.0186    86.2545
 1489.5000     8.6311   101.8485     2.5746     0.0160    -0.0132    87.9971
 1490.0000     8.6302   102.1343     2.5647     0.0129    -0.0078    89.7795
 1490.5000     8.6293    98.5860     2.5547     0.0098    -0.0048    92.2828
 1491.0000     8.6284    95.6634     2.5484     0.0066    -0.0017    95.7904
 1491.5000     8.6276    93.7727     2.5445     0.0035     0.0009    90.3544
 1492.0000     8.6267    94.8737     2.5406     0.0004     0.0027    92.5811
 1492.5000     8.6258   101.9638     2.5365    -0.0010     0.0044    97.1102
 1493.0000     8.6249   103.1775     2.5324    -0.0019     0.0062    95.3631
 1493.5000     8.6240   100.1219     2.5315    -0.0031     0.0074    92.6480
 1494.0000     8.6231    96.5168     2.5365    -0.0042     0.0056    92.6589
 1494.5000     8.6222    97.0390     2.5454    -0.0049     0.0003    95.8642
 1495.0000     8.6214   101.2209     2.5529    -0.0027    -0.0050    96.4465
 1495.5000     8.6205   103.4883     2.5619    -0.0012    -0.0106    94.4580
 1496.0000     8.6196   102.6607     2.5663     0.0003    -0.0047    93.1601
 1496.5000     8.6187    98.6023     2.5338     0.0024     0.0032    95.1263
 1497.0000     8.6178    99.6137     2.5354     0.0052     0.0054    97.0022
 1497.5000     8.6170   101.3174     2.5557     0.0079    -0.0047    98.6965
 1498.0000     8.6161   103.0073     2.5779     0.0106    -0.0224    97.7923
 1498.5000     8.6152   103.7878     2.5881     0.0133    -0.0226    95.0766
 1499.0000     8.6143    98.0875     2.5827     0.0161    -0.0224    94.4457
 1499.5000     8.6135   100.4388     2.5725     0.0188    -0.0144    94.7329
 1500.0000     8.6126    96.3177     2.5593     0.0145    -0.0033    92.5779
 1500.5000     8.6117    92.0290     2.5470     0.0095     0.0019    90.2177
 1501.0000     8.6108    90.9742     2.5507     0.0044    -0.0045    88.4023
 1501.5000     8.6100    90.4685     2.5656     0.0009    -0.0109    89.4782
 1502.0000     8.6091    96.1369     2.5763     0.0009    -0.0178    88.9291
 1502.5000     8.6082   102.7128     2.5787     0.0055    -0.0159    88.6880
 1503.0000     8.6073   103.9464     2.5695     0.0118    -0.0143    92.7391
 1503.5000     8.6065   103.6293     2.5801     0.0181    -0.0186    94.5233
 1504.0000     8.6056   104.1885     2.5788     0.0208    -0.0207    92.0057
 1504.5000     8.6047   106.5189     2.5719     0.0117    -0.0151    88.8852
 1505.0000     8.6038   106.3175     2.5650     0.0027    -0.0104    88.0518
 1505.5000     8.6030   103.5648     2.5581     0.0010    -0.0075    91.0190
