~VERSION INFORMATION
 VERS.                2.0:   CWLS LOG ASCII STANDARD - VERSION 2.0
 WRAP.                 NO:   ONE LINE PER DEPTH STEP
~WELL INFORMATION
#MNEM.UNIT      DATA TYPE    INFORMATION
#----------   ------------   ------------------------------
 STRT.F           44.0000:   START DEPTH
 STOP.F          485.0000:   STOP DEPTH
 STEP.F            0.5000:   STEP LENGTH
 NULL.          -999.2500:   NO VALUE
 COMP. LAWRENCE/ALLISON INC:   COMPANY
 WELL.      NPR 3 #55-51S:   WELL
 FLD .             TEAPOT:   FIELD
 LOC .       S3 T38N R78W:   LOCATION
 CNTY.            NATRONA:   COUNTY
 STAT.            WYOMING:   STATE
 CTRY. UNITED STATES OF AMERICA:   COUNTRY
 SRVC.      Dresser Atlas:   SERVICE COMPANY
 DATE.        12-DEC-1983:   LOGDATE
 API .       490251095400:   API NUMBER
~CURVE INFORMATION
#MNEM.UNIT       API CODE    CURVE DESCRIPTION
#----------   ------------   ------------------------------
 DEPT.F                  :   
 CALR.IN     10 280 01 00:   CALIPER FROM RESISTIVITY
 RATI.CMP    99 420 01 00:   RATIO
 RES .OHMM   10 220 00 00:   RESISTIVITY
 DEC .       99 000 00 00:   DEC
 P6  .G/C3   99 000 00 00:   P6
 PHAS.       99 000 00 00:   PHASE
 PORE.DEC    99 890 00 00:   PORE
~PARAMETER INFORMATION
#MNEM.UNIT          VALUE    DESCRIPTION
#----------   ------------   ------------------------------
 PD  .                 GL:   PERMANENT DATUM
 EPD .F              5161:   ELEVATION PERMANENT DATUM
 LMF .                 KB:   LOG MEASURED FROM
 DAPD.F                10:   FEET ABOVE PERMANENT DATUM
 DMF .                 KB:   DRILLING MEASURED FROM
 EKB .F              5171:   KELLING BUSHING
 EGL .F              5161:   GROUND LEVEL
 DATE.        12-DEC-1983:   RUN DATE
 RUN .                  1:   RUN NUMBER
 DD  .F               490:   DEPTH DRILLER
 DL  .F               489:   DEPTH LOGGER
 BLI .F               487:   BOTTOM LOG INTERVAL
 TLI .F                 0:   TOP LOG INTERVAL
 CS  .IN            10.75:   CASING SIZE
 CBD .F                52:   CASING BOTTOM DRILLER
 CBL .F                46:   CASING BOTTOM LOGGER
 BS  .IN             8.75:   BIT SIZE
 BSD .F               490:   BIT SIZE AT DEPTH
 DFT .           AIR FOAM:   DRILLING FLUID TYPE
 TCS .HRS               3:   TIME CURCULATED STOPPED
 MRT .F                72:   MAXIMUM RECORDED TEMPERATURE
 LUN .               6274:   LOGGING UNIT NUMBER
 LUL .               GLTE:   LOGGING UNIT LOCATION
 ENGI.             RAUTIO:   RECORDING ENGINEER
 WITN.             GROOMS:   WITNESSED BY
 CLNT.            A2DTECH:   CLIENT CODE
 ORIG.           5" PRINT:   ORIGIN OF DATA
 UWI .       490251095400:   UNIQUE WELL ID
 DICO. A2D Technologies, Inc.:   DIGITIZING COMPANY
~OTHER INFORMATION
~A   DEPT      CALR        RATI        RES       DEC          P6      PHAS        PORE 
# ...
  180.5000     9.1952     0.3073     7.9396    28.1333     2.4425    71.9712     0.4632
  181.0000     9.2098     0.3044     7.9376    27.3811     2.4387    71.2129     0.4451
  181.5000     9.2243     0.3029     7.7071    26.1770     2.4334    69.8252     0.4270
  182.0000     9.2237     0.2856     7.2554    22.9398     2.4289    68.7476     0.4062
  182.5000     9.2231     0.2641     6.7236    20.3552     2.4243    69.1135     0.3718
  183.0000     9.2377     0.2477     5.9363    18.5527     2.4237    71.1035     0.3194
  183.5000     9.2522     0.2253     5.2051    15.9391     2.4291    72.3717     0.2406
  184.0000     9.2515     0.2058     4.7246    12.4760     2.4323    73.4595     0.1966
  184.5000     9.2509     0.1939     4.5954    11.9495     2.3664    75.9908     0.1514
  185.0000     9.2351     0.1970     4.5634    14.9624     2.3534    79.0635     0.1613
  185.5000     9.2345     0.2316     4.6617    24.7523     2.3443    85.0235     0.2722
  186.0000     9.2188     0.2498     5.4251    36.5001     2.3351    84.5473     0.4878
  186.5000     9.2182     0.2727     6.8134    35.5972     2.4050    79.7143     0.5537
  187.0000     9.2176     0.2890     6.9559    33.3389     2.4197    76.9195     0.5004
  187.5000     9.2170     0.2981     7.0522    32.8878     2.4351    76.5624     0.5030
  188.0000     9.2164     0.3012     7.0031    33.5050     2.4321    77.2905     0.5093
  188.5000     9.2157     0.2997     6.9544    33.9437     2.4268    77.8356     0.5147
  189.0000     9.2151     0.2983     6.9539    34.3209     2.4260    77.4798     0.5218
  189.5000     9.2145     0.2999     7.0503    35.6771     2.4315    78.0274     0.5380
  190.0000     9.2139     0.3045     7.2576    37.7109     2.4416    79.4761     0.5731
  190.5000     9.2133     0.3136     7.8739    38.9165     2.4488    79.4986     0.5866
  191.0000     9.2127     0.3244     8.0385    39.5949     2.4559    79.3057     0.5974
  191.5000     9.2121     0.3348     8.1498    40.7252     2.4617    79.3268     0.5991
  192.0000     9.2115     0.3409     8.2628    42.0814     2.4595    79.8900     0.5982
  192.5000     9.2109     0.3455     8.4353    42.4586     2.4472    80.0439     0.5990
  193.0000     9.2103     0.3486     8.4934    42.6099     2.4428    79.8672     0.5989
  193.5000     9.2097     0.3517     8.7309    42.6950     2.4475    79.5126     0.5980
  194.0000     9.2091     0.3578     9.0374    42.9881     2.4629    79.1567     0.5979
  194.5000     9.2084     0.3624     9.3547    43.4406     2.4760    78.9801     0.5988
  195.0000     9.1926     0.3685     9.8861    43.2908     2.4776    78.4450     0.5987
  195.5000     9.1846     0.3731    10.1626    43.0654     2.4761    78.0889     0.5987
  196.0000     9.1763     0.3779    10.2325    43.6688     2.4678    77.7332     0.5986
  196.5000     9.1757     0.3838    10.0911    44.8743     2.4241    79.0045     0.5977
  197.0000     9.1751     0.3809     9.8832    44.7997     2.4203    79.7285     0.5985
  197.5000     9.1897     0.3719     9.6797    43.8969     2.4181    79.1933     0.6000
  198.0000     9.1964     0.3647     9.3501    42.6175     2.4183    78.4765     0.6000
  198.5000     9.2036     0.3572     9.0318    40.6363     2.4254    77.7597     0.6000
  199.0000     9.2182     0.3498     8.6641    39.4122     2.4306    77.4026     0.5938
  199.5000     9.2023     0.3408     8.5446    37.8759     2.4368    76.8676     0.5676
  200.0000     9.2017     0.3333     8.4851    37.6505     2.4446    76.5117     0.5603
  200.5000     9.2011     0.3380     8.6027    37.7268     2.4509    76.5167     0.5711
  201.0000     9.2006     0.3439     8.8432    37.9534     2.4651    77.0631     0.5809
  201.5000     9.1999     0.3485     9.0906    37.8035     2.4908    76.1659     0.5746
  202.0000     9.1993     0.3500     9.3449    35.6205     2.4978    73.6241     0.5428
  202.5000     9.1988     0.3501     9.7401    33.8893     2.4886    72.1589     0.5077
  203.0000     9.1830     0.3516     9.8753    33.1371     2.4780    71.3088     0.5067
  203.5000     9.2127     0.3442     9.4079    32.6860     2.4673    70.7725     0.5022
  204.0000     9.2425     0.3277     8.7787    31.9789     2.4620    70.0570     0.4868
  204.5000     9.2419     0.3202     8.1330    28.1965     2.4552    69.5207     0.4570
  205.0000     9.2413     0.3036     7.7432    24.4053     2.4415    68.8039     0.3730
  205.5000     9.2406     0.2831     7.2821    20.7162     2.4308    67.5458     0.3377
  206.0000     9.2400     0.2579     6.6097    17.3284     2.4217    66.2877     0.2538
  206.5000     9.2394     0.2288     6.0411    12.2840     2.4133    63.9469     0.1355
  207.0000     9.2541     0.1988     5.6762     0.9142     2.4088    61.4256     0.0000
  207.5000     9.2534     0.1268     5.3592     0.0000     2.4027    57.3857     0.0000
  208.0000     9.2376     0.1043     4.8302     0.0000     2.3818    51.9854     0.0000
  208.5000     9.2370     0.1359     3.0386     9.3055     2.3470   120.0000     0.5973
  209.0000     9.2364     0.2035     2.9963    50.0000     2.3245   120.0000     0.5990
  209.5000     9.2814     0.2021     2.9957    50.0000     2.2972   120.0000     0.5990
  210.0000     9.2503     0.1976     2.9539    50.0000     2.2558   120.0000     0.5998
  210.5000     9.2346     0.1991     2.9126    50.0000     2.2214   120.0000     0.5998
  211.0000     9.2188     0.1992     2.8721    50.0000     2.2193   120.0000     0.6000
  211.5000     9.1879     0.2007     2.8914    50.0000     2.2316   120.0000     0.6000
  212.0000     9.1713     0.0957     3.1846     0.1688     2.2432    75.6018     0.5915
  212.5000     9.1715     0.1002     3.6562     0.0000     2.2570    81.1805     0.0000
  213.0000     9.1861     0.1303     3.9718    11.9925     2.2870    85.5424     0.2900
  213.5000     9.1853     0.1799     4.8192    30.2914     2.3660    87.3540     0.5011
  214.0000     9.2001     0.2655     6.1376    32.0241     2.3960    83.5715     0.5443
  214.5000     9.2147     0.2821     6.6693    32.1755     2.4261    77.8042     0.4983
  215.0000     9.1987     0.2868     6.9004    32.1762     2.4407    77.0876     0.4980
  215.5000     9.1830     0.2852     6.7104    32.2524     2.4399    77.0964     0.5054
  216.0000     9.1672     0.2852     6.5260    32.3284     2.4368    77.4644     0.5071
  216.5000     9.1666     0.2838     6.3467    32.4045     2.4346    77.8323     0.4990
  217.0000     9.1508     0.2793     6.3454    32.3297     2.4385    78.2021     0.4953
  217.5000     9.1654     0.2778     6.3442    32.4059     2.4408    78.5880     0.4925
  218.0000     9.1648     0.2764     6.4315    32.1055     2.4370    77.8552     0.4899
  218.5000     9.1794     0.2764     6.4351    29.0189     2.4325    75.1555     0.4704
  219.0000     9.1788     0.2615     5.9991    25.0286     2.4287    74.2603     0.4280
  219.5000     9.1781     0.2239     5.6749    22.9209     2.4241    73.7260     0.3774
  220.0000     9.1927     0.2129     5.4810    18.0421     2.4219    73.7330     0.3241
  220.5000     9.1769     0.1880     4.9400    12.6483     2.4204    74.2814     0.2618
  221.0000     9.1763     0.1671     4.4217     8.5408     2.4235    75.7321     0.1184
  221.5000     9.1909     0.1596     3.7190     1.9150     2.3923    78.9873     0.0015
  222.0000     9.1919     0.1672     3.6660     5.1537     2.3691    82.9642     0.0000
  222.5000     9.2049     0.1702     3.7190     6.8864     2.3722    81.1338     0.0008
  223.0000     9.2042     0.1747     3.9262     9.8239     2.3754    80.0911     0.0981
  223.5000     9.2036     0.1868     4.4170    13.6650     2.3823    81.0022     0.1937
  224.0000     9.2030     0.2259     4.9670    22.7018     2.3900    81.7310     0.2875
  224.5000     9.2024     0.2517     5.3584    28.4255     2.4031    82.2794     0.4101
  225.0000     9.2018     0.2625     5.8208    32.5678     2.4162    83.1887     0.5003
  225.5000     9.2164     0.2816     6.2796    37.2575     2.4362    85.3612     0.5652
