~VERSION INFORMATION
 VERS.                2.0:   CWLS LOG ASCII STANDARD - VERSION 2.0
 WRAP.                 NO:   ONE LINE PER DEPTH STEP
~WELL INFORMATION
#MNEM.UNIT      DATA TYPE    INFORMATION
#----------   ------------   ------------------------------
 STRT.F           30.0000:   START DEPTH
 STOP.F          634.0000:   STOP DEPTH
 STEP.F            0.5000:   STEP LENGTH
 NULL.          -999.2500:   NO VALUE
 COMP. FENIX & SCISSON INC:   COMPANY
 WELL.     26-S-11 #26-11:   WELL
 FLD .             TEAPOT:   FIELD
 LOC .      S11 T38N R78W:   LOCATION
 CNTY.            NATRONA:   COUNTY
 STAT.            WYOMING:   STATE
 CTRY. UNITED STATES OF AMERICA:   COUNTRY
 SRVC.              Welex:   SERVICE COMPANY
 DATE.        26-APR-1977:   LOGDATE
 API .       490251034300:   API NUMBER
~CURVE INFORMATION
#MNEM.UNIT       API CODE    CURVE DESCRIPTION
#----------   ------------   ------------------------------
 DEPT.F                  :   
 SPR .MV     07 010 01 00:   SPONTANEOUS POTENTIAL
 ILD .OHMM   07 120 46 00:   INDUCTION LOG DEEP
 ILM .OHMM   07 120 44 00:   INDUCTION LOG MEDIUM
 SGRD.OHMM   07 221 05 00:   SHALLOW SHORT GUARD RESISTIVITY
 CALD.IN     45 280 60 00:   CALIPER FROM DENSITY LOG
 GRD .GAPI   45 310 01 00:   GAMMA RAY FROM DENSITY LOG
 CORR.G/C3   45 356 01 00:   DENSITY CORRECTION
 DPHI.DEC    45 890 12 00:   DENSITY POROSITY SANDSTONE
 RHOB.G/C3   45 350 01 00:   BULK DENSITY
~PARAMETER INFORMATION
#MNEM.UNIT          VALUE    DESCRIPTION
#----------   ------------   ------------------------------
 PD  .                 GL:   PERMANENT DATUM
 EPD .F              5179:   ELEVATION PERMANENT DATUM
 LMF .                 GL:   LOG MEASURED FROM
 DMF .                 GL:   DRILLING MEASURED FROM
 EGL .F              5179:   GROUND LEVEL
 DATE.          4-24-1977:   RUN DATE
 RUN .                  1:   RUN NUMBER
 DD  .F               645:   DEPTH DRILLER
 DL  .F               634:   DEPTH LOGGER
 BLI .F               632:   BOTTOM LOG INTERVAL
 TLI .F                40:   TOP LOG INTERVAL
 CS  .IN            8.625:   CASING SIZE
 CBD .F                40:   CASING BOTTOM DRILLER
 CBL .F                42:   CASING BOTTOM LOGGER
 BS  .IN            7.875:   BIT SIZE
 BSD .F               645:   BIT SIZE AT DEPTH
 DFT .            KCL MUD:   DRILLING FLUID TYPE
 DFD .                8.8:   DRILLING FLUID DENSITY
 DFV .                 33:   DRILLING FLUID VISCOSITY
 DFPH.                7.5:   DRILLING FLUID PH
 DFL .                 96:   DRILLING FLUID LOSS
 MSS .           FLOWLINE:   MUD SAMPLE SOURCE
 RMS .OHMM            .17:   RESISTIVITY MUD SAMPLE
 MST .F                81:   MUD SAMPLE TEMPERATURE
 RMF .OHMM            .16:   RESISTIVITY MUD FILTRATE SAMPLE
 MFST.F                81:   MUD FILTRATE SAMPLE TEMPERATURE
 RMC .OHMM            .21:   RESISTIVITY MUD CAKE
 MCST.F                81:   MUD CAKE SAMPLE TEMPERATURE
 MFSS.           FANN KIT:   MUD FILTRATE SAMPLE SOURCE
 MCSS.           FANN KIT:   MUD CAKE SAMPLE SOURCE
 RMB .OHMM            .19:   RESISTIVITY MUD AT BHT
 BHT .F                72:   BOTTOM HOLE TEMPERATURE
 TCS .HRS             1.5:   TIME CURCULATED STOPPED
 MRT .F                72:   MAXIMUM RECORDED TEMPERATURE
 LUN .                861:   LOGGING UNIT NUMBER
 LUL .           GILLETTE:   LOGGING UNIT LOCATION
 ENGI.             JOYNER:   RECORDING ENGINEER
 WITN.           ROB LYON:   WITNESSED BY
 CLNT.            A2DTECH:   CLIENT CODE
 ORIG.         2.5" PRINT:   ORIGIN OF DATA
 UWI .       490251034300:   UNIQUE WELL ID
 DICO. A2D Technologies, Inc.:   DIGITIZING COMPANY
~OTHER INFORMATION
~A   DEPT      SPR        ILD        ILM       SGRD       CALD        GRD       CORR       DPHI       RHOB   
# ...
  176.0000   -27.8792     6.8665     7.6828    11.5736     7.9181   124.4282     0.0249     0.1067     2.4985
  176.5000   -27.8837     6.8660     7.5752    11.6068     7.9183   126.4531     0.0221     0.1079     2.4910
  177.0000   -27.8882     6.6757     7.4691    11.4067     7.9185   128.1633     0.0220     0.1097     2.4836
  177.5000   -27.8928     6.6753     7.3991    11.0871     7.9187   128.4312     0.0217     0.1121     2.4791
  178.0000   -28.0704     6.6748     7.2614    10.7765     7.9189   125.4957     0.0187     0.1144     2.4762
  178.5000   -28.2048     6.6743     7.1933    10.6233     7.9192   127.0220     0.0159     0.1150     2.4760
  179.0000   -28.5113     6.6739     7.1597    10.4723     7.9194   127.8359     0.0158     0.1115     2.4835
  179.5000   -28.5158     6.6734     7.0925    10.3235     7.9196   126.0533     0.0158     0.1079     2.4924
  180.0000   -28.5202     6.6729     7.0925    10.3213     7.9198   125.4643     0.0157     0.1062     2.4988
  180.5000   -28.5247     6.7667     7.0925    10.3191     7.9200   124.8944     0.0159     0.1074     2.4997
  181.0000   -28.5291     6.8617     7.0925    10.4635     7.9202   124.8915     0.0186     0.1080     2.4982
  181.5000   -28.5336     6.8612     7.0925    10.9135     7.9205   124.8705     0.0155     0.1080     2.5000
  182.0000   -28.5380     6.9576     7.1933    11.3828     7.9207   124.2991     0.0155     0.1068     2.4984
  182.5000   -28.5424     7.0554     7.1933    11.7060     7.9209   126.7620     0.0153     0.1074     2.4842
  183.0000   -28.5469     7.0548     7.1933    11.5396     7.9211   128.9854     0.0124     0.1104     2.4698
  183.5000   -28.5513     7.1540     7.2954    11.2163     7.9225   123.5748     0.0123     0.1145     2.4583
  184.0000   -28.5559     7.2544     7.3300    10.9020     7.9240   119.7948     0.0123     0.1175     2.4536
  184.5000   -28.5604     7.2539     7.3991    11.2116     7.9254   116.0279     0.0121     0.1134     2.4699
  185.0000   -28.5650     7.2534     7.3991    11.5299     7.9268   113.9736     0.0092     0.1146     2.4578
  185.5000   -28.8716     7.2529     7.4341    11.5275     7.9283   113.1350     0.0062     0.1181     2.4512
  186.0000   -28.8762     7.2524     7.5042    11.3626     7.9297   115.5328     0.0031     0.1199     2.4476
  186.5000   -28.8807     7.2519     7.5042    11.2021     7.9311   116.9414     0.0031     0.1128     2.4659
  187.0000   -28.8852     7.2514     7.5042    11.0429     7.9326   115.4213     0.0030     0.1099     2.4771
  187.5000   -28.8897     7.3532     7.5042    11.0405     7.9340   113.0865     0.0000     0.1093     2.4699
  188.0000   -28.8943     7.4565     7.5397    11.0382     7.9354   111.9473    -0.0001     0.1117     2.4652
  188.5000   -28.8988     7.4560     7.6108    11.0358     7.9369   115.2263    -0.0001     0.1117     2.4665
  189.0000   -28.9033     7.6675     7.6108    11.0335     7.9383   115.4605    -0.0002     0.1099     2.4758
  189.5000   -28.9079     7.7752     7.7189    11.0312     7.9397   111.8871    -0.0002     0.1040     2.4891
  190.0000   -28.9124     7.8844     7.8285    11.2014     7.9412   110.1760    -0.0003     0.0986     2.4990
  190.5000   -28.9169     8.1080     7.9397    11.5214     7.9426   113.4267    -0.0004     0.1034     2.4911
  191.0000   -28.9223     8.2219     8.0525    12.2111     7.9440   114.8797    -0.0004     0.1105     2.4711
  191.5000   -28.6238     8.2213     8.2055    13.1569     7.9455   115.7556    -0.0005     0.1129     2.4613
  192.0000   -28.6291     8.2207     8.2829    14.9446     7.9469   116.0294     0.0024     0.1159     2.4531
  192.5000   -28.3314     8.2202     8.2829    16.1239     7.9483   114.2375     0.0053     0.1094     2.4648
  193.0000   -28.3359     8.1052     8.2829    12.9245     7.9498   112.1974     0.0082     0.1046     2.4713
  193.5000   -28.3403     8.1046     8.2829    11.7574     7.9512   110.7165     0.0082     0.0993     2.4742
  194.0000   -28.3447     8.1040     8.2829    11.2946     7.9526   108.3636     0.0111     0.1082     2.4767
  194.5000   -28.3492     7.9907     8.1669    11.1643     7.9540   105.4360     0.0110     0.1153     2.4723
  195.0000   -28.6557     7.8789     8.0525    11.1619     7.9555   108.4557     0.0110     0.1136     2.4648
  195.5000   -28.6602     7.8783     8.0149    11.1595     7.9569   113.9868     0.0109     0.1094     2.4687
  196.0000   -28.6646     7.7681     7.9026    11.1571     7.9583   117.1945     0.0109     0.1165     2.4741
  196.5000   -28.6692     7.7675     7.8285    11.3136     7.9598   119.8153     0.0108     0.1094     2.4726
  197.0000   -28.7019     7.7670     7.8285    11.2273     7.9612   117.7595     0.0107     0.1136     2.4686
  197.5000   -28.9804     7.6583     7.7189    11.3795     7.9626   118.6485     0.0107     0.1154     2.4632
  198.0000   -28.9849     7.6578     7.7189    11.5339     7.9641   121.2727     0.0106     0.1166     2.4523
  198.5000   -28.9895     7.6573     7.7189    11.5323     7.9655   120.0938     0.0106     0.1178     2.4513
  199.0000   -28.9940     7.5501     7.7189    11.5307     7.9658   119.3112     0.0105     0.1178     2.4542
  199.5000   -28.9985     7.4445     7.7189    11.5292     7.9652   118.9169     0.0104     0.1166     2.4611
  200.0000   -29.0030     7.4440     7.6108    11.3718     7.9649   118.0352     0.0134     0.1131     2.4670
  200.5000   -29.2045     7.3404     7.5031    11.2167     7.9655   120.4657     0.0157     0.1081     2.4734
  201.0000   -29.9159     7.2382     7.5021    11.0636     7.9661   119.9570     0.0180     0.1019     2.4763
  201.5000   -29.9189     7.2382     7.3959    11.0621     7.9667   118.6134     0.0193     0.1029     2.4777
  202.0000   -29.9219     7.1374     7.3949    11.0556     7.9672   121.5836     0.0221     0.1090     2.4672
  202.5000   -29.9249     7.1374     7.3939    10.9097     7.9678   120.7234     0.0220     0.1113     2.4643
  203.0000   -29.3237     7.1374     7.3928    10.9082     7.9684   119.8338     0.0220     0.1074     2.4763
  203.5000   -29.0245     7.2382     7.4402    10.9067     7.9689   118.7727     0.0219     0.1022     2.4818
  204.0000   -28.7254     7.2382     7.4957    10.7578     7.9695   117.3431     0.0219     0.0972     2.4835
  204.5000   -28.7284     7.2382     7.4946    10.7563     7.9701   116.2493     0.0219     0.0973     2.4829
  205.0000   -28.7314     7.3404     7.6000    10.7549     7.9706   117.2287     0.0218     0.0984     2.4820
  205.5000   -28.7344     7.4440     7.6567    10.7534     7.9712   119.2889     0.0221     0.0948     2.4876
  206.0000   -28.7375     7.4650     7.8153    10.8993     7.9718   121.7810     0.0247     0.0929     2.4944
  206.5000   -28.7405     7.6557     7.8776    10.9139     7.9723   121.8270     0.0246     0.0941     2.4924
  207.0000   -28.7435     7.6557     7.9241    11.0632     7.9729   120.3402     0.0246     0.0971     2.4871
  207.5000   -28.7465     7.7637     7.9227    11.1954     7.9735   122.6931     0.0246     0.0980     2.4826
  208.0000   -29.0516     7.7349     7.9216    11.0226     7.9740   121.9062     0.0245     0.0992     2.4818
  208.5000   -29.0546     7.6557     8.0332    10.8918     7.9746   118.7092     0.0239     0.1004     2.4817
  209.0000   -29.0576     7.6557     8.0319    10.8904     7.9751   117.8231     0.0215     0.1016     2.4817
  209.5000   -29.0606     7.6557     7.9183    10.8889     7.9757   118.3695     0.0214     0.1042     2.4795
  210.0000   -29.0636     7.6557     7.9172    10.7403     7.9763   122.4535     0.0207     0.1096     2.4728
  210.5000   -29.0666     7.6557     7.8052    10.7388     7.9768   124.1779     0.0184     0.1123     2.4653
  211.0000   -29.0696     7.6557     7.8041    10.7374     7.9774   124.7155     0.0153     0.1153     2.4609
  211.5000   -29.0726     7.6557     7.8030    10.7359     7.9780   124.4188     0.0123     0.1152     2.4609
  212.0000   -29.0756     7.6557     7.8019    10.8816     7.9785   122.0698     0.0093     0.1122     2.4608
