~VERSION INFORMATION
 VERS.                2.0:   CWLS LOG ASCII STANDARD - VERSION 2.0
 WRAP.                 NO:   ONE LINE PER DEPTH STEP
~WELL INFORMATION
#MNEM.UNIT      DATA TYPE    INFORMATION
#----------   ------------   ------------------------------
 STRT.F           70.0000:   START DEPTH
 STOP.F         1236.0000:   STOP DEPTH
 STEP.F            0.5000:   STEP LENGTH
 NULL.          -999.2500:   NO VALUE
 COMP. U S NAVY/INTEX OIL CO:   COMPANY
 WELL. NAVAL PETROLEUM TE ##3 75S-11:   WELL
 FLD .             TEAPOT:   FIELD
 LOC .      S11 T38N R78W:   LOCATION
 CNTY.            NATRONA:   COUNTY
 STAT.            WYOMING:   STATE
 CTRY. UNITED STATES OF AMERICA:   COUNTRY
 SRVC.         Lane Wells:   SERVICE COMPANY
 DATE.        04-MAR-1960:   LOGDATE
 API .       490250633900:   API NUMBER
~CURVE INFORMATION
#MNEM.UNIT       API CODE    CURVE DESCRIPTION
#----------   ------------   ------------------------------
 DEPT.F                  :   
 GR  .GAPI   30 310 01 00:   GAMMA RAY
 SPR .MV     05 010 01 00:   SPONTANEOUS POTENTIAL FROM RES.
 ILD .OHMM   05 120 46 00:   INDUCTION LOG DEEP
 CILD.MMHO   05 110 46 00:   CONDUCTIVITY INDUCTION LOG DEEP
 ASN .OHMM   05 041 18 00:   AMPLIFIED SHORT NORMAL 18"
~PARAMETER INFORMATION
#MNEM.UNIT          VALUE    DESCRIPTION
#----------   ------------   ------------------------------
 PD  .                 GL:   PERMANENT DATUM
 EPD .F              5252:   ELEVATION PERMANENT DATUM
 LMF .                 KB:   LOG MEASURED FROM
 DAPD.F                 5:   FEET ABOVE PERMANENT DATUM
 DMF .                 KB:   DRILLING MEASURED FROM
 EKB .F              5257:   KELLING BUSHING
 EGL .F              5252:   GROUND LEVEL
 DATE.             3-4-60:   RUN DATE
 RUN .                  1:   RUN NUMBER
 DD  .F              1239:   DEPTH DRILLER
 DL  .F              1238:   DEPTH LOGGER
 BLI .F              1236:   BOTTOM LOG INTERVAL
 TLI .F                70:   TOP LOG INTERVAL
 CS  .IN            8.625:   CASING SIZE
 CBD .F                12:   CASING BOTTOM DRILLER
 BS  .IN            7.875:   BIT SIZE
 BSD .F              1239:   BIT SIZE AT DEPTH
 DFT .                GEL:   DRILLING FLUID TYPE
 DFD .                9.2:   DRILLING FLUID DENSITY
 DFV .                 34:   DRILLING FLUID VISCOSITY
 DFPH.                7.5:   DRILLING FLUID PH
 DFL .                8.5:   DRILLING FLUID LOSS
 MSS .                PIT:   MUD SAMPLE SOURCE
 RMS .OHMM              3:   RESISTIVITY MUD SAMPLE
 MST .F                52:   MUD SAMPLE TEMPERATURE
 RMF .OHMM            2.8:   RESISTIVITY MUD FILTRATE SAMPLE
 MFST.F                55:   MUD FILTRATE SAMPLE TEMPERATURE
 RMC .OHMM            3.3:   RESISTIVITY MUD CAKE
 MCST.F                55:   MUD CAKE SAMPLE TEMPERATURE
 MFSS.                MUD:   MUD FILTRATE SAMPLE SOURCE
 MCSS.              PRESS:   MUD CAKE SAMPLE SOURCE
 RMB .OHMM            2.2:   RESISTIVITY MUD AT BHT
 BHT .F                77:   BOTTOM HOLE TEMPERATURE
 TCS .HRS              .5:   TIME CURCULATED STOPPED
 MRT .F                77:   MAXIMUM RECORDED TEMPERATURE
 LUN .               4474:   LOGGING UNIT NUMBER
 LUL .             CASPER:   LOGGING UNIT LOCATION
 ENGI.      GRIGGS/NELSON:   RECORDING ENGINEER
 WITN.  JORGENSEN/HOLLAND:   WITNESSED BY
 CLNT.            A2DTECH:   CLIENT CODE
 ORIG.       2", 5" PRINT:   ORIGIN OF DATA
 UWI .       490250633900:   UNIQUE WELL ID
 DICO. A2D Technologies, Inc.:   DIGITIZING COMPANY
~OTHER INFORMATION
~A   DEPT       GR        SPR          ILD      CILD         ASN 
# ...
  436.0000  -999.2500   -37.5851     5.9602   176.6521     7.1495
  436.5000  -999.2500   -37.5512     5.9939   176.1819     7.1455
  437.0000  -999.2500   -37.5173     6.0277   174.1076     7.1610
  437.5000  -999.2500   -37.4833     6.0614   172.0334     7.1824
  438.0000  -999.2500   -37.4492     6.0965   169.9591     7.3426
  438.5000  -999.2500   -37.4129     6.1904   167.8849     7.5148
  439.0000  -999.2500   -37.4790     6.3556   165.8106     7.6870
  439.5000  -999.2500   -37.5676     6.5200   163.7364     7.8590
  440.0000  -999.2500   -37.6567     6.6849   161.6622     8.0311
  440.5000  -999.2500   -37.7456     6.8378   159.5879     8.2026
  441.0000  -999.2500   -37.8345     6.8875   157.5130     8.3641
  441.5000  -999.2500   -37.9233     6.9337   155.4365     8.4902
  442.0000  -999.2500   -38.0122     6.9796   153.3652     8.6113
  442.5000  -999.2500   -38.1012     7.0206   151.6206     8.7318
  443.0000  -999.2500   -38.1900     6.9628   151.6206     8.8331
  443.5000  -999.2500   -38.2789     6.8813   151.6206     8.7750
  444.0000  -999.2500   -38.2246     6.7989   151.6206     8.5746
  444.5000  -999.2500   -38.0269     6.7165   153.8013     8.3766
  445.0000  -999.2500   -37.8295     6.6342   156.7613     8.1790
  445.5000  -999.2500   -37.6317     6.5519   159.7268     7.9815
  446.0000  -999.2500   -37.4342     6.4695   162.6909     7.7839
  446.5000  -999.2500   -37.2365     6.3871   165.6548     7.5862
  447.0000  -999.2500   -37.0385     6.3056   168.6174     7.3885
  447.5000  -999.2500   -36.8410     6.2618   171.5806     7.1928
  448.0000  -999.2500   -36.6721     6.2248   173.6031     7.0992
  448.5000  -999.2500   -36.6759     6.1879   174.2204     7.1712
  449.0000  -999.2500   -36.6728     6.1512   174.8378     7.2410
  449.5000  -999.2500   -36.8682     6.1118   175.4551     7.3121
  450.0000  -999.2500   -37.1342     6.0085   176.0724     7.3755
  450.5000  -999.2500   -37.4001     5.9010   176.6898     7.2627
  451.0000  -999.2500   -37.5911     5.7937   178.8207     7.1424
  451.5000  -999.2500   -37.5689     5.6864   182.2737     7.0228
  452.0000  -999.2500   -37.5510     5.5792   185.7335     6.9034
  452.5000  -999.2500   -37.5331     5.4720   189.1919     6.7841
  453.0000  -999.2500   -37.5153     5.3647   192.6501     6.6647
  453.5000  -999.2500   -37.4976     5.2575   196.1102     6.5454
  454.0000  -999.2500   -37.4798     5.1490   199.5587     6.4260
  454.5000  -999.2500   -37.4620     5.1171   202.3814     6.3079
  455.0000  -999.2500   -37.4445     5.1166   202.6129     6.1923
  455.5000  -999.2500   -37.4276     5.1167   202.8444     6.1972
  456.0000  -999.2500   -37.4042     5.1168   203.0759     6.2374
  456.5000  -999.2500   -37.2248     5.1168   203.3074     6.2786
  457.0000  -999.2500   -37.0374     5.1168   203.5382     6.3197
  457.5000  -999.2500   -36.8501     5.1170   203.7704     6.3613
  458.0000  -999.2500   -36.6626     5.1086   204.0019     6.3150
  458.5000  -999.2500   -36.4987     5.0989   205.0705     6.2172
  459.0000  -999.2500   -36.5704     5.0891   207.5352     6.1198
  459.5000  -999.2500   -36.6436     5.0793   210.0077     6.0225
  460.0000  -999.2500   -36.7155     5.0696   212.4800     5.9461
  460.5000  -999.2500   -36.7873     5.0598   214.9479     5.8970
  461.0000  -999.2500   -36.8591     5.0501   217.4172     5.8475
  461.5000  -999.2500   -36.9308     5.0404   219.0534     5.8393
  462.0000  -999.2500   -37.0026     5.0305   219.8765     5.8695
  462.5000  -999.2500   -37.0743     5.0327   220.6996     5.9009
  463.0000  -999.2500   -37.1461     5.0441   221.5227     5.8745
  463.5000  -999.2500   -37.2180     5.0557   222.2593     5.8069
  464.0000  -999.2500   -37.2900     5.0673   222.7479     5.7399
  464.5000  -999.2500   -37.3603     5.0789   226.7272     5.6190
  465.0000  -999.2500   -37.3721     5.0905   230.6981     5.4719
  465.5000  -999.2500   -37.2581     5.1021   234.6696     5.3255
  466.0000  -999.2500   -37.1463     5.1144   238.6382     5.1902
  466.5000  -999.2500   -37.0343     5.0988   242.6067     5.0543
  467.0000  -999.2500   -36.9223     5.0742   246.5753     4.9183
  467.5000  -999.2500   -36.8104     5.0495   249.9488     4.7807
  468.0000  -999.2500   -36.6984     5.0248   251.8008     4.7244
  468.5000  -999.2500   -36.5863     5.0000   253.6528     4.7170
  469.0000  -999.2500   -36.4747     4.9753   254.8618     4.7483
  469.5000  -999.2500   -36.3621     4.9509   254.8618     4.7830
  470.0000  -999.2500   -36.3331     4.9426   254.8618     4.8179
  470.5000  -999.2500   -36.3713     4.9615   254.8618     4.8527
  471.0000  -999.2500   -36.4106     4.9799   252.7222     4.8874
  471.5000  -999.2500   -36.4500     4.9985   250.4072     4.9221
  472.0000  -999.2500   -36.4893     5.0170   248.0922     4.9568
  472.5000  -999.2500   -36.5286     5.0355   245.8055     4.9915
  473.0000  -999.2500   -36.5678     5.0540   244.9128     5.0263
  473.5000  -999.2500   -36.6070     5.0725   244.0309     5.0610
  474.0000  -999.2500   -36.6464     5.0911   243.1490     5.0957
  474.5000  -999.2500   -36.6947     5.1090   242.2671     5.1304
  475.0000  -999.2500   -36.7823     5.1739   241.3852     5.1652
  475.5000  -999.2500   -36.8685     5.2659   240.5033     5.1999
  476.0000  -999.2500   -36.9546     5.3586   239.6214     5.2347
  476.5000  -999.2500   -37.0409     5.4524   238.7395     5.2699
  477.0000  -999.2500   -37.1273     5.4784   237.8576     5.2732
  477.5000  -999.2500   -37.2131     5.4971   236.9757     5.2641
  478.0000  -999.2500   -37.1819     5.5215   236.7493     5.2548
  478.5000  -999.2500   -37.0563     5.5462   236.7493     5.2455
  479.0000  -999.2500   -36.9318     5.5709   236.7493     5.2362
  479.5000  -999.2500   -36.8073     5.5956   236.7493     5.2264
  480.0000  -999.2500   -36.6829     5.6203   236.7493     5.2425
  480.5000  -999.2500   -36.5582     5.6448   236.7478     5.2631
  481.0000  -999.2500   -36.4326     5.6602   236.7493     5.2838
  481.5000  -999.2500   -36.3177     5.6630   236.7493     5.3043
  482.0000  -999.2500   -36.4225     5.7429   238.4519     5.3084
  482.5000  -999.2500   -36.5357     5.5201   240.3039     5.2879
  483.0000  -999.2500   -36.6484     5.2719   242.1559     5.1883
  483.5000  -999.2500   -36.7606     5.0244   243.9943     4.9929
  484.0000  -999.2500   -36.8563     4.7775   254.1702     4.7632
  484.5000  -999.2500   -36.7943     4.5305   264.2720     4.4955
  485.0000  -999.2500   -36.7340     4.2836   274.3739     4.2295
  485.5000  -999.2500   -36.6742     4.0359   284.4757     3.9627
  486.0000  -999.2500   -36.6145     3.7887   294.5775     3.6962
  486.5000  -999.2500   -36.5548     3.5708   300.6592     3.4560
  487.0000  -999.2500   -36.4951     3.5920   304.3632     3.4851
  487.5000  -999.2500   -36.4354     3.6978   304.9541     3.7230
  488.0000  -999.2500   -36.3757     3.8023   304.0281     3.9592
  488.5000  -999.2500   -36.3159     3.9065   296.3737     4.1948
  489.0000  -999.2500   -36.2562     4.0107   286.0554     4.4304
  489.5000  -999.2500   -36.1966     4.1149   275.7371     4.6661
  490.0000  -999.2500   -36.1392     4.2190   265.4188     4.8989
  490.5000  -999.2500   -36.0231     4.3228   255.1005     5.0963
  491.0000  -999.2500   -35.9537     4.4463   244.7822     5.1966
  491.5000  -999.2500   -35.9797     4.6089   234.4639     5.2994
  492.0000  -999.2500   -36.0043     4.7712   224.1865     5.4016
  492.5000  -999.2500   -36.0293     4.9326   219.7417     5.5039
  493.0000  -999.2500   -36.0541     5.0357   215.2968     5.6062
  493.5000  -999.2500   -36.0786     5.0555   210.8521     5.7085
  494.0000  -999.2500   -36.1019     5.0762   206.4072     5.8108
  494.5000  -999.2500   -36.1384     5.0967   202.3265     5.9133
  495.0000  -999.2500   -36.4329     5.1173   200.5243     6.0161
  495.5000  -999.2500   -36.7357     5.1379   200.5243     6.1118
  496.0000  -999.2500   -36.8061     5.1585   200.5243     6.1106
  496.5000  -999.2500   -36.7201     5.1790   201.8435     6.0422
