~VERSION INFORMATION
 VERS.                2.0:   CWLS LOG ASCII STANDARD - VERSION 2.0
 WRAP.                 NO:   ONE LINE PER DEPTH STEP
~WELL INFORMATION
#MNEM.UNIT      DATA TYPE    INFORMATION
#----------   ------------   ------------------------------
 STRT.F           30.0000:   START DEPTH
 STOP.F          732.0000:   STOP DEPTH
 STEP.F            0.5000:   STEP LENGTH
 NULL.          -999.2500:   NO VALUE
 COMP. FENIX & SCISSON INC:   COMPANY
 WELL.        31-S #31-14:   WELL
 FLD .             TEAPOT:   FIELD
 LOC .      S14 T38N R78W:   LOCATION
 CNTY.            NATRONA:   COUNTY
 STAT.            WYOMING:   STATE
 CTRY. UNITED STATES OF AMERICA:   COUNTRY
 SRVC.              Welex:   SERVICE COMPANY
 DATE.        16-FEB-1977:   LOGDATE
 API .       490251027300:   API NUMBER
~CURVE INFORMATION
#MNEM.UNIT       API CODE    CURVE DESCRIPTION
#----------   ------------   ------------------------------
 DEPT.F                  :   
 CALD.IN     45 280 60 00:   CALIPER FROM DENSITY LOG
 CORR.G/C3   45 356 01 00:   DENSITY CORRECTION
 DPHI.DEC    45 890 12 00:   DENSITY POROSITY SANDSTONE
 GRD .GAPI   45 310 01 00:   GAMMA RAY FROM DENSITY LOG
 RHOB.G/C3   45 350 01 00:   BULK DENSITY
 GURD.OHMM   07 270 05 00:   SHALLOW SHORT GUARD RESISTIVITY
 ILM .OHMM   07 120 44 00:   INDUCTION LOG MEDIUM
 ILD .OHMM   07 120 46 00:   INDUCTION LOG DEEP
 SPR .MV     07 010 01 00:   SPONTANEOUS POTENTIAL
~PARAMETER INFORMATION
#MNEM.UNIT          VALUE    DESCRIPTION
#----------   ------------   ------------------------------
 PD  .                 GL:   PERMANENT DATUM
 EPD .F              5186:   ELEVATION PERMANENT DATUM
 LMF .                 GL:   LOG MEASURED FROM
 DMF .                 GL:   DRILLING MEASURED FROM
 EKB .F              5195:   KELLING BUSHING
 EGL .F              5186:   GROUND LEVEL
 DATE.        16-FEB-1977:   RUN DATE
 RUN .                  1:   RUN NUMBER
 DD  .F               740:   DEPTH DRILLER
 DL  .F               736:   DEPTH LOGGER
 BLI .F               734:   BOTTOM LOG INTERVAL
 TLI .F                30:   TOP LOG INTERVAL
 CS  .IN            8.625:   CASING SIZE
 CBD .F                40:   CASING BOTTOM DRILLER
 CBL .F                44:   CASING BOTTOM LOGGER
 BS  .IN            7.875:   BIT SIZE
 BSD .F               740:   BIT SIZE AT DEPTH
 DFT .   OIL EMULSION MUD:   DRILLING FLUID TYPE
 DFD .                8.3:   DRILLING FLUID DENSITY
 DFV .                 48:   DRILLING FLUID VISCOSITY
 DFPH.               10.5:   DRILLING FLUID PH
 DFL .                7.5:   DRILLING FLUID LOSS
 MSS .           FLOWLINE:   MUD SAMPLE SOURCE
 RMS .OHMM           0.80:   RESISTIVITY MUD SAMPLE
 MST .F                64:   MUD SAMPLE TEMPERATURE
 RMF .OHMM           0.68:   RESISTIVITY MUD FILTRATE SAMPLE
 MFST.F                64:   MUD FILTRATE SAMPLE TEMPERATURE
 RMC .OHMM           1.01:   RESISTIVITY MUD CAKE
 MCST.F                63:   MUD CAKE SAMPLE TEMPERATURE
 MFSS.               MEAS:   MUD FILTRATE SAMPLE SOURCE
 MCSS.               MEAS:   MUD CAKE SAMPLE SOURCE
 RMB .OHMM           0.74:   RESISTIVITY MUD AT BHT
 BHT .F                69:   BOTTOM HOLE TEMPERATURE
 TCS .HRS               5:   TIME CURCULATED STOPPED
 MRT .F                69:   MAXIMUM RECORDED TEMPERATURE
 LUN .               8611:   LOGGING UNIT NUMBER
 LUL .           GILLETTE:   LOGGING UNIT LOCATION
 ENGI.           D.LAWSON:   RECORDING ENGINEER
 WITN.             K.JAPP:   WITNESSED BY
 CLNT.            A2DTECH:   CLIENT CODE
 ORIG.         2.5" PRINT:   ORIGIN OF DATA
 UWI .       490251027300:   UNIQUE WELL ID
 DICO. A2D Technologies, Inc.:   DIGITIZING COMPANY
~OTHER INFORMATION
~A   DEPT       CALD      CORR      DPHI         GRD        RHOB     GURD        ILM        ILD        SPR   
   30.0000     7.0688    -0.3304  -999.2500    92.7300     2.0464  -999.2500  -999.2500  -999.2500  -999.2500
   30.5000     7.0730    -0.3274  -999.2500    93.6202     2.0449  -999.2500  -999.2500  -999.2500  -999.2500
   31.0000     7.0771    -0.3246  -999.2500    94.5104     2.0420  -999.2500  -999.2500  -999.2500  -999.2500
   31.5000     7.0813    -0.3157  -999.2500    95.4164     2.0375  -999.2500  -999.2500  -999.2500  -999.2500
   32.0000     7.0854    -0.3064  -999.2500    95.9941     2.0264     2.9287  1921.9716  1928.7197  -999.2500
   32.5000     7.0891    -0.2939  -999.2500    95.9941     1.9886     3.1686  1920.8179  1928.5579   -15.3338
   33.0000     7.0884    -0.2792  -999.2500    95.8833     1.9366     3.4085  1919.6641  1928.2932   -15.6731
   33.5000     7.0878    -0.2701  -999.2500    94.9733     1.8805     3.6484  1918.5104  1927.9777   -15.9245
   34.0000     7.0871    -0.2625  -999.2500    91.2463     1.8353     3.8883  1917.3566  1927.7272   -16.2198
   34.5000     7.3240    -0.2594  -999.2500    87.0920     1.7935     4.1282  1916.2029  1927.4768   -16.2181
   35.0000     8.1246    -0.2685  -999.2500    82.9377     1.7340     4.3681  1915.0491  1927.2264   -16.5131
   35.5000     8.0943    -0.2776  -999.2500    78.1899     1.6699     4.6080  1913.8954  1926.9702   -16.5117
   36.0000     8.0641    -0.2836  -999.2500    74.3165     1.6039     4.8479  1912.7416  1926.7058   -16.5103
   36.5000     8.0338    -0.2777  -999.2500    71.8516     1.6262     5.0878  1911.5879  1926.4413   -16.8056
   37.0000     8.0332    -0.2715  -999.2500    70.7043     1.6738     5.3277  1910.4342  1899.9182   -17.1009
   37.5000     8.0326    -0.2625  -999.2500    70.1780     1.7110     5.5675  1909.2804  1899.6575   -17.4394
   38.0000     8.0479    -0.2533  -999.2500    70.6053     1.7396     5.8074  1908.1267  1899.3490   -17.7676
   38.5000     8.0611    -0.2460  -999.2500    71.6894     1.7693     6.0473  1906.9729  1899.1023   -18.3924
   39.0000     8.0605    -0.2349  -999.2500    73.1454     1.7979     6.2872  1905.8192  1898.8556   -19.0173
   39.5000     8.0599    -0.2253  -999.2500    74.3323     1.8470    18.0820  1904.6654  1924.8496   -20.0605
   40.0000     8.0593    -0.2066  -999.2500    74.9258     1.8918    15.1016  1903.5481  1924.5912   -20.9493
   40.5000     8.0588    -0.1857  -999.2500    74.9258     1.9321    15.1016  1904.3568  1924.3270   -21.8381
   41.0000     8.0582    -0.1589  -999.2500    74.6291     2.0159    14.0486  1905.1412  1924.0630   -23.6172
   41.5000     8.0576    -0.1231  -999.2500    74.9812     2.0592    12.1213  1905.9259  1923.7988   -25.7315
   42.0000     8.0570    -0.0860  -999.2500    75.6934     2.0825    12.1213  1906.7108  1923.5348   -27.9387
   42.5000     8.0266    -0.0474  -999.2500    77.1810     2.1095    12.1213  1907.6324  1871.1456   -30.1459
   43.0000     7.9964    -0.0040     0.2935    81.7705     2.1318    15.1016  1908.3761  1795.4257   -32.5415
   43.5000     7.9958     0.0530     0.2666    88.2789     2.1512    21.0623  1909.1199  1653.2689   -34.4191
   44.0000     7.9952     0.1383     0.2434    91.5430     2.2154    99.9412  1807.8293  1460.9514   -36.9611
   44.5000     8.0258     0.1932     0.2441    93.9169     2.2419   268.3504   145.9635  1035.2748   -39.0369
   45.0000     8.0979     0.1846     0.2543    95.9941     2.2115   373.3367    28.0569    15.0935   -41.1126
   45.5000     8.4252     0.1725     0.2861    99.6261     2.1660   536.9772     4.3750     2.9205   -42.5949
   46.0000     9.1620     0.1635     0.2228   104.0574     2.1547   687.8214     2.9014     0.7468   -44.0950
   46.5000     9.7000     0.1664     0.1890   109.5806     2.2076   714.5547     2.9739     0.5823   -45.3044
   47.0000     9.8314     0.1693     0.1712   115.0326     2.3862   739.3213     3.8692     0.4317   -45.9293
   47.5000     9.8308     0.1692     0.1663   117.9130     2.3981   760.1836     4.8213     0.3661   -46.5542
   48.0000     9.6819     0.1691     0.1603   119.3096     2.4055   775.0853     5.4574     0.3418   -46.8823
   48.5000     9.3846     0.1690     0.1508   119.7329     2.4130   787.0165     6.0101     0.3610   -47.3338
   49.0000     9.3246     0.1689     0.1397   119.1395     2.4239   796.2853     6.2654     0.5114   -47.6289
   49.5000     9.3112     0.1705     0.1324   117.6558     2.4355   802.5739     6.2679     0.7639   -47.6275
   50.0000     9.0762     0.1806     0.1249   114.9852     2.4507   804.8885     6.2705     2.9100   -47.9228
   50.5000     8.7220     0.1895     0.1190   111.9862     2.4633   804.8885     6.2731     4.6531   -47.9214
   51.0000     8.5003     0.1954     0.1172   111.4243     2.4726   804.8885     6.2757     4.9344   -47.9199
   51.5000     8.2830     0.1983     0.1196   111.5193     2.4652   804.8885     6.1927     5.0319   -47.9184
   52.0000     8.1341     0.2014     0.1227   112.1444     2.4533   801.9082     6.1108     5.1008   -47.9169
   52.5000     8.0445     0.2041     0.1273   112.7695     2.4400   798.9279     6.0300     5.1002   -47.9154
   53.0000     7.9836     0.2048     0.1338   113.5015     2.4222   795.9476     5.8680     5.1700   -47.5309
   53.5000     7.9246     0.2069     0.1405   114.6884     2.4063   792.3513     5.7026     5.1693   -47.3188
   54.0000     7.9240     0.2038     0.1465   116.1721     2.3898   783.3904     5.5240     5.1686   -47.0206
   54.5000     7.9532     0.2020     0.1564   118.5460     2.3782   777.1019     5.3123     5.1679   -46.5869
   55.0000     7.9970     0.1976     0.1653   120.9594     2.3705   766.5416     5.0922     5.0967   -46.4243
   55.5000     8.0705     0.1975     0.1730   122.1068     2.3634   752.3453     4.8534     5.0264   -46.4228
   56.0000     8.1590     0.1944     0.1777   121.6439     2.3555   730.3803     4.7238     4.8896   -46.4214
   56.5000     8.1881     0.1913     0.1808   120.6904     2.3481   718.4590     4.5977     4.7566   -46.4199
   57.0000     8.2469     0.1912     0.1813   119.4402     2.3451   706.5377     4.5367     4.6912   -46.4184
   57.5000     8.2463     0.1881     0.1758   117.9525     2.3437   715.4787     4.5385     4.5635   -46.4166
   58.0000     8.2160     0.1850     0.1657   116.7656     2.3504   737.1755     4.6032     4.4917   -46.4152
   58.5000     8.1764     0.1849     0.1529   115.2819     2.3705   758.4153     4.6855     4.4230   -46.4138
   59.0000     8.1258     0.1848     0.1421   113.7982     2.3956   770.0584     4.8254     4.3776   -46.4124
   59.5000     8.0792     0.1847     0.1368   113.2048     2.4117   779.3272     4.9695     4.4674   -46.4110
   60.0000     8.0652     0.1906     0.1315   113.8773     2.4273   782.6354     5.1463     4.6872   -46.4095
   60.5000     8.0943     0.1935     0.1267   114.7596     2.4405   784.0262     5.2916     4.8836   -46.4080
   61.0000     8.1531     0.1964     0.1249   115.4876     2.4375   784.0262     5.3668     5.0883   -46.4065
   61.5000     8.2124     0.1993     0.1256   116.1721     2.4301   784.0262     5.4431     5.1579   -46.4050
   62.0000     8.2073     0.1962     0.1273   116.0059     2.4212   787.0065     5.5206     5.2285   -46.4036
   62.5000     8.1810     0.1961     0.1335   114.9852     2.4134   787.0065     5.5228     5.3001   -46.4019
   63.0000     8.1804     0.1960     0.1407   113.7982     2.4044   787.0065     5.5251     5.2271   -46.6973
   63.5000     8.1645     0.1959     0.1463   112.3145     2.3986   784.0262     5.4516     5.1275   -46.6958
   64.0000     8.1792     0.1972     0.1439   110.8309     2.4021   784.0262     5.4543     5.0490   -46.6944
   64.5000     8.1786     0.2004     0.1362   109.9129     2.4156   784.0262     5.5324     4.8782   -46.6929
   65.0000     8.2373     0.2016     0.1332   109.2878     2.4210   784.0262     5.4591     4.6808   -46.6914
   65.5000     8.2665     0.2045     0.1435   109.0504     2.4066   781.0459     5.3133     4.3698   -46.6899
   66.0000     8.2639     0.2044     0.1692   109.5925     2.3754   781.0459     5.0314     4.0794   -46.6884
