~VERSION INFORMATION
 VERS.                2.0:   CWLS LOG ASCII STANDARD - VERSION 2.0
 WRAP.                 NO:   ONE LINE PER DEPTH STEP
~WELL INFORMATION
#MNEM.UNIT      DATA TYPE    INFORMATION
#----------   ------------   ------------------------------
 STRT.F           14.0000:   START DEPTH
 STOP.F          608.0000:   STOP DEPTH
 STEP.F            0.1000:   STEP LENGTH
 NULL.          -999.2500:   NO VALUE
 COMP. FENIX & SCISSON INC:   COMPANY
 WELL. NAVAL PETROLEUM RESERVE 3 S-15 #72-15:   WELL
 FLD .             TEAPOT:   FIELD
 LOC .      S15 T38N R78W:   LOCATION
 CNTY.            NATRONA:   COUNTY
 STAT.            WYOMING:   STATE
 CTRY. UNITED STATES OF AMERICA:   COUNTRY
 SRVC.           BIRDWELL:   SERVICE COMPANY
 DATE.        21-JUL-1978:   LOGDATE
 API .       490251067300:   API NUMBER
~CURVE INFORMATION
#MNEM.UNIT       API CODE    CURVE DESCRIPTION
#----------   ------------   ------------------------------
 DEPT.F                  :   
 ILD .OHMM   05 120 46 00:   INDUCTION LOG DEEP
 SN  .OHMM   05 040 16 00:   SHORT NORMAL 16"
 SPR .MV     05 010 01 00:   SPONTANEOUS POTENTIAL FROM RES.
 CALD.IN     45 280 60 00:   CALIPER FROM DENSITY LOG
 DPHI.DEC    45 890 12 00:   DENSITY POROSITY SANDSTONE
 DRHO.G/C3   45 356 01 00:   DENSITY CORRECTION
 GRD .GAPI   45 310 01 00:   GAMMA RAY FROM DENSITY LOG
 RHOB.G/C3   45 350 01 00:   BULK DENSITY
~PARAMETER INFORMATION
#MNEM.UNIT          VALUE    DESCRIPTION
#----------   ------------   ------------------------------
 PD  .                 GL:   PERMANENT DATUM
 EPD .F              5238:   ELEVATION PERMANENT DATUM
 LMF .                 KB:   LOG MEASURED FROM
 DAPD.F                 4:   FEET ABOVE PERMANENT DATUM
 DMF .                 KB:   DRILLING MEASURED FROM
 EKB .F              5242:   KELLING BUSHING
 EGL .F              5238:   GROUND LEVEL
 DATE.        21-JUL-1978:   RUN DATE
 RUN .                  1:   RUN NUMBER
 DD  .F               597:   DEPTH DRILLER
 DL  .F               615:   DEPTH LOGGER
 BLI .F               608:   BOTTOM LOG INTERVAL
 TLI .F                35:   TOP LOG INTERVAL
 CS  .IN            8.625:   CASING SIZE
 CBD .F                40:   CASING BOTTOM DRILLER
 CBL .F                35:   CASING BOTTOM LOGGER
 BS  .IN            7.875:   BIT SIZE
 BSD .F               597:   BIT SIZE AT DEPTH
 DFT .                KCL:   DRILLING FLUID TYPE
 DFD .                8.6:   DRILLING FLUID DENSITY
 DFV .                 33:   DRILLING FLUID VISCOSITY
 DFPH.                9.0:   DRILLING FLUID PH
 MSS .            MUD PIT:   MUD SAMPLE SOURCE
 MFSS.               MEAS:   MUD FILTRATE SAMPLE SOURCE
 MCSS.               MEAS:   MUD CAKE SAMPLE SOURCE
 BHT .F                74:   BOTTOM HOLE TEMPERATURE
 TCS .HRS               2:   TIME CURCULATED STOPPED
 MRT .F                74:   MAXIMUM RECORDED TEMPERATURE
 LUN .               2958:   LOGGING UNIT NUMBER
 LUL .             CASPER:   LOGGING UNIT LOCATION
 ENGI.             MILLER:   RECORDING ENGINEER
 WITN.           MCGINLEY:   WITNESSED BY
 CLNT.            A2DTECH:   CLIENT CODE
 ORIG.           5" PRINT:   ORIGIN OF DATA
 UWI .       490251067300:   UNIQUE WELL ID
 DICO. A2D Technologies, Inc.:   DIGITIZING COMPANY
~OTHER INFORMATION
~A   DEPT      ILD         SN        SPR       CALD       DPHI       DRHO         GRD      RHOB   
# ...
  151.7000     9.5883     9.7014   -18.9008     7.5873     0.1226     0.0391    88.1852     2.4738
  151.8000     9.5729     9.7007   -18.9014     7.6046     0.1225     0.0404    88.1858     2.4744
  151.9000     9.5576     9.6999   -18.9020     7.6170     0.1218     0.0416    88.2817     2.4750
  152.0000     9.5422     9.6759   -18.9026     7.6316     0.1208     0.0428    88.7904     2.4758
  152.1000     9.5268     9.6315   -18.9032     7.6573     0.1199     0.0442    89.2668     2.4767
  152.2000     9.5115     9.6307   -18.9038     7.6693     0.1192     0.0453    89.9415     2.4776
  152.3000     9.4961     9.6299   -18.9044     7.6817     0.1183     0.0457    90.6167     2.4783
  152.4000     9.4789     9.5883   -18.9050     7.7007     0.1175     0.0457    91.2322     2.4794
  152.5000     9.4786     9.5620   -18.9056     7.7175     0.1166     0.0460    91.8400     2.4806
  152.6000     9.4782     9.5612   -18.9062     7.7202     0.1159     0.0472    92.4140     2.4818
  152.7000     9.4778     9.5604   -18.9068     7.7476     0.1152     0.0460    93.4458     2.4830
  152.8000     9.4668     9.5596   -18.9073     7.7476     0.1147     0.0457    93.4455     2.4843
  152.9000     9.4118     9.5589   -18.9079     7.7560     0.1142     0.0457    93.4452     2.4858
  153.0000     9.4114     9.5581   -18.9085     7.7684     0.1137     0.0457    93.4449     2.4867
  153.1000     9.4110     9.5573   -18.9092     7.7808     0.1132     0.0457    93.3657     2.4880
  153.2000     9.4106     9.5565   -18.9097     7.7932     0.1126     0.0457    93.2935     2.4892
  153.3000     9.4102     9.5557   -18.9103     7.8077     0.1117     0.0447    93.2676     2.4904
  153.4000     9.4098     9.5549   -18.9109     7.8076     0.1111     0.0442    93.1421     2.4912
  153.5000     9.4094     9.5541   -18.8811     7.8152     0.1107     0.0447    93.0186     2.4920
  153.6000     9.4090     9.5254   -18.7622     7.8226     0.1105     0.0457    92.8941     2.4928
  153.7000     9.4087     9.4867   -18.7628     7.8249     0.1105     0.0457    92.7696     2.4942
  153.8000     9.4083     9.4860   -18.7634     7.8376     0.1106     0.0457    92.6019     2.4957
  153.9000     9.4079     9.4850   -18.7640     7.8375     0.1111     0.0457    92.3864     2.4963
  154.0000     9.4075     9.4844   -18.7646     7.8469     0.1116     0.0464    92.3861     2.4970
  154.1000     9.4071     9.4836   -18.7652     7.8593     0.1117     0.0472    92.1576     2.4975
  154.2000     9.4067     9.4614   -18.7659     7.8676     0.1118     0.0472    91.9089     2.4981
  154.3000     9.4063     9.4167   -18.7664     7.8675     0.1121     0.0472    91.7819     2.4988
  154.4000     9.4059     9.4159   -18.7670     7.8674     0.1123     0.0483    91.7474     2.4993
  154.5000     9.4055     9.4152   -18.7676     7.8674     0.1126     0.0495    91.6229     2.4993
  154.6000     9.4051     9.4144   -18.7682     7.8759     0.1126     0.0508    91.4793     2.4993
  154.7000     9.3624     9.4136   -18.7688     7.8824     0.1126     0.0520    91.3740     2.4997
  154.8000     9.3397     9.4128   -18.7694     7.8823     0.1124     0.0532    91.2495     2.5000
  154.9000     9.3393     9.4137   -18.7700     7.8822     0.1119     0.0557    91.1768     2.5002
  155.0000     9.3389     9.4395   -18.7706     7.8822     0.1117     0.0572    91.1765     2.5007
  155.1000     9.3385     9.4654   -18.7712     7.8821     0.1110     0.0577    91.1762     2.5007
  155.2000     9.3381     9.4749   -18.7718     7.8821     0.1106     0.0581    91.1759     2.5007
  155.3000     9.3377     9.4742   -18.7725     7.8820     0.1102     0.0592    91.1756     2.5012
  155.4000     9.3373     9.4734   -18.7730     7.8795     0.1097     0.0592    91.3140     2.5015
  155.5000     9.3370     9.4726   -18.8118     7.8668     0.1092     0.0592    91.6475     2.5015
  155.6000     9.3366     9.4718   -18.8736     7.8667     0.1084     0.0584    92.1440     2.5015
  155.7000     9.3362     9.4710   -18.9247     7.8666     0.1077     0.0577    92.6826     2.5015
  155.8000     9.3258     9.4570   -18.9254     7.8597     0.1072     0.0574    93.1369     2.5018
  155.9000     9.3123     9.4296   -18.9259     7.8514     0.1067     0.0562    93.4593     2.5021
  156.0000     9.2988     9.4035   -18.9265     7.8506     0.1062     0.0562    93.7074     2.5022
  156.1000     9.2854     9.4027   -18.9271     7.8443     0.1057     0.0562    93.9218     2.5022
  156.2000     9.2700     9.4019   -18.9277     7.8380     0.1051     0.0555    94.0386     2.5022
  156.3000     9.2696     9.4011   -18.9283     7.8273     0.1045     0.0543    94.0383     2.5022
  156.4000     9.2693     9.4003   -18.9290     7.8148     0.1042     0.0532    93.9334     2.5022
  156.5000     9.2689     9.3996   -18.9295     7.8040     0.1045     0.0532    93.7310     2.5022
  156.6000     9.2639     9.3987   -18.9301     7.7977     0.1052     0.0521    93.3798     2.5023
  156.7000     9.2375     9.3980   -18.9307     7.7905     0.1060     0.0509    92.8828     2.5027
  156.8000     9.2111     9.3972   -18.9313     7.7852     0.1067     0.0491    92.3777     2.5030
  156.9000     9.1849     9.3965   -18.9319     7.7789     0.1072     0.0472    91.7665     2.5033
  157.0000     9.1587     9.3957   -18.9325     7.7648     0.1077     0.0472    91.3363     2.5036
  157.1000     9.1325     9.3949   -18.9331     7.7450     0.1081     0.0457    91.1701     2.5040
  157.2000     9.1065     9.3941   -18.9337     7.7449     0.1081     0.0447    91.1276     2.5046
  157.3000     9.0758     9.3933   -18.9343     7.7201     0.1081     0.0442    91.0031     2.5050
  157.4000     9.0338     9.3926   -18.9349     7.7049     0.1079     0.0442    90.8675     2.5054
  157.5000     9.0052     9.3918   -18.9355     7.6923     0.1075     0.0442    90.8673     2.5058
  157.6000     8.9922     9.3910   -18.9361     7.6798     0.1070     0.0442    90.7805     2.5064
  157.7000     8.9791     9.3902   -18.9367     7.6673     0.1065     0.0431    90.7158     2.5067
  157.8000     8.9661     9.3894   -18.9373     7.6539     0.1057     0.0419    90.7155     2.5068
  157.9000     8.9531     9.3887   -18.9379     7.6308     0.1052     0.0412    90.7087     2.5075
  158.0000     8.9144     9.3879   -18.9385     7.6236     0.1044     0.0409    90.5640     2.5081
  158.1000     8.8640     9.3805   -18.9391     7.6111     0.1035     0.0397    90.5638     2.5087
  158.2000     8.8253     9.3533   -18.9397     7.5897     0.1028     0.0382    90.5635     2.5093
  158.3000     8.8246     9.3208   -18.9403     7.5772     0.1020     0.0362    90.6140     2.5101
  158.4000     8.7747     9.2781   -18.9409     7.5629     0.1009     0.0352    90.7138     2.5113
  158.5000     8.7635     9.2552   -18.9415     7.5628     0.1005     0.0348    90.7134     2.5120
  158.6000     8.7632     9.2544   -18.9421     7.5467     0.0998     0.0335    90.7131     2.5125
  158.7000     8.7628     9.2537   -18.9427     7.5272     0.0991     0.0322    90.8078     2.5131
  158.8000     8.7575     9.2528   -18.9433     7.5160     0.0984     0.0322    90.9317     2.5137
  158.9000     8.7017     9.2048   -18.9439     7.5097     0.0976     0.0305    91.0556     2.5144
  159.0000     8.7014     9.1877   -18.9445     7.5034     0.0978     0.0292    91.1795     2.5150
  159.1000     8.6694     9.1630   -18.9451     7.4922     0.0983     0.0286    91.3149     2.5156
  159.2000     8.6408     9.1229   -18.9457     7.4797     0.0990     0.0262    91.4272     2.5167
  159.3000     8.6405     9.1221   -18.9463     7.4672     0.1000     0.0262    91.6371     2.5172
  159.4000     8.6401     9.1214   -18.9469     7.4547     0.1010     0.0252    91.8258     2.5176
  159.5000     8.6398     9.1206   -18.9475     7.4414     0.1018     0.0240    91.9606     2.5188
  159.6000     8.6214     9.1199   -18.9482     7.4413     0.1029     0.0228    92.1259     2.5195
  159.7000     8.5968     9.1191   -18.9487     7.4323     0.1046     0.0217    92.2912     2.5195
