~VERSION INFORMATION
 VERS.                2.0:   CWLS LOG ASCII STANDARD - VERSION 2.0
 WRAP.                 NO:   ONE LINE PER DEPTH STEP
~WELL INFORMATION
#MNEM.UNIT      DATA TYPE    INFORMATION
#----------   ------------   ------------------------------
 STRT.F           29.0000:   START DEPTH
 STOP.F          642.0000:   STOP DEPTH
 STEP.F            0.5000:   STEP LENGTH
 NULL.          -999.2500:   NO VALUE
 COMP. FENIX & SCISSON INC:   COMPANY
 WELL.    NPR-3 SX #21-10:   WELL
 FLD .  TEAPOT DOME NPR 3:   FIELD
 LOC .      S10 T38N R78W:   LOCATION
 CNTY.            NATRONA:   COUNTY
 STAT.            WYOMING:   STATE
 CTRY. UNITED STATES OF AMERICA:   COUNTRY
 SRVC.            Unknown:   SERVICE COMPANY
 DATE.        03-JUL-1978:   LOGDATE
 API .       490251065400:   API NUMBER
~CURVE INFORMATION
#MNEM.UNIT       API CODE    CURVE DESCRIPTION
#----------   ------------   ------------------------------
 DEPT.F                  :   
 SPR .MV     05 010 01 00:   SPONTANEOUS POTENTIAL FROM RES.
 SN  .OHMM   05 040 16 00:   SHORT NORMAL 16"
 ILD .OHMM   05 120 46 00:   INDUCTION LOG DEEP
 CALD.IN     45 280 60 00:   CALIPER FROM DENSITY
 GRD .GAPI   45 310 01 00:   GAMMA RAY FROM DENSITY LOG
 CORR.G/C3   45 356 01 00:   DENSITY CORRECTION
 DPHI.DEC    45 890 12 00:   DENSITY POROSITY SANDSTONE
 DEN .G/C3   45 350 01 00:   COMPENSATED BULK DENSTIY
~PARAMETER INFORMATION
#MNEM.UNIT          VALUE    DESCRIPTION
#----------   ------------   ------------------------------
 PD  .                 GL:   PERMANENT DATUM
 EPD .F              5253:   ELEVATION PERMANENT DATUM
 LMF .                 KB:   LOG MEASURED FROM
 DAPD.F                 4:   FEET ABOVE PERMANENT DATUM
 DMF .                 KB:   DRILLING MEASURED FROM
 EKB .F              5257:   KELLING BUSHING
 EGL .F              5253:   GROUND LEVEL
 DATE.           7-3-1978:   RUN DATE
 RUN .                  1:   RUN NUMBER
 DD  .F               650:   DEPTH DRILLER
 DL  .F               648:   DEPTH LOGGER
 BLI .F               642:   BOTTOM LOG INTERVAL
 TLI .F                40:   TOP LOG INTERVAL
 CS  .IN            8.625:   CASING SIZE
 CBD .F                40:   CASING BOTTOM DRILLER
 CBL .F                40:   CASING BOTTOM LOGGER
 BS  .IN            7.875:   BIT SIZE
 BSD .F               650:   BIT SIZE AT DEPTH
 DFT .                KCL:   DRILLING FLUID TYPE
 DFD .                8.6:   DRILLING FLUID DENSITY
 DFV .                 32:   DRILLING FLUID VISCOSITY
 DFPH.                  9:   DRILLING FLUID PH
 MSS .           FLOWLINE:   MUD SAMPLE SOURCE
 RMS .OHMM            .24:   RESISTIVITY MUD SAMPLE
 MST .F                88:   MUD SAMPLE TEMPERATURE
 RMF .OHMM            .24:   RESISTIVITY MUD FILTRATE SAMPLE
 MFST.F                94:   MUD FILTRATE SAMPLE TEMPERATURE
 RMC .OHMM            .46:   RESISTIVITY MUD CAKE
 MCST.F                96:   MUD CAKE SAMPLE TEMPERATURE
 MFSS.               MEAS:   MUD FILTRATE SAMPLE SOURCE
 MCSS.               MEAS:   MUD CAKE SAMPLE SOURCE
 TCS .HRS               2:   TIME CURCULATED STOPPED
 LUN .               2958:   LOGGING UNIT NUMBER
 LUL .               CASP:   LOGGING UNIT LOCATION
 CLNT.            A2DTECH:   CLIENT CODE
 ORIG.           5" PRINT:   ORIGIN OF DATA
 UWI .       490251065400:   UNIQUE WELL ID
 DICO. A2D Technologies, Inc.:   DIGITIZING COMPANY
~OTHER INFORMATION
~A   DEPT      SPR         SN        ILD       CALD        GRD       CORR       DPHI        DEN   
# ...
  353.0000   -22.6116     7.9110     7.7498     8.1755   119.9382     0.0021     0.1446     2.4539
  353.5000   -22.5866     8.0820     7.7556     8.1758   120.5325     0.0050     0.1458     2.4449
  354.0000   -22.7166     8.0880     7.8150     8.1761   119.5045     0.0065     0.1369     2.4591
  354.5000   -22.8404     8.0941     7.9292     8.1764   112.7242     0.0065     0.1348     2.4688
  355.0000   -22.8092     8.1562     7.9352     8.1767   112.4336     0.0048     0.1315     2.4598
  355.5000   -22.7842     8.1623     7.9411     8.1770   114.1224     0.0004     0.1300     2.4613
  356.0000   -22.9142     8.1685     8.0019     8.1773   120.3423     0.0004     0.1303     2.4740
  356.5000   -22.8830     8.1747     8.0079     8.1776   124.0987    -0.0011     0.1312     2.4755
  357.0000   -22.8580     8.1809     8.0139     8.1778   121.5309    -0.0012     0.1333     2.4747
  357.5000   -22.8329     8.1871     8.0199     8.1782   113.4891    -0.0012     0.1348     2.4695
  358.0000   -22.8079     8.1938     8.0274     8.1785   108.6262    -0.0012     0.1345     2.4687
  358.5000   -22.7829     8.2000     8.0874     8.1788   108.4820     0.0002     0.1411     2.4732
  359.0000   -22.9067     8.2061     8.0936     8.1791   111.7323     0.0002     0.1423     2.4597
  359.5000   -22.8817     8.2123     8.0997     8.1794   112.3256     0.0002     0.1369     2.4500
  360.0000   -22.8567     8.2184     8.1070     8.1797   111.1511    -0.0013     0.1309     2.4507
  360.5000   -23.1293     8.2246     8.0560     8.1800   112.4829    -0.0029     0.1348     2.4694
  361.0000   -23.2531     8.1741     8.0635     8.1803   116.6171    -0.0059     0.1297     2.4746
  361.5000   -23.2277     8.1804     8.0696     8.1806   118.9814    -0.0119     0.1261     2.4686
  362.0000   -23.2024     8.1866     8.0756     8.1808   118.1008    -0.0119     0.1351     2.4806
  362.5000   -23.3269     8.0808     8.0248     8.1811   115.5978     0.0060     0.1273     2.4843
  363.0000   -23.3006     8.0314     7.9225     8.1814   112.3574     0.0119     0.1246     2.4701
  363.5000   -23.2753     8.0375     7.8726     8.1817   112.0657     0.0149     0.1237     2.4836
  364.0000   -23.2457     7.9883     7.8800     8.1820   113.2511     0.0149     0.1168     2.4867
  364.5000   -23.2207     7.9395     7.8304     8.1823   115.0243     0.0151     0.1126     2.5001
  365.0000   -23.1957     7.8369     7.7306     8.1826   113.5548     0.0073     0.1069     2.5059
  365.5000   -23.1706     7.7904     7.7364     8.1829   114.0017     0.0028     0.0983     2.5253
  366.0000   -23.4433     7.7428     7.6877     8.1982   115.1860     0.0058     0.0901     2.5350
  366.5000   -23.8647     7.6413     7.5898     8.1835   117.1078     0.0072     0.1151     2.5074
  367.0000   -24.2861     7.4409     7.4403     8.1839   118.4396     0.0072     0.1273     2.4984
  367.5000   -24.7138     7.2444     7.2938     8.1992   118.8865     0.0103     0.1279     2.4774
  368.0000   -25.2840     7.1508     7.1502     8.1995   118.8909     0.0176     0.1262     2.4714
  368.5000   -25.2528     6.9619     6.9136     8.1997   119.9312     0.0174     0.1214     2.4826
  369.0000   -24.9301     6.7316     6.6849     8.1850   120.0796     0.0131     0.1241     2.4878
  369.5000   -25.3516     6.4643     6.3744     8.1854   117.6814     0.0115     0.1265     2.4893
  370.0000   -25.9218     6.1228     6.0304     8.1857   116.6765     0.0085     0.1286     2.4833
  370.5000   -25.8968     5.7993     5.6719     8.1860   115.9629     0.0055     0.1483     2.4624
  371.0000   -26.0208     5.3807     5.4118     8.1863   116.5584     0.0040     0.1489     2.4549
  371.5000   -25.9955     4.9241     4.9928     8.2015   119.5126     0.0024     0.1543     2.4564
  372.0000   -25.8214     4.3540     4.5692     8.2018   120.9919     0.0024     0.1681     2.4384
  372.5000   -25.7961     3.9845     4.0680     8.1872   121.2913     0.0024     0.1825     2.4189
  373.0000   -25.7718     3.6464     3.6966     8.1874   119.5258     0.0039     0.1936     2.4099
  373.5000   -25.8956     3.3600     3.0307     8.1877   119.5302     0.0053     0.2082     2.3860
  374.0000   -25.7155     3.1175     2.8706     8.1880   120.1245     0.0053     0.2286     2.3575
  374.5000   -25.6905     2.9528     2.7372     8.2033   121.3088     0.0082     0.2415     2.3127
  375.0000   -25.5167     2.9146     2.7398     8.2485   123.0831     0.0112     0.2603     2.2880
  375.5000   -25.0452     2.9573     2.7418     8.2488   123.0875     0.0172     0.2705     2.2517
  376.0000   -24.5738     3.0212     2.8399     8.2641   118.3721     0.0201     0.2819     2.2286
  376.5000   -24.1024     3.0891     2.9414     8.2644   111.0019     0.0365     0.2744     2.2205
  377.0000   -23.7797     3.2005     3.2869     8.2647   112.0387     0.0425     0.2582     2.2237
  377.5000   -23.7547     3.9877     3.7326     8.2799   111.1582     0.0051     0.2193     2.2916
  378.0000   -23.7297     4.2455     4.3362     8.2960   102.7555     0.0080     0.2272     2.3357
  378.5000   -24.0023     4.3974     4.5323     8.3105   103.9398     0.1007     0.2424     2.2916
  379.0000   -24.1324     4.6178     5.0283     8.5335   107.7790     0.0887     0.2313     2.2953
  379.5000   -24.1011     5.5643     5.6025    10.0476   112.9456     0.0078     0.1660     2.4187
  380.0000   -24.0761     5.9241     5.8029     8.1767   119.5872    -0.0025     0.1427     2.3013
  380.5000   -24.0511     6.1360     6.0520     8.1770   121.9514    -0.0041     0.1490     2.4680
  381.0000   -24.0268     6.2686     6.0983     8.1773   122.9883    -0.0011     0.1532     2.4501
  381.5000   -24.0015     6.2733     6.1029     8.1776   123.1401     0.0048     0.1538     2.4351
  382.0000   -23.9762     6.2780     6.0240     8.1629   123.1445     0.0093     0.1442     2.4358
  382.5000   -23.9509     6.2397     5.9870     8.1632   122.9867     0.0063     0.1370     2.4441
  383.0000   -23.9256     6.2444     5.9098     8.1485   121.4927    -0.0012     0.1394     2.4568
  383.5000   -23.9003     6.1214     5.8333     8.1338   118.1997    -0.0028     0.1436     2.4642
  384.0000   -23.8750     6.0009     5.3384     8.1342   116.3774    -0.0013     0.1490     2.4560
  384.5000   -23.8448     5.8023     5.0913     8.1345   117.8578     0.0002     0.1508     2.4470
  385.0000   -23.5222     5.5719     5.1657     8.1197   117.5672     0.0031     0.1532     2.4440
  385.5000   -23.3484     5.2414     5.0561     8.1050   117.4230     0.0076     0.1571     2.4342
  386.0000   -23.3234     5.1382     4.8256     8.1054   117.7235     0.0061     0.1694     2.4200
  386.5000   -23.2984     5.0370     4.8000     8.1207   119.2028     0.0165     0.1775     2.4073
  387.0000   -23.4222     5.0408     4.8376     8.1359   123.1895     0.0105     0.1652     2.3901
  387.5000   -23.5460     5.0794     4.9422     8.1362   127.3236     0.0000     0.1706     2.4050
  388.0000   -23.5210     5.2265     4.9801     8.1515   127.9180    -0.0060     0.1702     2.4192
  388.5000   -23.4960     5.4553     5.1228     8.1518   122.9076    -0.0015     0.1668     2.4042
  389.0000   -23.4710     5.6926     5.2697     8.1671   120.8460     0.0044     0.1574     2.4020
  389.5000   -23.4460     5.9746     5.5337     8.1823   120.8515     0.0088     0.1514     2.4217
  390.0000   -23.5760     6.2681     5.8512     8.1826   121.1509     0.0118     0.1437     2.4408
  390.5000   -23.5448     6.5371     6.2725     8.1829   121.4502     0.0088     0.1407     2.4505
  391.0000   -23.5198     6.8647     6.5868     8.1832   123.8145     0.0028     0.1326     2.4535
  391.5000   -23.4947     7.1102     6.7756     8.1529   125.8838    -0.0017     0.1335     2.4730
  392.0000   -23.6190     7.3141     6.9699     8.1389   125.8882    -0.0018     0.1347     2.4767
  392.5000   -23.5935     7.4209     6.9751     8.1242   125.5965     0.0043     0.1344     2.4714
  393.0000   -23.5685     7.4778     6.9803     8.1246   125.6020     0.0101     0.1284     2.4654
