~VERSION INFORMATION
 VERS.                2.0:   CWLS LOG ASCII STANDARD - VERSION 2.0
 WRAP.                 NO:   ONE LINE PER DEPTH STEP
~WELL INFORMATION
#MNEM.UNIT      DATA TYPE    INFORMATION
#----------   ------------   ------------------------------
 STRT.F          110.5000:   START DEPTH
 STOP.F         1944.0000:   STOP DEPTH
 STEP.F            0.5000:   STEP LENGTH
 NULL.          -999.2500:   NO VALUE
 COMP.    FENIX & SCISSON:   COMPANY
 WELL.   NPR 3 SHX #34-10:   WELL
 FLD .             TEAPOT:   FIELD
 LOC .      S10 T38N R78W:   LOCATION
 CNTY.            NATRONA:   COUNTY
 STAT.            WYOMING:   STATE
 CTRY. UNITED STATES OF AMERICA:   COUNTRY
 SRVC.            Unknown:   SERVICE COMPANY
 DATE.        14-APR-1978:   LOGDATE
 API .       490251061800:   API NUMBER
~CURVE INFORMATION
#MNEM.UNIT       API CODE    CURVE DESCRIPTION
#----------   ------------   ------------------------------
 DEPT.F                  :   
 ILD .OHMM   05 120 46 00:   INDUCTION LOG DEEP
 CILD.MMHO   05 110 00 00:   CONDUCTIVITY INDUCTION LOG
 NPHI.DEC    42 890 01 00:   NEUTRON POROSITY LIMESTONE
 GRD .GAPI   45 310 01 00:   GAMMA RAY FROM DENSITY LOG
~PARAMETER INFORMATION
#MNEM.UNIT          VALUE    DESCRIPTION
#----------   ------------   ------------------------------
 PD  .                 GL:   PERMANENT DATUM
 EPD .F              5244:   ELEVATION PERMANENT DATUM
 LMF .                 KB:   LOG MEASURED FROM
 DMF .                 KB:   DRILLING MEASURED FROM
 EKB .F              5252:   KELLING BUSHING
 EGL .F              5244:   GROUND LEVEL
 DATE.          4-14-1978:   RUN DATE
 RUN .                  1:   RUN NUMBER
 DD  .F              1953:   DEPTH DRILLER
 DL  .F              1950:   DEPTH LOGGER
 BLI .F              1944:   BOTTOM LOG INTERVAL
 TLI .F               715:   TOP LOG INTERVAL
 CS  .IN            9.625:   CASING SIZE
 CBD .F               708:   CASING BOTTOM DRILLER
 CBL .F               712:   CASING BOTTOM LOGGER
 BS  .IN             8.75:   BIT SIZE
 BSD .F              1953:   BIT SIZE AT DEPTH
 DFT .                OIL:   DRILLING FLUID TYPE
 TCS .HRS               5:   TIME CURCULATED STOPPED
 LUN .               2958:   LOGGING UNIT NUMBER
 LUL .               CASP:   LOGGING UNIT LOCATION
 ENGI.             MILLER:   RECORDING ENGINEER
 CLNT.            A2DTECH:   CLIENT CODE
 ORIG.           5" PRINT:   ORIGIN OF DATA
 UWI .       490251061800:   UNIQUE WELL ID
 DICO. A2D Technologies, Inc.:   DIGITIZING COMPANY
~OTHER INFORMATION
~A   DEPT      ILD       CILD       NPHI        GRD   
# ...
 1862.5000    12.9009    86.0696  -999.2500  -999.2500
 1863.0000    13.4457    86.0696  -999.2500  -999.2500
 1863.5000    13.6046    86.0696  -999.2500  -999.2500
 1864.0000    13.5772    86.6807  -999.2500  -999.2500
 1864.5000    13.3569    88.4647  -999.2500  -999.2500
 1865.0000    13.1395    90.2488  -999.2500  -999.2500
 1865.5000    12.7200    92.0398  -999.2500  -999.2500
 1866.0000    12.1667    96.1592  -999.2500  -999.2500
 1866.5000    11.6100   100.2949  -999.2500  -999.2500
 1867.0000    11.1917   104.4306  -999.2500  -999.2500
 1867.5000    10.8495   108.5663  -999.2500  -999.2500
 1868.0000    10.5072   109.6119  -999.2500  -999.2500
 1868.5000    10.1723   108.9552  -999.2500  -999.2500
 1869.0000     9.9652   111.2139  -999.2500  -999.2500
 1869.5000     9.7846   113.9304  -999.2500  -999.2500
 1870.0000     9.2067   125.2322  -999.2500  -999.2500
 1870.5000     8.4907   137.4478  -999.2500  -999.2500
 1871.0000     7.7720   154.8806  -999.2500  -999.2500
 1871.5000     7.0524   176.6169  -999.2500  -999.2500
 1872.0000     6.3362   177.3305  -999.2500  -999.2500
 1872.5000     5.7650   177.3134  -999.2500  -999.2500
 1873.0000     5.8035   176.5913  -999.2500  -999.2500
 1873.5000     5.8302   175.8692  -999.2500  -999.2500
 1874.0000     5.8547   175.2084  -999.2500  -999.2500
 1874.5000     5.8753   174.5788  -999.2500  -999.2500
 1875.0000     5.9297   164.7447  -999.2500  -999.2500
 1875.5000     6.6315   149.4422  -999.2500  -999.2500
 1876.0000     7.3127   132.6368  -999.2500  -999.2500
 1876.5000     7.9933   124.8756  -999.2500  -999.2500
 1877.0000     8.3051   124.8756  -999.2500  -999.2500
 1877.5000     8.3064   124.8756  -999.2500  -999.2500
 1878.0000     8.2336   124.8756  -999.2500  -999.2500
 1878.5000     8.1608   124.8756  -999.2500  -999.2500
 1879.0000     8.0904   124.8756  -999.2500  -999.2500
 1879.5000     8.2036   124.2329  -999.2500  -999.2500
 1880.0000     8.3392   121.5569  -999.2500  -999.2500
 1880.5000     8.4749   118.8809  -999.2500  -999.2500
 1881.0000     8.6104   116.2049  -999.2500  -999.2500
 1881.5000     8.7468   115.6141  -999.2500  -999.2500
 1882.0000     8.8848   115.2714  -999.2500  -999.2500
 1882.5000     8.8991   114.9287  -999.2500  -999.2500
 1883.0000     8.9058   114.5861  -999.2500  -999.2500
 1883.5000     8.9130   114.2434  -999.2500  -999.2500
 1884.0000     8.9204   113.9007  -999.2500  -999.2500
 1884.5000     8.9292   113.5580  -999.2500  -999.2500
 1885.0000     9.0004   113.2153  -999.2500  -999.2500
 1885.5000     9.1719   112.8720  -999.2500  -999.2500
 1886.0000     9.3419   112.5282  -999.2500  -999.2500
 1886.5000     9.5125   112.1872  -999.2500  -999.2500
 1887.0000     9.6832   112.2052  -999.2500  -999.2500
 1887.5000     9.8503   113.1530  -999.2500  -999.2500
 1888.0000     9.9116   114.1000  -999.2500  -999.2500
 1888.5000     9.6977   115.0485  -999.2500  -999.2500
 1889.0000     9.5892   115.9939  -999.2500  -999.2500
 1889.5000     9.5050   116.9440  -999.2500  -999.2500
 1890.0000     9.4208   117.9105  -999.2500  -999.2500
 1890.5000     9.2741   121.4082  -999.2500  -999.2500
 1891.0000     9.0217   124.9763  -999.2500  -999.2500
 1891.5000     8.7702   128.5443  -999.2500  -999.2500
 1892.0000     8.5357   129.5193  -999.2500  -999.2500
 1892.5000     8.5235   128.9964  -999.2500  -999.2500
 1893.0000     8.5183   128.4735  -999.2500  -999.2500
 1893.5000     8.5122   127.9506  -999.2500  -999.2500
 1894.0000     8.5059   127.4277  -999.2500  -999.2500
 1894.5000     8.4994   126.8657  -999.2500  -999.2500
 1895.0000     8.4932   127.9569  -999.2500  -999.2500
 1895.5000     8.4400   129.1363  -999.2500  -999.2500
 1896.0000     8.3466   130.3158  -999.2500  -999.2500
 1896.5000     8.2532   131.4952  -999.2500  -999.2500
 1897.0000     8.1593   132.6746  -999.2500  -999.2500
 1897.5000     8.0625   133.8309  -999.2500  -999.2500
 1898.0000     7.8540   133.8309  -999.2500  -999.2500
 1898.5000     7.5643   133.8309  -999.2500  -999.2500
 1899.0000     7.5407   133.3400  -999.2500  -999.2500
 1899.5000     7.5277   131.4792  -999.2500  -999.2500
 1900.0000     7.6881   129.6184  -999.2500  -999.2500
 1900.5000     7.8647   127.7575  -999.2500  -999.2500
 1901.0000     8.0418   126.8404  -999.2500  -999.2500
 1901.5000     8.2183   126.7919  -999.2500  -999.2500
 1902.0000     8.3952   126.7429  -999.2500  -999.2500
 1902.5000     8.5760   126.6949  -999.2500  -999.2500
 1903.0000     8.6350   126.6464  -999.2500  -999.2500
 1903.5000     8.6759   126.5979  -999.2500  -999.2500
 1904.0000     8.6919   126.5494  -999.2500  -999.2500
 1904.5000     8.6256   126.5009  -999.2500  -999.2500
 1905.0000     8.5211   126.4523  -999.2500  -999.2500
 1905.5000     8.4156   126.4038  -999.2500  -999.2500
 1906.0000     8.3102   126.3553  -999.2500  -999.2500
 1906.5000     8.2031   126.3068  -999.2500  -999.2500
 1907.0000     8.1969   126.2583  -999.2500  -999.2500
 1907.5000     8.2315   126.2098  -999.2500  -999.2500
 1908.0000     8.2672   126.1613  -999.2500  -999.2500
 1908.5000     8.3029   126.1128  -999.2500  -999.2500
 1909.0000     8.3384   126.0643  -999.2500  -999.2500
 1909.5000     8.3739   126.0158  -999.2500  -999.2500
 1910.0000     8.4095   125.9672  -999.2500  -999.2500
 1910.5000     8.4450   125.9174  -999.2500  -999.2500
 1911.0000     8.4806   125.8716  -999.2500  -999.2500
 1911.5000     8.5162   125.8707  -999.2500  -999.2500
 1912.0000     8.5513   127.4703  -999.2500  -999.2500
 1912.5000     8.5567   129.4106  -999.2500  -999.2500
 1913.0000     8.5226   131.8408  -999.2500  -999.2500
 1913.5000     8.4890   131.5056  -999.2500  -999.2500
 1914.0000     8.4553   131.1903  -999.2500  -999.2500
 1914.5000     8.4214   130.8458  -999.2500  -999.2500
 1915.0000     8.3880   133.2338  -999.2500  -999.2500
 1915.5000     8.2572   136.5970  -999.2500  -999.2500
 1916.0000     8.0406   138.8060  -999.2500  -999.2500
 1916.5000     7.8197   138.9123  -999.2500  -999.2500
 1917.0000     7.7332   139.0244  -999.2500  -999.2500
 1917.5000     7.7292   139.1365  -999.2500  -999.2500
 1918.0000     7.7270   139.2487  -999.2500  -999.2500
 1918.5000     7.7249   139.3607  -999.2500  -999.2500
 1919.0000     7.7225   139.4729  -999.2500  -999.2500
 1919.5000     7.7202   139.5850  -999.2500  -999.2500
 1920.0000     7.7179   139.6971  -999.2500  -999.2500
 1920.5000     7.7156   139.8092  -999.2500  -999.2500
 1921.0000     7.7132   139.9213  -999.2500  -999.2500
 1921.5000     7.7109   140.0334  -999.2500  -999.2500
 1922.0000     7.7086   140.1455  -999.2500  -999.2500
 1922.5000     7.7063   140.2576  -999.2500  -999.2500
 1923.0000     7.7039   140.3697  -999.2500  -999.2500
 1923.5000     7.7016   140.4818  -999.2500  -999.2500
 1924.0000     7.6993   140.5939  -999.2500  -999.2500
 1924.5000     7.6974   140.7060  -999.2500  -999.2500
 1925.0000     7.6968   141.5778  -999.2500  -999.2500
 1925.5000     7.6821   145.5416  -999.2500  -999.2500
 1926.0000     7.3659   149.5053  -999.2500  -999.2500
 1926.5000     7.0399   154.8827  -999.2500  -999.2500
 1927.0000     6.7148   162.0896  -999.2500  -999.2500
 1927.5000     6.3900   169.2964  -999.2500  -999.2500
 1928.0000     6.0953   172.6953  -999.2500  -999.2500
 1928.5000     6.0669   174.9024  -999.2500  -999.2500
 1929.0000     6.0440   177.1095  -999.2500  -999.2500
 1929.5000     6.0198   178.6552  -999.2500  -999.2500
 1930.0000     5.9035   179.0432  -999.2500  -999.2500
 1930.5000     5.7029   179.4313  -999.2500  -999.2500
 1931.0000     5.7691   174.5782  -999.2500  -999.2500
 1931.5000     6.0017   165.6097  -999.2500  -999.2500
 1932.0000     6.2317   163.0116  -999.2500  -999.2500
 1932.5000     6.4079   164.6932  -999.2500  -999.2500
 1933.0000     6.3463   166.3748  -999.2500  -999.2500
 1933.5000     6.2895   168.0564  -999.2500  -999.2500
 1934.0000     6.2324   167.8458  -999.2500  -999.2500
 1934.5000     6.2220   166.6667  -999.2500  -999.2500
 1935.0000     6.2335   168.4672  -999.2500  -999.2500
