~VERSION INFORMATION
 VERS.                2.0:   CWLS LOG ASCII STANDARD - VERSION 2.0
 WRAP.                 NO:   ONE LINE PER DEPTH STEP
~WELL INFORMATION
#MNEM.UNIT      DATA TYPE    INFORMATION
#----------   ------------   ------------------------------
 STRT.F           16.0000:   START DEPTH
 STOP.F          634.0000:   STOP DEPTH
 STEP.F            0.5000:   STEP LENGTH
 NULL.          -999.2500:   NO VALUE
 COMP. LAWRENCE/ALLISON INC:   COMPANY
 WELL.    14-15 SX #11-11:   WELL
 FLD .             TEAPOT:   FIELD
 LOC .      S11 T38N R78W:   LOCATION
 CNTY.            NATRONA:   COUNTY
 STAT.            WYOMING:   STATE
 CTRY. UNITED STATES OF AMERICA:   COUNTRY
 SRVC.      Dresser Atlas:   SERVICE COMPANY
 DATE.        06-JAN-1985:   LOGDATE
 API .       490251101700:   API NUMBER
~CURVE INFORMATION
#MNEM.UNIT       API CODE    CURVE DESCRIPTION
#----------   ------------   ------------------------------
 DEPT.F                  :   
 SPR .MV     11 010 01 00:   SPONTANEOUS POTENTIAL FROM RES.
 RD  .OHMM   11 220 10 00:   RESISTIVITY DEEP
 RS  .OHMM   11 220 09 00:   RESISTIVITY SHALLOW
 RMLL.OHMM   20 270 04 00:   RESISTIVITY MICROLATEROLOG
 AC  .US/F   60 520 00 00:   ACCOUSTIC SONIC
 CNC .DEC    42 890 03 00:   COMPENSATED NEUTRON POROSITY SANDSTONE
 PORD.DEC    45 890 12 00:   POROSITY DENSITY SANDSTONE
 GRD .GAPI   45 310 01 00:   GAMMA RAY FROM DENSITY LOG
 CALD.IN     45 280 60 00:   CALIPER FROM DENSITY
 CORR.G/C3   45 356 01 00:   DENSITY CORRECTION
 DEN .G/C3   45 350 01 00:   COMPENSATED BULK DENSTIY
~PARAMETER INFORMATION
#MNEM.UNIT          VALUE    DESCRIPTION
#----------   ------------   ------------------------------
 PD  .                 GL:   PERMANENT DATUM
 EPD .F            5196.8:   ELEVATION PERMANENT DATUM
 LMF .                 KB:   LOG MEASURED FROM
 DMF .                 KB:   DRILLING MEASURED FROM
 EKB .F            5196.8:   KELLING BUSHING
 EGL .F            5196.8:   GROUND LEVEL
 DATE.        06-JAN-1985:   RUN DATE
 RUN .                  1:   RUN NUMBER
 DD  .F               650:   DEPTH DRILLER
 DL  .F               636:   DEPTH LOGGER
 BLI .F               634:   BOTTOM LOG INTERVAL
 CS  .IN            8.625:   CASING SIZE
 CBD .F                20:   CASING BOTTOM DRILLER
 CBL .F                22:   CASING BOTTOM LOGGER
 BS  .IN             6.25:   BIT SIZE
 BSD .F               650:   BIT SIZE AT DEPTH
 DFT .        KCL POLYMER:   DRILLING FLUID TYPE
 RMS .OHMM           .105:   RESISTIVITY MUD SAMPLE
 MST .F                72:   MUD SAMPLE TEMPERATURE
 RMF .OHMM            .08:   RESISTIVITY MUD FILTRATE SAMPLE
 MFST.F                72:   MUD FILTRATE SAMPLE TEMPERATURE
 RMC .OHMM            .13:   RESISTIVITY MUD CAKE
 MCST.F                72:   MUD CAKE SAMPLE TEMPERATURE
 MFSS.               CALC:   MUD FILTRATE SAMPLE SOURCE
 MCSS.               CALC:   MUD CAKE SAMPLE SOURCE
 TCS .HRS               3:   TIME CURCULATED STOPPED
 LUN .               6307:   LOGGING UNIT NUMBER
 LUL .               GLTE:   LOGGING UNIT LOCATION
 ENGI.               MACK:   RECORDING ENGINEER
 WITN.               PAGE:   WITNESSED BY
 CLNT.            A2DTECH:   CLIENT CODE
 ORIG.           5" PRINT:   ORIGIN OF DATA
 UWI .       490251101700:   UNIQUE WELL ID
 DICO. A2D Technologies, Inc.:   DIGITIZING COMPANY
 R1  . POROSITY WITH SANDSTONE:   REMARKS 1
~OTHER INFORMATION
~A   DEPT      SPR         RD         RS       RMLL         AC        CNC       PORD        GRD       CALD       CORR        DEN   
# ...
  107.5000   -65.8016   216.3081     9.8958  -999.2500   111.4627     0.3357     0.1243   111.3315     6.7636     0.0876     2.4701
  108.0000   -66.1096   101.5712     8.2613  -999.2500   111.2394     0.3270     0.1231   114.0606     6.7629     0.0861     2.4755
  108.5000   -66.2667    40.4581     7.4435  -999.2500   111.0907     0.3255     0.1232   116.7898     6.7621     0.0515     2.4733
  109.0000   -66.2726    30.1743     7.3906  -999.2500   111.0935     0.3170     0.1257   117.5522     6.7614     0.0410     2.4672
  109.5000   -66.4297    27.9992     7.4922  -999.2500   111.3213     0.3128     0.1336   117.3979     6.7606     0.0577     2.4619
  110.0000   -66.7378    27.6052     7.5953  -999.2500   111.4739     0.3156     0.1359   115.6682     6.7599     0.0849     2.4573
  110.5000   -66.8948    27.2463     7.7534  -999.2500   111.4004     0.3125     0.1389   108.0030     6.7591     0.1046     2.4522
  111.0000   -67.0518    27.2425     7.7518  -999.2500   111.1771     0.3074     0.1417   106.0785     6.7584     0.0790     2.4433
  111.5000   -67.2088    27.2380     7.7502  -999.2500   110.9543     0.3065     0.1420   106.7433     6.7576     0.0549     2.4410
  112.0000   -67.2148    27.2342     7.7486  -999.2500   110.8056     0.3168     0.1366   107.9074     6.7567     0.0399     2.4472
  112.5000   -67.3718    27.2305     7.8009  -999.2500   111.0340     0.3169     0.1273   108.9724     6.7713     0.0279     2.4661
  113.0000   -67.3778    27.2267     7.7993  -999.2500   111.1866     0.3147     0.1249   109.8861     6.7704     0.0280     2.4715
  113.5000   -67.3838    27.2229     7.7976  -999.2500   111.3392     0.3141     0.1279   110.4972     6.7696     0.0462     2.4708
  114.0000   -67.3898    27.2192     7.7960  -999.2500   111.1910     0.3192     0.1376   108.5365     6.7689     0.0461     2.4587
  114.5000   -67.3958    27.2154     7.7941  -999.2500   110.8174     0.3268     0.1440   105.5153     6.7681     0.0101     2.4368
  115.0000   -67.4018    27.2117     7.7925  -999.2500   110.5189     0.3185     0.1452   110.3639     6.7674     0.0200     2.4376
  115.5000   -67.4079    27.2079     7.8455  -999.2500   110.2955     0.3147     0.1410   111.1264     6.7666     0.0514     2.4415
  116.0000   -67.4139    27.2042     7.8985  -999.2500   110.4481     0.3138     0.1371   112.3427     6.7659     0.0803     2.4529
  116.5000   -67.2686    27.3897     8.0071  -999.2500   111.0519     0.3093     0.1365   115.9795     6.7651     0.0829     2.4544
  117.0000   -67.2760    27.5775     8.1169  -999.2500   111.2045     0.3039     0.1387   117.1943     6.7644     0.0588     2.4507
  117.5000   -67.1295    27.7656     8.1721  -999.2500   110.8233     0.2982     0.1405   114.4786     6.7636     0.0408     2.4455
  118.0000   -66.9844    27.9540     8.1700  -999.2500   110.1384     0.2985     0.1423   106.7691     6.7629     0.0273     2.4410
  118.5000   -66.9918    27.7570     8.1683  -999.2500   109.5406     0.3212     0.1435   107.3802     6.7621     0.0047     2.4380
  119.0000   -66.9978    27.7532     8.2235  -999.2500   109.1729     0.3276     0.1442   109.0503     6.7614     0.0017     2.4388
  119.5000   -66.8527    27.9425     8.2218  -999.2500   109.1104     0.3305     0.1433   109.9640     6.7606     0.0079     2.4411
  120.0000   -66.8587    28.1340     8.3929  -999.2500   109.1884     0.3296     0.1430   109.3649     6.7599     0.0306     2.4412
  120.5000   -66.7136    28.7206     8.6272  -999.2500   109.1149     0.3076     0.1440   109.6735     6.7591     0.0518     2.4374
  121.0000   -66.7196    29.3214     8.8680  -999.2500   109.0420     0.2959     0.1465   109.9820     6.7584     0.0488     2.4261
  121.5000   -66.7256    29.9337     8.9284  -999.2500   108.9690     0.2965     0.1512   110.1393     6.7576     0.0474     2.4232
  122.0000   -66.5790    30.1379     8.8644  -999.2500   108.7462     0.2980     0.1528   111.3556     6.7567     0.0475     2.4242
  122.5000   -66.5865    29.9244     8.8013  -999.2500   108.5981     0.3239     0.1455   112.7232     6.7559     0.0476     2.4358
  123.0000   -66.5924    29.5081     8.7995  -999.2500   108.1492     0.3330     0.1420   113.7943     6.7552     0.0461     2.4415
  123.5000   -66.5984    28.8965     8.7369  -999.2500   107.7003     0.3303     0.1432   114.8704     6.7544     0.0175     2.4332
  124.0000   -66.6044    28.4945     8.7963  -999.2500   106.9507     0.3282     0.1468   115.7811     6.7537    -0.0111     2.4287
  124.5000   -66.6103    27.9040     8.9169  -999.2500   106.2762     0.3342     0.1484   115.7534     6.7529    -0.0171     2.4288
  125.0000   -66.6163    28.0943     8.9772  -999.2500   105.8273     0.3294     0.1481   114.2663     6.7522     0.0011     2.4296
  125.5000   -66.6224    28.2860     9.1639  -999.2500   105.4537     0.3098     0.1463   110.7939     6.7514     0.0148     2.4357
  126.0000   -66.6284    28.6770     9.2900  -999.2500   105.0799     0.2983     0.1430   108.9845     6.7507     0.0239     2.4426
  126.5000   -66.6344    29.0737     9.5494  -999.2500   104.6311     0.2963     0.1382   107.4776     6.7499     0.0361     2.4487
  127.0000   -66.6405    29.2720     9.6807  -999.2500   104.2574     0.3133     0.1385   106.1221     6.7492     0.0558     2.4450
  127.5000   -66.6477    29.2678     9.8139  -999.2500   103.7333     0.3083     0.1401   104.1613     6.7484     0.0710     2.4397
  128.0000   -66.8047    29.0616     9.8802  -999.2500   103.2092     0.2963     0.1413   104.3186     6.7477     0.0742     2.4405
  128.5000   -66.8107    28.6573     9.9469  -999.2500   102.5347     0.2951     0.1406   105.0810     6.7469     0.0848     2.4481
  129.0000   -66.9677    28.4513     9.9448  -999.2500   101.9355     0.2927     0.1351   106.4486     6.7462     0.0959     2.4633
  129.5000   -67.1247    28.0594    10.0191  -999.2500   101.4866     0.2879     0.1224   109.3290     6.7454     0.1045     2.4785
  130.0000   -67.1307    28.0555    10.1590  -999.2500   101.4131     0.2810     0.1115   114.3275     6.7447     0.1015     2.4930
  130.5000   -67.1367    28.2469    10.3010  -999.2500   102.2430     0.2791     0.1110   114.1822     6.7439     0.0654     2.4976
  131.0000   -67.1427    28.4396    10.5175  -999.2500   103.3730     0.2828     0.1104   110.5573     6.7432     0.0609     2.4999
  131.5000   -66.9961    28.4626    10.8714  -999.2500   103.9768     0.2870     0.1101   107.6889     6.7424     0.0595     2.4999
  132.0000   -66.7014    28.8289    11.2526  -999.2500   104.4301     0.2888     0.1147   107.3908     6.7569     0.0505     2.4977
  132.5000   -66.5563    28.1599    11.6473  -999.2500   104.5827     0.2912     0.1255   108.1547     6.7559     0.0430     2.4910
  133.0000   -66.5623    26.8889    11.4051  -999.2500   104.6602     0.2916     0.1295   106.6479     6.7552     0.0491     2.4759
  133.5000   -66.4172    25.7893    11.0908  -999.2500   104.6624     0.2898     0.1346   106.3498     6.7544     0.0507     2.4578
  134.0000   -66.4232    24.7348    10.7851  -999.2500   104.6647     0.2892     0.1383   107.4163     6.7537     0.0447     2.4479
  134.5000   -66.2780    24.0547    10.5608  -999.2500   104.8925     0.2922     0.1389   110.9019     6.7529     0.0388     2.4457
  135.0000   -66.1329    23.3933    10.3412  -999.2500   105.0526     0.3040     0.1356   114.2362     6.7522     0.0358     2.4482
  135.5000   -66.2901    22.7501    10.1967  -999.2500   105.2827     0.3079     0.1341   114.5447     6.7514     0.0374     2.4523
  136.0000   -66.4511    22.2786    10.1945  -999.2500   105.5008     0.3236     0.1317   111.6763     6.7661     0.0436     2.4626
  136.5000   -66.6042    21.9687    10.1220  -999.2500   105.5030     0.3200     0.1245   111.8396     6.7651     0.0542     2.4740
  137.0000   -66.6103    21.6631    10.0500  -999.2500   105.5057     0.3038     0.1161   113.0499     6.7644     0.0633     2.4861
  137.5000   -66.6163    21.3617    10.0479  -999.2500   105.5079     0.2936     0.1149   112.1610     6.7636     0.0815     2.4907
