~VERSION INFORMATION
 VERS.                2.0:   CWLS LOG ASCII STANDARD - VERSION 2.0
 WRAP.                 NO:   ONE LINE PER DEPTH STEP
~WELL INFORMATION
#MNEM.UNIT      DATA TYPE    INFORMATION
#----------   ------------   ------------------------------
 STRT.F           94.0000:   START DEPTH
 STOP.F          939.0000:   STOP DEPTH
 STEP.F            0.5000:   STEP LENGTH
 NULL.          -999.2500:   NO VALUE
 COMP. U S NAVY/INTEX OIL CO:   COMPANY
 WELL.    NPR #3 #88-S-27:   WELL
 FLD .             TEAPOT:   FIELD
 LOC .      S27 T39N R78W:   LOCATION
 CNTY.            NATRONA:   COUNTY
 STAT.            WYOMING:   STATE
 CTRY. UNITED STATES OF AMERICA:   COUNTRY
 SRVC.       Schlumberger:   SERVICE COMPANY
 DATE.        30-JUL-1963:   LOGDATE
 API .       490250658100:   API NUMBER
~CURVE INFORMATION
#MNEM.UNIT       API CODE    CURVE DESCRIPTION
#----------   ------------   ------------------------------
 DEPT.F                  :   
 SPR .MV     05 010 01 00:   SPONTANEOUS POTENTIAL FROM RES.
 CILD.MMHO   05 110 46 00:   CONDUCTIVITY INDUCTION LOG DEEP
 ASN .OHMM   05 041 16 00:   AMPLIFIED SHORT NORMAL 16"
 ILD .OHMM   05 120 46 00:   INDUCTION LOG DEEP
 GR  .GAPI   30 310 01 00:   GAMMA RAY
~PARAMETER INFORMATION
#MNEM.UNIT          VALUE    DESCRIPTION
#----------   ------------   ------------------------------
 PD  .                 GL:   PERMANENT DATUM
 EPD .F              5069:   ELEVATION PERMANENT DATUM
 LMF .                 KB:   LOG MEASURED FROM
 DAPD.F                 5:   FEET ABOVE PERMANENT DATUM
 DMF .                 KB:   DRILLING MEASURED FROM
 EKB .F              5074:   KELLING BUSHING
 EGL .F              5069:   GROUND LEVEL
 DATE.          7-30-1969:   RUN DATE
 RUN .                  1:   RUN NUMBER
 DD  .F               940:   DEPTH DRILLER
 DL  .F               940:   DEPTH LOGGER
 BLI .F               939:   BOTTOM LOG INTERVAL
 TLI .F                94:   TOP LOG INTERVAL
 CS  .IN            8.625:   CASING SIZE
 CBD .F                10:   CASING BOTTOM DRILLER
 BS  .IN             6.75:   BIT SIZE
 BSD .F               940:   BIT SIZE AT DEPTH
 DFT .            GEL/OIL:   DRILLING FLUID TYPE
 DFD .                9.6:   DRILLING FLUID DENSITY
 DFV .                 40:   DRILLING FLUID VISCOSITY
 DFPH.                  9:   DRILLING FLUID PH
 DFL .                  6:   DRILLING FLUID LOSS
 MSS .          FLOW LINE:   MUD SAMPLE SOURCE
 RMS .OHMM           2.94:   RESISTIVITY MUD SAMPLE
 MST .F                89:   MUD SAMPLE TEMPERATURE
 RMF .OHMM           2.19:   RESISTIVITY MUD FILTRATE SAMPLE
 MFST.F                87:   MUD FILTRATE SAMPLE TEMPERATURE
 MFSS.           MEASURED:   MUD FILTRATE SAMPLE SOURCE
 TCS .HRS               1:   TIME CURCULATED STOPPED
 LUN .               4507:   LOGGING UNIT NUMBER
 LUL .               CSPR:   LOGGING UNIT LOCATION
 ENGI.            WINKLER:   RECORDING ENGINEER
 WITN.          JORGENSEN:   WITNESSED BY
 CLNT.            A2DTECH:   CLIENT CODE
 ORIG.           5" PRINT:   ORIGIN OF DATA
 UWI .       490250658100:   UNIQUE WELL ID
 DICO. A2D Technologies, Inc.:   DIGITIZING COMPANY
~OTHER INFORMATION
~A   DEPT      SPR        CILD         ASN        ILD       GR   
   94.0000   -52.6407   170.1473     6.9246     5.8794  -999.2500
   94.5000   -52.8424   168.7825     7.0513     5.8947  -999.2500
   95.0000   -52.9117   167.4178     7.1698     6.0001  -999.2500
   95.5000   -52.9119   166.3259     7.2913     6.0845  -999.2500
   96.0000   -52.9118   164.9612     7.4253     6.1897  -999.2500
   96.5000   -52.9082   163.0140     7.4871     6.2837  -999.2500
   97.0000   -52.7161   160.5533     7.4535     6.2983  -999.2500
   97.5000   -52.2979   158.0925     7.4077     6.4311  -999.2500
   98.0000   -51.8814   155.6318     7.3655     6.5650  -999.2500
   98.5000   -51.5241   153.1711     7.4383     6.6985  -999.2500
   99.0000   -51.8151   150.7103     7.5774     6.8322  -999.2500
   99.5000   -52.1058   148.2496     7.7165     6.9655  -999.2500
  100.0000   -52.3133   145.7892     7.8598     7.0996  -999.2500
  100.5000   -52.3095   143.3262     7.8893     7.1969  -999.2500
  101.0000   -52.3092   140.8454     7.9679     7.2980  -999.2500
  101.5000   -52.3087   138.1801     8.1247     7.3903  -999.2500
  102.0000   -52.3097   138.2043     8.0468     7.3580  -999.2500
  102.5000   -52.3590   143.7167     7.9263     7.1066  -999.2500
  103.0000   -52.5682   150.1167     7.8568     6.8532  -999.2500
  103.5000   -52.7688   156.4895     7.8454     6.6007  -999.2500
  104.0000   -52.9138   162.8185     7.5689     6.3515  -999.2500
  104.5000   -52.8309   168.4055     7.2637     6.1782  -999.2500
  105.0000   -52.4823   168.3263     6.9583     6.1739  -999.2500
  105.5000   -52.1488   168.3512     6.9983     6.1164  -999.2500
  106.0000   -52.1076   171.2225     7.0835     6.0227  -999.2500
  106.5000   -52.1085   174.3719     6.9201     5.8753  -999.2500
  107.0000   -52.1133   172.3618     6.8061     5.8999  -999.2500
  107.5000   -51.9331   168.6097     7.1942     6.0454  -999.2500
  108.0000   -51.7310   164.6857     7.4196     6.1902  -999.2500
  108.5000   -51.7851   160.7616     7.4030     6.3352  -999.2500
  109.0000   -51.8782   157.2864     7.3682     6.4766  -999.2500
  109.5000   -51.8508   156.1286     7.3637     6.4832  -999.2500
  110.0000   -51.7693   154.1105     7.4870     6.5252  -999.2500
  110.5000   -51.7056   151.1938     7.6411     6.7876  -999.2500
  111.0000   -51.7039   145.7748     7.7941     7.0478  -999.2500
  111.5000   -51.5765   140.3559     8.0642     7.3073  -999.2500
  112.0000   -51.3074   134.9369     8.3620     7.5669  -999.2500
  112.5000   -51.4281   129.5180     8.6597     7.8269  -999.2500
  113.0000   -51.6150   124.1206     8.9587     8.0857  -999.2500
  113.5000   -51.8026   121.3065     9.0127     8.2967  -999.2500
  114.0000   -51.9083   119.0955     8.8880     8.2931  -999.2500
  114.5000   -51.9075   118.0904     9.0336     8.2847  -999.2500
  115.0000   -51.9087   118.5327     9.2036     8.4000  -999.2500
  115.5000   -51.9631   121.9922     9.3381     8.2820  -999.2500
  116.0000   -52.0940   125.4518     9.2350     8.1108  -999.2500
  116.5000   -51.9407   128.9114     8.9912     7.9374  -999.2500
  117.0000   -51.7389   132.3710     8.8099     7.7638  -999.2500
  117.5000   -51.7067   135.8306     8.7088     7.5901  -999.2500
  118.0000   -51.7065   139.2902     8.5965     7.4172  -999.2500
  118.5000   -51.7058   141.2060     8.4859     7.2834  -999.2500
  119.0000   -51.7094   141.2060     8.3752     7.2863  -999.2500
  119.5000   -51.5022   141.2060     8.2643     7.2871  -999.2500
  120.0000   -51.5119   141.4262     8.1534     7.2818  -999.2500
  120.5000   -51.9201   141.9067     8.0526     7.1799  -999.2500
  121.0000   -51.8992   142.3872     8.0965     7.0868  -999.2500
  121.5000   -51.6149   142.8677     8.1987     7.0848  -999.2500
  122.0000   -51.6476   142.9189     8.2978     7.0845  -999.2500
  122.5000   -51.8754   141.8378     8.2232     7.1149  -999.2500
  123.0000   -51.6355   140.7566     8.1229     7.1488  -999.2500
  123.5000   -51.3141   140.2461     8.0697     7.1834  -999.2500
  124.0000   -51.2444   141.5013     8.1031     7.1428  -999.2500
  124.5000   -51.1867   142.7847     8.1491     7.0939  -999.2500
  125.0000   -51.1280   143.9885     8.1910     7.0449  -999.2500
  125.5000   -51.1048   145.2030     8.1908     6.9961  -999.2500
  126.0000   -51.0789   146.4176     8.1276     6.9472  -999.2500
  126.5000   -50.9330   147.6322     8.0571     6.8984  -999.2500
  127.0000   -50.7893   148.8468     7.9867     6.8496  -999.2500
  127.5000   -50.7091   150.0614     7.9163     6.8008  -999.2500
  128.0000   -50.9724   151.2760     7.8458     6.7519  -999.2500
  128.5000   -51.2528   152.4906     7.7758     6.7031  -999.2500
  129.0000   -51.3045   153.7052     7.7064     6.6544  -999.2500
  129.5000   -51.3716   154.2714     7.7081     6.6052  -999.2500
  130.0000   -51.4843   152.2825     7.7068     6.5816  -999.2500
  130.5000   -51.5059   150.1582     7.7872     6.6578  -999.2500
  131.0000   -51.5063   148.0338     7.8929     6.7584  -999.2500
  131.5000   -51.5061   146.2108     7.9995     6.8597  -999.2500
  132.0000   -51.5062   146.9170     8.1147     6.9636  -999.2500
  132.5000   -51.5053   147.6362     7.8274     6.9804  -999.2500
  133.0000   -51.4579   148.3589     7.6153     6.9509  -999.2500
  133.5000   -51.3229   149.0797     7.8037     6.9208  -999.2500
  134.0000   -51.1908   149.8004     8.0831     6.8901  -999.2500
  134.5000   -51.1031   150.5212     7.9121     6.8959  -999.2500
  135.0000   -51.1046   151.2563     7.8700     6.9106  -999.2500
  135.5000   -51.1044   150.7227     7.8669     6.9255  -999.2500
  136.0000   -51.1044   149.8062     7.9665     6.9404  -999.2500
  136.5000   -51.1043   148.8860     7.9212     6.9553  -999.2500
  137.0000   -51.1042   147.9733     7.8257     6.9702  -999.2500
  137.5000   -51.1053   147.4372     7.9581     6.9845  -999.2500
  138.0000   -51.1680   148.4462     8.1737     6.9850  -999.2500
  138.5000   -51.3585   149.4553     8.2110     6.9849  -999.2500
  139.0000   -51.5459   149.9564     8.1878     6.9849  -999.2500
  139.5000   -51.7121   148.4525     8.0582     6.9853  -999.2500
  140.0000   -51.5862   146.9711     7.9302     7.0080  -999.2500
  140.5000   -51.3558   145.4772     7.8187     7.0649  -999.2500
  141.0000   -51.3058   145.2309     8.0015     7.0850  -999.2500
  141.5000   -51.3046   145.2433     8.1931     7.0868  -999.2500
  142.0000   -51.3052   145.2261     8.3846     7.1628  -999.2500
  142.5000   -51.2771   141.2543     8.4948     7.3442  -999.2500
  143.0000   -51.2246   137.4199     8.5625     7.5240  -999.2500
  143.5000   -51.1719   133.5855     8.6292     7.7043  -999.2500
  144.0000   -51.1229   129.7512     8.6966     7.8851  -999.2500
  144.5000   -50.8613   126.1307     8.8101     8.0659  -999.2500
  145.0000   -50.7643   127.0184     9.1010     8.0922  -999.2500
  145.5000   -50.8767   127.8593     9.4135     8.0367  -999.2500
  146.0000   -50.9016   128.1407     9.5585     7.9884  -999.2500
  146.5000   -50.9725   128.1407     9.1341     8.0156  -999.2500
  147.0000   -51.0672   128.1407     8.9167     8.0456  -999.2500
  147.5000   -51.1625   128.1407     9.2936     8.0749  -999.2500
  148.0000   -51.2582   129.1234     9.1769     8.0693  -999.2500
  148.5000   -51.3972   130.5658     8.9912     7.9779  -999.2500
  149.0000   -51.5783   132.0082     8.9139     7.8901  -999.2500
  149.5000   -51.7084   133.4506     8.9130     7.8023  -999.2500
  150.0000   -51.5419   134.8930     8.8441     7.7107  -999.2500
  150.5000   -51.3513   136.1809     8.7013     7.6889  -999.2500
  151.0000   -51.3070   136.1809     8.6140     7.6885  -999.2500
  151.5000   -51.2408   136.1809     8.6676     7.6742  -999.2500
  152.0000   -51.1525   136.8654     8.6216     7.5576  -999.2500
  152.5000   -51.0634   138.9434     8.4500     7.4404  -999.2500
  153.0000   -50.9743   141.0201     8.3672     7.3234  -999.2500
  153.5000   -50.8849   143.0996     8.3048     7.2065  -999.2500
  154.0000   -50.7949   145.1777     8.2884     7.0895  -999.2500
  154.5000   -50.7079   147.2558     8.1456     6.9726  -999.2500
