~VERSION INFORMATION
 VERS.                2.0:   CWLS LOG ASCII STANDARD - VERSION 2.0
 WRAP.                 NO:   ONE LINE PER DEPTH STEP
~WELL INFORMATION
#MNEM.UNIT      DATA TYPE    INFORMATION
#----------   ------------   ------------------------------
 STRT.F           35.0000:   START DEPTH
 STOP.F          977.0000:   STOP DEPTH
 STEP.F            0.5000:   STEP LENGTH
 NULL.          -999.2500:   NO VALUE
 COMP. FENIX & SCISSON INC:   COMPANY
 WELL.  NPR-3 "SX" #52-14:   WELL
 FLD .             TEAPOT:   FIELD
 LOC .      S14 T38N R78W:   LOCATION
 CNTY.            NATRONA:   COUNTY
 STAT.            WYOMING:   STATE
 CTRY. UNITED STATES OF AMERICA:   COUNTRY
 SRVC.            Unknown:   SERVICE COMPANY
 DATE.        13-MAR-1978:   LOGDATE
 API .       490251059900:   API NUMBER
~CURVE INFORMATION
#MNEM.UNIT       API CODE    CURVE DESCRIPTION
#----------   ------------   ------------------------------
 DEPT.F                  :   
 CALD.IN     45 280 60 00:   CALIPER FROM DENSITY LOG
 GRD .GAPI   45 310 01 00:   GAMMA RAY FROM DENSITY LOG
 CORR.G/C3   45 356 01 00:   DENSITY CORRECTION
 RHOB.G/C3   45 350 01 00:   BULK DENSITY
 DPHI.DEC    45 890 12 00:   DENSITY POROSITY SANDSTONE
 SPR .MV     07 010 01 00:   SPONTANEOUS POTENTIAL FROM RES. LOG
 ILD .OHMM   07 120 46 00:   INDUCTION LOG DEEP
 SN  .OHMM   07 040 16 00:   SHORT NORMAL 16'
~PARAMETER INFORMATION
#MNEM.UNIT          VALUE    DESCRIPTION
#----------   ------------   ------------------------------
 PD  .                 GL:   PERMANENT DATUM
 EPD .F              5223:   ELEVATION PERMANENT DATUM
 LMF .                 KB:   LOG MEASURED FROM
 DAPD.F                 4:   FEET ABOVE PERMANENT DATUM
 DMF .                 KB:   DRILLING MEASURED FROM
 EKB .F              5227:   KELLING BUSHING
 EGL .F              5223:   GROUND LEVEL
 DATE.            3-13-78:   RUN DATE
 RUN .                  1:   RUN NUMBER
 DD  .F               975:   DEPTH DRILLER
 DL  .F               977:   DEPTH LOGGER
 BLI .F               971:   BOTTOM LOG INTERVAL
 TLI .F                50:   TOP LOG INTERVAL
 CS  .IN            8.625:   CASING SIZE
 CBD .F                40:   CASING BOTTOM DRILLER
 CBL .F                40:   CASING BOTTOM LOGGER
 BS  .IN            7.875:   BIT SIZE
 BSD .F               975:   BIT SIZE AT DEPTH
 DFT .                KCL:   DRILLING FLUID TYPE
 DFD .                8.6:   DRILLING FLUID DENSITY
 DFV .                 33:   DRILLING FLUID VISCOSITY
 DFPH.               10.5:   DRILLING FLUID PH
 DFL .               11.6:   DRILLING FLUID LOSS
 MSS .          FLOW LINE:   MUD SAMPLE SOURCE
 RMS .OHMM            .34:   RESISTIVITY MUD SAMPLE
 MST .F                60:   MUD SAMPLE TEMPERATURE
 RMF .OHMM            .36:   RESISTIVITY MUD FILTRATE SAMPLE
 MFST.F                62:   MUD FILTRATE SAMPLE TEMPERATURE
 RMC .OHMM            .75:   RESISTIVITY MUD CAKE
 MCST.F                59:   MUD CAKE SAMPLE TEMPERATURE
 MFSS.               MEAS:   MUD FILTRATE SAMPLE SOURCE
 MCSS.               MEAS:   MUD CAKE SAMPLE SOURCE
 RMB .OHMM            .27:   RESISTIVITY MUD AT BHT
 BHT .F                75:   BOTTOM HOLE TEMPERATURE
 TCS .HRS               4:   TIME CURCULATED STOPPED
 MRT .F                75:   MAXIMUM RECORDED TEMPERATURE
 LUN .               2958:   LOGGING UNIT NUMBER
 LUL .               CASP:   LOGGING UNIT LOCATION
 ENGI.             MILLER:   RECORDING ENGINEER
 WITN.            RHOADES:   WITNESSED BY
 CLNT.            A2DTECH:   CLIENT CODE
 ORIG.       2", 5" PRINT:   ORIGIN OF DATA
 UWI .       490251059900:   UNIQUE WELL ID
 DICO. A2D Technologies, Inc.:   DIGITIZING COMPANY
~OTHER INFORMATION
~A   DEPT     CALD         GRD      CORR       RHOB       DPHI        SPR        ILD         SN   
# ...
  318.5000     8.0444    78.6828     0.0012     2.3168     0.1984   -55.7753     3.8220     4.1950
  319.0000     8.0437    79.2547     0.0032     2.3124     0.2064   -55.6025     3.8589     4.0995
  319.5000     8.0430    80.6423     0.0051     2.2999     0.2145   -55.6584     3.7736     4.0060
  320.0000     8.0422    82.1776     0.0070     2.2798     0.2226   -55.7185     3.6348     3.9152
  320.5000     8.0415    84.0523     0.0089     2.2628     0.2267   -55.7790     3.5012     3.8205
  321.0000     8.0408    85.1709     0.0111     2.2610     0.2292   -55.7293     3.4043     3.7223
  321.5000     8.0401    85.3731     0.0148     2.2587     0.2317   -55.6347     3.3076     3.5418
  322.0000     8.0393    89.6653     0.0187     2.2515     0.2343   -55.5408     3.1385     3.3725
  322.5000     8.0386    80.6514     0.0268     2.2450     0.2357   -55.4490     2.9341     3.2113
  323.0000     8.0379    84.1290     0.0349     2.2525     0.2196   -55.5694     2.7444     3.1520
  323.5000     8.0372    78.9405     0.0376     2.2864     0.1957   -56.0153     2.6941     3.1233
  324.0000     8.0365    79.0194     0.0124     2.3665     0.1687   -56.0632     2.7664     3.1656
  324.5000     8.0357    80.0376     0.0146     2.3907     0.1464   -55.4209     2.8278     3.2017
  325.0000     8.0350    81.0278     0.0177     2.3906     0.1480   -54.8080     2.8906     3.3918
  325.5000     8.0343    82.2676     0.0239     2.3786     0.1448   -54.8842     2.9549     3.6370
  326.0000     8.0336    86.7645     0.0248     2.4028     0.1589   -55.1404     3.1692     3.9565
  326.5000     8.0328    89.8929     0.0083     2.3741     0.1634   -55.1899     3.3995     4.4780
  327.0000     8.0321    89.7393     0.0041     2.3644     0.1689   -55.2799     3.6466     4.4721
  327.5000     8.0314    89.4433     0.0007     2.3577     0.1837   -55.7848     3.9119     4.4623
  328.0000     8.0307    89.5563     0.0005     2.3354     0.1856   -55.9880     4.0828     4.4525
  328.5000     8.0299    91.7795     0.0062     2.3261     0.1866   -55.9882     4.0843     4.4428
  329.0000     8.0292    92.6743     0.0106     2.3276     0.1945   -56.2555     3.9662     4.4106
  329.5000     8.0285    87.5879     0.0105     2.3232     0.1942   -56.7260     3.8226     4.2853
  330.0000     8.0278    83.6172     0.0105     2.3124     0.2000   -55.8206     3.6846     4.1481
  330.5000     8.0270    86.8817     0.0105     2.2894     0.2122   -55.7923     3.5631     4.0153
  331.0000     8.0263    91.6209     0.0105     2.2783     0.2244   -56.0303     3.3814     3.8521
  331.5000     8.0256    92.9187     0.0116     2.2663     0.2365   -56.2772     3.1097     3.6410
  332.0000     8.0249    98.8703     0.0183     2.2486     0.2437   -56.5295     2.8594     3.4416
  332.5000     8.0241   104.7212     0.0251     2.2308     0.2415   -56.0712     2.6468     3.2530
  333.0000     8.0234    96.4158     0.0353     2.2299     0.2164   -55.2160     2.4792     3.0946
  333.5000     8.0227    86.5847     0.0382     2.2626     0.1876   -55.1854     2.5089     3.0426
  334.0000     8.0220    79.6774     0.0090     2.3211     0.1589   -55.1889     2.5919     3.1014
  334.5000     8.0212    78.6959     0.0039     2.3825     0.1456   -55.1860     2.6777     3.2825
  335.0000     8.0205    81.8945     0.0098     2.3928     0.1414   -54.7958     2.7696     3.4741
  335.5000     8.0198    84.0872     0.0160     2.3997     0.1379   -53.6313     2.9268     3.7117
  336.0000     8.0191    83.8263     0.0205     2.4019     0.1361   -53.7783     3.0996     4.2257
  336.5000     8.0184    83.5728     0.0199     2.4029     0.1357   -54.2620     3.2849     4.9817
  337.0000     8.0176    84.3843     0.0195     2.4039     0.1358   -54.4887     3.7554     5.4871
  337.5000     8.0169    84.7658     0.0190     2.4026     0.1360   -53.7907     4.4368     5.7019
  338.0000     8.0162    83.0607     0.0186     2.4012     0.1360   -53.1994     4.7826     5.8835
  338.5000     8.0160    82.7304     0.0219     2.4036     0.1340   -53.5824     4.9569     5.9697
  339.0000     8.0160    83.2771     0.0254     2.4122     0.1280   -53.7934     4.9562     6.0573
  339.5000     8.0160    83.7794     0.0244     2.4278     0.1208   -54.0487     4.9578     6.1461
  340.0000     8.0160    82.5898     0.0148     2.4394     0.1180   -54.1705     4.9559     6.3120
  340.5000     8.0160    79.3781     0.0045     2.4207     0.1156   -54.0802     5.1201     6.5491
  341.0000     8.0160    80.7711     0.0163     2.4393     0.1125   -53.9979     5.2962     6.7952
  341.5000     8.0160    83.3008     0.0260     2.4546     0.1092   -53.9120     5.4783     7.0504
  342.0000     8.0160    85.7777     0.0245     2.4533     0.1115   -53.8261     5.6666     7.2534
  342.5000     8.0160    85.8355     0.0231     2.4514     0.1124   -53.3320     5.8617     7.4070
  343.0000     8.0160    85.2730     0.0179     2.4455     0.1157   -52.5942     6.0633     7.5126
  343.5000     8.0160    85.0000     0.0109     2.4392     0.1195   -52.5928     6.2443     7.5124
  344.0000     8.0160    86.2163     0.0106     2.4344     0.1230   -52.5947     6.2377     7.5121
  344.5000     8.0160    87.5481     0.0108     2.4328     0.1240   -52.5867     6.2311     7.4695
  345.0000     8.0160    87.6007     0.0110     2.4313     0.1248   -52.9052     6.2248     7.4237
  345.5000     8.0160    88.5501     0.0112     2.4258     0.1269   -53.3349     6.2184     7.3745
  346.0000     8.0160    90.0236     0.0114     2.4217     0.1280   -53.7658     6.2120     7.3706
  346.5000     8.0160    87.1042     0.0115     2.4251     0.1257   -53.2336     6.2057     7.3663
  347.0000     8.0160    84.8851     0.0117     2.4260     0.1212   -52.9178     6.1993     7.3621
  347.5000     8.0160    84.9459     0.0119     2.4307     0.1237   -53.4111     6.1930     7.3578
  348.0000     8.0160    83.0268     0.0121     2.4297     0.1259   -53.8887     6.1866     7.3536
  348.5000     8.0161    82.3511     0.0122     2.4260     0.1282   -54.3624     6.1803     7.3493
  349.0000     8.0161    86.7069     0.0125     2.4223     0.1305   -53.2432     6.1740     7.3451
  349.5000     8.0156    92.3693     0.0144     2.4190     0.1312   -52.5250     6.1676     7.3409
  350.0000     7.9951    92.3731     0.0186     2.4184     0.1315   -52.3665     6.1613     7.3367
  350.5000     7.9519    86.4330     0.0227     2.4164     0.1390   -52.2049     6.1550     7.3324
  351.0000     7.9091    84.2017     0.0328     2.4055     0.1464   -52.5289     6.1487     7.3282
  351.5000     7.8806    85.1549     0.0474     2.3948     0.1461   -53.1923     6.1424     7.3240
  352.0000     7.9107    90.3192     0.0624     2.3939     0.1288   -53.8318     6.1361     7.3198
  352.5000     7.9352    91.9748     0.0543     2.4142     0.1306   -53.7500     6.1304     7.3156
  353.0000     7.9211    91.0626     0.0443     2.4072     0.1331   -53.3955     6.1755     7.3117
  353.5000     7.9446    89.9714     0.0435     2.4071     0.1356   -49.9751     6.2265     7.3077
  354.0000     7.9929    87.9707     0.0509     2.4108     0.1356   -49.9857     6.2779     7.3431
  354.5000     8.0436    85.9671     0.0584     2.4197     0.1205   -50.3214     6.3301     7.4307
  355.0000     8.0747    84.2379     0.0660     2.4375     0.1076   -50.6488     6.3829     7.6332
  355.5000     8.1009    83.2036     0.0700     2.4621     0.1072   -51.0626     6.4213     7.8413
  356.0000     8.1274    82.3223     0.0454     2.4361     0.1191   -52.0893     6.5491     7.8916
  356.5000     8.1204    82.2136     0.0198     2.4255     0.1272   -52.3347     6.6710     7.9197
  357.0000     8.0966    82.9591     0.0109     2.4205     0.1278   -51.8090     6.7861     7.9401
  357.5000     8.0756    83.9569     0.0134     2.4305     0.1248   -52.0738     6.7352     7.9401
  358.0000     8.0761    86.3552     0.0158     2.4320     0.1212   -52.4744     6.6772     7.9401
  358.5000     8.0761    86.6740     0.0098     2.4260     0.1276   -53.1464     6.6198     7.9401
