~VERSION INFORMATION
 VERS.                2.0:   CWLS LOG ASCII STANDARD - VERSION 2.0
 WRAP.                 NO:   ONE LINE PER DEPTH STEP
~WELL INFORMATION
#MNEM.UNIT      DATA TYPE    INFORMATION
#----------   ------------   ------------------------------
 STRT.F           30.0000:   START DEPTH
 STOP.F          744.0000:   STOP DEPTH
 STEP.F            0.5000:   STEP LENGTH
 NULL.          -999.2500:   NO VALUE
 COMP. FENIX & SCISSON INC:   COMPANY
 WELL.   NPR 3 #53 S - 34:   WELL
 FLD .             TEAPOT:   FIELD
 LOC .      S34 T39N R78W:   LOCATION
 CNTY.            NATRONA:   COUNTY
 STAT.            WYOMING:   STATE
 CTRY. UNITED STATES OF AMERICA:   COUNTRY
 SRVC.       Schlumberger:   SERVICE COMPANY
 DATE.        28-MAR-1977:   LOGDATE
 API .       490251031700:   API NUMBER
~CURVE INFORMATION
#MNEM.UNIT       API CODE    CURVE DESCRIPTION
#----------   ------------   ------------------------------
 DEPT.F                  :   
 CALD.IN     45 280 60 00:   CALIPER FROM DENSITY LOG
 GRD .GAPI   45 310 01 00:   GAMMA RAY FROM DENSITY LOG
 CORR.G/C3   45 356 01 00:   DENSITY CORRECTION
 DPHI.DEC    45 890 12 00:   DENSITY POROSITY SANDSTONE
 RHOB.G/C3   45 350 01 00:   BULK DENSITY
~PARAMETER INFORMATION
#MNEM.UNIT          VALUE    DESCRIPTION
#----------   ------------   ------------------------------
 PD  .                 GL:   PERMANENT DATUM
 EPD .F              5081:   ELEVATION PERMANENT DATUM
 LMF .                 GL:   LOG MEASURED FROM
 DAPD.F                 5:   FEET ABOVE PERMANENT DATUM
 DMF .                 KB:   DRILLING MEASURED FROM
 EKB .F              5086:   KELLING BUSHING
 EGL .F              5081:   GROUND LEVEL
 DATE.        20-MAR-1977:   RUN DATE
 RUN .                  1:   RUN NUMBER
 DD  .F               751:   DEPTH DRILLER
 DL  .F               745:   DEPTH LOGGER
 BLI .F               744:   BOTTOM LOG INTERVAL
 TLI .F                30:   TOP LOG INTERVAL
 CBL .F                38:   CASING BOTTOM LOGGER
 BS  .IN            7.875:   BIT SIZE
 BSD .F               751:   BIT SIZE AT DEPTH
 DFT .             5% KCL:   DRILLING FLUID TYPE
 MSS .           MUD TANK:   MUD SAMPLE SOURCE
 RMS .OHMM            .23:   RESISTIVITY MUD SAMPLE
 MST .F                68:   MUD SAMPLE TEMPERATURE
 RMF .OHMM            .18:   RESISTIVITY MUD FILTRATE SAMPLE
 MFST.F                68:   MUD FILTRATE SAMPLE TEMPERATURE
 RMC .OHMM            .35:   RESISTIVITY MUD CAKE
 MCST.F                68:   MUD CAKE SAMPLE TEMPERATURE
 MFSS.               MEAS:   MUD FILTRATE SAMPLE SOURCE
 MCSS.               CALC:   MUD CAKE SAMPLE SOURCE
 RMB .OHMM            .24:   RESISTIVITY MUD AT BHT
 BHT .F                60:   BOTTOM HOLE TEMPERATURE
 TCS .HRS            0300:   TIME CURCULATED STOPPED
 MRT .F                60:   MAXIMUM RECORDED TEMPERATURE
 LUN .               7680:   LOGGING UNIT NUMBER
 LUL .               CSPR:   LOGGING UNIT LOCATION
 ENGI.                FIX:   RECORDING ENGINEER
 WITN.              BURKE:   WITNESSED BY
 CLNT.            A2DTECH:   CLIENT CODE
 ORIG.           5" PRINT:   ORIGIN OF DATA
 UWI .       490251031700:   UNIQUE WELL ID
 DICO. A2D Technologies, Inc.:   DIGITIZING COMPANY
~OTHER INFORMATION
~A   DEPT     CALD        GRD       CORR       DPHI       RHOB   
# ...
  701.0000     8.2635    80.0126     0.0087     0.0978     2.5021
  701.5000     8.2648    77.6493     0.0219     0.0772     2.5146
  702.0000     8.2815    76.1970     0.0289     0.0707     2.5357
  702.5000     8.2829    78.5290     0.0212     0.0815     2.5218
  703.0000     8.2842    81.7856     0.0228     0.0889     2.5167
  703.5000     8.2855    79.8034     0.0128     0.0902     2.5049
  704.0000     8.2868    79.3567     0.0186     0.0860     2.5046
  704.5000     8.3036    81.5399     0.0238     0.0823     2.5144
  705.0000     8.3049    82.6554     0.0238     0.0795     2.5192
  705.5000     8.3062    80.9600     0.0278     0.0835     2.5200
  706.0000     8.3076    79.2860     0.0232     0.0869     2.5101
  706.5000     8.3089    79.3068     0.0124     0.0893     2.5062
  707.0000     8.3102    78.5572     0.0187     0.0819     2.5118
  707.5000     8.3115    77.8076     0.0215     0.0767     2.5220
  708.0000     8.3129    77.2069     0.0290     0.0731     2.5306
  708.5000     8.3142    77.2464     0.0274     0.0734     2.5276
  709.0000     8.3155    79.5598     0.0251     0.0768     2.5246
  709.5000     8.3168    80.9674     0.0252     0.0805     2.5222
  710.0000     8.3179    80.2178     0.0237     0.0910     2.5168
  710.5000     8.3192    81.4713     0.0222     0.0882     2.5054
  711.0000     8.3205    83.9575     0.0190     0.0997     2.4962
  711.5000     8.3218    84.4577     0.0129     0.1058     2.4893
  712.0000     8.3231    83.2235     0.0046     0.1048     2.4755
  712.5000     8.3245    81.7035     0.0008     0.0989     2.4942
  713.0000     8.3103    80.6457     0.0070     0.0964     2.4950
  713.5000     8.3117    80.5073     0.0125     0.0970     2.4928
  714.0000     8.3130    80.9956     0.0195     0.0895     2.5084
  714.5000     8.3143    81.1653     0.0320     0.0814     2.5171
  715.0000     8.3157    79.9232     0.0367     0.0902     2.5109
  715.5000     8.3170    78.4334     0.0306     0.1012     2.5010
  716.0000     8.3183    74.4481     0.0175     0.1040     2.4863
  716.5000     8.3196    73.2363     0.0183     0.1005     2.4841
  717.0000     8.3210    73.5652     0.0091     0.1098     2.4842
  717.5000     8.3068    75.2810     0.0030     0.1092     2.4858
  718.0000     8.3082    75.2974    -0.0001     0.1061     2.4929
  718.5000     8.3095    74.5470     0.0357     0.0873     2.5279
  719.0000     8.3108    73.1811     0.0534     0.0690     2.5396
  719.5000     8.2967    71.5070     0.0403     0.0746     2.5296
  720.0000     8.2980    71.9901     0.0342     0.0717     2.5328
  720.5000     8.2836    73.5518     0.0258     0.0826     2.5182
  721.0000     8.2853    76.3976     0.0235     0.0856     2.5090
  721.5000     8.2866    80.7555     0.0290     0.0974     2.4959
  722.0000     8.2879    84.3949     0.0318     0.0775     2.5216
  722.5000     8.2890    85.0320     0.0276     0.0874     2.5170
  723.0000     8.2903    84.2824     0.0199     0.0945     2.5008
  723.5000     8.2916    83.2247     0.0091     0.1010     2.4905
  724.0000     8.2929    82.0129     0.0006     0.0970     2.4892
  724.5000     8.2942    81.8744     0.0069     0.0929     2.5011
  725.0000     8.2955    82.5116     0.0141     0.0862     2.5151
  725.5000     8.2968    82.8406     0.0311     0.0770     2.5206
  726.0000     8.2982    83.0155     0.0341     0.0968     2.4990
  726.5000     8.2995    80.7250     0.0195     0.0993     2.4935
  727.0000     8.3008    79.0510     0.0211     0.1030     2.4891
  727.5000     8.3021    79.5340     0.0197     0.0974     2.4853
  728.0000     8.3035    80.9983     0.0205     0.1032     2.4847
  728.5000     8.3048    82.9603     0.0193     0.1041     2.4902
  729.0000     8.3061    82.0567     0.0113     0.1016     2.4949
  729.5000     8.2917    79.9203     0.0191     0.0969     2.4989
  730.0000     8.2933    78.8626     0.0161     0.0994     2.5015
  730.5000     8.2947    78.2671     0.0185     0.0863     2.5069
  731.0000     8.2802    78.1048     0.0139     0.0897     2.5079
  731.5000     8.2819    77.6872     0.0124     0.0937     2.5008
  732.0000     8.2523    77.5532     0.0125     0.0943     2.4978
  732.5000     8.2379    77.4155     0.0157     0.0927     2.5150
  733.0000     8.2238    77.9037     0.0265     0.0896     2.5345
  733.5000     8.2255    79.1572     0.0483     0.0693     2.5458
  734.0000     8.2268    80.7189     0.0824     0.0634     2.5502
  734.5000     8.2281    81.3647     0.0894     0.0693     2.5402
  735.0000     8.2292    81.6799     0.0369     0.0882     2.5085
  735.5000     8.2150    80.9303     0.0338     0.0785     2.5124
  736.0000     8.2163    80.0266     0.0393     0.0704     2.5327
  736.5000     8.2022    80.2015     0.0324     0.0831     2.5274
  737.0000     8.2035    81.1468     0.0332     0.0890     2.5185
  737.5000     8.2049    81.8310     0.0372     0.0871     2.5066
  738.0000     8.1907    82.8803     0.0225     0.1026     2.4884
  738.5000     8.1766    83.5154     0.0404     0.0883     2.5021
  739.0000     8.1625    83.2280     0.0507     0.0851     2.5108
  739.5000     8.1484    82.9355     0.0459     0.0901     2.5085
  740.0000     8.1188    82.1911     0.0450     0.1034     2.4877
  740.5000     8.0890    79.2844     0.0429     0.1161     2.4649
  741.0000     8.0749    77.4227     0.0384     0.1276     2.4436
  741.5000     8.0303    79.9371     0.0485     0.1384     2.4197
  742.0000     7.9081    84.8886     0.0609     0.1483     2.4190
  742.5000     7.6317    85.5258     0.0726     0.1500     2.4183
  743.0000     7.2935    85.0844     0.1098     0.1570     2.4021
  743.5000     6.8164    82.6399     0.1254     0.1855     2.3037
  744.0000     6.0713    82.5014     0.1180     0.2131     2.2983
