~VERSION INFORMATION
 VERS.                2.0:   CWLS LOG ASCII STANDARD - VERSION 2.0
 WRAP.                 NO:   ONE LINE PER DEPTH STEP
~WELL INFORMATION
#MNEM.UNIT      DATA TYPE    INFORMATION
#----------   ------------   ------------------------------
 STRT.F           30.0000:   START DEPTH
 STOP.F          506.0000:   STOP DEPTH
 STEP.F            0.5000:   STEP LENGTH
 NULL.          -999.2500:   NO VALUE
 COMP. FENIX & SCISSON INC:   COMPANY
 WELL.    42 SX-3F1 #55-3:   WELL
 FLD .             TEAPOT:   FIELD
 LOC .       S3 T38N R78W:   LOCATION
 CNTY.            NATRONA:   COUNTY
 STAT.            WYOMING:   STATE
 CTRY. UNITED STATES OF AMERICA:   COUNTRY
 SRVC.              Welex:   SERVICE COMPANY
 DATE.        26-MAY-1980:   LOGDATE
 API .       490251082900:   API NUMBER
~CURVE INFORMATION
#MNEM.UNIT       API CODE    CURVE DESCRIPTION
#----------   ------------   ------------------------------
 DEPT.F                  :   
 GRD .GAPI   45 310 01 00:   GAMMA RAY FROM DENSITY LOG
 CALD.IN     45 280 60 00:   CALIPER
 RHOB.G/C3   45 350 01 00:   BULK DENSITY
 CORR.G/C3   45 356 01 00:   DENSITY CORRECTION
 DPHI.DEC    45 890 12 00:   DENSITY POROSITY SANDSTONE
 NPHI.DEC    42 890 03 00:   NEUTRON POROSITY SANDSTONE
 GURD.OHMM   07 220 05 00:   GUARD RESISTIVITY
 ILD .OHMM   07 120 46 00:   INDUCTION LOG DEEP
 ILM .OHMM   07 120 44 00:   INDUCTION LOG MEDIUM
 SPR .MV     07 010 01 00:   SPONTANEOUS POTENTIAL
~PARAMETER INFORMATION
#MNEM.UNIT          VALUE    DESCRIPTION
#----------   ------------   ------------------------------
 PD  .                 GL:   PERMANENT DATUM
 EPD .F              5161:   ELEVATION PERMANENT DATUM
 LMF .                 KB:   LOG MEASURED FROM
 DAPD.F                 4:   FEET ABOVE PERMANENT DATUM
 DMF .                 KB:   DRILLING MEASURED FROM
 EKB .F              5165:   KELLING BUSHING
 EGL .F              5161:   GROUND LEVEL
 DATE.            5-26-80:   RUN DATE
 RUN .                  1:   RUN NUMBER
 DD  .F               500:   DEPTH DRILLER
 DL  .F               502:   DEPTH LOGGER
 BLI .F               500:   BOTTOM LOG INTERVAL
 TLI .F                34:   TOP LOG INTERVAL
 BS  .IN            9.875:   BIT SIZE
 BSD .F               500:   BIT SIZE AT DEPTH
 DFT .          KCL WATER:   DRILLING FLUID TYPE
 DFD .                9.5:   DRILLING FLUID DENSITY
 DFV .                 45:   DRILLING FLUID VISCOSITY
 MSS .            MUD PIT:   MUD SAMPLE SOURCE
 RMS .OHMM            .39:   RESISTIVITY MUD SAMPLE
 MST .F                75:   MUD SAMPLE TEMPERATURE
 RMF .OHMM           .312:   RESISTIVITY MUD FILTRATE SAMPLE
 MFST.F                75:   MUD FILTRATE SAMPLE TEMPERATURE
 RMC .OHMM           .468:   RESISTIVITY MUD CAKE
 MCST.F                75:   MUD CAKE SAMPLE TEMPERATURE
 MFSS.           MEASURED:   MUD FILTRATE SAMPLE SOURCE
 MCSS.           MEASURED:   MUD CAKE SAMPLE SOURCE
 RMB .OHMM            .39:   RESISTIVITY MUD AT BHT
 BHT .F                75:   BOTTOM HOLE TEMPERATURE
 TCS .HRS               2:   TIME CURCULATED STOPPED
 MRT .F                75:   MAXIMUM RECORDED TEMPERATURE
 LUN .               9685:   LOGGING UNIT NUMBER
 LUL .             CASPER:   LOGGING UNIT LOCATION
 ENGI.            TOTHILL:   RECORDING ENGINEER
 WITN.            RHOADES:   WITNESSED BY
 CLNT.            A2DTECH:   CLIENT CODE
 ORIG.           5" PRINT:   ORIGIN OF DATA
 UWI .       490251082900:   UNIQUE WELL ID
 DICO. A2D Technologies, Inc.:   DIGITIZING COMPANY
~OTHER INFORMATION
~A   DEPT      GRD       CALD       RHOB       CORR         DPHI       NPHI      GURD        ILD        ILM       SPR   
# ...
   97.0000   107.6359    10.1716     2.4983     0.0542     0.1074     0.2700     8.6649     7.4601     8.0536   -46.1291
   97.5000   106.2778    10.1716     2.5022     0.0503     0.1101     0.2700     9.0450     7.4580     8.0931   -46.0207
   98.0000   104.9613    10.1716     2.4976     0.0444     0.1050     0.2745     8.8235     7.5220     8.1326   -45.9122
   98.5000   104.7823    10.1716     2.5071     0.0434     0.1154     0.2758     8.5781     7.6151     8.1721   -45.8037
   99.0000   105.5033    10.1716     2.4886     0.0308     0.1076     0.2734     8.3984     7.7094     8.2091   -45.6953
   99.5000   106.1697    10.1722     2.5006     0.0396     0.1058     0.2704     8.9178     7.8382     8.2459   -45.5868
  100.0000   106.3051    10.1770     2.5043     0.0410     0.1117     0.2676     9.4695     7.9844     8.2829   -45.4783
  100.5000   105.0356    10.1819     2.4947     0.0299     0.1086     0.2703     9.4695     8.1333     8.3197   -45.3712
  101.0000   103.7933    10.1868     2.4974     0.0375     0.1047     0.2707     9.4695     8.2850     8.3572   -45.2837
  101.5000   102.5493    10.1917     2.5060     0.0448     0.1058     0.2643     9.4695     8.4833     8.3947   -45.2520
  102.0000   101.3060    10.1966     2.5031     0.0478     0.0998     0.2576     9.5188     8.7191     8.6920   -45.2189
  102.5000   100.0625    10.2015     2.5052     0.0534     0.0937     0.2533     9.9036     8.9366     9.1033   -45.1860
  103.0000    98.8193    10.2064     2.5207     0.0625     0.0941     0.2550    10.0222     9.0564     9.2974   -45.1531
  103.5000    97.5741    10.2113     2.5239     0.0616     0.0958     0.2581    10.0531     9.0773     9.2974   -45.1203
  104.0000    96.5755    10.1990     2.5277     0.0548     0.0835     0.2561    10.0841     9.0983     9.2974   -45.0874
  104.5000    95.8764    10.1846     2.5381     0.0615     0.0763     0.2476    10.1686     9.1200     9.2974   -45.0545
  105.0000    95.1762    10.1702     2.5601     0.0673     0.0867     0.2445    10.5953     9.2898     9.6090   -45.0216
  105.5000    94.4750    10.1558     2.5403     0.0557     0.0910     0.2423    11.0398     9.5111     9.9403   -44.9888
  106.0000    93.7689    10.1416     2.5415     0.0472     0.0855     0.2434    11.6940     9.7329    10.2845   -44.9559
  106.5000    93.0636    10.1328     2.5488     0.0614     0.0789     0.2453    11.5872     9.9605    10.4895   -44.9229
  107.0000    93.5196    10.1354     2.5560     0.0671     0.0755     0.2386    12.6583    10.1906    10.6995   -44.8725
  107.5000    94.1448    10.1378     2.5631     0.0658     0.0753     0.2358    15.5406    10.2864    10.9136   -44.7881
  108.0000    94.7701    10.1402     2.5635     0.0764     0.0754     0.2359    14.0502    10.3820    11.1697   -44.7041
  108.5000    95.3936    10.1426     2.5590     0.0791     0.0810     0.2394    12.4802    10.4750    11.1493   -44.6201
  109.0000    96.0169    10.1450     2.5432     0.0738     0.0848     0.2417    11.4814    10.4266    11.1248   -44.5362
  109.5000    96.6401    10.1473     2.5391     0.0722     0.0924     0.2424    11.5964    10.3800    11.1004   -44.4522
  110.0000    97.2634    10.1496     2.5254     0.0611     0.0987     0.2398    11.6940    10.3337    11.0759   -44.3683
  110.5000    97.8883    10.1523     2.5072     0.0485     0.1033     0.2425    11.3588    10.2875    10.9779   -44.2843
  111.0000    98.5389    10.1865     2.5044     0.0457     0.1030     0.2406    11.0677    10.2416    10.8410   -44.2003
  111.5000    98.3143    10.2245     2.5068     0.0537     0.1101     0.2473    11.2563    10.1959    10.7068   -44.1164
  112.0000    97.8452    10.2640     2.4914     0.0460     0.1183     0.2459    11.4752    10.1361    10.5744   -44.0324
  112.5000    97.3697    10.2306     2.4724     0.0348     0.1252     0.2473    11.5872    10.0755    10.4436   -43.9485
  113.0000    96.8958    10.1800     2.4785     0.0326     0.1272     0.2486    11.1245    10.0149    10.3491   -43.8645
  113.5000    96.4224    10.1716     2.4633     0.0373     0.1343     0.2481    11.0090     9.9541    10.2895   -43.7806
  114.0000    95.9491    10.1715     2.4480     0.0281     0.1402     0.2463    10.4750     9.9122    10.2302   -43.6966
  114.5000    95.4757    10.1716     2.4428     0.0155     0.1484     0.2479    10.5341     9.8941    10.1713   -43.6127
  115.0000    95.0021    10.1716     2.4249     0.0003     0.1581     0.2525    10.6471     9.8766    10.1126   -43.5285
  115.5000    94.5285    10.1716     2.4045    -0.0233     0.1626     0.2541    10.7673     9.8590    10.0803   -43.4431
  116.0000    94.0383    10.1716     2.4391    -0.0027     0.1392     0.2495    10.6230     9.8414    10.0570   -43.3727
  116.5000    94.2394    10.1716     2.4647     0.0225     0.1252     0.2469    10.4729     9.8235    10.0338   -43.0792
  117.0000    94.7748    10.1716     2.4689     0.0285     0.1301     0.2529    10.3793     9.7476    10.0054   -42.9888
  117.5000    94.8305    10.1716     2.4598     0.0172     0.1331     0.2576    10.5264     9.6695    10.0883   -42.6211
  118.0000    94.0501    10.1716     2.4568     0.0131     0.1323     0.2610    10.8254     9.5921    10.1965   -41.8898
  118.5000    94.4190    10.1715     2.4575     0.0205     0.1336     0.2644    11.3765     9.5153    10.2845   -41.1647
  119.0000    95.1556    10.1717     2.4568     0.0279     0.1287     0.2638    10.7653     9.4415    10.0837   -40.4302
  119.5000    95.4243    10.1806     2.4646     0.0315     0.1320     0.2678    10.1906     9.3719     9.9185   -40.1632
  120.0000    94.1337    10.2220     2.4599     0.0261     0.1181     0.2696    10.4421     9.3028     9.7637   -40.1212
  120.5000    93.1246    10.1919     2.4778     0.0361     0.1265     0.2700    10.7673     9.2343     9.6223   -40.0832
  121.0000    94.0966    10.1372     2.4662     0.0226     0.1326     0.2672    10.1222     9.1662     9.4828   -40.0452
  121.5000    94.4069    10.1163     2.4568     0.0074     0.1184     0.2640     9.5568     9.0987     9.3455   -40.0067
  122.0000    94.2172    10.1260     2.4819     0.0353     0.1157     0.2613     9.5388     9.0316     9.2665   -39.9683
  122.5000    94.0017    10.1361     2.4796     0.0315     0.1081     0.2576     9.4988     8.9650     9.2191   -39.9299
  123.0000    94.8641    10.1462     2.5011     0.0519     0.1153     0.2604     9.4723     8.8990     9.1718   -39.8914
  123.5000    96.3671    10.1562     2.4878     0.0500     0.1216     0.2616     9.9163     8.8334     9.1284   -39.8530
  124.0000    97.8889    10.1662     2.4767     0.0376     0.1275     0.2627    10.0929     8.7913     9.1161   -39.8146
  124.5000    97.6193    10.1685     2.4702     0.0324     0.1340     0.2632     9.4695     8.7744     9.1047   -39.7761
  125.0000    97.0843    10.1617     2.4562     0.0210     0.1221     0.2573     9.4994     8.7575     9.0933   -39.7377
  125.5000    96.5447    10.1550     2.4783     0.0432     0.1300     0.2504     9.5269     8.7408     9.0820   -39.6992
  126.0000    96.0086    10.1488     2.4599     0.0338     0.1257     0.2481     9.5545     8.7239     9.0707   -39.6608
  126.5000    95.4712    10.1428     2.4720     0.0324     0.1312     0.2525     9.5822     8.6842     9.0594   -39.6228
  127.0000    94.9165    10.1371     2.4615     0.0355     0.1341     0.2569     9.6099     8.6176     9.0484   -39.5956
  127.5000    95.1653    10.1313     2.4634     0.0319     0.1487     0.2605     9.6449     8.5514     8.9636   -39.5961
  128.0000    95.5995    10.1071     2.4414     0.0232     0.1519     0.2634     9.3596     8.4858     8.8539   -39.5960
  128.5000    96.0383    10.0819     2.4261     0.0159     0.1388     0.2674     8.9624     8.4207     8.7442   -39.5959
  129.0000    96.4754    10.0562     2.4420     0.0260     0.1275     0.2740     8.9781     8.3563     8.7135   -39.5936
  129.5000    96.9125    10.0769     2.4570     0.0369     0.1221     0.2720     8.9989     8.3229     8.7034   -39.7121
  130.0000    97.3496    10.1115     2.4793     0.0455     0.1268     0.2600     9.0197     8.3148     8.6933   -39.8693
