~VERSION INFORMATION
 VERS.                2.0:   CWLS LOG ASCII STANDARD - VERSION 2.0
 WRAP.                 NO:   ONE LINE PER DEPTH STEP
~WELL INFORMATION
#MNEM.UNIT      DATA TYPE    INFORMATION
#----------   ------------   ------------------------------
 STRT.F           29.0000:   START DEPTH
 STOP.F          642.0000:   STOP DEPTH
 STEP.F            0.5000:   STEP LENGTH
 NULL.          -999.2500:   NO VALUE
 COMP. FENIX & SCISSON INC:   COMPANY
 WELL.    NPR-3 SX #21-10:   WELL
 FLD .  TEAPOT DOME NPR 3:   FIELD
 LOC .      S10 T38N R78W:   LOCATION
 CNTY.            NATRONA:   COUNTY
 STAT.            WYOMING:   STATE
 CTRY. UNITED STATES OF AMERICA:   COUNTRY
 SRVC.            Unknown:   SERVICE COMPANY
 DATE.        03-JUL-1978:   LOGDATE
 API .       490251065400:   API NUMBER
~CURVE INFORMATION
#MNEM.UNIT       API CODE    CURVE DESCRIPTION
#----------   ------------   ------------------------------
 DEPT.F                  :   
 SPR .MV     05 010 01 00:   SPONTANEOUS POTENTIAL FROM RES.
 SN  .OHMM   05 040 16 00:   SHORT NORMAL 16"
 ILD .OHMM   05 120 46 00:   INDUCTION LOG DEEP
 CALD.IN     45 280 60 00:   CALIPER FROM DENSITY
 GRD .GAPI   45 310 01 00:   GAMMA RAY FROM DENSITY LOG
 CORR.G/C3   45 356 01 00:   DENSITY CORRECTION
 DPHI.DEC    45 890 12 00:   DENSITY POROSITY SANDSTONE
 DEN .G/C3   45 350 01 00:   COMPENSATED BULK DENSTIY
~PARAMETER INFORMATION
#MNEM.UNIT          VALUE    DESCRIPTION
#----------   ------------   ------------------------------
 PD  .                 GL:   PERMANENT DATUM
 EPD .F              5253:   ELEVATION PERMANENT DATUM
 LMF .                 KB:   LOG MEASURED FROM
 DAPD.F                 4:   FEET ABOVE PERMANENT DATUM
 DMF .                 KB:   DRILLING MEASURED FROM
 EKB .F              5257:   KELLING BUSHING
 EGL .F              5253:   GROUND LEVEL
 DATE.           7-3-1978:   RUN DATE
 RUN .                  1:   RUN NUMBER
 DD  .F               650:   DEPTH DRILLER
 DL  .F               648:   DEPTH LOGGER
 BLI .F               642:   BOTTOM LOG INTERVAL
 TLI .F                40:   TOP LOG INTERVAL
 CS  .IN            8.625:   CASING SIZE
 CBD .F                40:   CASING BOTTOM DRILLER
 CBL .F                40:   CASING BOTTOM LOGGER
 BS  .IN            7.875:   BIT SIZE
 BSD .F               650:   BIT SIZE AT DEPTH
 DFT .                KCL:   DRILLING FLUID TYPE
 DFD .                8.6:   DRILLING FLUID DENSITY
 DFV .                 32:   DRILLING FLUID VISCOSITY
 DFPH.                  9:   DRILLING FLUID PH
 MSS .           FLOWLINE:   MUD SAMPLE SOURCE
 RMS .OHMM            .24:   RESISTIVITY MUD SAMPLE
 MST .F                88:   MUD SAMPLE TEMPERATURE
 RMF .OHMM            .24:   RESISTIVITY MUD FILTRATE SAMPLE
 MFST.F                94:   MUD FILTRATE SAMPLE TEMPERATURE
 RMC .OHMM            .46:   RESISTIVITY MUD CAKE
 MCST.F                96:   MUD CAKE SAMPLE TEMPERATURE
 MFSS.               MEAS:   MUD FILTRATE SAMPLE SOURCE
 MCSS.               MEAS:   MUD CAKE SAMPLE SOURCE
 TCS .HRS               2:   TIME CURCULATED STOPPED
 LUN .               2958:   LOGGING UNIT NUMBER
 LUL .               CASP:   LOGGING UNIT LOCATION
 CLNT.            A2DTECH:   CLIENT CODE
 ORIG.           5" PRINT:   ORIGIN OF DATA
 UWI .       490251065400:   UNIQUE WELL ID
 DICO. A2D Technologies, Inc.:   DIGITIZING COMPANY
~OTHER INFORMATION
~A   DEPT      SPR         SN        ILD       CALD        GRD       CORR       DPHI        DEN   
# ...
  474.5000   -14.9033    13.6914    16.2041     7.9116    88.6431     0.0112     0.1781     2.4148
  475.0000   -14.7312    13.7015    16.1028     7.8967    91.7404     0.0112     0.1853     2.4028
  475.5000   -14.5590    13.7116    16.1190     7.9119    94.6903     0.0127     0.1937     2.3773
  476.0000   -14.2381    13.6252    16.1321     7.8970    95.1327     0.0126     0.1976     2.3623
  476.5000   -14.2143    13.4514    15.9213     7.8373    92.3304     0.0111     0.2015     2.3578
  477.0000   -14.1905    13.3690    15.8249     7.8375    90.1180     0.0066     0.1958     2.3578
  477.5000   -14.1623    13.3790    15.8409     7.8376    88.3481     0.0051     0.1919     2.3630
  478.0000   -13.9902    13.3891    15.7446     7.8378    88.4956     0.0050     0.1911     2.3757
  478.5000   -13.9668    13.3068    15.6496     7.8379    89.3805     0.0050     0.1964     2.3787
  479.0000   -13.9435    13.3251    15.5551     7.8381    91.0030     0.0050     0.1988     2.3637
  479.5000   -13.9202    13.3589    15.5680     7.8532    93.0678     0.0050     0.1983     2.3614
  480.0000   -13.8969    13.3926    15.4734     7.8533    94.2478     0.0049     0.2207     2.3599
  480.5000   -14.1712    13.4264    15.4890     7.8535    93.9528     0.0109     0.2273     2.3307
  481.0000   -14.4464    13.4507    15.5016     7.8686    91.8879     0.0138     0.2147     2.3195
  481.5000   -15.0174    13.4608    15.5141     7.8537    87.4631     0.0138     0.2055     2.3284
  482.0000   -15.1429    13.3760    15.5266     7.8689    86.8732     0.0078     0.1980     2.3516
  482.5000   -15.4291    13.2964    15.4295     7.8690    91.4454     0.0033     0.1908     2.3613
  483.0000   -15.5665    13.2156    15.4451     7.8243    95.5752    -0.0012     0.1884     2.3800
  483.5000   -15.9657    13.2255    15.5643     7.8094    96.9027     0.0002     0.1971     2.3710
  484.0000   -16.0912    13.2354    15.5769     7.7946    97.6401     0.0032     0.1992     2.3635
  484.5000   -16.2167    13.2453    15.5895     7.6900    97.6401    -0.0013     0.1995     2.3627
  485.0000   -16.4910    13.2553    15.6023     7.6572    97.3451    -0.0058     0.2025     2.3597
  485.5000   -16.6165    13.2653    15.6152     7.6304    96.0177    -0.0044     0.2028     2.3552
  486.0000   -16.5873    13.2815    15.6305     7.6483    94.5428     0.0016     0.1995     2.3522
  486.5000   -16.5640    13.3771    15.6431     7.6783    94.1003     0.0090     0.1953     2.3521
  487.0000   -16.5407    13.3872    15.5484     7.6907    94.1003     0.0075     0.1885     2.3588
  487.5000   -16.5276    13.3974    15.5610     7.6584    94.3953    -0.0015     0.1873     2.3760
  488.0000   -16.5245    13.4095    15.5736     7.6311    95.1327    -0.0045     0.1858     2.3805
  488.5000   -16.5214    13.5122    15.6937     7.6658    97.4926     0.0044     0.1837     2.3820
  489.0000   -16.5183    13.5224    15.7064     7.7556   100.2950     0.0104     0.1831     2.3857
  489.5000   -16.5152    13.4372    15.9369     7.8753   102.5074     0.0163     0.1828     2.3842
  490.0000   -16.5121    13.4498    16.1707     7.9311   102.6549     0.0199     0.1861     2.3812
  490.5000   -16.5090    13.4599    16.3000     7.9313   102.6549     0.0255     0.1888     2.3856
  491.0000   -16.5000    13.4700    16.6490     7.9314   102.6549     0.0300     0.1876     2.3819
  491.5000   -16.3230    13.4801    17.0130     7.9316   102.6549     0.0364     0.1867     2.3766
  492.0000   -16.4485    13.4903    17.0267     7.9317   102.3599     0.0436     0.1873     2.3781
  492.5000   -16.4252    13.5936    17.1581     7.9319   102.0649     0.0493     0.1903     2.3810
  493.0000   -16.8483    13.6038    17.1719     7.9320    96.0177     0.0567     0.1897     2.3754
  493.5000   -16.9738    13.6140    17.1858     7.9322    93.8053     0.0639     0.1876     2.3705
  494.0000   -17.2481    13.5283    17.1997     7.9473    94.5428     0.0574     0.1802     2.3746
  494.5000   -17.3794    13.5410    17.2136     7.9475    96.9027     0.0441     0.1718     2.3968
  495.0000   -17.4990    13.4582    17.1094     7.9326   100.4425     0.0369     0.1814     2.3996
  495.5000   -17.4757    13.4683    17.1233     7.9019   101.0324     0.0339     0.1886     2.3887
  496.0000   -17.7500    13.4785    16.7871     7.8723    99.2625     0.0338     0.1940     2.3808
  496.5000   -17.8755    13.3961    16.8007     7.8433    95.7227     0.0293     0.1946     2.3754
  497.0000   -17.8522    13.2230    16.4548     7.8434    95.4277     0.0263     0.1922     2.3666
  497.5000   -17.9776    13.1418    16.3711     7.8286    97.7876     0.0263     0.1898     2.3690
  498.0000   -17.9485    13.0616    16.3877     7.8287   100.5900     0.0278     0.1877     2.3778
  498.5000   -17.9252    12.8931    16.4009     7.8289   102.0649     0.0277     0.1862     2.3770
  499.0000   -17.9018    12.8142    16.4142     7.8592   102.8024     0.0307     0.1856     2.3793
  499.5000   -18.1820    12.8240    16.3148     7.8893   103.9823     0.0322     0.1874     2.3822
  500.0000   -18.3075    12.8336    15.9913     7.9940   106.4897     0.0336     0.1919     2.3736
  500.5000   -18.2762    12.8432    16.0067     7.9489   107.8283     0.0306     0.1862     2.3702
  501.0000   -18.4074    12.7648    15.9097     7.9638   109.2950     0.0321     0.1883     2.3807
  501.5000   -18.6757    12.7744    15.5974     7.9786   108.8422     0.0351     0.1919     2.3717
  502.0000   -18.6523    12.6093    15.5031     7.9934   105.5240     0.0379     0.1806     2.3732
  502.5000   -18.7835    12.5323    15.2019     8.0083   100.2827     0.0315     0.1791     2.3837
  503.0000   -18.7542    12.5440    15.1100     8.0230    99.5663     0.0259     0.1791     2.3964
  503.5000   -18.7307    12.4650    15.1223     8.0379   100.0379     0.0228     0.1755     2.3986
  504.0000   -18.7072    12.3912    15.1346     8.0377   100.7650     0.0213     0.1767     2.3986
  504.5000   -18.6838    12.3132    15.2514     8.0226    99.8716     0.0153     0.1815     2.3986
  505.0000   -18.8095    12.2380    15.2639     8.0225    95.2753     0.0152     0.1827     2.3971
  505.5000   -18.7857    12.2495    15.2763     8.0223    95.6780     0.0197     0.1970     2.3888
  506.0000   -18.9186    12.2586    15.2887     8.0222    98.0708     0.0271     0.1994     2.3597
  506.5000   -19.1852    12.3502    15.1963     8.0220   101.8402     0.0301     0.1935     2.3581
  507.0000   -19.3353    12.2748    15.0008     8.0219   102.6755     0.0270     0.1899     2.3626
  507.5000   -19.8765    12.2021    14.9098     8.0217   100.9074     0.0225     0.1893     2.3709
  508.0000   -20.2994    12.2112    14.8200     8.0216    97.9590     0.0105     0.1797     2.3731
  508.5000   -20.2760    12.2204    14.8321     8.0214    98.8454     0.0060     0.1815     2.3910
  509.0000   -20.4072    12.2296    14.8441     8.0213   100.3218     0.0074     0.1881     2.3895
  509.5000   -20.3779    12.2387    14.7406     8.0211   101.7982     0.0118     0.1905     2.3826
  510.0000   -20.3544    12.2479    14.6651     8.0359   103.5696     0.0148     0.1854     2.3729
  510.5000   -20.1821    12.3417    14.6800     8.0357   105.0460     0.0147     0.1812     2.3723
  511.0000   -20.1587    12.3510    14.5883     8.0356   103.5725     0.0117     0.1773     2.3888
  511.5000   -20.1352    12.3603    14.6031     8.0355   100.0342     0.0117     0.1743     2.3955
  512.0000   -20.1118    12.2824    14.5148     8.0353    98.1179     0.0116     0.1725     2.4104
  512.5000   -20.0883    12.0429    14.2299     8.0352    98.5622     0.0131     0.1698     2.4030
  513.0000   -20.0649    11.9693    13.8550     8.0350    98.7112     0.0145     0.1708     2.4089
  513.5000   -20.0414    11.8146    13.7684     8.0199    98.5651     0.0145     0.1728     2.4127
  514.0000   -20.0179    11.7423    13.5914     8.0197    93.2569     0.0100     0.1711     2.4082
  514.5000   -20.1538    11.7513    13.5092     8.0196    92.6680     0.0084     0.1621     2.4074
