~VERSION INFORMATION
 VERS.                2.0:   CWLS LOG ASCII STANDARD - VERSION 2.0
 WRAP.                 NO:   ONE LINE PER DEPTH STEP
~WELL INFORMATION
#MNEM.UNIT      DATA TYPE    INFORMATION
#----------   ------------   ------------------------------
 STRT.F          779.5000:   START DEPTH
 STOP.F         2194.0000:   STOP DEPTH
 STEP.F            0.5000:   STEP LENGTH
 NULL.          -999.2500:   NO VALUE
 COMP. LAWRENCE/ALLISON INC:   COMPANY
 WELL.        27 X #10-10:   WELL
 FLD .             TEAPOT:   FIELD
 LOC .      S10 T38N R78W:   LOCATION
 CNTY.            NATRONA:   COUNTY
 STAT.            WYOMING:   STATE
 CTRY. UNITED STATES OF AMERICA:   COUNTRY
 SRVC.            Unknown:   SERVICE COMPANY
 DATE.        21-AUG-1987:   LOGDATE
 API .       490251118900:   API NUMBER
~CURVE INFORMATION
#MNEM.UNIT       API CODE    CURVE DESCRIPTION
#----------   ------------   ------------------------------
 DEPT.F                  :   
 ROP .MIN/FT 91 810 01 00:   RATE OF DRILLING PENETRATION
 TGAS.UNITS  91 830 01 00:   TOTAL GAS FROM HOTWIRE
~PARAMETER INFORMATION
#MNEM.UNIT          VALUE    DESCRIPTION
#----------   ------------   ------------------------------
 EKB .F              5237:   KELLING BUSHING
 EGL .F              5236:   GROUND LEVEL
 DATE.        21-AUG-1987:   RUN DATE
 BLI .F              2180:   BOTTOM LOG INTERVAL
 TLI .F               780:   TOP LOG INTERVAL
 LUN .              T-148:   LOGGING UNIT NUMBER
 ENGI.            R. HUSK:   RECORDING ENGINEER
 WITN.           C. TOWER:   WITNESSED BY
 CLNT.            A2DTECH:   CLIENT CODE
 ORIG.           5" PRINT:   ORIGIN OF DATA
 UWI .       490251118900:   UNIQUE WELL ID
 DICO. A2D Technologies, Inc.:   DIGITIZING COMPANY
~OTHER INFORMATION
~A   DEPT      ROP         TGAS 
# ...
 1265.5000     0.3349    81.9718
 1266.0000     0.3431    81.9389
 1266.5000     0.3428    81.9061
 1267.0000     0.3390    81.8733
 1267.5000     0.3314    81.8404
 1268.0000     0.3312    81.8076
 1268.5000     0.3309    81.7747
 1269.0000     0.3306    81.7419
 1269.5000     0.3304    81.7090
 1270.0000     0.3301    81.6762
 1270.5000     0.3298    81.6433
 1271.0000     0.3295    81.6105
 1271.5000     0.3363    81.5776
 1272.0000     0.3398    81.5448
 1272.5000     0.3473    81.5120
 1273.0000     0.3419    81.4791
 1273.5000     0.3390    81.4463
 1274.0000     0.3279    81.4134
 1274.5000     0.3276    81.3806
 1275.0000     0.3274    81.3477
 1275.5000     0.3271    81.3149
 1276.0000     0.3268    81.2820
 1276.5000     0.3266    81.2492
 1277.0000     0.3263    81.2163
 1277.5000     0.3260    81.1835
 1278.0000     0.3258    81.1506
 1278.5000     0.3255    81.1178
 1279.0000     0.3233    81.0850
 1279.5000     0.3164    81.0521
 1280.0000     0.3356    81.0219
 1280.5000     0.3348    81.0457
 1281.0000     0.3478    81.0678
 1281.5000     0.3674    81.0898
 1282.0000     0.3820    81.1119
 1282.5000     0.4146    81.1339
 1283.0000     0.4500    81.1560
 1283.5000     0.4876    81.1781
 1284.0000     0.5124    81.2001
 1284.5000     0.5376    81.2222
 1285.0000     0.5438    81.2442
 1285.5000     0.5474    81.2663
 1286.0000     0.5530    81.2884
 1286.5000     0.5522    81.3104
 1287.0000     0.5514    81.3325
 1287.5000     0.5506    81.3545
 1288.0000     0.5498    81.3766
 1288.5000     0.5490    81.3986
 1289.0000     0.5482    81.4207
 1289.5000     0.5473    81.4427
 1290.0000     0.5465    81.4648
 1290.5000     0.5382    81.4869
 1291.0000     0.5262    81.5089
 1291.5000     0.4980    81.5310
 1292.0000     0.4807    81.5530
 1292.5000     0.4774    81.5751
 1293.0000     0.4717    81.5971
 1293.5000     0.4647    81.6192
 1294.0000     0.4578    81.6413
 1294.5000     0.4508    81.6633
 1295.0000     0.4439    81.6854
 1295.5000     0.4369    81.7074
 1296.0000     0.4300    81.7295
 1296.5000     0.4168    81.7515
 1297.0000     0.3943    81.7736
 1297.5000     0.3719    81.7957
 1298.0000     0.3495    81.8177
 1298.5000     0.3379    81.8398
 1299.0000     0.3154    81.8618
 1299.5000     0.3146    81.8839
 1300.0000     0.3355    81.8978
 1300.5000     0.3916    81.8868
 1301.0000     0.4674    81.8759
 1301.5000     0.5079    81.8649
 1302.0000     0.5076    81.8539
 1302.5000     0.5073    81.8430
 1303.0000     0.5070    81.8320
 1303.5000     0.5068    81.8210
 1304.0000     0.5065    81.8100
 1304.5000     0.5062    81.7991
 1305.0000     0.5060    81.7881
 1305.5000     0.5022    81.7771
 1306.0000     0.4908    81.7662
 1306.5000     0.4835    81.7552
 1307.0000     0.4832    81.7442
 1307.5000     0.4830    81.7332
 1308.0000     0.4827    81.7223
 1308.5000     0.4824    81.7113
 1309.0000     0.4821    81.7003
 1309.5000     0.4819    81.6894
 1310.0000     0.4816    81.6784
 1310.5000     0.4747    81.6674
 1311.0000     0.4772    81.6564
 1311.5000     0.4808    81.6455
 1312.0000     0.4805    81.6345
 1312.5000     0.4724    81.6235
 1313.0000     0.4692    81.6126
 1313.5000     0.4774    81.6016
 1314.0000     0.4794    81.5906
 1314.5000     0.4791    81.5796
 1315.0000     0.4680    81.5687
 1315.5000     0.4461    81.5577
 1316.0000     0.4134    81.5467
 1316.5000     0.4023    81.5358
 1317.0000     0.3912    81.5248
 1317.5000     0.3910    81.5138
 1318.0000     0.3907    81.5028
 1318.5000     0.3913    81.4919
 1319.0000     0.4010    81.4809
 1319.5000     0.4007    81.4699
 1320.0000     0.4113    81.4599
 1320.5000     0.4116    81.4717
 1321.0000     0.4118    81.4826
 1321.5000     0.4121    81.4935
 1322.0000     0.4123    81.5045
 1322.5000     0.4126    81.5154
 1323.0000     0.4129    81.5263
 1323.5000     0.4131    81.5372
 1324.0000     0.4134    81.5482
 1324.5000     0.4219    81.5591
 1325.0000     0.4498    81.5700
 1325.5000     0.4845    81.5809
 1326.0000     0.5071    81.5919
 1326.5000     0.5189    81.6028
 1327.0000     0.5233    81.6137
 1327.5000     0.5235    81.6246
 1328.0000     0.5239    81.6356
 1328.5000     0.5241    81.6465
 1329.0000     0.5352    81.6574
 1329.5000     0.5246    81.6684
 1330.0000     0.5357    81.6793
 1330.5000     0.5360    81.6902
 1331.0000     0.5363    81.7011
 1331.5000     0.5365    81.7121
 1332.0000     0.5368    81.7230
 1332.5000     0.5371    81.7339
 1333.0000     0.5373    81.7448
 1333.5000     0.5376    81.7558
 1334.0000     0.5379    81.7667
 1334.5000     0.5381    81.7776
 1335.0000     0.5384    81.7885
 1335.5000     0.5387    81.7995
 1336.0000     0.5390    81.8104
 1336.5000     0.5393    81.8213
 1337.0000     0.5395    81.8323
 1337.5000     0.5506    81.8432
 1338.0000     0.5509    81.8541
 1338.5000     0.5511    81.8650
 1339.0000     0.5514    81.8760
 1339.5000     0.5532    81.8869
 1340.0000     0.5627    81.8969
 1340.5000     0.5625    81.8852
 1341.0000     0.5622    81.8743
 1341.5000     0.5620    81.8634
 1342.0000     0.5617    81.8525
 1342.5000     0.5614    81.8415
 1343.0000     0.5611    81.8306
 1343.5000     0.5609    81.8197
 1344.0000     0.5606    81.8088
 1344.5000     0.5603    81.7979
 1345.0000     0.5601    81.7870
 1345.5000     0.5598    81.7761
 1346.0000     0.5595    81.7652
 1346.5000     0.5572    81.7543
 1347.0000     0.5504    81.7434
 1347.5000     0.5587    81.7325
 1348.0000     0.5611    81.7216
 1348.5000     0.5778    81.7107
 1349.0000     0.6107    81.6998
 1349.5000     0.6469    81.6889
 1350.0000     0.6944    81.6780
 1350.5000     0.7456    81.6671
 1351.0000     0.7733    81.6562
 1351.5000     0.7730    81.6453
 1352.0000     0.7727    81.6343
 1352.5000     0.7725    81.6234
 1353.0000     0.7771    81.6125
 1353.5000     0.7827    81.6016
 1354.0000     0.7825    81.5907
 1354.5000     0.7822    81.5798
 1355.0000     0.7819    81.5689
 1355.5000     0.7817    81.5580
 1356.0000     0.7814    81.5471
 1356.5000     0.7811    81.5362
 1357.0000     0.7808    81.5253
 1357.5000     0.7736    81.5144
 1358.0000     0.7695    81.5035
 1358.5000     0.7692    81.4926
 1359.0000     0.7689    81.4817
 1359.5000     0.7687    81.4708
 1360.0000     0.7467    81.4581
 1360.5000     0.6810    81.4361
 1361.0000     0.6261    81.4142
 1361.5000     0.5806    81.3923
 1362.0000     0.5487    81.3703
 1362.5000     0.5479    81.3484
 1363.0000     0.5489    81.3264
 1363.5000     0.5616    81.3045
 1364.0000     0.5887    81.2825
 1364.5000     0.6362    81.2606
 1365.0000     0.6917    81.2387
 1365.5000     0.7392    81.2167
 1366.0000     0.7677    81.1948
 1366.5000     0.7894    81.1728
 1367.0000     0.8003    81.1509
 1367.5000     0.7995    81.1290
 1368.0000     0.7987    81.1070
 1368.5000     0.7979    81.0851
 1369.0000     0.7971    81.0631
 1369.5000     0.7963    81.0412
 1370.0000     0.7955    81.0192
 1370.5000     0.7946    80.9973
 1371.0000     0.7937    80.9753
 1371.5000     0.7929    80.9534
 1372.0000     0.7921    80.9315
 1372.5000     0.7914    80.9095
 1373.0000     0.7906    80.8876
 1373.5000     0.7898    80.8656
 1374.0000     0.7854    80.8437
 1374.5000     0.7367    80.8218
 1375.0000     0.6683    80.7998
 1375.5000     0.6066    80.7779
 1376.0000     0.5774    80.7559
 1376.5000     0.5653    80.7340
 1377.0000     0.5532    80.7120
 1377.5000     0.5452    80.6901
 1378.0000     0.5444    80.6682
 1378.5000     0.5436    80.6462
 1379.0000     0.5373    80.6243
 1379.5000     0.5311    80.6023
 1380.0000     0.5627    80.5822
 1380.5000     0.5622    80.6413
 1381.0000     0.5616    80.6960
 1381.5000     0.5719    80.7506
 1382.0000     0.6364    80.8053
 1382.5000     0.7366    80.8600
 1383.0000     0.8501    80.9147
 1383.5000     0.9834    80.9693
 1384.0000     1.1034    81.0240
 1384.5000     1.2041    81.0787
 1385.0000     1.3048    81.1334
 1385.5000     1.4026    81.1881
 1386.0000     1.4620    81.2427
 1386.5000     1.4502    81.2974
