~VERSION INFORMATION
 VERS.                2.0:   CWLS LOG ASCII STANDARD - VERSION 2.0
 WRAP.                 NO:   ONE LINE PER DEPTH STEP
~WELL INFORMATION
#MNEM.UNIT      DATA TYPE    INFORMATION
#----------   ------------   ------------------------------
 STRT.F           29.0000:   START DEPTH
 STOP.F          642.0000:   STOP DEPTH
 STEP.F            0.5000:   STEP LENGTH
 NULL.          -999.2500:   NO VALUE
 COMP. FENIX & SCISSON INC:   COMPANY
 WELL.    NPR-3 SX #21-10:   WELL
 FLD .  TEAPOT DOME NPR 3:   FIELD
 LOC .      S10 T38N R78W:   LOCATION
 CNTY.            NATRONA:   COUNTY
 STAT.            WYOMING:   STATE
 CTRY. UNITED STATES OF AMERICA:   COUNTRY
 SRVC.            Unknown:   SERVICE COMPANY
 DATE.        03-JUL-1978:   LOGDATE
 API .       490251065400:   API NUMBER
~CURVE INFORMATION
#MNEM.UNIT       API CODE    CURVE DESCRIPTION
#----------   ------------   ------------------------------
 DEPT.F                  :   
 SPR .MV     05 010 01 00:   SPONTANEOUS POTENTIAL FROM RES.
 SN  .OHMM   05 040 16 00:   SHORT NORMAL 16"
 ILD .OHMM   05 120 46 00:   INDUCTION LOG DEEP
 CALD.IN     45 280 60 00:   CALIPER FROM DENSITY
 GRD .GAPI   45 310 01 00:   GAMMA RAY FROM DENSITY LOG
 CORR.G/C3   45 356 01 00:   DENSITY CORRECTION
 DPHI.DEC    45 890 12 00:   DENSITY POROSITY SANDSTONE
 DEN .G/C3   45 350 01 00:   COMPENSATED BULK DENSTIY
~PARAMETER INFORMATION
#MNEM.UNIT          VALUE    DESCRIPTION
#----------   ------------   ------------------------------
 PD  .                 GL:   PERMANENT DATUM
 EPD .F              5253:   ELEVATION PERMANENT DATUM
 LMF .                 KB:   LOG MEASURED FROM
 DAPD.F                 4:   FEET ABOVE PERMANENT DATUM
 DMF .                 KB:   DRILLING MEASURED FROM
 EKB .F              5257:   KELLING BUSHING
 EGL .F              5253:   GROUND LEVEL
 DATE.           7-3-1978:   RUN DATE
 RUN .                  1:   RUN NUMBER
 DD  .F               650:   DEPTH DRILLER
 DL  .F               648:   DEPTH LOGGER
 BLI .F               642:   BOTTOM LOG INTERVAL
 TLI .F                40:   TOP LOG INTERVAL
 CS  .IN            8.625:   CASING SIZE
 CBD .F                40:   CASING BOTTOM DRILLER
 CBL .F                40:   CASING BOTTOM LOGGER
 BS  .IN            7.875:   BIT SIZE
 BSD .F               650:   BIT SIZE AT DEPTH
 DFT .                KCL:   DRILLING FLUID TYPE
 DFD .                8.6:   DRILLING FLUID DENSITY
 DFV .                 32:   DRILLING FLUID VISCOSITY
 DFPH.                  9:   DRILLING FLUID PH
 MSS .           FLOWLINE:   MUD SAMPLE SOURCE
 RMS .OHMM            .24:   RESISTIVITY MUD SAMPLE
 MST .F                88:   MUD SAMPLE TEMPERATURE
 RMF .OHMM            .24:   RESISTIVITY MUD FILTRATE SAMPLE
 MFST.F                94:   MUD FILTRATE SAMPLE TEMPERATURE
 RMC .OHMM            .46:   RESISTIVITY MUD CAKE
 MCST.F                96:   MUD CAKE SAMPLE TEMPERATURE
 MFSS.               MEAS:   MUD FILTRATE SAMPLE SOURCE
 MCSS.               MEAS:   MUD CAKE SAMPLE SOURCE
 TCS .HRS               2:   TIME CURCULATED STOPPED
 LUN .               2958:   LOGGING UNIT NUMBER
 LUL .               CASP:   LOGGING UNIT LOCATION
 CLNT.            A2DTECH:   CLIENT CODE
 ORIG.           5" PRINT:   ORIGIN OF DATA
 UWI .       490251065400:   UNIQUE WELL ID
 DICO. A2D Technologies, Inc.:   DIGITIZING COMPANY
~OTHER INFORMATION
~A   DEPT      SPR         SN        ILD       CALD        GRD       CORR       DPHI        DEN   
# ...
   69.5000   -17.1985    12.1898    15.1655     8.2719    87.8733     0.0011     0.2244     2.3472
   70.0000   -17.0265    12.1972    14.7676     8.2720    88.4662    -0.0004     0.2292     2.3382
   70.5000   -16.8544    12.2047    14.3775     8.2721    93.1889    -0.0020     0.2271     2.3315
   71.0000   -16.8310    12.1284    14.2896     8.2722    96.7317    -0.0050     0.2259     2.3337
   71.5000   -16.8075    12.1358    14.2021     8.2574    96.2921    -0.0080     0.2292     2.3374
   72.0000   -16.7841    11.9773    14.1153     8.2425    95.1152    -0.0095     0.2328     2.3299
   72.5000   -16.9094    11.9024    14.0289     8.2576    96.8880     0.0009     0.2340     2.3224
   73.0000   -17.0344    11.9099    14.0420     8.2876    99.8408     0.0068     0.2307     2.3217
   73.5000   -17.1595    11.9170    14.0524     8.2878   100.5812     0.0038     0.2262     2.3267
   74.0000   -17.1352    11.8425    14.0628     8.2729    97.3393    -0.0022     0.2208     2.3439
   74.5000   -17.5525    11.8515    14.0733     8.2580    93.8025    -0.0037     0.2169     2.3471
   75.0000   -17.9748    11.6949    14.0837     8.2581    93.0680    -0.0037     0.2154     2.3472
   75.5000   -18.6943    11.6219    13.9950     8.2582    92.9233    -0.0008     0.2142     2.3527
   76.0000   -19.5624    11.6307    13.8166     8.2583    93.3689     0.0022     0.2125     2.3582
   76.5000   -20.5790    11.2444    13.6379     8.2585    95.8792     0.0081     0.2086     2.3590
   77.0000   -21.2985    11.0198    12.6535     8.2586    96.1771     0.0141     0.2041     2.3644
   77.5000   -22.3152    10.7272    11.9849     8.2587    95.4426     0.0140     0.1972     2.3712
   78.0000   -23.0347    10.3725    11.1198     8.2588    95.0031     0.0140     0.1697     2.3835
   78.5000   -24.0514     9.8909    10.3806     8.2589    95.0060     0.0125     0.1547     2.4187
   79.0000   -25.2166     9.3670     9.6164     8.2440    95.3040     0.0065     0.1517     2.4384
   79.5000   -26.3819     8.6897     8.6409     8.2441    98.5518    -0.0025     0.1553     2.4502
   80.0000   -26.9586     8.0062     8.1283     8.2442   101.0621    -0.0055     0.1679     2.4546
   80.5000   -27.5245     7.5301     7.5395     8.2294    99.2951    -0.0041     0.1697     2.4305
   81.0000   -27.6493     7.1288     7.0816     8.2295   101.3630    -0.0026     0.1703     2.4254
   81.5000   -27.7741     6.9367     6.7656     8.2146   103.7258    -0.0041     0.1706     2.4231
   82.0000   -27.6018     6.8986     6.7242     8.1997   106.8264    -0.0042     0.1706     2.4216
   82.5000   -27.5780     6.9039     6.6831     8.1999   108.1567    -0.0042     0.1724     2.4216
   83.0000   -27.5542     6.9081     6.7355     8.2149   108.4547    -0.0042     0.1742     2.4231
   83.5000   -27.5305     6.9123     6.7405     8.2150   109.7851    -0.0057     0.1739     2.4261
   84.0000   -27.3536     6.9165     6.7920     8.2151   110.3780    -0.0058     0.1757     2.4186
   84.5000   -27.3302     6.9685     6.7971     8.2153   109.4960    -0.0058     0.1739     2.4148
   85.0000   -27.3067     7.0209     6.8491     8.2154   108.7607    -0.0058     0.1724     2.4171
   85.5000   -27.4377     7.1225     6.9491     8.2155   111.5668    -0.0059     0.1733     2.4208
   86.0000   -27.8601     7.1760     7.0023     8.2156   112.7497    -0.0059     0.1763     2.4185
   86.5000   -27.9852     7.1804     7.0075     8.2157   112.6051    -0.0059     0.1757     2.4125
   87.0000   -28.4075     6.9887     6.9646     8.2158   112.6081    -0.0030     0.1778     2.4095
   87.5000   -28.5326     6.8512     6.8707     8.2159   112.6111     0.0030     0.1790     2.4088
   88.0000   -28.8064     6.8083     6.8325     8.2310   113.2040     0.0089     0.1763     2.4125
   88.5000   -28.7771     6.8126     6.7920     8.2311   113.5019     0.0119     0.1691     2.4192
   89.0000   -28.9080     6.8167     6.7970     8.2312   113.5049     0.0104     0.1622     2.4274
   89.5000   -28.8787     6.8318     6.7542     8.2463   111.5904     0.0059     0.1649     2.4341
   90.0000   -29.0045     6.8772     6.7604     8.2314   110.2652     0.0028     0.1670     2.4364
   90.5000   -28.9804     6.9242     6.7763     8.2165   110.8588    -0.0002     0.1604     2.4296
   91.0000   -28.9569     6.9762     6.7997     8.2166   111.4518    -0.0032     0.1622     2.4348
   91.5000   -28.9331     6.9805     6.8139     8.2167   111.6015    -0.0032     0.1652     2.4385
   92.0000   -28.9094     7.0330     6.8196     8.2318   109.3928    -0.0003     0.1658     2.4333
   92.5000   -28.8856     7.1397     7.0167     8.2319   106.2977    -0.0003     0.1661     2.4288
   93.0000   -28.8573     7.2381     7.1197     8.2470   108.6612     0.0012     0.1631     2.4280
   93.5000   -28.8338     7.3438     7.2741     8.2471   109.1067    -0.0034     0.1581     2.4333
   94.0000   -28.8104     7.3979     7.2800     8.2622   108.3721    -0.0049     0.1616     2.4482
   94.5000   -28.7869     7.2523     7.2345     8.2623   107.9319    -0.0049     0.1679     2.4429
   95.0000   -28.7635     7.2567     7.0925     8.2624   109.1155    -0.0034     0.1718     2.4280
   95.5000   -28.7400     7.2612     7.0497     8.2625   110.4452    -0.0017     0.1688     2.4227
   96.0000   -28.7166     7.3662     7.0568     8.2626   110.1531     0.0055     0.1614     2.4235
   96.5000   -28.6931     7.4728     7.1113     8.2627   111.0418     0.0054     0.1572     2.4332
   97.0000   -28.8241     7.5290     7.3157     8.2778   114.5845    -0.0007     0.1557     2.4451
   97.5000   -28.9493     7.6907     7.5259     8.2779   110.0152    -0.0036     0.1566     2.4496
   98.0000   -29.0685     7.7485     7.6364     8.2780   109.7225    -0.0005     0.1659     2.4346
   98.5000   -29.0451     7.8606     7.6953     8.2781   114.8884     0.0053     0.1584     2.4294
   99.0000   -29.0216     7.9197     7.7016     8.2932   116.9562     0.0037     0.1527     2.4301
   99.5000   -28.9982     7.9245     7.7079     8.2783   116.9592    -0.0067     0.1515     2.4525
  100.0000   -28.9747     7.9294     7.7142     8.2934   113.2433    -0.0037     0.1627     2.4555
  100.5000   -29.0999     7.9343     7.7205     8.2636   106.6288    -0.0023     0.1635     2.4368
  101.0000   -29.0758     7.9392     7.7267     8.2488   105.7551    -0.0068     0.1590     2.4330
  101.5000   -28.9034     7.6566     7.4555     8.2340   105.7566    -0.0157     0.1593     2.4353
  102.0000   -28.8419     7.3201     7.2263     8.2341   105.7581    -0.0143     0.1648     2.4450
  102.5000   -28.7705     7.1749     7.1812     8.2343   105.7596    -0.0068     0.1716     2.4487
  103.0000   -28.6992     7.1290     7.0903     8.2344   105.7758    -0.0008     0.1700     2.4277
  103.5000   -28.6278     7.0845     7.0460     8.2346   106.3525     0.0006     0.1659     2.4217
  104.0000   -28.5565     7.0899     7.0532     8.2347   108.7729     0.0006     0.1635     2.4337
  104.5000   -28.4852     7.0942     7.0091     8.2349   109.3053    -0.0009     0.1626     2.4284
  105.0000   -28.1381     7.1475     7.0162     8.2350   108.6922    -0.0009     0.1601     2.4299
  105.5000   -28.1146     7.1519     7.0220     8.2352   108.2488     0.0036     0.1573     2.4419
  106.0000   -28.0911     7.1563     7.0277     8.2353   103.7053     0.0080     0.1612     2.4531
  106.5000   -28.0677     7.2100     7.0334     8.2355   104.0018     0.0110     0.1611     2.4359
  107.0000   -28.0442     7.3144     7.0391     8.2356   105.9206     0.0110     0.1480     2.4426
  107.5000   -28.0208     7.3188     7.2414     8.2508   109.0194     0.0110     0.1525     2.4613
  108.0000   -27.9973     7.3739     7.2973     8.2509   111.3804     0.0065     0.1512     2.4500
  108.5000   -27.9739     7.3784     7.4555     8.2511   106.3675     0.0050     0.1498     2.4567
  109.0000   -27.9504     7.4339     7.4616     8.2512   106.3690     0.0050     0.1516     2.4583
  109.5000   -27.7784     7.4971     7.5193     8.2364   108.4354     0.0064     0.1516     2.4425
