~VERSION INFORMATION
 VERS.                2.0:   CWLS LOG ASCII STANDARD - VERSION 2.0
 WRAP.                 NO:   ONE LINE PER DEPTH STEP
~WELL INFORMATION
#MNEM.UNIT      DATA TYPE    INFORMATION
#----------   ------------   ------------------------------
 STRT.F           20.0000:   START DEPTH
 STOP.F          805.5000:   STOP DEPTH
 STEP.F            0.5000:   STEP LENGTH
 NULL.          -999.2500:   NO VALUE
 COMP. FENIX & SCISSON INC:   COMPANY
 WELL.    16-SX-14 #16-14:   WELL
 FLD .             TEAPOT:   FIELD
 LOC .      S14 T38N R78W:   LOCATION
 CNTY.            NATRONA:   COUNTY
 STAT.            WYOMING:   STATE
 CTRY. UNITED STATES OF AMERICA:   COUNTRY
 SRVC.            Unknown:   SERVICE COMPANY
 DATE.        23-MAY-1978:   LOGDATE
 API .       490251063200:   API NUMBER
~CURVE INFORMATION
#MNEM.UNIT       API CODE    CURVE DESCRIPTION
#----------   ------------   ------------------------------
 DEPT.F                  :   
 SN  .OHMM   05 040 16 00:   SHORT NORMAL 16"
 ILD .OHMM   05 120 46 00:   INDUCTION LOG DEEP
 SPR .MV     05 010 01 00:   SPONTANEOUS POTENTIAL FROM RES.
 RHOB.G/C3   45 350 01 00:   BULK DENSITY
 DPOR.DEC    45 890 12 00:   DENSITY POROSITY SANDSTONE
 CORR.G/C3   45 356 01 00:   DENSITY CORRECTION
 GRD .GAPI   45 310 01 00:   GAMMA RAY FROM DENSITY LOG
 CALD.IN     45 280 60 00:   CALIPER FROM DENSITY LOG
~PARAMETER INFORMATION
#MNEM.UNIT          VALUE    DESCRIPTION
#----------   ------------   ------------------------------
 PD  .                 GL:   PERMANENT DATUM
 EPD .F              5246:   ELEVATION PERMANENT DATUM
 LMF .                 KB:   LOG MEASURED FROM
 DAPD.F                 4:   FEET ABOVE PERMANENT DATUM
 DMF .                 KB:   DRILLING MEASURED FROM
 EKB .F              5250:   KELLING BUSHING
 EGL .F              5246:   GROUND LEVEL
 DATE.          5-23-1978:   RUN DATE
 RUN .                  1:   RUN NUMBER
 DD  .F               825:   DEPTH DRILLER
 DL  .F               812:   DEPTH LOGGER
 BLI .F               805:   BOTTOM LOG INTERVAL
 TLI .F                40:   TOP LOG INTERVAL
 CS  .IN            8.625:   CASING SIZE
 CBD .F                40:   CASING BOTTOM DRILLER
 BS  .IN            7.875:   BIT SIZE
 BSD .F               825:   BIT SIZE AT DEPTH
 DFT .                KCL:   DRILLING FLUID TYPE
 DFD .                8.6:   DRILLING FLUID DENSITY
 DFV .                 30:   DRILLING FLUID VISCOSITY
 DFPH.                 11:   DRILLING FLUID PH
 DFL .                 14:   DRILLING FLUID LOSS
 MSS .            MUD PIT:   MUD SAMPLE SOURCE
 RMS .OHMM            .32:   RESISTIVITY MUD SAMPLE
 MST .F                72:   MUD SAMPLE TEMPERATURE
 RMF .OHMM            .28:   RESISTIVITY MUD FILTRATE SAMPLE
 MFST.F                72:   MUD FILTRATE SAMPLE TEMPERATURE
 RMC .OHMM            .50:   RESISTIVITY MUD CAKE
 MCST.F                82:   MUD CAKE SAMPLE TEMPERATURE
 MFSS.               MEAS:   MUD FILTRATE SAMPLE SOURCE
 RMB .OHMM            .31:   RESISTIVITY MUD AT BHT
 BHT .F                75:   BOTTOM HOLE TEMPERATURE
 TCS .HRS               2:   TIME CURCULATED STOPPED
 MRT .F                75:   MAXIMUM RECORDED TEMPERATURE
 LUN .               2958:   LOGGING UNIT NUMBER
 LUL .              CSPR.:   LOGGING UNIT LOCATION
 ENGI.             MILLER:   RECORDING ENGINEER
 WITN.            RHOADES:   WITNESSED BY
 CLNT.            A2DTECH:   CLIENT CODE
 ORIG.    1" , 2.5" PRINT:   ORIGIN OF DATA
 UWI .       490251063200:   UNIQUE WELL ID
 DICO. A2D Technologies, Inc.:   DIGITIZING COMPANY
~OTHER INFORMATION
~A   DEPT       SN        ILD        SPR       RHOB       DPOR       CORR         GRD      CALD   
# ...
  627.5000    12.7065    11.4876   -21.6059     2.4176     0.1622     0.0246    52.4958     6.3753
  628.0000    12.5529    11.3519   -21.5589     2.4076     0.1710     0.0298    52.6716     6.7834
  628.5000    12.4012    11.1952   -21.5075     2.3949     0.1795     0.0378    51.5143     6.9939
  629.0000    12.2514    11.2584   -21.5051     2.3830     0.1857     0.0379    50.3875     6.8526
  629.5000    12.1033    11.3351   -21.5628     2.3698     0.1886     0.0377    49.2552     6.8104
  630.0000    11.9571    11.4033   -21.6155     2.3719     0.1857     0.0344    48.2366     6.9156
  630.5000    11.8126    11.4033   -21.6680     2.3750     0.1771     0.0305    47.1857     6.9702
  631.0000    11.6699    11.2626   -21.7219     2.3860     0.1685     0.0355    49.6095     6.7053
  631.5000    11.5288    11.0183   -21.7749     2.3973     0.1600     0.0410    52.2119     6.4411
  632.0000    11.3895    10.7792   -21.8281     2.4092     0.1514     0.0473    54.4536     6.5409
  632.5000    11.2519    10.5453   -21.8813     2.4203     0.1473     0.0497    55.2848     6.6452
  633.0000    11.1159    10.3166   -21.9349     2.4322     0.1465     0.0485    56.1268     6.7657
  633.5000    10.9816    10.2101   -21.9882     2.4329     0.1452     0.0476    57.0143     6.8832
  634.0000    10.8489    10.2101   -22.0413     2.4243     0.1568     0.0457    58.0209     7.0050
  634.5000    10.7178    10.2101   -22.0961     2.4126     0.1692     0.0536    57.4106     7.1288
  635.0000    10.5933    10.2034   -22.1471     2.4020     0.1638     0.0692    55.7336     7.2520
  635.5000    10.5838    10.1952   -22.2014     2.4122     0.1571     0.0743    53.9763     7.3433
  636.0000    10.5746    10.1870   -22.2640     2.4209     0.1505     0.0672    54.5620     7.3533
  636.5000    10.5655    10.1788   -22.2164     2.4276     0.1444     0.0596    55.2323     7.3657
  637.0000    10.5564    10.1706   -21.9638     2.4335     0.1552     0.0518    56.0189     7.3761
  637.5000    10.5472    10.1624   -21.7233     2.4199     0.1642     0.0440    56.8375     7.3866
  638.0000    10.5381    10.1542   -21.4789     2.4051     0.1702     0.0363    56.6242     7.3982
  638.5000    10.5290    10.1460   -21.2324     2.3966     0.1761     0.0284    55.7238     7.4078
  639.0000    10.5199    10.1379   -20.9929     2.3857     0.1806     0.0208    54.9043     7.4184
  639.5000    10.5108    10.1297   -20.7463     2.3805     0.1812     0.0144    54.0858     7.3872
  640.0000    10.5018    10.1215   -20.7207     2.3810     0.1805     0.0190    54.0877     7.3515
  640.5000    10.4927    10.1134   -20.7848     2.3810     0.1799     0.0229    54.4454     7.3140
  641.0000    10.4836    10.1053   -20.8467     2.3807     0.1786     0.0274    54.8094     7.2783
  641.5000    10.4746    10.0971   -20.9052     2.3827     0.1763     0.0320    55.1262     7.2416
  642.0000    10.4655    10.0890   -20.9662     2.3859     0.1740     0.0337    55.4267     7.2022
  642.5000    10.4564    10.0809   -21.0265     2.3890     0.1716     0.0325    55.0748     7.1775
  643.0000    10.4472    10.0726   -21.0867     2.3920     0.1693     0.0315    54.7116     7.1801
  643.5000    10.4383    10.0644   -21.1470     2.3951     0.1669     0.0303    55.1947     7.1799
  644.0000    10.4290    10.0565   -21.2070     2.3981     0.1637     0.0326    56.8045     7.1790
  644.5000    10.4196    10.0478   -21.2670     2.4012     0.1600     0.0377    58.3400     7.1806
  645.0000    10.4118    10.0401   -21.3271     2.4053     0.1588     0.0341    59.3231     7.1812
  645.5000    10.4019    10.0315   -21.3871     2.4086     0.1647     0.0310    59.5605     7.2257
  646.0000    10.4609    10.0243   -21.4471     2.4030     0.1706     0.0274    59.9010     7.2774
  646.5000    10.5511    10.0649   -21.5071     2.3983     0.1732     0.0261    60.9783     7.3286
  647.0000    10.6400    10.1409   -21.5671     2.3933     0.1720     0.0291    61.0335     7.3800
  647.5000    10.7294    10.2175   -21.6271     2.3943     0.1710     0.0316    59.5950     7.3597
  648.0000    10.8192    10.2946   -21.6871     2.3953     0.1700     0.0342    58.2578     7.3260
  648.5000    10.9096    10.3722   -21.7472     2.3965     0.1711     0.0369    56.8994     7.2891
  649.0000    10.9889    10.4503   -21.8072     2.3978     0.1744     0.0381    55.9391     7.2520
  649.5000    10.9610    10.5289   -21.8673     2.3991     0.1797     0.0380    55.4776     7.2333
  650.0000    10.9370    10.5928   -21.9273     2.4041     0.1820     0.0380    55.0004     7.1047
  650.5000    10.9132    10.5520   -21.9877     2.4090     0.1572     0.0380    54.2602     6.8093
  651.0000    10.8888    10.5181   -22.0476     2.4147     0.1596     0.0380    55.6617     6.9296
  651.5000    10.8644    10.4844   -22.1073     2.4152     0.1585     0.0381    58.4571     7.2302
  652.0000    10.8399    10.4507   -22.1693     2.4156     0.1572     0.0395    60.0373     7.3501
  652.5000    10.8155    10.4171   -22.2262     2.4158     0.1556     0.0407    59.8355     7.3994
  653.0000    10.7911    10.3836   -22.2837     2.4160     0.1560     0.0419    59.9689     7.4633
  653.5000    10.7668    10.3501   -22.2260     2.4163     0.1572     0.0403    60.2604     7.4542
  654.0000    10.7425    10.3168   -22.1642     2.4166     0.1562     0.0388    59.7696     7.4425
  654.5000    10.7184    10.2835   -22.0977     2.4168     0.1540     0.0371    59.2068     7.1231
  655.0000    10.6942    10.2503   -22.0335     2.4169     0.1540     0.0355    58.5425     6.8190
  655.5000    10.6701    10.2173   -21.9691     2.4149     0.1571     0.0341    58.7800     6.6581
  656.0000    10.6461    10.1844   -21.9040     2.4132     0.1610     0.0351    60.1890     6.7114
  656.5000    10.6221    10.1517   -21.8393     2.4114     0.1644     0.0361    61.5596     6.7441
  657.0000    10.5982    10.1184   -21.7749     2.4097     0.1617     0.0372    61.4884     6.7721
  657.5000    10.5743    10.0861   -21.7091     2.4078     0.1588     0.0376    60.2270     6.6981
  658.0000    10.5507    10.0543   -21.6458     2.4065     0.1613     0.0423    58.9804     6.6703
  658.5000    10.5273    10.0247   -21.5819     2.4052     0.1619     0.0528    57.7526     6.7077
  659.0000    10.5041    10.0583   -21.5091     2.4120     0.1557     0.0613    56.7103     6.7453
  659.5000    10.4803    10.0889   -21.5335     2.4199     0.1492     0.0562    56.7245     6.7835
  660.0000    10.4552    10.1196   -21.6507     2.4280     0.1484     0.0507    57.5520     6.9204
  660.5000    10.4290    10.1509   -21.7571     2.4360     0.1476     0.0543    58.4860     7.0657
  661.0000    10.4033    10.1855   -21.8653     2.4449     0.1355     0.0592    59.4525     7.2116
  661.5000    10.5494    10.2852   -21.9783     2.4613     0.1238     0.0648    59.9070     7.3364
  662.0000    10.8081    10.6077   -22.0762     2.4802     0.1121     0.0633    59.9640     7.3387
  662.5000    11.0952    10.9403   -22.2003     2.4986     0.1004     0.0592    58.9712     7.3417
  663.0000    11.4605    11.2834   -22.3285     2.5172     0.0892     0.0557    57.1919     7.3403
  663.5000    11.8378    11.6372   -22.9482     2.5370     0.0893     0.0495    55.4673     7.3403
  664.0000    12.2275    12.0021   -23.4956     2.5406     0.0975     0.0417    53.6426     7.3403
  664.5000    12.6300    12.3784   -24.0949     2.5285     0.1067     0.0343    52.5386     7.3401
  665.0000    13.0458    12.7666   -24.3162     2.5121     0.1160     0.0304    52.6852     7.3402
  665.5000    13.4753    13.1669   -24.2980     2.4913     0.1253     0.0327    52.5937     7.3388
  666.0000    13.9601    13.4595   -24.2970     2.4705     0.1345     0.0362    54.5788     7.3515
  666.5000    13.7640    13.2139   -24.3016     2.4531     0.1427     0.0400    57.8505     7.3729
  667.0000    13.2401    12.5311   -24.1854     2.4414     0.1430     0.0420    61.0164     7.3929
  667.5000    12.6286    11.9517   -24.0245     2.4403     0.1436     0.0412    63.6143     7.4127
