~VERSION INFORMATION
 VERS.                2.0:   CWLS LOG ASCII STANDARD - VERSION 2.0
 WRAP.                 NO:   ONE LINE PER DEPTH STEP
~WELL INFORMATION
#MNEM.UNIT      DATA TYPE    INFORMATION
#----------   ------------   ------------------------------
 STRT.F           30.0000:   START DEPTH
 STOP.F          732.0000:   STOP DEPTH
 STEP.F            0.5000:   STEP LENGTH
 NULL.          -999.2500:   NO VALUE
 COMP. FENIX & SCISSON INC:   COMPANY
 WELL.        31-S #31-14:   WELL
 FLD .             TEAPOT:   FIELD
 LOC .      S14 T38N R78W:   LOCATION
 CNTY.            NATRONA:   COUNTY
 STAT.            WYOMING:   STATE
 CTRY. UNITED STATES OF AMERICA:   COUNTRY
 SRVC.              Welex:   SERVICE COMPANY
 DATE.        16-FEB-1977:   LOGDATE
 API .       490251027300:   API NUMBER
~CURVE INFORMATION
#MNEM.UNIT       API CODE    CURVE DESCRIPTION
#----------   ------------   ------------------------------
 DEPT.F                  :   
 CALD.IN     45 280 60 00:   CALIPER FROM DENSITY LOG
 CORR.G/C3   45 356 01 00:   DENSITY CORRECTION
 DPHI.DEC    45 890 12 00:   DENSITY POROSITY SANDSTONE
 GRD .GAPI   45 310 01 00:   GAMMA RAY FROM DENSITY LOG
 RHOB.G/C3   45 350 01 00:   BULK DENSITY
 GURD.OHMM   07 270 05 00:   SHALLOW SHORT GUARD RESISTIVITY
 ILM .OHMM   07 120 44 00:   INDUCTION LOG MEDIUM
 ILD .OHMM   07 120 46 00:   INDUCTION LOG DEEP
 SPR .MV     07 010 01 00:   SPONTANEOUS POTENTIAL
~PARAMETER INFORMATION
#MNEM.UNIT          VALUE    DESCRIPTION
#----------   ------------   ------------------------------
 PD  .                 GL:   PERMANENT DATUM
 EPD .F              5186:   ELEVATION PERMANENT DATUM
 LMF .                 GL:   LOG MEASURED FROM
 DMF .                 GL:   DRILLING MEASURED FROM
 EKB .F              5195:   KELLING BUSHING
 EGL .F              5186:   GROUND LEVEL
 DATE.        16-FEB-1977:   RUN DATE
 RUN .                  1:   RUN NUMBER
 DD  .F               740:   DEPTH DRILLER
 DL  .F               736:   DEPTH LOGGER
 BLI .F               734:   BOTTOM LOG INTERVAL
 TLI .F                30:   TOP LOG INTERVAL
 CS  .IN            8.625:   CASING SIZE
 CBD .F                40:   CASING BOTTOM DRILLER
 CBL .F                44:   CASING BOTTOM LOGGER
 BS  .IN            7.875:   BIT SIZE
 BSD .F               740:   BIT SIZE AT DEPTH
 DFT .   OIL EMULSION MUD:   DRILLING FLUID TYPE
 DFD .                8.3:   DRILLING FLUID DENSITY
 DFV .                 48:   DRILLING FLUID VISCOSITY
 DFPH.               10.5:   DRILLING FLUID PH
 DFL .                7.5:   DRILLING FLUID LOSS
 MSS .           FLOWLINE:   MUD SAMPLE SOURCE
 RMS .OHMM           0.80:   RESISTIVITY MUD SAMPLE
 MST .F                64:   MUD SAMPLE TEMPERATURE
 RMF .OHMM           0.68:   RESISTIVITY MUD FILTRATE SAMPLE
 MFST.F                64:   MUD FILTRATE SAMPLE TEMPERATURE
 RMC .OHMM           1.01:   RESISTIVITY MUD CAKE
 MCST.F                63:   MUD CAKE SAMPLE TEMPERATURE
 MFSS.               MEAS:   MUD FILTRATE SAMPLE SOURCE
 MCSS.               MEAS:   MUD CAKE SAMPLE SOURCE
 RMB .OHMM           0.74:   RESISTIVITY MUD AT BHT
 BHT .F                69:   BOTTOM HOLE TEMPERATURE
 TCS .HRS               5:   TIME CURCULATED STOPPED
 MRT .F                69:   MAXIMUM RECORDED TEMPERATURE
 LUN .               8611:   LOGGING UNIT NUMBER
 LUL .           GILLETTE:   LOGGING UNIT LOCATION
 ENGI.           D.LAWSON:   RECORDING ENGINEER
 WITN.             K.JAPP:   WITNESSED BY
 CLNT.            A2DTECH:   CLIENT CODE
 ORIG.         2.5" PRINT:   ORIGIN OF DATA
 UWI .       490251027300:   UNIQUE WELL ID
 DICO. A2D Technologies, Inc.:   DIGITIZING COMPANY
~OTHER INFORMATION
~A   DEPT       CALD      CORR      DPHI         GRD        RHOB     GURD        ILM        ILD        SPR   
# ...
  212.5000     8.2700     0.1276     0.1077   125.6058     2.4701   823.1457     7.5470     7.1562   -41.5061
  213.0000     8.2694     0.1247     0.1125   127.4431     2.4589   826.1401     7.5450     7.1401   -41.5045
  213.5000     8.2688     0.1217     0.1124   128.9837     2.4619   829.1346     7.5430     7.0557   -41.5030
  214.0000     8.2385     0.1217     0.1092   129.8638     2.4753   823.1882     7.5409     7.0543   -41.5012
  214.5000     8.2379     0.1218     0.1053   129.9520     2.4827   820.2220     7.5388     7.0528   -41.4998
  215.0000     8.1780     0.1278     0.1003   128.0862     2.4857   817.2558     7.5750     7.0511   -41.4984
  215.5000     8.1477     0.1308     0.0971   126.3072     2.4840   818.0317     7.6388     7.1471   -41.4970
  216.0000     8.1175     0.1338     0.0947   125.4184     2.4812   822.4130     7.7423     7.1457   -41.4955
  216.5000     8.0849     0.1399     0.0958   124.8264     2.4812   842.3214     7.7398     7.1443   -41.4941
  217.0000     8.0518     0.1462     0.0976   125.4728     2.4818   856.4780     7.8450     7.2417   -41.4926
  217.5000     8.0643     0.1495     0.1024   126.0161     2.4886   860.0245     7.8426     7.3403   -41.4911
  218.0000     8.1662     0.1518     0.0982   123.8100     2.5049   847.1511     7.8406     7.4403   -41.4896
  218.5000     8.2467     0.1519     0.0895   121.4614     2.5153   835.2440     7.8385     7.5770   -41.1911
  219.0000     8.3082     0.1519     0.0829   119.7616     2.5198   850.1598     7.9542     7.6916   -41.1897
  219.5000     8.2913     0.1489     0.0798   118.9006     2.5079   859.3987     8.1835     7.8079   -41.1883
  220.0000     8.2907     0.1460     0.0829   119.4957     2.5004   865.0911     8.4194     7.9619   -41.1869
  220.5000     8.2308     0.1400     0.0884   120.0906     2.4927   864.1970     8.6621     8.0703   -41.1723
  221.0000     8.1709     0.1371     0.0964   119.7953     2.4865   857.9384     8.9117     8.1803   -40.8872
  221.5000     8.1102     0.1371     0.1006   118.6059     2.4807   851.6797     9.1011     8.1787   -40.8858
  222.0000     8.0479     0.1376     0.1018   118.0177     2.4766   844.2912     9.3514     8.1770   -40.8843
  222.5000     8.0208     0.1439     0.0976   118.4347     2.4885   844.3054     9.3489     8.1753   -40.8828
  223.0000     8.0202     0.1502     0.0887   120.1494     2.5153   853.2605     9.3464     8.0622   -40.8810
  223.5000     8.0607     0.1565     0.0760   122.3388     2.5227   859.2353     9.3440     8.0606   -40.8796
  224.0000     8.1080     0.1581     0.0745   124.9673     2.5242   859.1304     9.2142     8.0003   -40.8782
  224.5000     8.1541     0.1582     0.0772   129.4753     2.5242   852.8716     8.9529     7.9471   -40.8768
  225.0000     8.1662     0.1582     0.0789   124.2584     2.5212   850.3367     8.6973     7.9456   -40.8754
  225.5000     8.1358     0.1553     0.0789   119.5120     2.5195   850.3534     8.4491     7.8357   -40.8739
  226.0000     8.0759     0.1523     0.0780   116.8428     2.5182   846.0170     8.2079     7.8342   -40.8724
  226.5000     7.9863     0.1464     0.0763   115.6573     2.5186   839.7583     8.0214     7.7258   -40.8709
  227.0000     7.9264     0.1434     0.0721   115.0415     2.5223   826.5578     7.9616     7.7049   -40.8694
  227.5000     7.8961     0.1442     0.0680   113.4644     2.5308   814.6507     7.9073     7.5871   -41.1647
  228.0000     7.9454     0.1464     0.0637   112.6942     2.5508   813.9487     7.9052     7.5120   -40.8663
  228.5000     8.0920     0.1508     0.0584   114.4644     2.5513   904.0888     7.9031     7.4080   -40.8649
  229.0000     8.1319     0.1571     0.0609   116.9941     2.5464   907.0833     8.1210     7.4062   -40.8635
  229.5000     8.0121     0.1645     0.0687   120.8729     2.5404   873.2269     8.3448     7.3039   -40.8620
  230.0000     7.8634     0.1675     0.0773   126.0537     2.5315   837.9702     8.4579     7.3024   -40.8160
  230.5000     7.7738     0.1735     0.0835   129.3192     2.5208   822.4725     8.3224     7.3010   -40.5623
  231.0000     7.7139     0.1765     0.0832   130.8043     2.5131   823.7541     8.0849     7.3046   -40.5608
  231.5000     7.6836     0.1825     0.0822   128.7286     2.5107   844.5743     7.8541     7.4151   -40.7025
  232.0000     7.7128     0.1860     0.0834   124.8724     2.5127   850.5491     7.8265     7.6035   -40.8546
  232.5000     7.8032     0.1893     0.0887   122.7572     2.5129   851.0836     7.8860     7.7467   -40.8529
  233.0000     7.8694     0.1915     0.0976   121.5638     2.5062   847.5971     8.1029     7.8639   -40.8515
  233.5000     7.9559     0.1916     0.1059   121.3158     2.4958   841.5466     8.2127     7.9180   -41.1469
  234.0000     8.0072     0.1886     0.1113   121.7171     2.4794   834.8707     8.4390     8.0258   -41.1454
  234.5000     7.9341     0.1856     0.1161   122.3398     2.4631   826.0488     8.5536     8.0240   -41.1439
  235.0000     7.9011     0.1797     0.1197   123.2592     2.4438   819.7901     8.6694     8.0224   -41.4394
  235.5000     7.8272     0.1708     0.1215   124.2896     2.4329   819.2239     8.6670     8.0208   -41.4377
  236.0000     7.7673     0.1619     0.1220   124.5877     2.4274   828.8504     8.6822     8.0192   -41.4362
  236.5000     7.7370     0.1494     0.1187   124.5892     2.4341   844.7230     8.7823     8.0175   -41.4344
  237.0000     7.6771     0.1404     0.1103   124.2938     2.4535   862.6191     8.7796     7.9066   -41.4330
  237.5000     7.6766     0.1351     0.1030   123.9985     2.4794   880.5153     8.7772     7.7972   -41.4316
  238.0000     7.7084     0.1363     0.0970   123.6756     2.5031   880.5888     8.7748     7.7956   -41.4302
  238.5000     7.7699     0.1411     0.0899   123.3526     2.5106   874.3302     8.6523     7.6875   -41.4288
  239.0000     7.8315     0.1441     0.0852   122.4362     2.5135   863.9589     8.5321     7.6860   -41.7241
  239.5000     7.8930     0.1471     0.0822   121.7057     2.5135   845.1525     8.4136     7.6845   -41.7226
  240.0000     7.9545     0.1472     0.0797   120.9001     2.5105   830.5192     8.2967     7.5783   -41.8299
  240.5000     8.0291     0.1442     0.0802   120.5772     2.5028   817.9872     8.1815     7.5767   -42.0163
  241.0000     8.0388     0.1413     0.0850   120.1516     2.4972   812.0711     8.0626     7.4719   -42.0145
  241.5000     8.0278     0.1413     0.0907   120.1530     2.4995   832.9503     7.8471     7.4372   -42.0131
  242.0000     8.0569     0.1443     0.0923   120.4511     2.5073   856.8071     7.8450     7.3670   -42.0117
  242.5000     8.1454     0.1482     0.0893   120.7493     2.5135   871.7229     7.7359     7.2651   -42.0103
  243.0000     8.2042     0.1545     0.0852   121.6568     2.5224   865.5978     7.7772     7.1643   -42.0089
  243.5000     8.2036     0.1654     0.0774   122.5683     2.5313   849.6831     7.8385     7.0652   -42.0074
  244.0000     8.1670     0.1773     0.0662   123.8477     2.5417   830.8770     7.9442     7.0639   -42.3028
  244.5000     8.1134     0.1862     0.0632   125.4792     2.5387   817.1078     7.9422     6.9662   -42.3012
  245.0000     8.0831     0.1952     0.0715   126.9288     2.5298   812.1903     8.0501     6.9648   -42.2997
  245.5000     8.0382     0.1982     0.0797   128.3190     2.5175   815.5133     7.9380     6.9634   -42.2979
  246.0000     7.9928     0.1983     0.0860   130.2555     2.5119   824.1439     7.9359     6.9619   -42.5935
  246.5000     7.9625     0.2013     0.0887   130.2569     2.5154   827.1383     7.7189     6.9998   -42.5919
  247.0000     7.9323     0.2006     0.0865   129.6649     2.5185   827.1525     7.5985     7.0552   -42.5904
  247.5000     7.9020     0.1974     0.0804   128.4793     2.5208   830.1470     7.4836     7.1513   -42.5890
  248.0000     7.8421     0.1869     0.0757   126.7003     2.5179   824.2005     7.4014     7.2484   -42.5875
  248.5000     7.8119     0.1789     0.0739   124.2646     2.5060   821.2343     7.2985     7.3472   -42.6605
