~VERSION INFORMATION
 VERS.                2.0:   CWLS LOG ASCII STANDARD - VERSION 2.0
 WRAP.                 NO:   ONE LINE PER DEPTH STEP
~WELL INFORMATION
#MNEM.UNIT      DATA TYPE    INFORMATION
#----------   ------------   ------------------------------
 STRT.F           30.0000:   START DEPTH
 STOP.F          677.0000:   STOP DEPTH
 STEP.F            0.5000:   STEP LENGTH
 NULL.          -999.2500:   NO VALUE
 COMP. FENIX & SCISSON INC:   COMPANY
 WELL. TEAPOT DOME #27 SX -2:   WELL
 FLD .             TEAPOT:   FIELD
 LOC .       S2 T38N R78W:   LOCATION
 CNTY.            NATRONA:   COUNTY
 STAT.            WYOMING:   STATE
 CTRY. UNITED STATES OF AMERICA:   COUNTRY
 SRVC.            Unknown:   SERVICE COMPANY
 DATE.        28-JAN-1978:   LOGDATE
 API .       490251056500:   API NUMBER
~CURVE INFORMATION
#MNEM.UNIT       API CODE    CURVE DESCRIPTION
#----------   ------------   ------------------------------
 DEPT.F                  :   
 ILD .OHMM   05 120 46 00:   INDUCTION LOG DEEP
 SN  .OHMM   05 040 16 00:   SHORT NORMAL 16"
 SPR .MV     05 010 01 00:   SPONTANEOUS POTENSIAL
 CALD.IN     45 280 60 00:   CALIPER FROM DENSITY LOG
 CORR.G/C3   45 356 01 00:   DENSITY CORRECTION
 DPHI.DEC    45 890 12 00:   DENSITY POROSITY SANDSTONE
 GRD .GAPI   45 310 01 00:   GAMMA RAY FROM DENSITY LOG
 RHOB.G/C3   45 350 01 00:   BULK DENSITY
~PARAMETER INFORMATION
#MNEM.UNIT          VALUE    DESCRIPTION
#----------   ------------   ------------------------------
 PD  .                 GL:   PERMANENT DATUM
 EPD .F              5147:   ELEVATION PERMANENT DATUM
 LMF .                 KB:   LOG MEASURED FROM
 DAPD.F                 4:   FEET ABOVE PERMANENT DATUM
 DMF .                 KB:   DRILLING MEASURED FROM
 EKB .F              5151:   KELLING BUSHING
 EGL .F              5147:   GROUND LEVEL
 DATE.        28-JAN-1978:   RUN DATE
 RUN .                  1:   RUN NUMBER
 DD  .F               675:   DEPTH DRILLER
 DL  .F               678:   DEPTH LOGGER
 BLI .F               677:   BOTTOM LOG INTERVAL
 TLI .F                40:   TOP LOG INTERVAL
 CS  .IN            8.625:   CASING SIZE
 CBD .F                40:   CASING BOTTOM DRILLER
 CBL .F                40:   CASING BOTTOM LOGGER
 BS  .IN            7.875:   BIT SIZE
 BSD .F               675:   BIT SIZE AT DEPTH
 DFT .                KCL:   DRILLING FLUID TYPE
 DFD .                8.6:   DRILLING FLUID DENSITY
 DFV .                .34:   DRILLING FLUID VISCOSITY
 DFPH.                9.5:   DRILLING FLUID PH
 MSS .           FLOWLINE:   MUD SAMPLE SOURCE
 RMS .OHMM           0.38:   RESISTIVITY MUD SAMPLE
 MST .F                60:   MUD SAMPLE TEMPERATURE
 RMF .OHMM           0.36:   RESISTIVITY MUD FILTRATE SAMPLE
 MFST.F                62:   MUD FILTRATE SAMPLE TEMPERATURE
 RMC .OHMM            0.7:   RESISTIVITY MUD CAKE
 MCST.F                63:   MUD CAKE SAMPLE TEMPERATURE
 MFSS.               MEAS:   MUD FILTRATE SAMPLE SOURCE
 MCSS.               MEAS:   MUD CAKE SAMPLE SOURCE
 RMB .OHMM           0.31:   RESISTIVITY MUD AT BHT
 BHT .F                76:   BOTTOM HOLE TEMPERATURE
 TCS .HRS               3:   TIME CURCULATED STOPPED
 MRT .F                76:   MAXIMUM RECORDED TEMPERATURE
 LUN .               2958:   LOGGING UNIT NUMBER
 LUL .             CASPER:   LOGGING UNIT LOCATION
 ENGI.           REYNOLDS:   RECORDING ENGINEER
 WITN.     MR. HARRINGTON:   WITNESSED BY
 CLNT.            A2DTECH:   CLIENT CODE
 ORIG.           5" PRINT:   ORIGIN OF DATA
 UWI .       490251056500:   UNIQUE WELL ID
 DICO. A2D Technologies, Inc.:   DIGITIZING COMPANY
~OTHER INFORMATION
~A   DEPT      ILD         SN        SPR       CALD       CORR       DPHI        GRD       RHOB   
# ...
  232.5000    10.7177     9.7614   -68.2416     8.6456     0.0217     0.0780   106.5202     2.5125
  233.0000    10.7080     9.7020   -68.5221     8.6481     0.0158     0.0806   101.5146     2.5245
  233.5000    10.6610     9.7116   -68.5035     8.6501     0.0371     0.0952   100.7930     2.5156
  234.0000    10.5836     9.6526   -68.4843     8.6525     0.0537     0.1129   103.1898     2.4716
  234.5000    10.4617     9.5937   -68.4618     8.6545     0.0764     0.1184   106.5340     2.4680
  235.0000    10.3269     9.2704   -68.5974     8.6565     0.0886     0.1169   112.1196     2.4583
  235.5000    10.1239     8.8489   -68.5742     8.6733     0.0932     0.1147   114.2146     2.4704
  236.0000     9.8357     8.6749   -68.5557     8.6753     0.0887     0.1090   114.6824     2.4803
  236.5000     9.4677     8.5043   -68.6866     8.6777     0.0821     0.1051   111.5999     2.4983
  237.0000     9.2180     8.3944   -68.8176     8.6797     0.0757     0.1030   110.3876     2.4910
  237.5000     8.9134     8.1730   -68.6449     8.6664     0.0759     0.1083   107.6538     2.4835
  238.0000     8.6783     7.9043   -68.6264     8.6535     0.0731     0.1130   106.6483     2.4687
  238.5000     8.3915     7.7473   -68.4584     8.6264     0.0717     0.1148   106.2225     2.4636
  239.0000     8.2743     7.5964   -68.2900     8.6284     0.0704     0.1129   108.7673     2.4689
  239.5000     8.1766     7.5501   -68.2672     8.6308     0.0689     0.1114   110.4186     2.4683
  240.0000     8.1286     7.5563   -68.2486     8.6476     0.0662     0.1185   109.7089     2.4601
  240.5000     8.0792     7.5636   -68.2301     8.6496     0.0709     0.1215   109.4311     2.4571
  241.0000     8.1487     7.6745   -68.3617     8.6516     0.0785     0.1220   109.3072     2.4574
  241.5000     8.2137     7.7871   -68.3423     8.6536     0.0817     0.1196   109.4851     2.4605
  242.0000     8.3251     7.9012   -68.3193     8.6561     0.0819     0.1133   108.1777     2.4695
  242.5000     8.4478     8.0171   -68.4549     8.6580     0.0790     0.1096   106.7825     2.4764
  243.0000     8.5716     8.0804   -68.4318     8.6600     0.0762     0.1084   104.5335     2.4817
  243.5000     8.6974     8.0868   -68.4132     8.6620     0.0764     0.1075   102.1907     2.4818
  244.0000     8.8263     8.0931   -68.3946     8.6640     0.0795     0.1071   102.5106     2.4789
  244.5000     8.9556     8.0439   -68.3715     8.6664     0.0827     0.1181   103.8659     2.4641
  245.0000     9.0245     8.0503   -68.2035     8.6684     0.0796     0.1187   104.3337     2.4612
  245.5000     9.0316     8.0582   -68.3344     8.6704     0.0740     0.1144   102.2867     2.4650
  246.0000     9.0389     8.0645   -68.3159     8.6571     0.0757     0.1114   103.9439     2.4704
  246.5000     8.9838     8.1005   -68.2974     8.6596     0.0804     0.1132   104.4057     2.4675
  247.0000     8.9293     8.1328   -68.2742     8.6467     0.0820     0.1212   102.2168     2.4594
  247.5000     8.8751     8.1395   -68.2557     8.6339     0.0747     0.1194   101.3388     2.4535
  248.0000     8.7624     8.1475   -68.2371     8.6364     0.0854     0.1139   102.5667     2.4641
  248.5000     8.7092     8.0979   -68.2186     8.6230     0.0930     0.1235   103.3303     2.4649
  249.0000     8.6563     8.1043   -68.2001     8.6255     0.0932     0.1267   103.3544     2.4523
  249.5000     8.6037     8.1104   -68.1809     8.6127     0.0948     0.1183   102.9346     2.4554
  250.0000     8.6716     8.1171   -68.1583     8.6151     0.0950     0.1137   102.2189     2.4705
  250.5000     8.6785     8.0694   -68.2939     8.6171     0.0937     0.1113   103.1365     2.4708
  251.0000     8.6854     8.0757   -68.2708     8.6191     0.0923     0.1125   104.3440     2.4654
  251.5000     8.6938     8.1379   -68.4021     8.6211     0.0925     0.1136   104.9597     2.4745
  252.0000     8.7007     8.1443   -68.3827     8.6236     0.0911     0.1091   105.8713     2.4739
  252.5000     8.7075     8.2654   -68.0701     8.6261     0.0928     0.1123   106.9308     2.4650
  253.0000     8.7144     8.3870   -68.2067     8.6286     0.0945     0.1135   107.1027     2.4621
  253.5000     8.7213     8.3941   -68.3348     8.6311     0.0947     0.1140   106.5410     2.4630
  254.0000     8.7298     8.4026   -68.1639     8.6336     0.0888     0.1133   104.7839     2.4663
  254.5000     8.7367     8.3501   -68.1468     8.6366     0.0830     0.1098   105.9973     2.4785
  255.0000     8.8022     8.3588   -68.1297     8.6389     0.0787     0.1061   105.1337     2.4992
  255.5000     8.7487     8.4235   -67.9631     8.6412     0.0736     0.0992   104.1087     2.5105
  256.0000     8.7574     8.3725   -67.9460     8.6434     0.0684     0.0992   103.3917     2.5174
  256.5000     8.7660     8.3797   -67.9288     8.6457     0.0539     0.0962   103.1183     2.5047
  257.0000     8.7729     8.3882   -68.0612     8.6480     0.0285     0.0898    99.3847     2.5205
  257.5000     8.7798     8.3952   -68.1935     8.6508     0.0452     0.0784    96.5127     2.5386
  258.0000     8.7867     8.3427   -68.3259     8.6531     0.0634     0.0969    95.2041     2.5237
  258.5000     8.7936     8.2924   -68.3045     8.6554     0.0696     0.1047   103.5107     2.4998
  259.0000     8.8022     8.2438   -68.2870     8.6576     0.0778     0.1247   104.2731     2.4866
  259.5000     8.8092     8.1380   -68.4197     8.6599     0.0850     0.1097   104.4438     2.4545
  260.0000     8.8161     8.0905   -68.2488     8.6622     0.0821     0.1078   105.8034     2.4716
  260.5000     8.8230     8.0417   -68.2317     8.6650     0.0823     0.1075   105.5302     2.4787
  261.0000     8.7694     8.0484   -68.2146     8.6673     0.0825     0.1071   105.7008     2.4795
  261.5000     8.5988     8.0550   -68.0478     8.6696     0.0811     0.1068   105.8657     2.4811
  262.0000     8.6792     8.0617   -68.0266     8.6570     0.0798     0.1101   101.8999     2.4827
  262.5000     8.7466     8.0684   -68.1632     8.6593     0.0830     0.1118   102.8230     2.4723
  263.0000     8.7542     8.0199   -68.1418     8.6468     0.0772     0.1097   103.2766     2.4709
  263.5000     8.7617     8.0268   -67.9752     8.6496     0.0714     0.1036   103.0034     2.4883
  264.0000     8.7694     8.0346   -67.9581     8.6365     0.0550     0.1042    98.1501     2.4958
  264.5000     8.7787     7.9844   -67.7872     8.6371     0.0537     0.1063    96.1018     2.4840
  265.0000     8.7241     7.9927   -67.9196     8.6371     0.0569     0.1104   102.1895     2.4796
  265.5000     8.7938     7.9993   -68.0562     8.6371     0.0631     0.1128   106.5454     2.4730
  266.0000     8.7392     8.0061   -68.3380     8.6372     0.0663     0.1124   107.4181     2.4716
  266.5000     8.7486     8.0142   -68.3166     8.6372     0.0680     0.1100   107.7366     2.4769
  267.0000     8.8166     8.0208   -68.4490     8.6372     0.0681     0.1087   109.5344     2.4800
  267.5000     8.8260     8.0829   -68.4276     8.6389     0.0683     0.1075   108.5216     2.4831
  268.0000     8.7730     8.1455   -68.4104     8.6412     0.0685     0.1075   106.9092     2.4840
  268.5000     8.7185     8.1521   -68.5471     8.6435     0.0687     0.1074   107.6850     2.4841
  269.0000     8.7279     8.1591   -68.5257     8.6304     0.0689     0.1074   107.7077     2.4834
  269.5000     8.6755     8.1674   -68.5082     8.6480     0.0675     0.1073   107.7303     2.4820
  270.0000     8.6235     8.1742   -68.4871     8.6355     0.0677     0.1073   107.9009     2.4836
  270.5000     8.6309     8.1809   -68.4700     8.6383     0.0664     0.1049   108.3674     2.4979
  271.0000     8.5203     8.1877   -68.4529     8.6406     0.0621     0.1024   108.8471     2.5003
  271.5000     8.5295     8.2511   -68.2863     8.6429     0.0623     0.1012   109.1580     2.4922
  272.0000     8.5361     8.2580   -68.2691     8.6451     0.0609     0.1059   107.4055     2.4848
  272.5000     8.6031     8.3236   -68.2478     8.6474     0.0581     0.1071   107.2746     2.4939
