~VERSION INFORMATION
 VERS.                2.0:   CWLS LOG ASCII STANDARD - VERSION 2.0
 WRAP.                 NO:   ONE LINE PER DEPTH STEP
~WELL INFORMATION
#MNEM.UNIT      DATA TYPE    INFORMATION
#----------   ------------   ------------------------------
 STRT.F           36.0000:   START DEPTH
 STOP.F          503.0000:   STOP DEPTH
 STEP.F            0.5000:   STEP LENGTH
 NULL.          -999.2500:   NO VALUE
 COMP.    FENIX & SCISSON:   COMPANY
 WELL.     NPR ##3 77-S-3:   WELL
 FLD .             TEAPOT:   FIELD
 LOC .       S3 T38N R78W:   LOCATION
 CNTY.            NATRONA:   COUNTY
 STAT.            WYOMING:   STATE
 CTRY. UNITED STATES OF AMERICA:   COUNTRY
 SRVC.       Schlumberger:   SERVICE COMPANY
 DATE.        04-MAR-1977:   LOGDATE
 API .       490251029500:   API NUMBER
~CURVE INFORMATION
#MNEM.UNIT       API CODE    CURVE DESCRIPTION
#----------   ------------   ------------------------------
 DEPT.F                  :   
 SPR .MV     07 010 01 00:   SPONTANEOUS POTENTIAL
 ILD .OHMM   07 120 46 00:   INDUCTION LOG DEEP
 ILM .OHMM   07 120 44 00:   INDUCTION LOG MEDIUM
 LL8 .OHMM   07 220 08 00:   LATEROLOG-8 RES.
 GRD .GAPI   45 310 01 00:   GAMMA RAY FROM DENSITY LOG
 CALD.IN     45 280 60 00:   CALIPER FROM DENSITY LOG
 CORR.G/C3   45 356 01 00:   DENSITY CORRECTION
 RHOB.G/C3   45 350 01 00:   BULK DENSITY
 DPHI.DEC    45 890 12 00:   DENSITY POROSITY SANDSTONE
~PARAMETER INFORMATION
#MNEM.UNIT          VALUE    DESCRIPTION
#----------   ------------   ------------------------------
 PD  .                 GL:   PERMANENT DATUM
 EPD .F              5165:   ELEVATION PERMANENT DATUM
 LMF .                 KB:   LOG MEASURED FROM
 DAPD.F                 4:   FEET ABOVE PERMANENT DATUM
 DMF .                 GL:   DRILLING MEASURED FROM
 EKB .F              5169:   KELLING BUSHING
 EGL .F              5165:   GROUND LEVEL
 DATE.        04-MAR-1977:   RUN DATE
 RUN .                  1:   RUN NUMBER
 DD  .F               500:   DEPTH DRILLER
 DL  .F               504:   DEPTH LOGGER
 BLI .F               503:   BOTTOM LOG INTERVAL
 TLI .F                46:   TOP LOG INTERVAL
 CS  .IN            8.625:   CASING SIZE
 CBD .F                42:   CASING BOTTOM DRILLER
 CBL .F                46:   CASING BOTTOM LOGGER
 BS  .IN            7.875:   BIT SIZE
 BSD .F               500:   BIT SIZE AT DEPTH
 DFT .                KCL:   DRILLING FLUID TYPE
 DFD .                8.6:   DRILLING FLUID DENSITY
 DFV .                 32:   DRILLING FLUID VISCOSITY
 DFPH.                8.0:   DRILLING FLUID PH
 DFL .                7.6:   DRILLING FLUID LOSS
 MSS .            MUD PIT:   MUD SAMPLE SOURCE
 RMS .OHMM            .66:   RESISTIVITY MUD SAMPLE
 MST .F                56:   MUD SAMPLE TEMPERATURE
 RMF .OHMM            .49:   RESISTIVITY MUD FILTRATE SAMPLE
 MFST.F                56:   MUD FILTRATE SAMPLE TEMPERATURE
 RMC .OHMM             .4:   RESISTIVITY MUD CAKE
 MCST.F                56:   MUD CAKE SAMPLE TEMPERATURE
 MFSS.               MEAS:   MUD FILTRATE SAMPLE SOURCE
 MCSS.               CALC:   MUD CAKE SAMPLE SOURCE
 TCS .HRS            0100:   TIME CURCULATED STOPPED
 LUN .               7680:   LOGGING UNIT NUMBER
 LUL .               CSPR:   LOGGING UNIT LOCATION
 ENGI.    LOHBECK/ TAYLOR:   RECORDING ENGINEER
 WITN.              BURKE:   WITNESSED BY
 CLNT.            A2DTECH:   CLIENT CODE
 ORIG.           5" PRINT:   ORIGIN OF DATA
 UWI .       490251029500:   UNIQUE WELL ID
 DICO. A2D Technologies, Inc.:   DIGITIZING COMPANY
~OTHER INFORMATION
~A   DEPT      SPR        ILD        ILM        LL8         GRD      CALD       CORR       RHOB       DPHI   
# ...
  182.0000   -54.8384     8.4400     8.4049     8.7903    62.1767     8.0840     0.0199     2.4495     0.1226
  182.5000   -54.9788     8.5046     8.5281     8.9187    64.0752     8.0833     0.0206     2.4578     0.1173
  183.0000   -54.9637     8.5104     8.5340     9.0477    64.2981     8.0826     0.0266     2.4607     0.1167
  183.5000   -54.9182     8.4561     8.5399     9.2425    63.6217     8.0818     0.0199     2.4697     0.1143
  184.0000   -54.7900     8.4634     8.4854     9.1201    60.4758     8.0811     0.0230     2.4644     0.1165
  184.5000   -54.7779     8.4094     8.4326     8.9372    60.2491     8.0802     0.0160     2.4554     0.1185
  185.0000   -54.7683     8.3009     8.3223     8.8790    61.1451     8.0795     0.0078     2.4396     0.1249
  185.5000   -54.7564     8.1910     8.2148     8.8223    62.9393     8.0787     0.0175     2.4425     0.1213
  186.0000   -54.5949     8.0295     8.0514     8.6454    64.7485     8.0780     0.0250     2.4507     0.1189
  186.5000   -54.2840     7.8156     7.7826     8.3567    65.8536     8.0773     0.0355     2.4635     0.1138
  187.0000   -54.1225     7.6073     7.4192     8.1880    66.3011     8.0766     0.0287     2.4747     0.1099
  187.5000   -54.1104     7.4560     7.1219     8.0249    65.8492     8.0758     0.0332     2.4732     0.1105
  188.0000   -53.9488     7.2574     6.9320     7.9176    63.6015     8.0751     0.0107     2.4457     0.1229
  188.5000   -53.7872     6.9668     6.8401     7.7599    61.3539     8.0742     0.0106     2.4355     0.1325
  189.0000   -53.9276     6.7812     6.7052     7.7093    60.4535     8.0735     0.0167     2.4333     0.1307
  189.5000   -53.9124     6.5549     6.6164     7.6611    60.4251     8.0727     0.0188     2.4422     0.1244
  190.0000   -54.0528     6.3362     6.4410     7.6112    61.1228     8.0720     0.0121     2.4482     0.1310
  190.5000   -54.3367     6.1248     6.2693     7.4596    61.8204     8.0713     0.0083     2.4279     0.1356
  191.0000   -54.4771     5.7588     6.0181     7.2595    62.2411     8.0705     0.0068     2.4279     0.1365
  191.5000   -54.6144     5.5755     5.6975     6.9196    62.4635     8.0698     0.0135     2.4271     0.1371
  192.0000   -54.5993     5.3806     5.3197     6.1119    61.1135     8.0691     0.0195     2.4239     0.1380
  192.5000   -54.5872     5.3103     4.8986     4.0360    59.9885     8.0682     0.0112     2.4210     0.1432
  193.0000   -54.5751     5.4255     4.9361     4.1515    60.2115     8.0674     0.0134     2.4067     0.1560
  193.5000   -54.5630     5.5817     5.2939     5.3297    60.6578     8.0667     0.0112     2.3758     0.1684
  194.0000   -54.5508     5.9038     5.7570     7.2320    61.1048     8.0660     0.0104     2.3796     0.1609
  194.5000   -54.5411     6.2013     6.1318     8.2533    62.0121     8.0653     0.0134     2.4020     0.1402
  195.0000   -54.5291     6.5138     6.4410     8.3150    62.6722     8.0645     0.0193     2.4336     0.1240
  195.5000   -54.5172     6.8421     6.7192     8.3193    61.3222     8.0638     0.0261     2.4651     0.1129
  196.0000   -54.5052     7.1869     6.9609     8.3815    61.3200     8.0631     0.0080     2.4394     0.1237
  196.5000   -54.3438     7.5491     7.3120     8.5028    61.9921     8.0623     0.0073     2.4365     0.1310
  197.0000   -54.1823     7.9296     7.6808     8.8681    62.8881     8.0614     0.0049     2.4372     0.1304
  197.5000   -54.0207     8.2146     7.9571     9.2492    62.8853     8.0607     0.0072     2.4386     0.1292
  198.0000   -53.8591     8.3350     8.1864     9.4483    61.7604     8.0600     0.0035     2.4401     0.1253
  198.5000   -53.8470     8.5159     8.3642     9.5850    60.6355     8.0592     0.0184     2.4446     0.1205
  199.0000   -53.6854     8.5810     8.5458     9.6566    60.1842     8.0585     0.0237     2.4565     0.1166
  199.5000   -53.6733     8.6466     8.6112     9.6617    61.9779     8.0578     0.0161     2.4550     0.1191
  200.0000   -53.5147     8.7732     8.6771     9.6658    63.6170     8.0571     0.0139     2.4565     0.1180
  200.5000   -53.7216     8.8403     8.8043     9.6698    63.7725     8.0566     0.0229     2.4714     0.1104
  201.0000   -53.6363     8.8465     8.8717     9.6739    63.0988     8.0562     0.0154     2.4829     0.1062
  201.5000   -53.4749     8.9141     8.9396     9.6779    61.9760     8.0557     0.0228     2.4864     0.1020
  202.0000   -53.1641     8.9203     9.0080     9.6819    59.2814     8.0553     0.0274     2.4796     0.1056
  202.5000   -53.1521     8.9265     9.0770     9.6860    57.9004     8.0548     0.0212     2.4743     0.1116
  203.0000   -53.1402     8.9947     9.0832     9.6900    56.8114     8.0544     0.0198     2.4742     0.1047
  203.5000   -53.1283     9.0009     9.0895     9.6940    57.4850     8.0539     0.0251     2.4915     0.0969
  204.0000   -53.5648     9.0072     9.0958     9.6980    59.2814     8.0535     0.0288     2.4923     0.0966
  204.5000   -54.0013     9.0134     9.1308     9.7695    60.1796     8.0530     0.0116     2.4870     0.0996
  205.0000   -54.5872     9.0197     9.0552     9.8529    60.6287     8.0525     0.0202     2.4847     0.0990
  205.5000   -54.8773     9.0259     8.9795     9.9140    60.8533     8.0521     0.0348     2.4854     0.1035
  206.0000   -54.8623     8.9683     8.9039     9.9189    60.6287     8.0516     0.0400     2.4891     0.0975
  206.5000   -54.8504     8.9126     8.8522     9.9230    60.6287     8.0512     0.0280     2.4681     0.1110
  207.0000   -54.6890     8.8572     8.8356     9.9271    60.8533     8.0507     0.0190     2.4470     0.1222
  207.5000   -54.6771     8.8514     8.8191     9.8617    61.2177     8.0503     0.0250     2.4755     0.1047
  208.0000   -54.5157     8.8434     8.8025     9.5972    61.5269     8.0498     0.0302     2.4920     0.1011
  208.5000   -54.3543     8.8354     8.6830     9.3389    61.7680     8.0494     0.0250     2.4777     0.1096
  209.0000   -54.1929     8.6647     8.5215     9.0875    62.8743     8.0489     0.0272     2.4709     0.1115
  209.5000   -54.1809     8.4922     8.3601     8.9043    64.2216     8.0484     0.0220     2.4626     0.1144
  210.0000   -53.8701     8.4386     8.1061     8.7846    65.3443     8.0480     0.0265     2.4649     0.1147
  210.5000   -53.7087     8.2704     7.8897     8.6674    65.3547     8.0476     0.0047     2.4646     0.1141
  211.0000   -53.5472     8.1057     7.7315     8.5526    64.6707     8.0472     0.0137     2.4505     0.1204
  211.5000   -53.5353     7.9441     7.5764     8.4384    65.3443     8.0466     0.0054     2.4520     0.1201
  212.0000   -53.5234     7.7320     7.3733     8.2113    66.0180     8.0462     0.0147     2.4550     0.1159
  212.5000   -53.5115     7.3710     7.1261     7.8803    65.5689     8.0458     0.0107     2.4557     0.1198
  213.0000   -53.3501     7.0756     6.8873     7.6682    64.4461     8.0453     0.0099     2.4482     0.1222
  213.5000   -53.3381     6.6987     6.5198     7.4618    65.5689     8.0449     0.0159     2.4504     0.1207
  214.0000   -53.3262     6.2116     6.0035     7.1611    66.6916     8.0444     0.0160     2.4542     0.1162
  214.5000   -53.4667     5.6027     5.3773     6.9202    67.1407     8.0439     0.0152     2.4586     0.1178
  215.0000   -53.4518     5.0186     4.8835     6.5500    66.6766     8.0435     0.0076     2.4390     0.1244
  215.5000   -53.7388     4.5897     4.5280     5.8654    67.3653     8.0431     0.0159     2.4277     0.1321
  216.0000   -54.1754     4.0547     4.1695     5.2524    65.5689     8.0426     0.0084     2.4187     0.1390
  216.5000   -54.6119     3.6826     3.7346     4.7691    63.7725     8.0421     0.0054     2.4096     0.1459
  217.0000   -54.7494     3.3210     3.3451     4.4211    63.3234     8.0417     0.0114     2.3966     0.1546
  217.5000   -54.7375     3.0161     2.9346     3.9866    63.0988     8.0413     0.0091     2.3836     0.1662
  218.0000   -54.7255     2.8163     2.7399     3.2626    63.7725     8.0408     0.0016     2.3615     0.1836
