~VERSION INFORMATION
 VERS.                2.0:   CWLS LOG ASCII STANDARD - VERSION 2.0
 WRAP.                 NO:   ONE LINE PER DEPTH STEP
~WELL INFORMATION
#MNEM.UNIT      DATA TYPE    INFORMATION
#----------   ------------   ------------------------------
 STRT.F           34.0000:   START DEPTH
 STOP.F          534.0000:   STOP DEPTH
 STEP.F            0.5000:   STEP LENGTH
 NULL.          -999.2500:   NO VALUE
 COMP.    FENIX & SCISSON:   COMPANY
 WELL.      33 SX 3 #33-3:   WELL
 FLD .             TEAPOT:   FIELD
 LOC .       S3 T38N R78W:   LOCATION
 CNTY.            NATRONA:   COUNTY
 STAT.            WYOMING:   STATE
 CTRY. UNITED STATES OF AMERICA:   COUNTRY
 SRVC.       Schlumberger:   SERVICE COMPANY
 DATE.        23-FEB-1977:   LOGDATE
 API .       490251028500:   API NUMBER
~CURVE INFORMATION
#MNEM.UNIT       API CODE    CURVE DESCRIPTION
#----------   ------------   ------------------------------
 DEPT.F                  :   
 SPR .MV     07 010 01 00:   SPONTANEOUS POTENTIAL
 LL8 .OHMM   07 220 08 00:   LATEROLOG-8 RES.
 ILD .OHMM   07 120 46 00:   INDUCTION LOG DEEP
 ILM .OHMM   07 120 44 00:   INDUCTION LOG MEDIUM
 CALD.IN     45 280 60 00:   CALIPER
 GRD .GAPI   45 310 01 00:   GAMMA RAY FROM DENSITY LOG
 RHOB.G/C3   45 350 01 00:   BULK DENSITY
 DPOR.DEC    45 890 12 00:   DENSITY POROSITY SANDSTONE
 CORR.G/C3   45 356 01 00:   DENSITY CORRECTION
~PARAMETER INFORMATION
#MNEM.UNIT          VALUE    DESCRIPTION
#----------   ------------   ------------------------------
 PD  .                 GL:   PERMANENT DATUM
 EPD .F              5170:   ELEVATION PERMANENT DATUM
 LMF .                 KB:   LOG MEASURED FROM
 DAPD.F                 5:   FEET ABOVE PERMANENT DATUM
 DMF .                 KB:   DRILLING MEASURED FROM
 EKB .F              5175:   KELLING BUSHING
 EGL .F              5170:   GROUND LEVEL
 DATE.            2-23-77:   RUN DATE
 RUN .                  1:   RUN NUMBER
 DD  .F               550:   DEPTH DRILLER
 DL  .F               535:   DEPTH LOGGER
 BLI .F               525:   BOTTOM LOG INTERVAL
 TLI .F                47:   TOP LOG INTERVAL
 CS  .IN            8.625:   CASING SIZE
 CBD .F                40:   CASING BOTTOM DRILLER
 CBL .F                47:   CASING BOTTOM LOGGER
 BS  .IN            7.875:   BIT SIZE
 BSD .F               550:   BIT SIZE AT DEPTH
 DFT .                KCL:   DRILLING FLUID TYPE
 DFD .                  9:   DRILLING FLUID DENSITY
 DFV .                 36:   DRILLING FLUID VISCOSITY
 MSS .            MUDTANK:   MUD SAMPLE SOURCE
 RMS .OHMM           .255:   RESISTIVITY MUD SAMPLE
 MST .F                74:   MUD SAMPLE TEMPERATURE
 RMF .OHMM           .246:   RESISTIVITY MUD FILTRATE SAMPLE
 MFST.F                74:   MUD FILTRATE SAMPLE TEMPERATURE
 RMC .OHMM            .38:   RESISTIVITY MUD CAKE
 MCST.F                74:   MUD CAKE SAMPLE TEMPERATURE
 MFSS.                  M:   MUD FILTRATE SAMPLE SOURCE
 MCSS.                  C:   MUD CAKE SAMPLE SOURCE
 RMB .OHMM            .34:   RESISTIVITY MUD AT BHT
 BHT .F                55:   BOTTOM HOLE TEMPERATURE
 TCS .HRS            0600:   TIME CURCULATED STOPPED
 TLAB.HRS            0730:   TIME LOGGER AT BOTTOM
 MRT .F                55:   MAXIMUM RECORDED TEMPERATURE
 LUN .               5642:   LOGGING UNIT NUMBER
 LUL .               CSPR:   LOGGING UNIT LOCATION
 ENGI.                FIX:   RECORDING ENGINEER
 WITN.         STUEBINGER:   WITNESSED BY
 CLNT.            A2DTECH:   CLIENT CODE
 ORIG.       2", 5" PRINT:   ORIGIN OF DATA
 UWI .       490251028500:   UNIQUE WELL ID
 DICO. A2D Technologies, Inc.:   DIGITIZING COMPANY
~OTHER INFORMATION
~A   DEPT      SPR        LL8        ILD        ILM       CALD         GRD      RHOB       DPOR       CORR   
# ...
  107.0000   -59.4968    14.2760    11.0575    13.1606     8.5327   100.8909     2.5046     0.1045     0.0414
  107.5000   -59.2270    15.6609    11.3180    13.7627     8.5268   100.2110     2.5272     0.0968     0.0426
  108.0000   -59.0915    15.0133    11.5847    13.7515     8.5210    98.1477     2.5121     0.0990     0.0468
  108.5000   -58.9627    13.5111    11.8577    13.7216     8.5151    95.8438     2.5086     0.1036     0.0241
  109.0000   -58.8347    13.7800    12.1371    13.6917     8.5092    93.2403     2.4675     0.1168     0.0139
  109.5000   -58.7079    14.5582    12.3200    13.6619     8.5034    94.7721     2.4739     0.1162     0.0246
  110.0000   -58.7136    15.0934    12.2706    13.6363     8.4975    98.2902     2.4864     0.1100     0.0407
  110.5000   -58.9109    14.7684    12.2047    13.6363     8.4916   101.3252     2.5030     0.1060     0.0336
  111.0000   -59.1276    14.4894    12.1391    13.5381     8.4857   100.1136     2.4971     0.1086     0.0365
  111.5000   -59.3765    14.4127    12.0739    13.4335     8.4800    98.7470     2.4815     0.1130     0.0256
  112.0000   -59.6235    14.5463    12.0091    13.3297     8.4747    97.3633     2.4659     0.1174     0.0193
  112.5000   -59.8697    14.4934    11.9446    13.2267     8.4653    96.8046     2.4585     0.1208     0.0299
  113.0000   -60.1282    14.3891    11.8804    13.1244     8.4552    96.7037     2.4512     0.1249     0.0168
  113.5000   -60.3765    14.2854    11.8166    13.0230     8.4452    95.4078     2.4558     0.1215     0.0114
  114.0000   -60.3615    14.1826    11.7531    12.9224     8.4353    93.4641     2.4677     0.1180     0.0181
  114.5000   -60.2951    13.9391    11.6900    12.8225     8.4252    90.3983     2.4711     0.1160     0.0224
  115.0000   -60.2111    13.5043    11.6272    12.7234     8.4157    91.6261     2.4575     0.1214     0.0053
  115.5000   -60.9289    12.9002    11.5648    12.6251     8.4169    91.5127     2.4557     0.1252     0.0165
  116.0000   -61.8136    12.9020    11.5027    12.5275     8.4192    91.2896     2.4441     0.1279     0.0242
  116.5000   -61.6842    12.9720    11.4431    12.4342     8.4215    93.4486     2.4413     0.1328     0.0109
  117.0000   -59.6522    13.0577    11.3117    12.4342     8.4238    94.9567     2.4647     0.1196     0.0211
  117.5000   -59.8567    13.1439    11.2509    12.5122     8.4261    94.7268     2.4580     0.1228     0.0329
  118.0000   -61.1219    13.2301    11.1905    12.6086     8.4284    93.1389     2.4419     0.1300     0.0218
  118.5000   -62.3692    13.3169    11.1304    12.7060     8.4307    91.8139     2.4330     0.1369     0.0109
  119.0000   -63.6198    13.3869    11.0706    12.7825     8.4330    91.4997     2.4505     0.1289     0.0223
  119.5000   -64.1438    13.2760    11.0112    12.7846     8.4353    91.7103     2.4719     0.1193     0.0391
  120.0000   -64.0860    13.1353    10.9520    12.7032     8.4376    92.8349     2.4667     0.1218     0.0314
  120.5000   -64.0246    13.0207    10.8932    12.6005     8.4399    94.3385     2.4570     0.1249     0.0169
  121.0000   -64.5560    13.0849    10.8347    12.4989     8.4422    95.8226     2.4479     0.1266     0.0086
  121.5000   -65.5971    13.1447    10.7765    12.3786     8.4445    94.8658     2.4487     0.1225     0.0189
  122.0000   -66.6402    12.8942    10.7273    12.2250     8.4468    93.6567     2.4681     0.1164     0.0315
  122.5000   -67.5814    12.4621    10.6551    12.0733     8.4490    94.4890     2.4819     0.1128     0.0378
  123.0000   -67.7525    11.9784    10.5795    11.9236     8.4513    94.3859     2.4723     0.1150     0.0291
  123.5000   -67.6816    12.0447    10.5045    11.7644     8.4537    93.3096     2.4651     0.1170     0.0279
  124.0000   -67.6072    12.1613    10.4299    11.7482     8.4562    95.0105     2.4844     0.1160     0.0206
  124.5000   -67.4684    12.2791    10.3559    11.7258     8.4598    96.7666     2.4829     0.1118     0.0343
  125.0000   -67.1279    12.4342    10.2824    11.7035     8.4633    95.9280     2.4911     0.1072     0.0543
  125.5000   -66.8018    12.2862    10.2095    11.6812     8.4668    95.0714     2.5024     0.1068     0.0650
  126.0000   -66.7660    12.0771    10.1370    11.6589     8.4703    95.3867     2.4883     0.1137     0.0652
  126.5000   -66.7222    11.8715    10.0651    11.5313     8.4738    96.9499     2.4573     0.1208     0.0296
  127.0000   -66.6616    11.7632    10.0067    11.3914     8.4773    99.6873     2.4623     0.1186     0.0358
  127.5000   -66.6005    11.7651     9.9337    11.2532     8.4808    99.8462     2.4730     0.1152     0.0533
  128.0000   -66.6136    11.7651     9.8612    11.1167     8.4843    99.0104     2.4600     0.1217     0.0428
  128.5000   -66.7090    11.7657     9.7892    10.9818     8.4878    97.8643     2.4406     0.1284     0.0185
  129.0000   -66.8043    11.6174     9.7178    10.8486     8.4914    98.5402     2.4376     0.1351     0.0254
  129.5000   -66.8999    11.2897     9.6469    10.7170     8.4949    99.7496     2.4256     0.1418     0.0107
  130.0000   -66.9954    10.9713     9.5765    10.5870     8.4924   100.2117     2.4204     0.1444     0.0066
  130.5000   -67.0916    10.7273     9.5066    10.4585     8.4896    98.8502     2.4422     0.1324     0.0218
  131.0000   -67.2044    10.9416     9.4372    10.3306     8.4868    98.8761     2.4587     0.1208     0.0386
  131.5000   -67.3781    11.2120     9.3405    10.2765     8.4840    99.4417     2.4494     0.1231     0.0298
  132.0000   -67.5500    11.5492     9.3595    10.2430     8.4812    99.9643     2.4368     0.1330     0.0133
  132.5000   -67.7216    11.4096     9.3917    10.2782     8.4784    98.8167     2.4239     0.1429     0.0044
  133.0000   -67.8962    11.1746     9.4240    10.3076     8.4756    96.6317     2.4127     0.1493     0.0037
  133.5000   -67.8926    11.0284     9.4564    10.3381     8.4728    94.3555     2.4210     0.1418     0.0200
  134.0000   -67.7951    11.1916     9.4889    10.2302     8.4700    92.5943     2.4295     0.1395     0.0153
  134.5000   -67.6964    11.4094     9.5216    10.1192     8.4672    91.0770     2.4321     0.1386     0.0224
  135.0000   -67.5974    11.6314     9.5539    10.0090     8.4644    92.1586     2.4400     0.1288     0.0187
  135.5000   -67.4981    11.8735     9.6018     9.8730     8.4616    93.5719     2.4471     0.1252     0.0229
  136.0000   -67.4014    11.3562     9.4977     9.9552     8.4588    94.7836     2.4423     0.1364     0.0097
  136.5000   -67.1584    10.6287     9.3021    10.0719     8.4560    94.1361     2.4345     0.1288     0.0169
  137.0000   -66.8238    10.5311     9.1106    10.1494     8.4532    94.7108     2.4267     0.1358     0.0241
  137.5000   -66.8548    10.5311     8.9230     9.7029     8.4504    98.2408     2.4193     0.1428     0.0138
  138.0000   -66.9618    10.2325     8.7393     9.3755     8.4476   101.8731     2.4195     0.1427     0.0061
  138.5000   -67.0741     9.6561     8.5593     9.0590     8.4448   105.0679     2.4282     0.1380     0.0102
  139.0000   -67.2585     9.1122     8.3830     8.7551     8.4420   105.5325     2.4342     0.1396     0.0183
  139.5000   -67.7406     8.7561     8.2104     8.8385     8.4392   105.1738     2.4287     0.1309     0.0257
  140.0000   -67.6542     9.5989     8.0414     8.8353     8.4364   103.9162     2.4138     0.1431     0.0193
  140.5000   -67.5409    10.5311     7.9109     8.8363     8.4340   100.8349     2.4039     0.1530     0.0129
  141.0000   -67.4304    10.4273     7.9842     9.0358     8.4317    97.7584     2.4349     0.1349     0.0282
  141.5000   -67.3207    10.2694     8.0821     9.1747     8.4294    96.6881     2.4601     0.1216     0.0359
  142.0000   -67.2112    10.1139     8.1997     9.3181     8.4272    97.2638     2.4778     0.1136     0.0473
  142.5000   -67.1000     9.9638     8.3191     9.4670     8.4249    99.1803     2.5063     0.1072     0.0733
  143.0000   -66.9875    10.0909     8.4388     9.6183     8.4226   101.1121     2.4829     0.1086     0.0558
