~VERSION INFORMATION
 VERS.                2.0:   CWLS LOG ASCII STANDARD - VERSION 2.0
 WRAP.                 NO:   ONE LINE PER DEPTH STEP
~WELL INFORMATION
#MNEM.UNIT      DATA TYPE    INFORMATION
#----------   ------------   ------------------------------
 STRT.F            0.0000:   START DEPTH
 STOP.F          962.0000:   STOP DEPTH
 STEP.F            0.5000:   STEP LENGTH
 NULL.          -999.2500:   NO VALUE
 COMP. FENIX & SCISSON INC:   COMPANY
 WELL.      NPR #3 #51-14:   WELL
 FLD .             TEAPOT:   FIELD
 LOC .      S14 T38N R78W:   LOCATION
 CNTY.            NATRONA:   COUNTY
 STAT.            WYOMING:   STATE
 CTRY. UNITED STATES OF AMERICA:   COUNTRY
 SRVC.              Welex:   SERVICE COMPANY
 DATE.        03-MAR-1977:   LOGDATE
 API .       490251029700:   API NUMBER
~CURVE INFORMATION
#MNEM.UNIT       API CODE    CURVE DESCRIPTION
#----------   ------------   ------------------------------
 DEPT.F                  :   
 SGRD.OHMM   07 220 05 00:   SHALLOW RESISTIVITY
 ILM .OHMM   07 120 44 00:   INDUCTION LOG MEDIUM
 ILD .OHMM   07 120 46 00:   INDUCTION LOG DEEP
 SPR .MV     07 010 01 00:   SPONTANEOUS POTENTIAL
 DPHI.DEC    45 890 12 00:   DENSITY POROSITY SANDSTONE
 RHOB.G/C3   45 350 01 00:   BULK DENSITY
 CORR.G/C3   45 356 01 00:   DENSITY CORRECTION
 CALD.IN     45 280 60 00:   CALIPER
 GRD .GAPI   45 310 01 00:   GAMMA RAY FROM DENSITY LOG
~PARAMETER INFORMATION
#MNEM.UNIT          VALUE    DESCRIPTION
#----------   ------------   ------------------------------
 PD  .                 GL:   PERMANENT DATUM
 EPD .F            5221.8:   ELEVATION PERMANENT DATUM
 LMF .                 GL:   LOG MEASURED FROM
 DMF .                 GL:   DRILLING MEASURED FROM
 EGL .F            5221.8:   GROUND LEVEL
 DATE.             3-3-77:   RUN DATE
 RUN .                  1:   RUN NUMBER
 DD  .F               967:   DEPTH DRILLER
 DL  .F               964:   DEPTH LOGGER
 BLI .F               962:   BOTTOM LOG INTERVAL
 TLI .F                42:   TOP LOG INTERVAL
 CS  .IN            8.625:   CASING SIZE
 CBD .F                42:   CASING BOTTOM DRILLER
 CBL .F                42:   CASING BOTTOM LOGGER
 BS  .IN            7.875:   BIT SIZE
 BSD .F               967:   BIT SIZE AT DEPTH
 DFT .           CHEM-GEL:   DRILLING FLUID TYPE
 DFD .                8.7:   DRILLING FLUID DENSITY
 DFV .                 33:   DRILLING FLUID VISCOSITY
 DFPH.                7.2:   DRILLING FLUID PH
 DFL .                 10:   DRILLING FLUID LOSS
 MSS .          FLOW LINE:   MUD SAMPLE SOURCE
 RMS .OHMM           .422:   RESISTIVITY MUD SAMPLE
 MST .F                56:   MUD SAMPLE TEMPERATURE
 RMF .OHMM           .372:   RESISTIVITY MUD FILTRATE SAMPLE
 MFST.F                56:   MUD FILTRATE SAMPLE TEMPERATURE
 RMC .OHMM           .484:   RESISTIVITY MUD CAKE
 MCST.F                56:   MUD CAKE SAMPLE TEMPERATURE
 MFSS.           MEASURED:   MUD FILTRATE SAMPLE SOURCE
 MCSS.           MEASURED:   MUD CAKE SAMPLE SOURCE
 RMB .OHMM           .284:   RESISTIVITY MUD AT BHT
 BHT .F                83:   BOTTOM HOLE TEMPERATURE
 TCS .HRS               2:   TIME CURCULATED STOPPED
 MRT .F                83:   MAXIMUM RECORDED TEMPERATURE
 LUN .               8611:   LOGGING UNIT NUMBER
 LUL .           GILLETTE:   LOGGING UNIT LOCATION
 ENGI.          D. LAWSON:   RECORDING ENGINEER
 WITN.         STUEBINGER:   WITNESSED BY
 CLNT.            A2DTECH:   CLIENT CODE
 ORIG.        2" 5" PRINT:   ORIGIN OF DATA
 UWI .       490251029700:   UNIQUE WELL ID
 DICO. A2D Technologies, Inc.:   DIGITIZING COMPANY
~OTHER INFORMATION
~A    DEPT    SGRD        ILM        ILD        SPR       DPHI       RHOB       CORR       CALD        GRD   
# ...
  803.0000    15.0453    13.7854     9.3206   -34.5438     0.1392     2.4178     0.0639     8.1372    95.4078
  803.5000    14.8360    14.2418     9.2972   -34.6593     0.1380     2.4230     0.0656     8.1372    97.0246
  804.0000    14.6480    13.6258     9.2738   -34.7747     0.1377     2.4280     0.0649     8.1372    97.9111
  804.5000    14.4623    13.0267     9.2505   -34.8902     0.1375     2.4251     0.0642     8.1372    96.4747
  805.0000    14.2789    12.6303     9.1699   -35.0056     0.1373     2.4199     0.0636     8.1372    94.0471
  805.5000    14.0979    12.7818     9.0826   -35.1211     0.1395     2.4146     0.0629     8.1372    91.5161
  806.0000    13.8519    12.9136     8.9961   -35.2365     0.1420     2.4117     0.0623     8.1371    89.9024
  806.5000    13.9732    12.9895     8.9142   -35.3520     0.1437     2.4101     0.0619     8.1373    89.1816
  807.0000    14.1713    12.3407     8.9086   -35.4674     0.1445     2.4086     0.0664     8.1366    89.0009
  807.5000    14.3721    11.9449     8.9033   -35.5828     0.1453     2.4072     0.0711     8.1805    88.5569
  808.0000    14.5027    11.8311     8.8980   -35.6983     0.1513     2.3973     0.0705     8.2454    87.0782
  808.5000    14.1742    11.7415     8.8927   -35.8137     0.1583     2.3862     0.0650     8.2826    86.3959
  809.0000    13.9368    12.4385     8.8874   -35.9292     0.1638     2.3779     0.0537     8.2073    89.5361
  809.5000    13.7253    13.0481     8.8820   -36.0446     0.1547     2.3895     0.0501     8.1387    92.6368
  810.0000    14.0044    13.7195     8.8767   -36.1601     0.1471     2.4013     0.0507     8.1312    94.5641
  810.5000    14.3701    12.7593     8.8714   -36.2755     0.1441     2.4102     0.0514     8.1261    96.0120
  811.0000    14.3496    12.9482     8.8661   -36.3910     0.1411     2.4176     0.0545     8.1207    95.7164
  811.5000    14.3153    13.2881     8.8608   -36.5061     0.1411     2.4166     0.0589     8.1152    95.4553
  812.0000    14.2811    13.5978     8.8555   -36.6517     0.1420     2.4132     0.0611     8.1098    95.1978
  812.5000    14.2470    12.5015     8.8502   -36.8175     0.1430     2.4098     0.0593     8.1044    94.9369
  813.0000    14.1974    11.7460     8.8449   -36.9834     0.1440     2.4077     0.0577     8.0989    94.6475
  813.5000    14.1432    12.1330     8.8397   -37.1494     0.1445     2.4104     0.0560     8.0934    95.8919
  814.0000    14.0892    12.4738     8.8343   -37.3153     0.1416     2.4176     0.0543     8.0880    97.4742
  814.5000    14.0353    12.9895     8.8307   -37.4813     0.1373     2.4246     0.0553     8.0826    99.0909
  815.0000    13.9817    12.6830     8.8265   -37.6472     0.1329     2.4316     0.0581     8.0771    99.7050
  815.5000    13.9283    12.1319     8.8223   -37.8131     0.1286     2.4387     0.0608     8.0716   100.0954
  816.0000    13.8751    11.5278     8.8181   -37.9790     0.1243     2.4458     0.0636     8.0662   100.4750
  816.5000    13.8221    11.7430     8.8139   -38.1450     0.1214     2.4528     0.0664     8.0608   100.7292
  817.0000    13.7693    12.0012     8.8098   -38.3109     0.1191     2.4618     0.0692     8.0553   100.2052
  817.5000    13.7253    12.2650     8.8056   -38.4768     0.1191     2.4620     0.0719     8.0499   101.4720
  818.0000    13.8715    12.6365     8.8014   -38.6428     0.1209     2.4567     0.0729     8.0444   104.0665
  818.5000    13.9985    12.6166     8.7972   -38.8088     0.1227     2.4513     0.0702     8.0389   106.6472
  819.0000    14.1266    12.5849     8.7931   -38.9758     0.1245     2.4460     0.0677     8.0335   106.4902
  819.5000    14.2388    12.5532     8.7889   -39.1382     0.1264     2.4407     0.0651     8.0280   104.7542
  820.0000    14.2179    12.5210     8.7847   -39.1447     0.1282     2.4354     0.0626     8.0226   102.5898
  820.5000    14.1996    12.2612     8.7806   -39.1436     0.1300     2.4301     0.0600     8.0178   101.0780
  821.0000    14.1812    11.9615     8.7764   -39.1436     0.1336     2.4248     0.0575     8.0235   100.0586
  821.5000    14.1629    12.3534     8.7723   -39.0747     0.1379     2.4195     0.0549     8.0296    98.0643
  822.0000    14.1446    12.7465     8.7681   -38.9415     0.1428     2.4139     0.0522     8.0357    93.9251
  822.5000    14.1263    12.9895     8.7640   -38.8081     0.1403     2.4137     0.0545     8.0417    91.0033
  823.0000    14.1083    12.3239     8.7599   -38.6743     0.1362     2.4219     0.0584     8.0478    91.0481
  823.5000    14.0770    11.8611     8.7560   -38.5414     0.1320     2.4302     0.0623     8.0539    91.6187
  824.0000    14.0465    11.6342     8.7520   -38.4071     0.1278     2.4385     0.0662     8.0599    92.4103
  824.5000    14.0159    12.5210     8.6753   -38.4460     0.1242     2.4457     0.0696     8.0660    94.4038
  825.0000    13.9855    12.0280     8.5927   -38.6251     0.1257     2.4418     0.0673     8.0722    96.8806
  825.5000    13.7473    11.5349     8.5109   -38.8062     0.1271     2.4401     0.0650     8.0769    98.8088
  826.0000    13.6013    11.0105     8.4298   -38.9874     0.1276     2.4412     0.0628     8.0656   100.0233
  826.5000    13.8386    12.0730     8.3495   -39.1683     0.1258     2.4423     0.0606     8.0545    99.9931
  827.0000    13.9786    12.6365     8.2701   -39.3493     0.1259     2.4420     0.0584     8.0435   100.0546
  827.5000    13.8829    12.0639     8.1913   -39.5309     0.1278     2.4387     0.0577     8.0325   101.1487
  828.0000    13.8519    11.6342     8.1321   -39.7170     0.1297     2.4355     0.0577     8.0215   102.2347
  828.5000    13.8519    11.9613     8.2142   -39.6127     0.1276     2.4363     0.0596     8.0105   102.8302
  829.0000    13.8519    12.2313     8.2932   -39.4580     0.1253     2.4415     0.0636     7.9995    99.2376
  829.5000    13.7902    12.4066     8.3592   -39.3055     0.1229     2.4468     0.0676     7.9884    95.7050
  830.0000    13.7079    12.0879     8.2770   -39.1280     0.1206     2.4521     0.0715     7.9784    94.8811
  830.5000    13.6008    11.8498     8.2074   -38.3012     0.1205     2.4554     0.0721     7.9814    94.5014
  831.0000    13.7242    12.2423     8.1321   -37.7349     0.1269     2.4418     0.0684     7.9847    93.7406
  831.5000    13.9157    12.6247     8.3028   -37.2339     0.1343     2.4283     0.0648     7.9879    92.9327
  832.0000    14.1086    12.8708     8.4950   -36.7343     0.1457     2.4149     0.0611     7.9911    92.1209
  832.5000    14.1086    12.5498     8.6916   -36.2340     0.1482     2.4040     0.0577     7.9944    91.3006
  833.0000    14.1007    12.2932     8.8927   -35.7336     0.1505     2.4020     0.0572     7.9981    90.0963
  833.5000    14.3988    13.1081     9.2541   -35.2421     0.1529     2.3988     0.0568     7.9752    88.3472
  834.0000    15.1605    14.1031     9.7857   -34.7196     0.1596     2.3756     0.0564     7.9480    86.6067
  834.5000    16.9946    15.1738    10.3553   -34.2024     0.1688     2.3679     0.0559     7.9206    84.8638
  835.0000    19.0513    15.8392    10.9567   -33.6838     0.1722     2.3637     0.0566     7.8933    83.1278
  835.5000    20.4475    16.5450    11.5928   -33.1732     0.1699     2.3625     0.0590     7.8661    81.9338
  836.0000    22.1962    17.6817    12.2658   -32.8533     0.1629     2.3769     0.0614     7.8341    81.5485
  836.5000    25.9923    18.8965    12.9782   -32.5412     0.1578     2.3843     0.0636     7.8425    81.2746
  837.0000    28.6130    20.1845    13.7294   -32.2281     0.1663     2.3738     0.0623     7.8701    81.1907
  837.5000    20.2747    19.4091    13.8879   -31.9146     0.1758     2.3609     0.0608     7.8986    81.1388
  838.0000    19.2190    18.6662    13.9323   -31.6043     0.1752     2.3580     0.0594     7.9269    81.8881
  838.5000    18.2184    17.9168    13.9797   -31.2730     0.1747     2.3556     0.0580     7.9552    82.6703
  839.0000    17.4265    18.0372    13.8565   -31.3214     0.1762     2.3570     0.0565     7.9835    83.3067
