~VERSION INFORMATION
 VERS.                2.0:   CWLS LOG ASCII STANDARD - VERSION 2.0
 WRAP.                 NO:   ONE LINE PER DEPTH STEP
~WELL INFORMATION
#MNEM.UNIT      DATA TYPE    INFORMATION
#----------   ------------   ------------------------------
 STRT.F           80.0000:   START DEPTH
 STOP.F          964.0000:   STOP DEPTH
 STEP.F            0.5000:   STEP LENGTH
 NULL.          -999.2500:   NO VALUE
 COMP. U S NAVY-INTEX OIL:   COMPANY
 WELL. N.P.R. #3` #57-S-2:   WELL
 FLD .        TEAPOT DOME:   FIELD
 LOC .       S2 T38N R78W:   LOCATION
 CNTY.            NATRONA:   COUNTY
 STAT.            WYOMING:   STATE
 CTRY. UNITED STATES OF AMERICA:   COUNTRY
 SRVC.       Schlumberger:   SERVICE COMPANY
 DATE.        04-AUG-1961:   LOGDATE
 API .       490250640500:   API NUMBER
~CURVE INFORMATION
#MNEM.UNIT       API CODE    CURVE DESCRIPTION
#----------   ------------   ------------------------------
 DEPT.F                  :   
 GR  .GAPI   30 310 01 00:   GAMMA RAY
 ASN .OHMM   05 041 16 00:   AMPLIFIED SHORT NORMAL 16"
 CILD.MMHO   05 110 46 00:   CONDUCTIVITY INDUCTION LOG DEEP
 ILD .OHMM   05 120 46 00:   INDUCTION LOG DEEP
 SPR .MV     05 010 01 00:   SPONTANEOUS POTENTIAL FROM RES.
~PARAMETER INFORMATION
#MNEM.UNIT          VALUE    DESCRIPTION
#----------   ------------   ------------------------------
 LMF .                 KB:   LOG MEASURED FROM
 DMF .                 KB:   DRILLING MEASURED FROM
 EKB .F              5205:   KELLING BUSHING
 EGL .F              5200:   GROUND LEVEL
 DATE.        04-AUG-1961:   RUN DATE
 RUN .                  1:   RUN NUMBER
 DD  .F               965:   DEPTH DRILLER
 DL  .F               965:   DEPTH LOGGER
 BLI .F               954:   BOTTOM LOG INTERVAL
 TLI .F               150:   TOP LOG INTERVAL
 BS  .IN             6.75:   BIT SIZE
 BSD .F               965:   BIT SIZE AT DEPTH
 DFT .       OIL EMULSION:   DRILLING FLUID TYPE
 DFD .                9.4:   DRILLING FLUID DENSITY
 DFV .                 65:   DRILLING FLUID VISCOSITY
 MSS .           FLOWLINE:   MUD SAMPLE SOURCE
 RMS .OHMM            1.0:   RESISTIVITY MUD SAMPLE
 MST .F                80:   MUD SAMPLE TEMPERATURE
 TCS .HRS               1:   TIME CURCULATED STOPPED
 LUN .               2544:   LOGGING UNIT NUMBER
 LUL .                 NC:   LOGGING UNIT LOCATION
 ENGI.            EARNEST:   RECORDING ENGINEER
 WITN.          JORGENSEN:   WITNESSED BY
 CLNT.            A2DTECH:   CLIENT CODE
 ORIG.        2" 5" PRINT:   ORIGIN OF DATA
 UWI .       490250640500:   UNIQUE WELL ID
 DICO. A2D Technologies, Inc.:   DIGITIZING COMPANY
~OTHER INFORMATION
~A   DEPT       GR        ASN       CILD        ILD        SPR   
# ...
  629.0000  -999.2500    10.1689   115.1975     9.7062   -65.5468
  629.5000  -999.2500    10.2434   113.6688     9.8537   -65.3997
  630.0000  -999.2500    10.2429   112.1400     9.9998   -65.2534
  630.5000  -999.2500    10.3924   109.1120    10.1473   -65.1071
  631.0000  -999.2500    10.5418   107.5832    10.2934   -64.9607
  631.5000  -999.2500    10.6913   106.0544    10.4401   -64.8144
  632.0000  -999.2500    10.8498   104.5257    10.5868   -64.5196
  632.5000  -999.2500    11.1401   102.9969    10.7398   -64.3731
  633.0000  -999.2500    11.2896   101.4681    10.9676   -64.0776
  633.5000  -999.2500    11.4392   101.4386    11.0271   -63.9313
  634.0000  -999.2500    11.4386    99.9099    11.1739   -63.9343
  634.5000  -999.2500    11.4382    99.8801    11.0954   -64.0872
  635.0000  -999.2500    11.4377   101.3501    11.0924   -64.2393
  635.5000  -999.2500    11.2874   102.8198    11.0147   -64.5408
  636.0000  -999.2500    11.1370   102.7829    11.0117   -64.8422
  636.5000  -999.2500    10.9866   104.2600    10.8591   -64.9944
  637.0000  -999.2500    10.8363   104.2231    10.7065   -64.9973
  637.5000  -999.2500    10.6859   105.7002    10.4041   -65.0002
  638.0000  -999.2500    10.6105   107.1626    10.1766   -64.8532
  638.5000  -999.2500    10.5231   108.6323    10.0988   -64.8568
  639.0000  -999.2500    10.3097   108.6028    10.0085   -64.8598
  639.5000  -999.2500    10.2343   111.5792     9.9426   -64.8627
  640.0000  -999.2500    10.1589   111.5423     9.9396   -64.7164
  640.5000  -999.2500    10.1584   111.5127     9.9367   -64.5700
  641.0000  -999.2500    10.2330   111.4832    10.0086   -64.4237
  641.5000  -999.2500    10.2325   111.4537    10.0057   -64.4274
  642.0000  -999.2500    10.2321   109.9249    10.0783   -64.4303
  642.5000  -999.2500    10.3067   108.3958    10.0747   -64.4332
  643.0000  -999.2500    10.3061   108.3658    10.0717   -64.4362
  643.5000  -999.2500    10.3807   108.3358    10.0688   -64.2898
  644.0000  -999.2500    10.3802   108.3002     9.9910   -64.2928
  644.5000  -999.2500    10.3798   108.2707     9.9069   -64.2957
  645.0000  -999.2500    10.3792   111.2397     9.7605   -64.2986
  645.5000  -999.2500    10.3038   111.2102     9.7569   -64.4508
  646.0000  -999.2500    10.2284   112.6873     9.6043   -64.7522
  646.5000  -999.2500    10.1530   114.1570     9.5265   -65.0537
  647.0000  -999.2500    10.0776   114.1201     9.4487   -65.6543
  647.5000  -999.2500    10.0022   117.0965     9.2961   -65.9550
  648.0000  -999.2500     9.8518   118.5588     9.2183   -65.3609
  648.5000  -999.2500     9.7015   118.5293     9.1405   -64.9161
  649.0000  -999.2500     9.6305   120.0000     8.9879   -64.4713
  649.5000  -999.2500     9.6398   121.4688     8.9101   -64.1757
  650.0000  -999.2500     9.6492   121.4393     8.8323   -63.9906
  650.5000  -999.2500     9.6255   123.5401     8.9089   -63.7536
  651.0000  -999.2500     9.5659   125.8799     8.8356   -63.5761
  651.5000  -999.2500     9.5212   128.8486     8.7622   -63.4194
  652.0000  -999.2500     9.4465   130.3107     8.6136   -63.2716
  652.5000  -999.2500     9.3868   130.2809     8.6155   -63.2687
  653.0000  -999.2500     9.3272   131.7504     8.5417   -63.4150
  653.5000  -999.2500     9.2375   130.2288     8.4688   -63.4224
  654.0000  -999.2500     9.1479   131.6982     8.3950   -63.5583
  654.5000  -999.2500     9.0132   131.6610     8.3969   -63.8538
  655.0000  -999.2500     8.9386   131.6312     8.3984   -64.1493
  655.5000  -999.2500     8.9389   130.1022     8.3999   -64.2956
  656.0000  -999.2500     8.9392   130.0724     8.5511   -64.4419
  656.5000  -999.2500     8.9844   130.0426     8.5525   -64.4388
  657.0000  -999.2500     8.9997   128.5135     8.5540   -64.4358
  657.5000  -999.2500     9.0300   125.4853     8.6304   -64.7315
  658.0000  -999.2500     9.0603   123.9562     8.7067   -64.7284
  658.5000  -999.2500     9.1206   122.4272     8.7082   -64.5761
  659.0000  -999.2500     9.2108   122.3974     8.7845   -64.4239
  659.5000  -999.2500     9.2861   123.8681     8.7108   -64.3925
  660.0000  -999.2500     9.2864   128.3358     8.6378   -64.1188
  660.5000  -999.2500     9.2267   132.8028     8.5641   -63.6681
  661.0000  -999.2500     8.9421   137.2714     8.1917   -63.2173
  661.5000  -999.2500     8.5826   143.2380     7.7441   -62.9158
  662.0000  -999.2500     8.2681   147.7059     7.3713   -63.0629
  662.5000  -999.2500     8.0135   150.6747     7.2980   -63.5069
  663.0000  -999.2500     7.8039   155.1426     7.2246   -63.9517
  663.5000  -999.2500     7.6543   156.6121     7.3009   -64.2480
  664.0000  -999.2500     7.6096   155.0825     7.3773   -64.3942
  664.5000  -999.2500     7.6549   155.0525     7.4536   -64.3905
  665.0000  -999.2500     7.8051   153.5232     7.5300   -64.2383
  665.5000  -999.2500     7.9553   153.2537     7.6063   -64.0861
  666.0000  -999.2500     7.9856   151.6841     7.6826   -64.0831
  666.5000  -999.2500     7.9259   148.9297     7.6841   -63.9308
  667.0000  -999.2500     7.8963   148.8999     7.6856   -63.7786
  667.5000  -999.2500     7.9265   147.3708     7.7620   -63.4771
  668.0000  -999.2500     7.9876   145.8493     7.8383   -63.1756
  668.5000  -999.2500     8.0021   145.8120     7.8398   -62.8742
  669.0000  -999.2500     8.0174   144.2830     7.8483   -62.8712
  669.5000  -999.2500     8.0494   144.2532     7.9925   -62.5697
  670.0000  -999.2500     8.1119   142.7242     7.9940   -62.5667
  670.5000  -999.2500     8.2005   142.6944     8.0704   -62.8630
  671.0000  -999.2500     8.2937   141.1653     8.0719   -63.0093
  671.5000  -999.2500     8.3966   139.6363     8.1482   -63.1555
  672.0000  -999.2500     8.4990   139.6065     8.2997   -63.3011
  672.5000  -999.2500     8.5743   138.0775     8.2260   -63.4481
  673.0000  -999.2500     8.5896   138.0477     8.2278   -63.7429
  673.5000  -999.2500     8.6198   139.5246     8.3042   -64.6354
  674.0000  -999.2500     8.6201   139.4874     8.3057   -64.3339
  674.5000  -999.2500     8.5755   139.4576     8.3071   -63.8832
  675.0000  -999.2500     8.5158   139.4278     8.2334   -63.7317
  675.5000  -999.2500     8.4710   139.3980     8.1600   -64.0273
  676.0000  -999.2500     8.4114   140.8749     8.0867   -64.0235
  676.5000  -999.2500     8.3218   140.8377     8.1634   -63.8713
  677.0000  -999.2500     8.2771   142.3146     8.1649   -63.7191
  677.5000  -999.2500     8.2924   142.2774     8.2412   -63.4176
  678.0000  -999.2500     8.3527   142.2476     8.2427   -63.1161
  678.5000  -999.2500     8.4429   143.7182     8.2442   -62.5161
  679.0000  -999.2500     8.5182   142.1880     8.2457   -62.8124
  679.5000  -999.2500     8.5934   142.1582     8.1723   -63.1079
  680.0000  -999.2500     8.6237   142.1284     8.1738   -63.4034
  680.5000  -999.2500     8.5641   140.5994     8.0256   -63.5497
  681.0000  -999.2500     8.4144   139.0704     7.9523   -63.3967
  681.5000  -999.2500     8.2948   139.0405     7.8785   -63.5438
  682.0000  -999.2500     8.2351   139.0105     7.7824   -63.9878
  682.5000  -999.2500     8.2354   138.9805     7.7318   -63.9848
  683.0000  -999.2500     8.2207   140.5898     7.6584   -63.9818
  683.5000  -999.2500     8.1760   144.9184     7.5851   -63.9789
  684.0000  -999.2500     8.0864   146.3879     7.5117   -63.8266
  684.5000  -999.2500     8.0266   147.8574     7.5136   -63.6744
  685.0000  -999.2500     7.9969   146.3209     7.5151   -63.5222
  685.5000  -999.2500     7.9673   146.2911     7.4417   -63.3699
  686.0000  -999.2500     7.9676   146.2613     7.4432   -63.0684
  686.5000  -999.2500     7.9679   147.7308     7.4447   -63.0655
  687.0000  -999.2500     7.9710   149.2002     7.2964   -63.0625
  687.5000  -999.2500     7.8786   150.6771     7.1482   -63.0595
  688.0000  -999.2500     7.7889   153.6384     6.9252   -63.3558
  688.5000  -999.2500     7.6993   156.6071     6.5524   -63.3521
  689.0000  -999.2500     7.6096   159.5833     6.1048   -63.0506
  689.5000  -999.2500     7.4600   165.5431     5.6572   -62.8983
