~VERSION INFORMATION
 VERS.                2.0:   CWLS LOG ASCII STANDARD - VERSION 2.0
 WRAP.                 NO:   ONE LINE PER DEPTH STEP
~WELL INFORMATION
#MNEM.UNIT      DATA TYPE    INFORMATION
#----------   ------------   ------------------------------
 STRT.F           86.0000:   START DEPTH
 STOP.F         1134.0000:   STOP DEPTH
 STEP.F            0.5000:   STEP LENGTH
 NULL.          -999.2500:   NO VALUE
 COMP.          U.S. NAVY:   COMPANY
 WELL. RES 3 TEAPOT DOM #64-S-2:   WELL
 FLD .             TEAPOT:   FIELD
 LOC .       S2 T38N R78W:   LOCATION
 CNTY.            NATRONA:   COUNTY
 STAT.            WYOMING:   STATE
 CTRY. UNITED STATES OF AMERICA:   COUNTRY
 SRVC. Schlumberger Well Surveying Corp:   SERVICE COMPANY
 DATE.        28-JUL-1964:   LOGDATE
 API .       490250644400:   API NUMBER
~CURVE INFORMATION
#MNEM.UNIT       API CODE    CURVE DESCRIPTION
#----------   ------------   ------------------------------
 DEPT.F                  :   
 ASN .OHMM   05 041 16 00:   AMPLIFIED SHORT NORMAL 16"
 CILD.MMHO   05 110 46 00:   CONDUCTIVITY INDUCTION LOG DEEP
 ILD .OHMM   05 120 46 00:   INDUCTION LOG DEEP
 SPR .MV     05 010 01 00:   SPONTANEOUS POTENTIAL FROM RES.
 DT  .US/F   60 520 33 00:   INTERVAL TRANSIT TIME
 GR  .GAPI   30 310 01 00:   GAMMA RAY
~PARAMETER INFORMATION
#MNEM.UNIT          VALUE    DESCRIPTION
#----------   ------------   ------------------------------
 PD  .                 GL:   PERMANENT DATUM
 EPD .F              5204:   ELEVATION PERMANENT DATUM
 LMF .                 KB:   LOG MEASURED FROM
 DAPD.F                 5:   FEET ABOVE PERMANENT DATUM
 DMF .                 KB:   DRILLING MEASURED FROM
 EKB .F              5209:   KELLING BUSHING
 EGL .F              5204:   GROUND LEVEL
 DATE.        28-JUL-1964:   RUN DATE
 RUN .                  1:   RUN NUMBER
 DD  .F              1135:   DEPTH DRILLER
 DL  .F              1135:   DEPTH LOGGER
 BLI .F              1134:   BOTTOM LOG INTERVAL
 TLI .F                86:   TOP LOG INTERVAL
 CS  .IN            10.75:   CASING SIZE
 CBD .F                11:   CASING BOTTOM DRILLER
 BS  .IN            7.875:   BIT SIZE
 BSD .F              1135:   BIT SIZE AT DEPTH
 DFT .            GEL-OIL:   DRILLING FLUID TYPE
 DFD .                9.5:   DRILLING FLUID DENSITY
 DFV .                 49:   DRILLING FLUID VISCOSITY
 DFL .                 10:   DRILLING FLUID LOSS
 MSS .           FLOWLINE:   MUD SAMPLE SOURCE
 RMS .OHMM           2.35:   RESISTIVITY MUD SAMPLE
 MST .F                89:   MUD SAMPLE TEMPERATURE
 RMF .OHMM           1.71:   RESISTIVITY MUD FILTRATE SAMPLE
 MFST.F                89:   MUD FILTRATE SAMPLE TEMPERATURE
 RMC .OHMM           3.01:   RESISTIVITY MUD CAKE
 MCST.F                89:   MUD CAKE SAMPLE TEMPERATURE
 MFSS.                 FP:   MUD FILTRATE SAMPLE SOURCE
 MCSS.                 FP:   MUD CAKE SAMPLE SOURCE
 TCS .HRS               1:   TIME CURCULATED STOPPED
 LUN .               3527:   LOGGING UNIT NUMBER
 LUL .               CSPR:   LOGGING UNIT LOCATION
 ENGI.             KNOBEL:   RECORDING ENGINEER
 WITN.          JORGENSEN:   WITNESSED BY
 CLNT.            A2DTECH:   CLIENT CODE
 ORIG.        2" 5" PRINT:   ORIGIN OF DATA
 UWI .       490250644400:   UNIQUE WELL ID
 DICO. A2D Technologies, Inc.:   DIGITIZING COMPANY
~OTHER INFORMATION
~A   DEPT        ASN      CILD        ILD       SPR         DT         GR   
# ...
  502.0000     5.0680   207.0783     4.7267   -25.4903  -999.2500    53.0549
  502.5000     5.0362   208.3584     4.6328   -25.4061  -999.2500    52.3020
  503.0000     4.9807   215.7327     4.4999   -25.3098  -999.2500    54.9952
  503.5000     4.8577   229.6687     4.1066   -25.1927  -999.2500    58.7389
  504.0000     4.5504   259.6874     3.3964   -25.0435  -999.2500    55.2863
  504.5000     4.3278   338.7784     2.5457   -24.8713  -999.2500    53.4768
  505.0000     3.9842   398.3434     2.0245   -24.7451  -999.2500    52.8787
  505.5000     3.5218   417.6063     1.6987   -24.6789  -999.2500    59.9197
  506.0000     3.0968   445.2307     1.4173   -24.5967  -999.2500    62.0143
  506.5000     2.8482   440.5121     1.3845   -24.4476  -999.2500    64.1089
  507.0000     2.9036   435.7228     1.3351   -24.4483  -999.2500    63.0550
  507.5000     3.1568   428.4639     1.2649   -24.4490  -999.2500    60.9517
  508.0000     3.1388   416.5862     1.2923   -24.4499  -999.2500    58.0987
  508.5000     3.0252   397.3115     1.3435   -24.6004  -999.2500    55.0959
  509.0000     2.9009   355.4217     1.7643   -24.6012  -999.2500    51.3313
  509.5000     3.2734   317.9969     3.1861   -24.7519  -999.2500    50.2894
  510.0000     4.0391   259.0362     3.8213   -24.7526  -999.2500    50.1341
  510.5000     4.2089   217.6205     4.0068   -24.9033  -999.2500    48.1807
  511.0000     4.2917   215.0151     4.1296   -24.9880  -999.2500    48.7761
  511.5000     4.3596   218.2379     4.1956   -24.8704  -999.2500    52.0700
  512.0000     4.4088   229.6687     4.1952   -25.0195  -999.2500    49.5169
  512.5000     4.4580   232.5552     4.1979   -25.1687  -999.2500    48.9129
  513.0000     4.5093   234.1868     4.2695   -25.3179  -999.2500    50.2578
  513.5000     4.5564   234.1868     4.1941   -25.4669  -999.2500    56.9576
  514.0000     4.5693   234.4478     4.1937   -25.4663  -999.2500    60.7956
  514.5000     4.5241   236.4458     4.0726   -25.6154  -999.2500    60.5884
  515.0000     4.4348   241.8425     3.9489   -25.6147  -999.2500    60.1354
  515.5000     4.2970   251.7467     3.7421   -25.5725  -999.2500    62.0789
  516.0000     4.1028   268.8253     3.3914   -25.4632  -999.2500    59.3759
  516.5000     4.0036   300.5154     2.5007   -25.4625  -999.2500    59.3715
  517.0000     3.8722   330.1682     2.0893   -25.3118  -999.2500    61.1663
  517.5000     3.5913   385.5422     1.9044   -25.3110  -999.2500    61.3268
  518.0000     3.4539   390.8033     1.8559   -25.1604  -999.2500    60.4079
  518.5000     3.2453   392.3193     1.7879   -25.0097  -999.2500    62.8023
  519.0000     3.0717   392.3193     1.7875   -24.8590  -999.2500    62.9479
  519.5000     2.9444   380.3531     1.7872   -24.8583  -999.2500    60.0938
  520.0000     3.4556   350.5533     1.8368   -24.8676  -999.2500    57.0909
  520.5000     3.4480   314.7590     2.0579   -25.3065  -999.2500    54.6878
  521.0000     3.4104   290.4757     2.3116   -25.5088  -999.2500    50.7853
  521.5000     3.7562   262.0482     2.8780   -25.7549  -999.2500    48.0823
  522.0000     4.1317   234.0966     3.5245   -26.0000  -999.2500    51.8261
  522.5000     4.5140   200.5391     4.1873   -26.0534  -999.2500    54.7755
  523.0000     4.7484   190.5121     4.5285   -25.9025  -999.2500    56.9148
  523.5000     5.0091   189.3298     4.7990   -25.7519  -999.2500    54.9603
  524.0000     5.0941   189.0060     4.8619   -25.6012  -999.2500    55.2558
  524.5000     5.1275   191.2651     4.9034   -25.7503  -999.2500    55.2514
  525.0000     5.1203   199.5482     4.8549   -25.8995  -999.2500    55.3969
  525.5000     5.0638   214.2902     4.7105   -26.0488  -999.2500    56.8918
  526.0000     4.9402   234.1868     4.4775   -26.0479  -999.2500    55.6880
  526.5000     4.7181   266.4911     4.1068   -26.0472  -999.2500    53.4328
  527.0000     4.4320   319.7474     3.5645   -26.0355  -999.2500    53.9880
  527.5000     4.1271   390.8133     2.7978   -25.8957  -999.2500    60.0217
  528.0000     3.7672   402.0181     2.2312   -25.6911  -999.2500    66.0143
  528.5000     3.2889   408.8932     1.8442   -25.4440  -999.2500    69.7591
  529.0000     3.0011   411.6315     1.6136   -25.1969  -999.2500    67.6547
  529.5000     2.8828   413.6220     1.4793   -24.9498  -999.2500    66.1511
  530.0000     3.1945   414.9096     1.4414   -24.6926  -999.2500    60.5995
  530.5000     3.2887   413.6070     1.5537   -24.9283  -999.2500    66.2923
  531.0000     3.0029   393.7036     1.6283   -25.1739  -999.2500    62.0540
  531.5000     2.9897   357.6807     1.8420   -25.2901  -999.2500    58.7873
  532.0000     3.5214   285.5936     2.0931   -25.4393  -999.2500    58.4819
  532.5000     3.7244   246.7612     2.6782   -25.5885  -999.2500    56.6785
  533.0000     3.8564   228.1626     3.1321   -25.5876  -999.2500    55.7745
  533.5000     4.0342   227.0809     3.5785   -25.5870  -999.2500    57.2694
  534.0000     4.2204   226.6566     3.8984   -25.5862  -999.2500    63.5619
  534.5000     4.4033   227.4096     4.0282   -25.5853  -999.2500    63.2577
  535.0000     4.6278   227.6857     4.1028   -25.5847  -999.2500    62.9534
  535.5000     4.7362   228.1626     4.1025   -25.5840  -999.2500    62.7992
  536.0000     4.7766   228.6546     4.1021   -25.5832  -999.2500    64.4440
  536.5000     4.7314   230.6450     4.1017   -25.5380  -999.2500    58.1416
  537.0000     4.6111   233.4337     4.0263   -25.4318  -999.2500    56.9379
  537.5000     4.4536   238.7677     3.9320   -25.4310  -999.2500    56.6336
  538.0000     4.2650   264.7067     3.6501   -25.2804  -999.2500    56.7803
  538.5000     4.0270   290.6627     3.4383   -25.1296  -999.2500    56.3250
  539.0000     3.8664   310.4218     3.1915   -24.9021  -999.2500    55.2712
  539.5000     3.7685   322.7610     2.9733   -24.6784  -999.2500    54.2173
  540.0000     3.6481   327.5602     2.7728   -24.5276  -999.2500    53.6133
  540.5000     3.5226   331.1546     2.5972   -24.3771  -999.2500    53.9087
  541.0000     3.3322   334.5331     2.5218   -24.3893  -999.2500    52.7039
  541.5000     3.2823   341.1145     2.4463   -24.6753  -999.2500    52.3997
  542.0000     3.2568   346.5662     2.3708   -24.8246  -999.2500    52.5463
  542.5000     3.2417   350.9036     2.4112   -24.8238  -999.2500    52.2410
  543.0000     3.1989   350.9036     2.4452   -24.8231  -999.2500    49.2381
  543.5000     3.0461   351.1320     2.4448   -24.7769  -999.2500    47.7137
  544.0000     3.0989   353.9156     2.3343   -24.6716  -999.2500    48.6297
  544.5000     3.1684   362.2965     2.1275   -24.5210  -999.2500    50.3264
  545.0000     3.1812   373.1674     1.8430   -24.3703  -999.2500    52.2191
  545.5000     3.1407   386.2952     1.7382   -24.3695  -999.2500    49.8148
  546.0000     3.0244   414.6075     1.6171   -24.3688  -999.2500    48.4611
  546.5000     2.7298   439.4673     1.5416   -24.3681  -999.2500    53.1044
  547.0000     2.5341   461.5964     1.5413   -24.3672  -999.2500    58.3474
  547.5000     2.4741   466.4154     1.5409   -24.3666  -999.2500    55.4945
  548.0000     2.4982   452.6108     1.5405   -24.5158  -999.2500    58.7885
  548.5000     2.5378   437.5000     1.5583   -24.6648  -999.2500    61.7826
  549.0000     2.5641   421.9125     1.6149   -24.6642  -999.2500    58.5335
  549.5000     2.5870   401.1101     1.6539   -24.8134  -999.2500    56.2255
  550.0000     2.6341   377.2577     1.8644   -24.8126   119.5510    57.1207
  550.5000     2.7292   347.7938     2.2143   -24.8583   116.8958    60.7156
  551.0000     3.0177   317.7711     2.4655   -24.9610   112.6850    59.0610
  551.5000     3.6111   282.1130     2.9030   -24.9603   109.9791    61.0056
  552.0000     3.7816   272.0483     3.1891   -24.9595   110.6593    66.7166
  552.5000     3.8020   269.5783     3.2639   -24.9587   111.5651    67.4663
  553.0000     3.8116   271.1245     3.1822   -24.8791   111.9514    66.3031
  553.5000     3.7623   275.6172     2.6644   -24.7818   112.1736    64.0180
