~VERSION INFORMATION
 VERS.                2.0:   CWLS LOG ASCII STANDARD - VERSION 2.0
 WRAP.                 NO:   ONE LINE PER DEPTH STEP
~WELL INFORMATION
#MNEM.UNIT      DATA TYPE    INFORMATION
#----------   ------------   ------------------------------
 STRT.F            1.0000:   START DEPTH
 STOP.F          520.0000:   STOP DEPTH
 STEP.F            0.5000:   STEP LENGTH
 NULL.          -999.2500:   NO VALUE
 COMP. LAWRENCE/ALLISON INC:   COMPANY
 WELL.      77-13 SX #3-3:   WELL
 FLD .              NPR 3:   FIELD
 LOC .       S3 T38N R78W:   LOCATION
 CNTY.            NATRONA:   COUNTY
 STAT.            WYOMING:   STATE
 CTRY. UNITED STATES OF AMERICA:   COUNTRY
 SRVC.           Gearhart:   SERVICE COMPANY
 DATE.        22-JUN-1988:   LOGDATE
 API .       490251123700:   API NUMBER
~CURVE INFORMATION
#MNEM.UNIT       API CODE    CURVE DESCRIPTION
#----------   ------------   ------------------------------
 DEPT.F                  :   
 GRR .GAPI   07 310 01 00:   GAMMA RAY
 RILD.OHMM   07 120 46 00:   INDUCTION LOG DEEP RESISTIVITY
 RILM.OHMM   07 120 44 00:   INDUCTION LOG MEDIUM RESISTIVITY
~PARAMETER INFORMATION
#MNEM.UNIT          VALUE    DESCRIPTION
#----------   ------------   ------------------------------
 PD  .                 GL:   PERMANENT DATUM
 EPD .F              5166:   ELEVATION PERMANENT DATUM
 LMF .                 KB:   LOG MEASURED FROM
 DAPD.F                10:   FEET ABOVE PERMANENT DATUM
 DMF .                 KB:   DRILLING MEASURED FROM
 EKB .F              5176:   KELLING BUSHING
 EGL .F              5166:   GROUND LEVEL
 DATE.        22-JUN-1988:   RUN DATE
 RUN .                  1:   RUN NUMBER
 DD  .F               530:   DEPTH DRILLER
 DL  .F               528:   DEPTH LOGGER
 BLI .F               520:   BOTTOM LOG INTERVAL
 TLI .F                50:   TOP LOG INTERVAL
 CS  .IN            9.625:   CASING SIZE
 CBD .F                50:   CASING BOTTOM DRILLER
 CBL .F                50:   CASING BOTTOM LOGGER
 BS  .IN             8.75:   BIT SIZE
 BSD .F               530:   BIT SIZE AT DEPTH
 DFT .                AIR:   DRILLING FLUID TYPE
 TLAB.HRS            0908:   TIME LOGGER AT BOTTOM
 MRT .F                70:   MAXIMUM RECORDED TEMPERATURE
 LUN .               7597:   LOGGING UNIT NUMBER
 LUL .           GILLETTE:   LOGGING UNIT LOCATION
 ENGI.           JOHNSTON:   RECORDING ENGINEER
 WITN.             STRONG:   WITNESSED BY
 CLNT.            A2DTECH:   CLIENT CODE
 ORIG.           5" PRINT:   ORIGIN OF DATA
 UWI .       490251123700:   UNIQUE WELL ID
 DICO. A2D Technologies, Inc.:   DIGITIZING COMPANY
~OTHER INFORMATION
~A    DEPT       GRR     RILD       RILM   
    1.0000     2.1707  -999.2500  -999.2500
    1.5000     4.0047  -999.2500  -999.2500
    2.0000     9.1948  -999.2500  -999.2500
    2.5000    15.2981  -999.2500  -999.2500
    3.0000    21.4015  -999.2500  -999.2500
    3.5000    26.5916  -999.2500  -999.2500
    4.0000    31.4772  -999.2500  -999.2500
    4.5000    34.5364  -999.2500  -999.2500
    5.0000    36.3779  -999.2500  -999.2500
    5.5000    37.9151  -999.2500  -999.2500
    6.0000    39.4522  -999.2500  -999.2500
    6.5000    41.0004  -999.2500  -999.2500
    7.0000    44.9974  -999.2500  -999.2500
    7.5000    48.7890  -999.2500  -999.2500
    8.0000    56.3617  -999.2500  -999.2500
    8.5000    68.4505  -999.2500  -999.2500
    9.0000    76.0759  -999.2500  -999.2500
    9.5000    82.7881  -999.2500  -999.2500
   10.0000    87.0649  -999.2500  -999.2500
   10.5000    88.2976  -999.2500  -999.2500
   11.0000    87.3994  -999.2500  -999.2500
   11.5000    86.1968  -999.2500  -999.2500
   12.0000    85.2949  -999.2500  -999.2500
   12.5000    86.5313  -999.2500  -999.2500
   13.0000    90.1993  -999.2500  -999.2500
   13.5000    88.9967  -999.2500  -999.2500
   14.0000    87.1853  -999.2500  -999.2500
   14.5000    85.3739  -999.2500  -999.2500
   15.0000    86.3022  -999.2500  -999.2500
   15.5000    89.6658  -999.2500  -999.2500
   16.0000    89.0720  -999.2500  -999.2500
   16.5000    88.1519  -999.2500  -999.2500
   17.0000    84.5359  -999.2500  -999.2500
   17.5000    79.9720  -999.2500  -999.2500
   18.0000    77.5644  -999.2500  -999.2500
   18.5000    80.1522  -999.2500  -999.2500
   19.0000    83.4273  -999.2500  -999.2500
   19.5000    84.0060  -999.2500  -999.2500
   20.0000    83.4085  -999.2500  -999.2500
   20.5000    82.5141  -999.2500  -999.2500
   21.0000    81.3115  -999.2500  -999.2500
   21.5000    80.4133  -999.2500  -999.2500
   22.0000    79.8195  -999.2500  -999.2500
   22.5000    79.5264  -999.2500  -999.2500
   23.0000    79.5452  -999.2500  -999.2500
   23.5000    80.7779  -999.2500  -999.2500
   24.0000    82.6194  -999.2500  -999.2500
   24.5000    83.8521  -999.2500  -999.2500
   25.0000    82.0407  -999.2500  -999.2500
   25.5000    80.5336  -999.2500  -999.2500
   26.0000    79.6355  -999.2500  -999.2500
   26.5000    79.6505  -999.2500  -999.2500
   27.0000    81.1876  -999.2500  -999.2500
   27.5000    83.0292  -999.2500  -999.2500
   28.0000    83.6530  -999.2500  -999.2500
   28.5000    83.0504  -999.2500  -999.2500
   29.0000    82.7699  -999.2500  -999.2500
   29.5000    83.0898  -999.2500  -999.2500
   30.0000    83.1050  -999.2500  -999.2500
   30.5000    83.1232  -999.2500  -999.2500
   31.0000    82.2250  -999.2500  -999.2500
   31.5000    79.5003  -999.2500  -999.2500
   32.0000    77.6889  -999.2500  -999.2500
   32.5000    76.7869  -999.2500  -999.2500
   33.0000    76.1932  -999.2500  -999.2500
   33.5000    76.8208  -999.2500  -999.2500
   34.0000    79.8800  -999.2500  -999.2500
   34.5000    84.4613  -999.2500  -999.2500
   35.0000    87.5204  -999.2500  -999.2500
   35.5000    84.1869  -999.2500  -999.2500
   36.0000    81.1578  -999.2500  -999.2500
   36.5000    79.3464  -999.2500  -999.2500
   37.0000    80.5791  -999.2500  -999.2500
   37.5000    83.6383  -999.2500  -999.2500
   38.0000    86.6975  -999.2500  -999.2500
   38.5000    87.0332  -999.2500  -999.2500
   39.0000    86.1188  -999.2500  -999.2500
   39.5000    86.1339  -999.2500  -999.2500
   40.0000    86.8087  -999.2500  -999.2500
   40.5000    88.3347  -999.2500  -999.2500
   41.0000    89.5814  -999.2500  -999.2500
   41.5000    91.3728  -999.2500  -999.2500
   42.0000    90.4746  -999.2500  -999.2500
   42.5000    88.3587  -999.2500  -999.2500
   43.0000    87.1561  -999.2500  -999.2500
   43.5000    89.9109  -999.2500  -999.2500
   44.0000    94.4922  -999.2500  -999.2500
   44.5000    98.4646  -999.2500  -999.2500
   45.0000   101.2194  -999.2500  -999.2500
   45.5000    99.4079  -999.2500  -999.2500
   46.0000    99.1148  -999.2500  -999.2500
   46.5000   103.3954  -999.2500  -999.2500
   47.0000   111.9341  -999.2500  -999.2500
   47.5000   120.1683  -999.2500  -999.2500
   48.0000   127.1849  -999.2500  -999.2500
   48.5000   133.8970  -999.2500  -999.2500
   49.0000   140.0004  -999.2500  -999.2500
   49.5000   143.0595  -999.2500  -999.2500
   50.0000   143.0550    17.2120     4.2293
   50.5000   141.7599    18.5871     5.4754
   51.0000   140.4648    14.6603     7.4959
   51.5000   138.5084    10.7079    13.9529
   52.0000   136.6819     8.6847    15.0653
   52.5000   136.3775     8.4461    13.1912
   53.0000   137.5951     8.6255    10.9996
   53.5000   138.8128     9.5786     9.5645
   54.0000   140.0304    10.5631     8.7333
   54.5000   141.2481    11.2490     8.2002
   55.0000   141.8569    11.4879     8.3144
   55.5000   141.8569    10.5449     8.6690
   56.0000   142.7702     9.7704     9.2334
   56.5000   143.6834     9.3094     9.6910
   57.0000   144.2922     9.0513     9.4227
   57.5000   144.2922     8.8137     9.2186
   58.0000   144.2922     8.8144     9.0969
   58.5000   144.5986     8.8767     9.0956
   59.0000   145.5260     8.9395     9.1581
   59.5000   144.8727     9.0659     9.2856
   60.0000   141.8366     9.0033     9.4149
   60.5000   139.3952     8.8790     9.4796
   61.0000   137.8995     9.1953     9.5447
   61.5000   139.4989     9.6566     9.5430
   62.0000   143.6019     9.7929     9.4753
   62.5000   148.6554     9.3919     9.4740
   63.0000   150.3805     9.3270     9.4727
   63.5000   150.6849     9.6593     9.4055
   64.0000   149.1629     9.9334     9.4042
   64.5000   147.3364     9.0722     9.4029
   65.0000   145.5099     8.9468     9.3361
   65.5000   143.3790     9.0734     9.2699
   66.0000   139.7260     9.0741     9.2041
   66.5000   137.2907     9.0825     9.2028
   67.0000   136.9863     9.0753     9.2015
   67.5000   139.7260     9.0759     9.1362
   68.0000   143.0746     9.0766     9.1350
   68.5000   146.7276     9.0772     9.1337
   69.0000   149.1629     9.0778     9.1325
   69.5000   147.9452     9.0785     9.0676
   70.0000   147.9452     9.0791     9.0664
   70.5000   149.7717     9.0797     9.0651
   71.0000   150.9893     9.0173     9.0639
   71.5000   150.6849     9.0179     9.0626
   72.0000   148.5540     9.0186     9.0614
   72.5000   146.4231     8.9564     9.0601
   73.0000   144.2922     8.9570     9.0589
   73.5000   143.6834     8.8952     9.1211
   74.0000   145.8143     8.8340     9.1837
   74.5000   148.8584     8.8966     9.2468
   75.0000   151.9026     8.9595     9.3755
   75.5000   154.0335     9.1498     9.4399
   76.0000   152.5114     9.3442     9.5047
   76.5000   150.9893     9.6095     9.6371
   77.0000   149.1629     9.6775     9.7033
   77.5000   147.3364     9.7460     9.7699
   78.0000   145.2055     9.8150     9.8370
   78.5000   143.3790     9.8156     9.9045
   79.0000   143.0746     9.8851     9.9722
   79.5000   144.5966     9.8858     9.9708
   80.0000   146.7276     9.8177     9.9695
   80.5000   148.5540     9.8184     9.8987
   81.0000   148.8868     9.7507     9.6922
   81.5000   147.9452     9.6162     9.6234
   82.0000   146.4231     9.4167     9.4886
   82.5000   144.2922     9.1555     9.3557
   83.0000   144.2880     8.9694     9.2247
   83.5000   145.5099     8.9076     9.0955
   84.0000   146.7357     8.9083     8.9681
   84.5000   147.9452     8.9090     8.8425
   85.0000   149.1629     8.8475     8.7798
   85.5000   150.0761     8.8483     8.7175
   86.0000   150.0761     8.7871     8.5954
   86.5000   150.0374     8.7266     8.4750
   87.0000   149.4227     8.6665     8.3563
   87.5000   148.8078     8.6672     8.3551
   88.0000   147.8317     8.6678     8.3540
   88.5000   144.2922     8.6684     8.3528
   89.0000   140.9437     8.6690     8.4102
   89.5000   140.6393     8.6696     8.4679
   90.0000   140.6393     8.7310     8.5898
   90.5000   140.9437     8.7928     8.7723
   91.0000   141.2481     8.8550     8.9507
   91.5000   141.5525     8.9802     9.0852
