~VERSION INFORMATION
 VERS.                2.0:   CWLS LOG ASCII STANDARD - VERSION 2.0
 WRAP.                 NO:   ONE LINE PER DEPTH STEP
~WELL INFORMATION
#MNEM.UNIT      DATA TYPE    INFORMATION
#----------   ------------   ------------------------------
 STRT.F           90.0000:   START DEPTH
 STOP.F         1032.5000:   STOP DEPTH
 STEP.F            0.5000:   STEP LENGTH
 NULL.          -999.2500:   NO VALUE
 COMP. U S NAVY/INTEX OIL CO:   COMPANY
 WELL. NAVAL PETROLEUM RESERVE 3  #62-S-14:   WELL
 FLD .        TEAPOT DOME:   FIELD
 LOC .      S14 T38N R78W:   LOCATION
 CNTY.            NATRONA:   COUNTY
 STAT.            WYOMING:   STATE
 CTRY. UNITED STATES OF AMERICA:   COUNTRY
 SRVC.       Schlumberger:   SERVICE COMPANY
 DATE.        04-JUL-1962:   LOGDATE
 API .       490250631700:   API NUMBER
~CURVE INFORMATION
#MNEM.UNIT       API CODE    CURVE DESCRIPTION
#----------   ------------   ------------------------------
 DEPT.F                  :   
 GR  .GAPI   30 310 01 00:   GAMMA RAY
 CALM.IN     15 280 01 00:   CALIPER FROM MICRO LOG
 SPR .MV     06 010 01 00:   SPONTANEOUS POTENTIAL FROM RES.
 ASN .OHMM   06 041 16 00:   AMPLIFIED SHORT NORMAL 16"
 ILD .OHMM   06 120 46 00:   INDUCTION LOG DEEP
 CILD.MMHO   06 110 46 00:   CONDUCTIVITY INDUCTION LOG DEEP
~PARAMETER INFORMATION
#MNEM.UNIT          VALUE    DESCRIPTION
#----------   ------------   ------------------------------
 PD  .                 GL:   PERMANENT DATUM
 EPD .F              5246:   ELEVATION PERMANENT DATUM
 LMF .                 KB:   LOG MEASURED FROM
 DAPD.F                 5:   FEET ABOVE PERMANENT DATUM
 DMF .                 KB:   DRILLING MEASURED FROM
 EKB .F              5251:   KELLING BUSHING
 EGL .F              5246:   GROUND LEVEL
 DATE.             7-4-62:   RUN DATE
 RUN .                  1:   RUN NUMBER
 DD  .F              1036:   DEPTH DRILLER
 DL  .F              1033:   DEPTH LOGGER
 BLI .F              1032:   BOTTOM LOG INTERVAL
 TLI .F                90:   TOP LOG INTERVAL
 CBD .F                10:   CASING BOTTOM DRILLER
 BS  .IN             6.75:   BIT SIZE
 BSD .F              1036:   BIT SIZE AT DEPTH
 DFT .                GEL:   DRILLING FLUID TYPE
 DFD .               10.2:   DRILLING FLUID DENSITY
 DFV .                 48:   DRILLING FLUID VISCOSITY
 DFL .                4.8:   DRILLING FLUID LOSS
 MSS .          FLOW LINE:   MUD SAMPLE SOURCE
 RMS .OHMM            5.6:   RESISTIVITY MUD SAMPLE
 MST .F                70:   MUD SAMPLE TEMPERATURE
 RMF .OHMM           5.57:   RESISTIVITY MUD FILTRATE SAMPLE
 MFST.F                70:   MUD FILTRATE SAMPLE TEMPERATURE
 RMC .OHMM           5.32:   RESISTIVITY MUD CAKE
 MCST.F                70:   MUD CAKE SAMPLE TEMPERATURE
 MFSS.                  M:   MUD FILTRATE SAMPLE SOURCE
 MCSS.                  M:   MUD CAKE SAMPLE SOURCE
 RMB .OHMM            4.3:   RESISTIVITY MUD AT BHT
 BHT .F                90:   BOTTOM HOLE TEMPERATURE
 TCS .HRS               1:   TIME CURCULATED STOPPED
 MRT .F                90:   MAXIMUM RECORDED TEMPERATURE
 LUN .               2503:   LOGGING UNIT NUMBER
 LUL .               CSPR:   LOGGING UNIT LOCATION
 ENGI.             KNOBEL:   RECORDING ENGINEER
 WITN.          JORGENSEN:   WITNESSED BY
 CLNT.            A2DTECH:   CLIENT CODE
 ORIG.   1", 2", 5" PRINT:   ORIGIN OF DATA
 UWI .       490250631700:   UNIQUE WELL ID
 DICO. A2D Technologies, Inc.:   DIGITIZING COMPANY
~OTHER INFORMATION
~A   DEPT       GR       CALM        SPR          ASN        ILD      CILD  
# ...
  194.0000  -999.2500  -999.2500   -49.0051     7.2095     6.6669   146.9066
  194.5000  -999.2500  -999.2500   -49.1986     7.3317     6.8327   147.5433
  195.0000  -999.2500  -999.2500   -49.0053     7.4740     7.2864   147.8663
  195.5000  -999.2500  -999.2500   -48.7388     7.6478     7.5686   143.3139
  196.0000  -999.2500  -999.2500   -48.4674     7.9687     7.7461   132.2736
  196.5000  -999.2500  -999.2500   -48.1964     8.3184     7.9213   122.7392
  197.0000  -999.2500  -999.2500   -47.9254     8.6688     8.0963   118.3116
  197.5000  -999.2500  -999.2500   -47.6536     9.0652     8.2715   116.5299
  198.0000  -999.2500  -999.2500   -47.3839     8.5435     8.3639   116.2137
  198.5000  -999.2500  -999.2500   -47.2142     7.8247     8.2868   115.9045
  199.0000  -999.2500  -999.2500   -47.6647     8.3684     8.2107   116.5126
  199.5000  -999.2500  -999.2500   -48.0990     9.3945     8.1356   119.3779
  200.0000  -999.2500  -999.2500   -48.5336     9.5188     8.0577   124.2621
  200.5000  -999.2500  -999.2500   -48.9761     8.6847     7.8897   129.3375
  201.0000  -999.2500  -999.2500   -48.9262     8.3085     7.7270   134.4129
  201.5000  -999.2500  -999.2500   -48.7789     8.0684     7.5648   138.7776
  202.0000  -999.2500  -999.2500   -48.6334     7.9235     7.3992   139.8828
  202.5000  -999.2500  -999.2500   -48.4884     7.7924     7.3024   141.0552
  203.0000  -999.2500  -999.2500   -48.3435     7.7185     7.1918   142.2275
  203.5000  -999.2500  -999.2500   -48.1986     7.6572     7.0816   143.3999
  204.0000  -999.2500  -999.2500   -48.0534     7.5962     6.9705   144.5722
  204.5000  -999.2500  -999.2500   -47.9091     7.5345     6.8644   145.7916
  205.0000  -999.2500  -999.2500   -47.8025     7.5335     6.9356   145.0516
  205.5000  -999.2500  -999.2500   -47.8561     7.5441     7.0235   143.8793
  206.0000  -999.2500  -999.2500   -47.9066     7.5260     7.1115   142.7070
  206.5000  -999.2500  -999.2500   -47.9567     7.4995     7.1994   141.5346
  207.0000  -999.2500  -999.2500   -48.0068     7.5066     7.2869   140.3623
  207.5000  -999.2500  -999.2500   -48.0569     7.5430     7.3656   139.1899
  208.0000  -999.2500  -999.2500   -48.1069     7.6039     7.3503   138.0176
  208.5000  -999.2500  -999.2500   -48.1570     7.6480     7.3366   136.7735
  209.0000  -999.2500  -999.2500   -48.2071     7.6538     7.3232   136.9619
  209.5000  -999.2500  -999.2500   -48.2572     7.6602     7.3098   137.2159
  210.0000  -999.2500  -999.2500   -48.3072     7.6580     7.2965   137.4699
  210.5000  -999.2500  -999.2500   -48.3573     7.6113     7.2833   137.7240
  211.0000  -999.2500  -999.2500   -48.4074     7.5640     7.2695   138.7503
  211.5000  -999.2500  -999.2500   -48.4576     7.4886     7.2487   140.3759
  212.0000  -999.2500  -999.2500   -48.5085     7.4111     7.1648   142.0016
  212.5000  -999.2500  -999.2500   -48.5572     7.4040     7.0827   143.6272
  213.0000  -999.2500  -999.2500   -48.5342     7.4327     7.0008   145.2529
  213.5000  -999.2500  -999.2500   -48.2000     7.4624     6.9185   145.6264
  214.0000  -999.2500  -999.2500   -48.0418     7.4579     6.8366   145.2761
  214.5000  -999.2500  -999.2500   -47.8922     7.3179     6.7636   144.9257
  215.0000  -999.2500  -999.2500   -47.7419     7.2955     6.7865   144.5754
  215.5000  -999.2500  -999.2500   -47.5919     7.3840     6.8081   144.2250
  216.0000  -999.2500  -999.2500   -47.4419     7.4414     6.8292   143.8746
  216.5000  -999.2500  -999.2500   -47.5097     7.3786     6.8504   143.9344
  217.0000  -999.2500  -999.2500   -47.7439     7.3087     6.8716   144.1298
  217.5000  -999.2500  -999.2500   -47.9778     7.2796     6.8927   144.3252
  218.0000  -999.2500  -999.2500   -48.2123     7.3382     6.9139   144.5206
  218.5000  -999.2500  -999.2500   -48.4410     7.4156     6.9352   144.7160
  219.0000  -999.2500  -999.2500   -48.4261     7.4386     6.9556   144.0253
  219.5000  -999.2500  -999.2500   -47.9123     7.4289     7.0224   142.7991
  220.0000  -999.2500  -999.2500   -47.4008     7.5332     7.1124   141.5728
  220.5000  -999.2500  -999.2500   -47.3174     7.6713     7.2031   140.3466
  221.0000  -999.2500  -999.2500   -47.5154     7.7516     7.2940   139.1203
  221.5000  -999.2500  -999.2500   -47.7182     7.7694     7.3847   137.7755
  222.0000  -999.2500  -999.2500   -47.9214     7.7816     7.4748   137.0204
  222.5000  -999.2500  -999.2500   -48.1242     7.7477     7.5373   135.9509
  223.0000  -999.2500  -999.2500   -48.3272     7.7997     7.6020   134.8813
  223.5000  -999.2500  -999.2500   -48.5297     7.9395     7.6669   133.7675
  224.0000  -999.2500  -999.2500   -48.7371     8.0918     7.7318   133.3593
  224.5000  -999.2500  -999.2500   -48.6878     8.2448     7.7966   130.9530
  225.0000  -999.2500  -999.2500   -48.5331     8.3550     7.8615   128.5463
  225.5000  -999.2500  -999.2500   -48.3751     8.4381     7.9264   126.1308
  226.0000  -999.2500  -999.2500   -48.2172     8.5202     7.9915   124.5728
  226.5000  -999.2500  -999.2500   -48.0594     8.5604     8.0571   124.1475
  227.0000  -999.2500  -999.2500   -47.9017     8.5435     8.0501   123.7241
  227.5000  -999.2500  -999.2500   -47.7439     8.5220     8.0310   123.3008
  228.0000  -999.2500  -999.2500   -47.5856     8.4077     8.0116   122.8774
  228.5000  -999.2500  -999.2500   -47.4226     8.2913     7.9924   122.4541
  229.0000  -999.2500  -999.2500   -47.4835     8.5296     7.9733   122.0307
  229.5000  -999.2500  -999.2500   -47.5954     8.8145     7.9541   121.8306
  230.0000  -999.2500  -999.2500   -47.7088     8.9209     7.9349   122.5313
  230.5000  -999.2500  -999.2500   -47.8217     8.7399     7.9158   123.2320
  231.0000  -999.2500  -999.2500   -47.9336     8.5696     7.8966   123.9327
  231.5000  -999.2500  -999.2500   -47.9784     8.5086     7.8771   124.6334
  232.0000  -999.2500  -999.2500   -47.8930     8.4736     7.8370   125.3341
  232.5000  -999.2500  -999.2500   -47.8108     8.4253     7.7618   124.7495
  233.0000  -999.2500  -999.2500   -47.7285     8.3112     7.6872   126.7446
  233.5000  -999.2500  -999.2500   -47.6463     8.2330     7.6124   128.7202
  234.0000  -999.2500  -999.2500   -47.5638     8.2004     7.5377   130.6958
  234.5000  -999.2500  -999.2500   -47.4800     8.0575     7.4630   132.6711
  235.0000  -999.2500  -999.2500   -47.4019     7.7816     7.3883   134.6453
  235.5000  -999.2500  -999.2500   -47.6100     7.7092     7.3136   136.6116
  236.0000  -999.2500  -999.2500   -47.8417     7.8051     7.2389   138.7776
  236.5000  -999.2500  -999.2500   -48.0721     7.8151     7.1642   141.6834
  237.0000  -999.2500  -999.2500   -48.3051     7.6420     7.0895   144.3571
  237.5000  -999.2500  -999.2500   -48.3411     7.4694     7.0148   147.0309
  238.0000  -999.2500  -999.2500   -48.2528     7.3202     6.9400   149.7996
  238.5000  -999.2500  -999.2500   -48.1623     7.1867     6.8643   150.4492
  239.0000  -999.2500  -999.2500   -48.0715     7.1145     6.7808   151.2959
  239.5000  -999.2500  -999.2500   -47.9810     7.0911     6.6961   151.6099
  240.0000  -999.2500  -999.2500   -47.8904     7.0669     6.6120   151.1261
  240.5000  -999.2500  -999.2500   -47.7999     7.0456     6.5735   150.6422
  241.0000  -999.2500  -999.2500   -47.7094     7.0714     6.6292   150.1584
  241.5000  -999.2500  -999.2500   -47.6187     7.0982     6.6818   148.7976
  242.0000  -999.2500  -999.2500   -47.5285     7.1256     6.7325   150.0676
  242.5000  -999.2500  -999.2500   -47.4374     7.1715     6.6294   151.9727
  243.0000  -999.2500  -999.2500   -47.4237     7.2033     6.5177   153.8778
  243.5000  -999.2500  -999.2500   -47.4762     7.0878     6.4076   156.1831
  244.0000  -999.2500  -999.2500   -47.5295     6.8536     6.2955   160.5625
  244.5000  -999.2500  -999.2500   -47.5830     6.6353     6.1836   164.9420
  245.0000  -999.2500  -999.2500   -47.6363     6.5151     6.0716   169.3214
  245.5000  -999.2500  -999.2500   -47.6899     6.4833     5.9597   173.7009
