~VERSION INFORMATION
 VERS.                2.0:   CWLS LOG ASCII STANDARD - VERSION 2.0
 WRAP.                 NO:   ONE LINE PER DEPTH STEP
~WELL INFORMATION
#MNEM.UNIT      DATA TYPE    INFORMATION
#----------   ------------   ------------------------------
 STRT.F            1.0000:   START DEPTH
 STOP.F          708.0000:   STOP DEPTH
 STEP.F            0.5000:   STEP LENGTH
 NULL.          -999.2500:   NO VALUE
 COMP. LAWRENCE/ALLISON INC:   COMPANY
 WELL. NPR 3 68-61 SX #34-34:   WELL
 FLD .             TEAPOT:   FIELD
 LOC .      S34 T39N R78W:   LOCATION
 CNTY.            NATRONA:   COUNTY
 STAT.            WYOMING:   STATE
 CTRY. UNITED STATES OF AMERICA:   COUNTRY
 SRVC.           Gearhart:   SERVICE COMPANY
 DATE.        22-SEP-1988:   LOGDATE
 API .       490251125200:   API NUMBER
~CURVE INFORMATION
#MNEM.UNIT       API CODE    CURVE DESCRIPTION
#----------   ------------   ------------------------------
 DEPT.F                  :   
 GRR .GAPI   07 310 01 00:   GAMMA RAY
 RILD.OHMM   07 120 46 00:   INDUCTION LOG DEEP RESISTIVITY
 RILM.OHMM   07 120 44 00:   INDUCTION LOG MEDIUM RESISTIVITY
~PARAMETER INFORMATION
#MNEM.UNIT          VALUE    DESCRIPTION
#----------   ------------   ------------------------------
 PD  .                 GL:   PERMANENT DATUM
 EPD .F              5067:   ELEVATION PERMANENT DATUM
 LMF .                 KB:   LOG MEASURED FROM
 DAPD.F                10:   FEET ABOVE PERMANENT DATUM
 DMF .                 KB:   DRILLING MEASURED FROM
 EKB .F              5077:   KELLING BUSHING
 EGL .F              5067:   GROUND LEVEL
 DATE.        22-SEP-1988:   RUN DATE
 RUN .                  1:   RUN NUMBER
 DD  .F               705:   DEPTH DRILLER
 DL  .F               716:   DEPTH LOGGER
 BLI .F             707.5:   BOTTOM LOG INTERVAL
 TLI .F                50:   TOP LOG INTERVAL
 CS  .IN            9.625:   CASING SIZE
 CBD .F                50:   CASING BOTTOM DRILLER
 CBL .F                50:   CASING BOTTOM LOGGER
 BS  .IN             8.75:   BIT SIZE
 BSD .F               705:   BIT SIZE AT DEPTH
 DFT .                AIR:   DRILLING FLUID TYPE
 TCS .HRS            2400:   TIME CURCULATED STOPPED
 TLAB.HRS            0251:   TIME LOGGER AT BOTTOM
 MRT .F                70:   MAXIMUM RECORDED TEMPERATURE
 LUN .               7597:   LOGGING UNIT NUMBER
 LUL .           GILLETTE:   LOGGING UNIT LOCATION
 ENGI.          HUCKFRIDT:   RECORDING ENGINEER
 WITN.             STRONG:   WITNESSED BY
 CLNT.            A2DTECH:   CLIENT CODE
 ORIG.           5" PRINT:   ORIGIN OF DATA
 UWI .       490251125200:   UNIQUE WELL ID
 DICO. A2D Technologies, Inc.:   DIGITIZING COMPANY
~OTHER INFORMATION
~A    DEPT      GRR      RILD       RILM   
# ...
   92.0000    90.4977    20.6540    19.5633
   92.5000    88.3861    21.2294    20.9665
   93.0000    86.8778    21.2224    21.9224
   93.5000    85.6712    21.2168    23.1000
   94.0000    85.9728    21.2111    23.0962
   94.5000    85.9728    21.0590    22.4608
   95.0000    86.2745    20.6198    21.8429
   95.5000    86.8778    20.0491    20.4977
   96.0000    88.0845    19.3606    19.4060
   96.5000    89.0116    18.5666    18.7416
   97.0000    91.1011    18.0538    18.2260
   97.5000    93.2127    17.9180    17.9724
   98.0000    94.7210    17.6715    17.9700
   98.5000    93.8160    17.4234    17.8276
   99.0000    91.7044    17.4188    17.4728
   99.5000    91.1011    17.4142    17.4704
  100.0000    91.4027    17.2884    17.2293
  100.5000    91.7044    16.8030    16.5198
  101.0000    92.6094    16.1038    16.0631
  101.5000    93.5143    15.6516    15.8374
  102.0000    94.7210    15.1070    15.5068
  102.5000    95.9276    13.6990    14.9731
  103.0000    98.6425    12.0823    14.1605
  103.5000   103.4691    11.4217    13.1161
  104.0000   104.9774    10.8724    11.9812
  104.5000   107.0890    10.2054    10.8689
  105.0000   108.5973     9.6475     9.9976
  105.5000   109.8039     8.8705     8.9439
  106.0000   111.9155     8.5618     8.1700
  106.5000   113.4238     8.2639     7.7805
  107.0000   114.6305     8.1440     7.3582
  107.5000   117.0437     8.0806     7.1548
  108.0000   118.2504     8.0746     6.8611
  108.5000   119.4570     7.7936     6.5340
  109.0000   118.2504     7.4188     6.2221
  109.5000   116.7421     7.2105     6.1347
  110.0000   115.8371     7.2052     6.0906
  110.5000   116.1388     7.1998     6.0890
  111.0000   116.7421     7.1934     6.0873
  111.5000   117.6471     7.1881     6.1708
  112.0000   118.2504     7.1828     6.2124
  112.5000   118.2504     7.1775     6.2972
  113.0000   118.5520     7.1226     6.2952
  113.5000   119.1554     7.1174     6.2067
  114.0000   119.4570     7.1110     6.1195
  114.5000   119.1554     7.1058     6.0755
  115.0000   118.2504     7.1005     6.1162
  115.5000   117.9487     7.1457     6.1142
  116.0000   118.2504     7.1394     6.1555
  116.5000   120.0603     7.1848     6.1967
  117.0000   120.6637     7.1774     6.3250
  117.5000   118.2504     7.2220     6.3233
  118.0000   115.8371     7.3174     6.3660
  118.5000   114.6305     7.3640     6.4982
  119.0000   115.2338     7.4602     6.5413
  119.5000   117.9487     7.4547     6.6310
  120.0000   120.3620     7.4492     6.6288
  120.5000   120.0603     7.3912     6.6270
  121.0000   116.4404     7.3346     6.5794
  121.5000   114.3288     7.2786     6.5322
  122.0000   112.5189     7.1730     6.4404
  122.5000   112.2172     7.1182     6.3056
  123.0000   113.4238     7.1129     6.1313
  123.5000   114.0272     7.1066     6.0033
  124.0000   115.5354     7.1013     6.0017
  124.5000   118.2504     7.0961     6.0422
  125.0000   121.2670     7.0908     6.1674
  125.5000   124.2836     7.1856     6.2951
  126.0000   120.0603     7.2806     6.3814
  126.5000   117.0437     7.4271     6.5142
  127.0000   114.9321     7.4732     6.6954
  127.5000   114.3288     7.5186     6.6936
  128.0000   114.0272     7.6710     6.7857
  128.5000   114.0272     7.7186     6.8787
  129.0000   116.7421     7.8218     6.9723
  129.5000   120.6637     7.8704     7.0682
  130.0000   120.9653     8.0288     7.0659
  130.5000   118.2504     8.1337     7.2130
  131.0000   115.5354     8.2998     7.2613
  131.5000   112.5189     8.2924     7.4117
  132.0000   111.0106     8.3452     7.4617
  132.5000   113.4238     8.2802     7.5636
  133.0000   115.5354     8.2156     7.6668
  133.5000   114.6305     8.0405     7.8260
  134.0000   113.1222     7.9790     7.8788
  134.5000   111.0106     7.9180     7.7677
  135.0000   108.8989     7.8575     7.5530
  135.5000   109.2006     7.8517     7.2425
  136.0000   109.8039     7.8459     7.1408
  136.5000   111.0106     7.7847     7.0404
  137.0000   113.4238     7.7790     7.0385
  137.5000   116.7421     7.7732     7.1350
  138.0000   118.2504     7.7675     7.2332
  138.5000   113.4238     7.7617     7.5908
  139.0000    97.4359     7.7560     7.6416
  139.5000    88.0845     7.7491     7.6392
  140.0000    83.5596     7.7434     7.2246
  140.5000    95.3243     7.7377     7.0249
  141.0000   107.3906     7.7319     6.9744
  141.5000   116.1388     7.7262     7.0215
  142.0000   122.4736     7.7205     7.0192
  142.5000   123.0769     7.7140     7.0662
  143.0000   120.9653     7.8716     7.1135
  143.5000   116.4404     7.9205     7.0130
  144.0000   113.4238     7.9134     7.0604
  144.5000   114.6305     7.9638     7.1571
  145.0000   119.1554     8.0667     7.2050
  145.5000   120.9653     8.0607     7.3034
  146.0000   119.4570     8.0548     7.5070
  146.5000   116.1388     8.0488     7.6102
  147.0000   113.1222     8.0429     7.6074
  147.5000   113.1222     7.8714     7.3971
  148.0000   114.6305     7.8101     7.1926
  148.5000   117.3454     7.6436     6.9938
  149.0000   119.7587     7.5327     6.8004
  149.5000   120.3620     7.3722     6.6585
  150.0000   118.5520     7.1655     6.5196
  150.5000   116.7421     7.0160     6.4721
  151.0000   114.6305     6.9652     6.3807
  151.5000   114.6305     6.9634     6.2864
  152.0000   114.6305     6.9615     6.2446
  152.5000   114.3288     7.0086     6.2425
  153.0000   114.3288     7.0062     6.2404
  153.5000   114.6305     7.0043     6.2383
  154.0000   118.2504     7.0024     6.2362
  154.5000   120.0603     7.0001     6.2341
  155.0000   118.5520     6.9982     6.2319
  155.5000   116.1318     6.9963     6.2294
  156.0000   114.9321     7.0436     6.1842
  156.5000   117.6471     7.0907     6.2258
  157.0000   119.7587     7.1874     6.2231
  157.5000   120.3620     7.1854     6.2644
  158.0000   117.3454     7.3851     6.3941
  158.5000   115.8371     7.4862     6.5719
  159.0000   115.8371     7.5893     6.7540
  159.5000   115.8371     7.6927     6.8938
  160.0000   115.8371     7.7981     6.9879
  160.5000   115.8371     7.8502     7.1325
  161.0000   117.0437     7.9031     7.1798
  161.5000   118.2504     7.9556     7.2273
  162.0000   114.6305     7.9529     7.2195
  162.5000   111.6139     7.8958     7.1223
  163.0000   108.5973     7.8392     7.0707
  163.5000   108.5973     7.7829     6.9227
  164.0000   109.8400     7.5679     6.8725
  164.5000   111.0106     7.4617     6.7755
  165.0000   112.2172     7.3518     6.7264
  165.5000   114.0272     7.3036     6.6263
  166.0000   115.8371     7.2512     6.4921
  166.5000   114.3288     7.3002     6.4004
  167.0000   113.1222     7.3490     6.3545
  167.5000   112.5189     7.3977     6.4407
  168.0000   113.8218     7.4990     6.4839
  168.5000   116.7421     7.5522     6.7101
  169.0000   114.6305     7.8129     6.9020
  169.5000   112.2172     7.9756     7.0884
  170.0000   109.5023     8.1972     7.4382
  170.5000   111.9155     8.3673     7.6450
  171.0000   113.4238     8.4238     7.8033
  171.5000   115.5354     8.5387     7.9098
  172.0000   114.8759     8.5957     7.9071
  172.5000   112.2172     8.4164     7.9043
  173.0000   110.4072     8.1835     7.8464
  173.5000   112.2172     8.1247     7.6822
  174.0000   115.5354     7.9553     7.4693
  174.5000   115.5354     7.8436     7.2624
  175.0000   114.6305     7.7335     7.0123
  175.5000   113.4238     7.5722     6.8180
  176.0000   112.8205     7.5177     6.6181
  176.5000   114.3288     7.4118     6.4449
  177.0000   114.6305     7.4098     6.3982
  177.5000   114.6305     7.4599     6.4406
  178.0000   113.4238     7.5098     6.4838
  178.5000   114.3288     7.6651     6.6175
  179.0000   115.5354     7.7164     6.7077
  179.5000   116.1388     7.8800     6.8524
  180.0000   117.0437     7.9292     6.9883
  180.5000   115.8371     7.9822     7.0830
  181.0000   114.3288     8.0910     7.2296
  181.5000   112.2172     8.0888     7.3282
  182.0000   111.3122     8.1435     7.3769
  182.5000   116.7421     8.1408     7.4257
