~VERSION INFORMATION
 VERS.                2.0:   CWLS LOG ASCII STANDARD - VERSION 2.0
 WRAP.                 NO:   ONE LINE PER DEPTH STEP
~WELL INFORMATION
#MNEM.UNIT      DATA TYPE    INFORMATION
#----------   ------------   ------------------------------
 STRT.F           26.0000:   START DEPTH
 STOP.F          484.0000:   STOP DEPTH
 STEP.F            0.5000:   STEP LENGTH
 NULL.          -999.2500:   NO VALUE
 COMP.    FENIX & SCISSON:   COMPANY
 WELL.        NPR #44-S-3:   WELL
 FLD .              NPR-3:   FIELD
 LOC .       S3 T38N R78W:   LOCATION
 CNTY.            NATRONA:   COUNTY
 STAT.            WYOMING:   STATE
 CTRY. UNITED STATES OF AMERICA:   COUNTRY
 SRVC.              Welex:   SERVICE COMPANY
 DATE.        22-APR-1977:   LOGDATE
 API .       490251034000:   API NUMBER
~CURVE INFORMATION
#MNEM.UNIT       API CODE    CURVE DESCRIPTION
#----------   ------------   ------------------------------
 DEPT.F                  :   
 SPR .MV     07 010 01 00:   SPONTANEOUS POTENTIAL
 ILD .OHMM   07 120 46 00:   INDUCTION LOG DEEP
 ILM .OHMM   07 120 44 00:   INDUCTION LOG MEDIUM
 SGRD.OHMM   07 221 05 00:   SHALLOW SHORT GUARD RESISTIVITY
 GRD .GAPI   45 310 01 00:   GAMMA RAY FROM DENSITY LOG
 CALD.IN     45 280 60 00:   CALIPER FROM DENSITY LOG
 CORR.G/C3   45 356 01 00:   DENSITY CORRECTION
 RHOB.G/C3   45 350 01 00:   BULK DENSITY
 DPHI.DEC    45 890 12 00:   DENSITY POROSITY SANDSTONE
~PARAMETER INFORMATION
#MNEM.UNIT          VALUE    DESCRIPTION
#----------   ------------   ------------------------------
 PD  .                 GL:   PERMANENT DATUM
 EPD .F              5160:   ELEVATION PERMANENT DATUM
 LMF .                 GL:   LOG MEASURED FROM
 DMF .                 GL:   DRILLING MEASURED FROM
 EGL .F              5160:   GROUND LEVEL
 DATE.        22-APR-1977:   RUN DATE
 RUN .                  1:   RUN NUMBER
 DD  .F               490:   DEPTH DRILLER
 DL  .F               486:   DEPTH LOGGER
 BLI .F               484:   BOTTOM LOG INTERVAL
 TLI .F                30:   TOP LOG INTERVAL
 CS  .IN            8.625:   CASING SIZE
 CBD .F                40:   CASING BOTTOM DRILLER
 CBL .F                38:   CASING BOTTOM LOGGER
 BS  .IN            7.875:   BIT SIZE
 BSD .F               490:   BIT SIZE AT DEPTH
 DFT .            KCL GEL:   DRILLING FLUID TYPE
 DFD .                8.8:   DRILLING FLUID DENSITY
 DFV .                 36:   DRILLING FLUID VISCOSITY
 DFPH.                8.0:   DRILLING FLUID PH
 DFL .                6.4:   DRILLING FLUID LOSS
 MSS .            MUD PIT:   MUD SAMPLE SOURCE
 RMS .OHMM            .36:   RESISTIVITY MUD SAMPLE
 MST .F                60:   MUD SAMPLE TEMPERATURE
 RMF .OHMM            .30:   RESISTIVITY MUD FILTRATE SAMPLE
 MFST.F                60:   MUD FILTRATE SAMPLE TEMPERATURE
 RMC .OHMM            .42:   RESISTIVITY MUD CAKE
 MCST.F                60:   MUD CAKE SAMPLE TEMPERATURE
 MFSS.               MEAS:   MUD FILTRATE SAMPLE SOURCE
 MCSS.               MEAS:   MUD CAKE SAMPLE SOURCE
 RMB .OHMM            .30:   RESISTIVITY MUD AT BHT
 BHT .F                70:   BOTTOM HOLE TEMPERATURE
 TCS .HRS            0200:   TIME CURCULATED STOPPED
 MRT .F                70:   MAXIMUM RECORDED TEMPERATURE
 LUN .               8611:   LOGGING UNIT NUMBER
 LUL .             CASPER:   LOGGING UNIT LOCATION
 ENGI.          T. JOYNER:   RECORDING ENGINEER
 WITN.           ROB LYON:   WITNESSED BY
 CLNT.            A2DTECH:   CLIENT CODE
 ORIG.           5" PRINT:   ORIGIN OF DATA
 UWI .       490251034000:   UNIQUE WELL ID
 DICO. A2D Technologies, Inc.:   DIGITIZING COMPANY
~OTHER INFORMATION
~A   DEPT      SPR        ILD        ILM       SGRD        GRD       CALD       CORR       RHOB       DPHI   
# ...
  208.5000   -59.8132     2.8902     2.6288     3.6638   113.9019     7.7598    -0.0049     2.3656     0.1735
  209.0000   -59.6575     2.8716     2.5061     3.3742   111.8395     7.7614    -0.0078     2.3567     0.1782
  209.5000   -59.3533     2.8536     2.4900     3.4950   110.6686     7.7777    -0.0076     2.3471     0.1818
  210.0000   -59.1976     2.8756     2.8028     4.4857   110.8351     7.7793    -0.0075     2.3479     0.1802
  210.5000   -58.7451     2.9580     3.0683     5.8373   111.8930     7.7808    -0.0073     2.3734     0.1677
  211.0000   -58.2926     3.0852     3.3128     6.3016   112.9510     7.7824    -0.0072     2.3929     0.1503
  211.5000   -57.6917     3.2400     3.6267     4.2522   114.0089     7.7840    -0.0070     2.4034     0.1440
  212.0000   -57.0909     3.5223     3.9702     6.7621   116.9985     7.7855    -0.0069     2.4050     0.1416
  212.5000   -56.7868     4.0189     4.3463     9.3002   120.7311     7.7871    -0.0067     2.4140     0.1296
  213.0000   -56.4826     4.6816     4.7581    10.1111   125.5037     7.7738    -0.0066     2.4297     0.1200
  213.5000   -56.3269     5.2321     5.1729    10.1174   124.3328     7.7753    -0.0064     2.4619     0.1122
  214.0000   -56.1711     5.6099     5.4705     9.8475   120.1902     7.7769    -0.0063     2.4769     0.1098
  214.5000   -55.8670     5.9328     5.7066     9.5187   118.2719     7.7784    -0.0061     2.4703     0.1107
  215.0000   -55.8596     6.1024     5.9539     9.3276   121.8603     7.7800    -0.0060     2.4637     0.1157
  215.5000   -55.7039     6.2365     6.1668     9.1432   124.4042     7.7816    -0.0058     2.4608     0.1163
  216.0000   -55.6965     6.3248     6.2975     9.0232   121.4458     7.7831    -0.0057     2.4608     0.1130
  216.5000   -55.6891     6.3726     6.3892     9.0915   123.2511     7.7847    -0.0055     2.4714     0.1109
  217.0000   -55.6817     6.3325     6.3490     9.2238   124.4577     7.7862    -0.0054     2.4752     0.1105
  217.5000   -55.8245     6.2432     6.3027     9.3581   126.8529     7.7878    -0.0068     2.4744     0.1114
  218.0000   -56.2622     6.0686     6.2190     9.5601   128.5007     7.8041    -0.0081     2.4619     0.1167
  218.5000   -56.6981     5.8002     6.0194     9.8344   125.5468     7.7909    -0.0095     2.4558     0.1224
  219.0000   -56.9875     5.6447     5.7385     9.9775   127.2036     7.7925    -0.0108     2.4433     0.1262
  219.5000   -57.2768     5.3823     5.4331    10.0530   129.7474     7.7941    -0.0106     2.4314     0.1307
  220.0000   -57.2694     5.1669     5.1439     7.4719   126.6449     7.7804    -0.0105     2.4218     0.1351
  220.5000   -56.9653     5.0633     4.9714     5.9503   126.2125     7.7675    -0.0103     2.4168     0.1378
  221.0000   -56.9579     4.9969     4.9402     6.9814   129.0580     7.7691    -0.0102     2.4170     0.1386
  221.5000   -56.8021     5.0007     5.0128     7.9116   130.5617     7.7707    -0.0100     2.4208     0.1362
  222.0000   -56.6464     5.0735     5.0858     7.5948   129.3908     7.7722    -0.0084     2.4278     0.1323
  222.5000   -56.3423     5.2189     5.2317     7.0429   127.3284     7.7738    -0.0082     2.4398     0.1257
  223.0000   -56.1865     5.3684     5.3817     8.6121   127.0446     7.7604    -0.0066     2.4480     0.1206
  223.5000   -55.8824     5.5223     5.6131     9.1708   128.4042     7.7472    -0.0049     2.4580     0.1161
  224.0000   -55.7266     5.7596     5.8142     8.9261   130.2050     7.7488    -0.0033     2.4707     0.1110
  224.5000   -55.5709     6.0071     6.1063     8.6867   131.7088     7.7503    -0.0031     2.4764     0.1044
  225.0000   -55.1184     6.2652     6.3689     9.5771   133.6582     7.7519    -0.0030     2.4787     0.1007
  225.5000   -54.9626     6.5798     6.6428    10.3403   135.0134     7.7534    -0.0028     2.4834     0.0992
  226.0000   -54.5101     6.8625     6.9285    10.7107   135.4725     7.7550    -0.0012     2.4882     0.0968
  226.5000   -54.3544     7.1574     7.1767    11.0180   133.4146     7.7714    -0.0010     2.4957     0.0914
  227.0000   -54.1986     7.3626     7.3825    11.1783   131.9465     7.7581     0.0006     2.5052     0.0857
  227.5000   -53.8945     7.5736     7.5419    11.3410   130.0327     7.7596     0.0008     2.5075     0.0851
  228.0000   -53.7388     7.7370     7.7582    11.4268   133.4680     7.7612     0.0009     2.5031     0.0874
  228.5000   -53.5830     7.7418     7.8169    11.5128   134.9673     7.7627     0.0011     2.4972     0.0919
  229.0000   -53.4272     7.7465     7.8217    11.4322   132.6122     7.7643     0.0012     2.4884     0.0969
  229.5000   -53.4198     7.6450     7.7714    11.2034   129.6582     7.7659     0.0014     2.4825     0.0993
  230.0000   -53.4125     7.5447     7.5653    10.9035   125.8128     7.7674     0.0015     2.4826     0.0986
  230.5000   -53.5534     7.3945     7.4146    10.6117   123.0074     7.7690     0.0017     2.4886     0.0977
  231.0000   -53.6944     7.2462     7.2168    10.3994   119.1620     7.7705     0.0018     2.4894     0.0974
  231.5000   -53.6869     7.0530     7.0719    10.1913   118.5810     7.7572     0.0020     2.4828     0.0979
  232.0000   -53.8268     6.7718     6.8843    10.0566   121.4265     7.7440     0.0021     2.4806     0.0991
  232.5000   -54.1180     6.5008     6.7006    10.0061   124.1189     7.7294     0.0023     2.4815     0.1000
  233.0000   -54.4055     6.1977     6.5219     9.9433   123.2452     7.7174     0.0009     2.4801     0.1038
  233.5000   -54.8432     5.9087     6.3041     9.6796   123.8574     7.7339     0.0011     2.4742     0.1080
  234.0000   -55.1325     5.6332     6.0517     9.2279   127.5899     7.7354    -0.0003     2.4683     0.1109
  234.5000   -55.4237     5.3706     5.7693     8.6168   129.6880     7.7518    -0.0001     2.4624     0.1133
  235.0000   -55.5647     5.1557     5.5001     8.1019   130.5973     7.7533     0.0000     2.4580     0.1156
  235.5000   -55.5555     4.9494     5.2073     7.4614   133.7355     7.7549     0.0002     2.4551     0.1174
  236.0000   -55.5481     4.7504     4.9984     6.3683   132.5602     7.7564     0.0003     2.4507     0.1195
  236.5000   -55.3923     4.5928     4.8992     5.4353   135.1085     7.7727     0.0005     2.4448     0.1227
  237.0000   -55.0882     4.7652     5.0440     5.0048   136.4636     7.7595    -0.0009     2.4337     0.1257
  237.5000   -54.9325     5.2166     5.4102     7.0774   138.1159     7.7614    -0.0038     2.4487     0.1233
  238.0000   -54.6283     5.5534     5.7234     9.4682   135.9049     7.7330    -0.0036     2.4622     0.1158
  238.5000   -54.1758     5.8745     6.1022    10.3652   132.5052     7.7197    -0.0049     2.4720     0.1089
  239.0000   -53.5750     6.2143     6.4942    10.7365   130.2942     7.7064    -0.0048     2.4758     0.1048
  239.5000   -53.2709     6.5365     6.9178    10.8927   126.4487     7.7084    -0.0046     2.4759     0.1034
  240.0000   -52.8184     6.9354     7.2484    10.8995   128.1010     7.7099    -0.0045     2.4745     0.1066
  240.5000   -52.3659     7.2334     7.4563    10.6087   129.4562     7.7115    -0.0058     2.4723     0.1078
  241.0000   -52.2101     7.4407     7.5648    10.3974   130.6627     7.7130    -0.0057     2.4694     0.1057
  241.5000   -51.7576     7.6539     7.6749    10.6956   133.6523     7.7294    -0.0071     2.4680     0.1065
  242.0000   -51.6019     7.7652     7.7866    11.2330   131.8871     7.7309    -0.0084     2.4666     0.1098
  242.5000   -51.4461     7.8782     7.8455    11.3180   130.5676     7.7473    -0.0098     2.4667     0.1115
  243.0000   -51.2904     7.8830     7.9048    11.3250   132.2199     7.7488    -0.0096     2.4698     0.1094
  243.5000   -51.1346     7.9426     7.9097    11.2522   133.1293     7.7352    -0.0094     2.4721     0.1073
  244.0000   -51.1272     8.0026     7.9146    11.2609   130.3239     7.7371    -0.0093     2.4737     0.1055
  244.5000   -51.1198     8.0076     7.9195    11.2679   132.5706     7.7239    -0.0091     2.4737     0.1060
