~VERSION INFORMATION
 VERS.                2.0:   CWLS LOG ASCII STANDARD - VERSION 2.0
 WRAP.                 NO:   ONE LINE PER DEPTH STEP
~WELL INFORMATION
#MNEM.UNIT      DATA TYPE    INFORMATION
#----------   ------------   ------------------------------
 STRT.F           36.0000:   START DEPTH
 STOP.F         3160.0000:   STOP DEPTH
 STEP.F            0.5000:   STEP LENGTH
 NULL.          -999.2500:   NO VALUE
 COMP.    FENIX & SCISSON:   COMPANY
 WELL.        NPR-3 #28-3:   WELL
 FLD .             TEAPOT:   FIELD
 LOC .       S3 T38N R78W:   LOCATION
 CNTY.            NATRONA:   COUNTY
 STAT.            WYOMING:   STATE
 CTRY. UNITED STATES OF AMERICA:   COUNTRY
 SRVC.            Unknown:   SERVICE COMPANY
 DATE.        01-JUL-1978:   LOGDATE
 API .       490251066500:   API NUMBER
~CURVE INFORMATION
#MNEM.UNIT       API CODE    CURVE DESCRIPTION
#----------   ------------   ------------------------------
 DEPT.F                  :   
 ILD .OHMM   05 120 46 00:   INDUCTION LOG DEEP
 SN  .OHMM   05 040 16 00:   SHORT NORMAL 16"
 SPR .MV     05 010 01 00:   SPONTANEOUS POTENTIAL FROM RES.
 CALD.IN     45 280 60 00:   CALIPER FROM DENSITY LOG
 CORR.G/C3   45 356 01 00:   DENSITY CORRECTION
 DPHI.DEC    45 890 12 00:   DENSITY POROSITY SANDSTONE
 GRD .GAPI   45 310 01 00:   GAMMA RAY FROM DENSITY LOG
 RHOB.G/C3   45 350 01 00:   BULK DENSITY
 GR  .GAPI   30 310 01 00:   GAMMA RAY
~PARAMETER INFORMATION
#MNEM.UNIT          VALUE    DESCRIPTION
#----------   ------------   ------------------------------
 PD  .                 GL:   PERMANENT DATUM
 EPD .F              5264:   ELEVATION PERMANENT DATUM
 LMF .                 KB:   LOG MEASURED FROM
 DAPD.F                 4:   FEET ABOVE PERMANENT DATUM
 DMF .                 KB:   DRILLING MEASURED FROM
 EKB .F              5268:   KELLING BUSHING
 EGL .F              5264:   GROUND LEVEL
 DATE.        01-JUL-1978:   RUN DATE
 RUN .                  1:   RUN NUMBER
 DD  .F               630:   DEPTH DRILLER
 DL  .F               636:   DEPTH LOGGER
 BLI .F               630:   BOTTOM LOG INTERVAL
 TLI .F                50:   TOP LOG INTERVAL
 CS  .IN            8.625:   CASING SIZE
 CBD .F                40:   CASING BOTTOM DRILLER
 BS  .IN            7.875:   BIT SIZE
 BSD .F               630:   BIT SIZE AT DEPTH
 DFT .                KCL:   DRILLING FLUID TYPE
 DFD .                8.6:   DRILLING FLUID DENSITY
 DFV .                 32:   DRILLING FLUID VISCOSITY
 DFPH.                9.5:   DRILLING FLUID PH
 MSS .           FLOWLINE:   MUD SAMPLE SOURCE
 BHT .F                74:   BOTTOM HOLE TEMPERATURE
 TCS .HRS               1:   TIME CURCULATED STOPPED
 MRT .F                74:   MAXIMUM RECORDED TEMPERATURE
 LUN .               2958:   LOGGING UNIT NUMBER
 LUL .               CASP:   LOGGING UNIT LOCATION
 ENGI.             MILLER:   RECORDING ENGINEER
 WITN.           MCGINLEY:   WITNESSED BY
 CLNT.            A2DTECH:   CLIENT CODE
 ORIG.        2" 5" PRINT:   ORIGIN OF DATA
 UWI .       490251066500:   UNIQUE WELL ID
 DICO. A2D Technologies, Inc.:   DIGITIZING COMPANY
~OTHER INFORMATION
~A   DEPT      ILD         SN        SPR       CALD       CORR       DPHI         GRD      RHOB         GR   
# ...
  583.5000    11.7603    10.1958   -34.0884     7.0085     0.0127     0.1340    68.7717     2.4571  -999.2500
  584.0000    11.6754    10.1937   -34.0971     7.0102     0.0113     0.1346    69.0864     2.4587  -999.2500
  584.5000    11.6707    10.1917   -34.2560     7.0420     0.0115     0.1352    70.2979     2.4580  -999.2500
  585.0000    11.6673    10.1896   -34.4148     7.0585     0.0101     0.1349    71.9882     2.4572  -999.2500
  585.5000    11.6630    10.1871   -34.5737     7.0750     0.0102     0.1358    74.0702     2.4536  -999.2500
  586.0000    11.6592    10.1851   -34.7327     7.0766     0.0103     0.1423    74.9828     2.4484  -999.2500
  586.5000    11.6552    10.1831   -34.7434     7.0782     0.0119     0.1459    74.9985     2.4403  -999.2500
  587.0000    11.6506    10.1810   -34.9023     7.0648     0.0120     0.1509    74.8608     2.4329  -999.2500
  587.5000    11.6467    10.1790   -34.9110     7.0369     0.0077     0.1479    73.5351     2.4320  -999.2500
  588.0000    11.6429    10.1769   -34.9197     6.9787     0.0018     0.1410    70.4158     2.4420  -999.2500
  588.5000    11.6391    10.1044   -34.9284     6.9952    -0.0011     0.1443    69.9791     2.4457  -999.2500
  589.0000    11.6351    10.1023   -34.9371     7.1014    -0.0010     0.1511    70.2977     2.4353  -999.2500
  589.5000    11.6305    10.1003   -34.9459     7.0117     0.0006     0.1598    71.2103     2.4257  -999.2500
  590.0000    11.5466    10.0983   -34.9567     6.8803     0.0007     0.1496    73.4681     2.4220  -999.2500
  590.5000    11.5428    10.0963   -35.1156     7.1514     0.0026     0.1451    76.8443     2.4355  -999.2500
  591.0000    11.4596    10.0943   -35.2744     7.3024     0.0055     0.1433    78.8846     2.4415  -999.2500
  591.5000    11.3760    10.0227   -35.4333     7.3787     0.0041     0.1396    79.6438     2.4416  -999.2500
  592.0000    11.2939     9.9513   -35.8924     7.3953     0.0057     0.1379    78.0153     2.4521  -999.2500
  592.5000    11.1353     9.8808   -36.0513     7.3819     0.0043     0.1406    78.0349     2.4514  -999.2500
  593.0000    10.9033     9.8108   -36.2162     7.3839     0.0029     0.1373    78.0508     2.4492  -999.2500
  593.5000    10.6761     9.7413   -36.5213     7.3854     0.0013     0.1328    77.7713     2.4560  -999.2500
  594.0000    10.4528     9.6057   -36.8303     7.4319     0.0001     0.1286    77.4881     2.4651  -999.2500
  594.5000    10.3059     9.5376   -36.9892     7.4484    -0.0012     0.1293    76.9019     2.4673  -999.2500
  595.0000    10.2316     9.4700   -37.1480     7.4798    -0.0041     0.1360    76.1742     2.4651  -999.2500
  595.5000    10.2282     9.3378   -37.3069     7.4964    -0.0040     0.1408    75.5920     2.4502  -999.2500
  596.0000    10.2958     9.2716   -37.3156     7.5133    -0.0039     0.1384    75.1593     2.4458  -999.2500
  596.5000    10.2915     9.0796   -37.4745     7.5149    -0.0037     0.1356    75.1789     2.4526  -999.2500
  597.0000    10.2882     8.8915   -37.4835     7.5314    -0.0007     0.1392    75.3441     2.4534  -999.2500
  597.5000    10.2140     8.7074   -37.4940     7.5629     0.0084     0.1422    75.6587     2.4460  -999.2500
  598.0000     9.6615     8.4061   -37.5027     7.5644     0.0190     0.1404    76.2724     2.4408  -999.2500
  598.5000     8.5115     7.9558   -37.5114     7.5661     0.0191     0.1383    78.1617     2.4439  -999.2500
  599.0000     7.3739     7.5264   -37.5201     7.5680     0.0177     0.1359    81.8383     2.4506  -999.2500
  599.5000     6.9750     6.9742   -37.5288     7.5696     0.0193     0.1505    83.4983     2.4523  -999.2500
  600.0000     6.7832     6.6896   -37.6885     7.5861     0.0239     0.1609    83.6596     2.4463  -999.2500
  600.5000     6.5517     6.6875   -37.5475     7.5878     0.0285     0.1594    83.5301     2.4284  -999.2500
  601.0000     6.5059     6.7317   -37.5591     7.5894     0.0376     0.1570    83.7069     2.4181  -999.2500
  601.5000     6.6415     6.8705   -37.4158     7.6061     0.0392     0.1504    88.2021     2.4186  -999.2500
  602.0000     7.0180     7.1091   -37.2739     7.6227     0.0155     0.1399    96.5895     2.4593  -999.2500
  602.5000     7.4160     7.6147   -36.9862     7.5945     0.0082     0.1304   100.9369     2.4817  -999.2500
  603.0000     8.4553     8.0448   -36.6974     7.5966     0.0039     0.1181    96.4735     2.4930  -999.2500
  603.5000     9.5081     8.3250   -36.5508     7.5982     0.0041     0.1111    85.4289     2.4960  -999.2500
  604.0000    10.3289     8.7946   -36.1176     7.5999     0.0042     0.1132    82.4560     2.4954  -999.2500
  604.5000    10.5441     9.1639   -35.9743     7.6016     0.0043     0.1138    81.8790     2.4947  -999.2500
  605.0000    10.6158     9.5487   -35.8357     7.6186     0.0060     0.1137    78.9062     2.4926  -999.2500
  605.5000    10.6883     9.9489   -35.8472     7.6203     0.0076     0.1144    75.7838     2.4926  -999.2500
  606.0000    10.8359    10.1541   -35.8565     7.5767     0.0093     0.1147    74.0026     2.4919  -999.2500
  606.5000    10.9098    10.3634   -35.7155     7.5485     0.0095     0.1149    75.3688     2.4913  -999.2500
  607.0000    10.9843    10.6496   -35.5769     7.5506     0.0126     0.1131    76.3063     2.4928  -999.2500
  607.5000    11.1357    10.8692   -35.5862     7.5673     0.0112     0.1107    75.8548     2.4959  -999.2500
  608.0000    11.4462    11.0933   -35.5956     7.5843     0.0054     0.1062    75.5684     2.5007  -999.2500
  608.5000    11.6847    11.3211   -35.4545     7.6009    -0.0004     0.1026    76.4861     2.5080  -999.2500
  609.0000    11.9281    11.4759   -35.4660     7.6026    -0.0018     0.1074    78.4460     2.5028  -999.2500
  609.5000    12.3580    11.5518   -35.4755     7.6042    -0.0031     0.1118    80.2699     2.4947  -999.2500
  610.0000    12.8670    11.5471   -35.3343     7.6059    -0.0060     0.1079    81.1700     2.4963  -999.2500
  610.5000    13.3178    11.7041   -35.3458     7.5927    -0.0103     0.1087    78.0518     2.4993  -999.2500
  611.0000    13.5953    11.7815   -35.2049     7.5798    -0.0146     0.1093    77.6159     2.5017  -999.2500
  611.5000    13.5935    11.8584   -35.0640     7.5815    -0.0174     0.1096    79.4305     2.5025  -999.2500
  612.0000    13.5920    11.8537   -34.9231     7.5832    -0.0188     0.1149    79.2977     2.4936  -999.2500
  612.5000    13.5906    11.7683   -34.9369     7.5848    -0.0186     0.1256    77.2218     2.4795  -999.2500
  613.0000    13.5888    11.6835   -34.9461     7.5865    -0.0140     0.1241    78.1395     2.4721  -999.2500
  613.5000    13.5873    11.6788   -34.9554     7.5732    -0.0109     0.1223    78.0025     2.4729  -999.2500
  614.0000    13.5858    11.6751   -34.9669     7.5753    -0.0063     0.1214    78.0234     2.4819  -999.2500
  614.5000    13.5840    11.6714   -34.9761     7.5770    -0.0061     0.1244    78.0401     2.4783  -999.2500
  615.0000    13.4891    11.6667   -34.9854     7.5787    -0.0045     0.1255    76.4126     2.4746  -999.2500
  615.5000    13.4876    11.6630   -34.9969     7.5804    -0.0028     0.1267    74.9345     2.4725  -999.2500
  616.0000    13.3933    11.6593   -35.0061     7.5820    -0.0012     0.1254    75.5533     2.4718  -999.2500
  616.5000    13.2077    11.6546   -35.0154     7.5837     0.0005     0.1249    75.7194     2.4734  -999.2500
  617.0000    13.2063    11.5706   -35.0269     7.5854     0.0036     0.1263    74.8393     2.4757  -999.2500
  617.5000    13.2049    11.5669   -35.0361     7.5721     0.0052     0.1227    73.2117     2.4788  -999.2500
  618.0000    13.1122    11.4036   -35.0454     7.5742     0.0037     0.1221    73.4181     2.4803  -999.2500
  618.5000    13.1108    11.3215   -35.0569     7.5759    -0.0005     0.1191    77.8831     2.4804  -999.2500
  619.0000    13.1094    11.1626   -35.0661     7.5925    -0.0077     0.1158    80.4409     2.4819  -999.2500
  619.5000    12.9278    11.0813   -35.0753     7.5942    -0.0151     0.1193    80.9018     2.4872  -999.2500
