~VERSION INFORMATION
 VERS.                2.0:   CWLS LOG ASCII STANDARD - VERSION 2.0
 WRAP.                 NO:   ONE LINE PER DEPTH STEP
~WELL INFORMATION
#MNEM.UNIT      DATA TYPE    INFORMATION
#----------   ------------   ------------------------------
 STRT.F           32.0000:   START DEPTH
 STOP.F          812.0000:   STOP DEPTH
 STEP.F            0.5000:   STEP LENGTH
 NULL.          -999.2500:   NO VALUE
 COMP. FENIX & SCISSON INC:   COMPANY
 WELL.       75 SX #15-15:   WELL
 FLD .             TEAPOT:   FIELD
 LOC .      S15 T38N R78W:   LOCATION
 CNTY.            NATRONA:   COUNTY
 STAT.            WYOMING:   STATE
 CTRY. UNITED STATES OF AMERICA:   COUNTRY
 SRVC.              Welex:   SERVICE COMPANY
 DATE.        28-FEB-1977:   LOGDATE
 API .       490251030100:   API NUMBER
~CURVE INFORMATION
#MNEM.UNIT       API CODE    CURVE DESCRIPTION
#----------   ------------   ------------------------------
 DEPT.F                  :   
 SPR .MV     07 010 01 00:   SPONTANEOUS POTENTIAL
 ILD .OHMM   07 120 46 00:   INDUCTION LOG DEEP
 SGRD.OHMM   07 220 05 00:   SHALLOW RESISTIVITY
 ILM .OHMM   07 120 44 00:   INDUCTION LOG MEDIUM
 GRD .GAPI   45 310 01 00:   GAMMA RAY FROM DENSITY LOG
 CALD.IN     45 280 60 00:   CALIPER FROM DENSITY LOG
 RHOB.G/C3   45 350 01 00:   BULK DENSITY
 DPHI.DEC    45 890 12 00:   DENSITY POROSITY SANDSTONE
 CORR.G/C3   45 356 01 00:   DENSITY CORRECTION
~PARAMETER INFORMATION
#MNEM.UNIT          VALUE    DESCRIPTION
#----------   ------------   ------------------------------
 PD  .                 GL:   PERMANENT DATUM
 EPD .F              5264:   ELEVATION PERMANENT DATUM
 LMF .                 GL:   LOG MEASURED FROM
 DMF .                 GL:   DRILLING MEASURED FROM
 EGL .F              5264:   GROUND LEVEL
 DATE.          2-28-1977:   RUN DATE
 RUN .                  1:   RUN NUMBER
 DD  .F               830:   DEPTH DRILLER
 DL  .F               814:   DEPTH LOGGER
 BLI .F               812:   BOTTOM LOG INTERVAL
 TLI .F                42:   TOP LOG INTERVAL
 CS  .IN            8.625:   CASING SIZE
 CBD .F                40:   CASING BOTTOM DRILLER
 CBL .F                42:   CASING BOTTOM LOGGER
 BS  .IN            7.875:   BIT SIZE
 BSD .F               830:   BIT SIZE AT DEPTH
 DFT .           CHEM-GEL:   DRILLING FLUID TYPE
 DFD .                9.3:   DRILLING FLUID DENSITY
 DFV .                 38:   DRILLING FLUID VISCOSITY
 DFPH.               10.5:   DRILLING FLUID PH
 DFL .               16.2:   DRILLING FLUID LOSS
 MSS .          FLOW LINE:   MUD SAMPLE SOURCE
 RMS .OHMM           0.44:   RESISTIVITY MUD SAMPLE
 MST .F                62:   MUD SAMPLE TEMPERATURE
 RMF .OHMM            .38:   RESISTIVITY MUD FILTRATE SAMPLE
 MFST.F                62:   MUD FILTRATE SAMPLE TEMPERATURE
 RMC .OHMM           0.79:   RESISTIVITY MUD CAKE
 MCST.F                62:   MUD CAKE SAMPLE TEMPERATURE
 MFSS.           MEASURED:   MUD FILTRATE SAMPLE SOURCE
 MCSS.           MEASURED:   MUD CAKE SAMPLE SOURCE
 RMB .OHMM           .368:   RESISTIVITY MUD AT BHT
 BHT .F                74:   BOTTOM HOLE TEMPERATURE
 TCS .HRS               3:   TIME CURCULATED STOPPED
 MRT .F                74:   MAXIMUM RECORDED TEMPERATURE
 LUN .               8611:   LOGGING UNIT NUMBER
 LUL .           GILLETTE:   LOGGING UNIT LOCATION
 ENGI.               DOAK:   RECORDING ENGINEER
 WITN.               JAPP:   WITNESSED BY
 CLNT.            A2DTECH:   CLIENT CODE
 ORIG.       2", 5" PRINT:   ORIGIN OF DATA
 UWI .       490251030100:   UNIQUE WELL ID
 DICO. A2D Technologies, Inc.:   DIGITIZING COMPANY
~OTHER INFORMATION
~A   DEPT      SPR        ILD       SGRD        ILM         GRD        CALD       RHOB       DPHI      CORR  
# ...
  214.5000   -39.2673    19.0944    21.2418    23.9968   100.7559     7.7519     2.4318     0.1298     0.0385
  215.0000   -39.1079    19.4804    21.6632    25.0500   101.3398     7.7763     2.4272     0.1309     0.0388
  215.5000   -38.9485    19.8753    22.0280    26.4868   102.8798     7.8000     2.4225     0.1333     0.0370
  216.0000   -38.7877    20.2737    22.3997    25.4063   104.1455     7.7632     2.4179     0.1366     0.0343
  216.5000   -38.6300    20.5092    22.6480    23.9177   103.7064     7.7017     2.4132     0.1399     0.0315
  217.0000   -38.6973    20.5816    22.4073    22.5162   101.8117     7.6410     2.4086     0.1432     0.0287
  217.5000   -38.7784    20.6574    22.2295    21.2339    99.9032     7.5819     2.4074     0.1496     0.0258
  218.0000   -38.8583    20.7335    22.0308    21.2993    97.9419     7.5542     2.4153     0.1414     0.0249
  218.5000   -38.9380    20.8099    23.8235    21.3778    99.8406     7.6191     2.4230     0.1355     0.0249
  219.0000   -39.0177    20.8866    25.2947    21.4565   102.1125     7.6804     2.4304     0.1317     0.0249
  219.5000   -39.0973    20.9635    23.5845    21.5356   101.9103     7.7421     2.4239     0.1346     0.0249
  220.0000   -39.1770    21.0407    22.8638    21.6149    99.4995     7.8037     2.4167     0.1383     0.0249
  220.5000   -39.2567    21.1182    23.2251    21.6945    96.2288     7.8587     2.4097     0.1419     0.0249
  221.0000   -39.3364    21.1960    23.4964    21.7744    92.1125     7.8591     2.4060     0.1434     0.0268
  221.5000   -39.4161    21.2741    23.7680    21.8647    91.1430     7.8589     2.4149     0.1374     0.0304
  222.0000   -39.4960    21.3525    24.1563    22.1583    93.5576     7.8589     2.4237     0.1324     0.0340
  222.5000   -39.5752    21.4304    23.8566    22.4564    94.5865     7.8589     2.4326     0.1274     0.0376
  223.0000   -39.6135    21.9946    23.2825    22.8369    94.4718     7.8588     2.4414     0.1201     0.0412
  223.5000   -39.5765    22.5722    25.0496    22.6707    96.1771     7.8592     2.4469     0.1232     0.0439
  224.0000   -39.5409    23.1634    28.7155    26.0538    99.3462     7.8201     2.4335     0.1289     0.0461
  224.5000   -39.5047    23.7698    33.9649    28.6754   102.5789     7.7550     2.4204     0.1347     0.0455
  225.0000   -39.4686    24.3919    30.1136    30.4109   103.3554     7.6894     2.4072     0.1404     0.0436
  225.5000   -39.4366    25.0304    25.7601    24.9316   100.0353     7.6213     2.4037     0.1458     0.0416
  226.0000   -39.6039    25.7650    21.6287    21.5810    97.1749     7.5215     2.4088     0.1434     0.0396
  226.5000   -40.0028    25.5288    22.2258    18.4522    99.0719     7.4141     2.4140     0.1393     0.0407
  227.0000   -40.4000    25.0622    22.9240    22.0039   101.3584     7.5074     2.4192     0.1353     0.0438
  227.5000   -40.7982    24.7436    23.6442    20.7769   102.8776     7.6346     2.4244     0.1339     0.0469
  228.0000   -41.2027    24.4383    23.9348    18.2176   102.3916     7.7609     2.4275     0.1337     0.0500
  228.5000   -41.7812    23.5349    22.5793    15.9735   102.0997     7.8398     2.4263     0.1308     0.0530
  229.0000   -42.5928    22.5647    21.2402    14.5556   105.2173     7.8141     2.4252     0.1279     0.0538
  229.5000   -43.4021    21.6328    21.6285    19.7256   106.5060     7.7574     2.4202     0.1280     0.0515
  230.0000   -44.2108    20.2881    22.1797    17.4997   105.5768     7.6842     2.4131     0.1294     0.0492
  230.5000   -45.0253    18.6994    22.8576    17.6415   105.5519     7.6147     2.4225     0.1309     0.0468
  231.0000   -46.1173    17.2351    21.6516    17.8231   109.1396     7.5454     2.4365     0.1235     0.0411
  231.5000   -47.2117    15.7906    20.5538    17.9900   112.5318     7.4753     2.4507     0.1159     0.0354
  232.0000   -48.2933    14.2496    20.1996    16.4357   114.4445     7.4055     2.4649     0.1084     0.0296
  232.5000   -49.1657    12.8590    19.2755    15.1288   111.4807     7.4824     2.4790     0.1009     0.0285
  233.0000   -49.5946    11.6041    14.6903    13.9258   109.5878     7.5722     2.4933     0.0932     0.0313
  233.5000   -49.8226    10.4717    18.0913    12.8184   113.4895     7.6617     2.4968     0.0887     0.0342
  234.0000   -50.0393     9.5286    20.2782    11.7992   120.1089     7.7500     2.4824     0.0974     0.0367
  234.5000   -50.2551     8.5299    13.0419    10.7268   124.3480     7.7598     2.4724     0.1036     0.0334
  235.0000   -50.4215     8.1027    11.6904     9.4413   126.5933     7.7596     2.4623     0.1097     0.0302
  235.5000   -50.4813     7.8420    11.4287     9.2689   127.3589     7.7594     2.4524     0.1152     0.0271
  236.0000   -50.5454     7.5897    11.1728     9.5286   128.0874     7.7594     2.4448     0.1180     0.0239
  236.5000   -50.5831     7.3626    10.9403     9.2919   129.2461     7.7594     2.4376     0.1209     0.0207
  237.0000   -50.2306     7.2793    11.3090     9.1192   130.5678     7.7594     2.4305     0.1238     0.0176
  237.5000   -49.8821     7.2282    11.6701     9.3547   128.6554     7.7594     2.4234     0.1266     0.0144
  238.0000   -49.6162     7.5161    12.0414     9.4413   124.4753     7.7594     2.4162     0.1295     0.0113
  238.5000   -49.7649     7.7390    12.5612     8.9230   121.6799     7.7594     2.4090     0.1324     0.0089
  239.0000   -49.9048     7.9990    12.3496     8.6105   121.1191     7.7594     2.4041     0.1353     0.0090
  239.5000   -50.0444     7.9805    11.9958     9.2933   121.1951     7.7595     2.4157     0.1299     0.0089
  240.0000   -50.1839     7.9597    12.0985     9.7920   121.7756     7.7599     2.4272     0.1242     0.0091
  240.5000   -50.3233     7.9380    12.2188     9.3046   124.5392     7.7430     2.4374     0.1228     0.0132
  241.0000   -50.4628     7.9052    12.0012     8.8931   127.3030     7.7230     2.4337     0.1235     0.0174
  241.5000   -50.6021     7.8037    11.7303     8.4992   127.1263     7.7030     2.4346     0.1221     0.0210
  242.0000   -50.7403     7.7043    11.4648     8.2805   126.7390     7.6829     2.4381     0.1201     0.0209
  242.5000   -50.8855     7.6061    11.2037     8.2148   126.1410     7.6620     2.4407     0.1212     0.0194
  243.0000   -51.1534     7.5092    11.0393     8.1496   124.2886     7.6922     2.4385     0.1224     0.0169
  243.5000   -51.1978     7.4135    11.0888     8.0849   121.1078     7.7306     2.4362     0.1235     0.0144
  244.0000   -51.2452     7.3190    11.1297     8.0208   119.3370     7.7689     2.4339     0.1245     0.0118
  244.5000   -51.3934     7.2257    11.1437     7.9571   121.2030     7.7996     2.4319     0.1241     0.0093
  245.0000   -51.3990     7.1619    11.0069     7.8940   123.3711     7.7969     2.4344     0.1241     0.0071
  245.5000   -51.3654     7.3011    10.9144     7.8529   125.7393     7.7948     2.4370     0.1229     0.0104
  246.0000   -51.3065     7.4093    10.8400     8.5925   125.9113     7.7928     2.4404     0.1186     0.0138
  246.5000   -51.2475     7.5190    13.8997     8.9337   111.4675     7.7908     2.4529     0.1142     0.0172
  247.0000   -51.1884     7.6304    14.9634     8.4254   106.9007     7.7888     2.4546     0.1124     0.0205
  247.5000   -51.1294     7.7435    11.9675     7.9216   109.5124     7.7868     2.4498     0.1154     0.0229
  248.0000   -51.0704     7.8582    11.7035     8.0348   115.2088     7.7848     2.4450     0.1184     0.0225
  248.5000   -51.0113     7.9747    11.4453     8.2429   120.5329     7.7828     2.4439     0.1186     0.0221
  249.0000   -50.9523     8.0928    11.2468     8.4587   122.7329     7.7808     2.4504     0.1162     0.0217
  249.5000   -50.8933     8.2134    11.9971     8.6798   120.4454     7.7796     2.4588     0.1126     0.0214
  250.0000   -50.8343     8.3316    12.4461     8.9063   118.5585     7.7870     2.4666     0.1090     0.0210
  250.5000   -50.7752     8.4495    12.6774     9.1388   119.7014     7.7943     2.4674     0.1056     0.0226
