~VERSION INFORMATION
 VERS.                2.0:   CWLS LOG ASCII STANDARD - VERSION 2.0
 WRAP.                 NO:   ONE LINE PER DEPTH STEP
~WELL INFORMATION
#MNEM.UNIT      DATA TYPE    INFORMATION
#----------   ------------   ------------------------------
 STRT.F           20.5000:   START DEPTH
 STOP.F          725.0000:   STOP DEPTH
 STEP.F            0.5000:   STEP LENGTH
 NULL.          -999.2500:   NO VALUE
 COMP. FENIX & SCISSON INC:   COMPANY
 WELL.       NPR 3 #67-27:   WELL
 FLD .             TEAPOT:   FIELD
 LOC .      S27 T39N R78W:   LOCATION
 CNTY.            NATRONA:   COUNTY
 STAT.            WYOMING:   STATE
 CTRY. UNITED STATES OF AMERICA:   COUNTRY
 SRVC.           BIRDWELL:   SERVICE COMPANY
 DATE.        15-SEP-1978:   LOGDATE
 API .       490251069400:   API NUMBER
~CURVE INFORMATION
#MNEM.UNIT       API CODE    CURVE DESCRIPTION
#----------   ------------   ------------------------------
 DEPT.F                  :   
 CALD.IN     45 280 60 00:   CALIPER
 GRD .GAPI   45 310 01 00:   GAMMA RAY FROM DENSITY LOG
 RHOB.G/C3   45 350 01 00:   BULK DENSITY
 DPHI.DEC    45 890 12 00:   DENSITY POROSITY SANDSTONE
 CORR.G/C3   45 356 01 00:   DENSITY CORRECTION
 SPR .MV     05 010 01 00:   SPONTANEOUS POTENTIAL FROM RES.
 ILD .OHMM   05 120 46 00:   INDUCTION LOG DEEP
 SN  .OHMM   05 040 16 00:   SHORT NORMAL 16"
~PARAMETER INFORMATION
#MNEM.UNIT          VALUE    DESCRIPTION
#----------   ------------   ------------------------------
 PD  .                 GL:   PERMANENT DATUM
 EPD .F              5027:   ELEVATION PERMANENT DATUM
 LMF .                 KB:   LOG MEASURED FROM
 DAPD.F                 4:   FEET ABOVE PERMANENT DATUM
 DMF .                 KB:   DRILLING MEASURED FROM
 EKB .F              5031:   KELLING BUSHING
 EGL .F              5027:   GROUND LEVEL
 DATE.            9-15-78:   RUN DATE
 RUN .                  1:   RUN NUMBER
 DD  .F               728:   DEPTH DRILLER
 DL  .F               719:   DEPTH LOGGER
 BLI .F               713:   BOTTOM LOG INTERVAL
 TLI .F                30:   TOP LOG INTERVAL
 CS  .IN            8.625:   CASING SIZE
 CBD .F                34:   CASING BOTTOM DRILLER
 CBL .F                34:   CASING BOTTOM LOGGER
 BS  .IN            7.875:   BIT SIZE
 BSD .F               728:   BIT SIZE AT DEPTH
 DFT .            KCL MUD:   DRILLING FLUID TYPE
 DFD .                  9:   DRILLING FLUID DENSITY
 DFV .                 46:   DRILLING FLUID VISCOSITY
 DFPH.                  9:   DRILLING FLUID PH
 DFL .                7.6:   DRILLING FLUID LOSS
 MSS .          FLOW LINE:   MUD SAMPLE SOURCE
 RMS .OHMM            .34:   RESISTIVITY MUD SAMPLE
 MST .F                68:   MUD SAMPLE TEMPERATURE
 RMF .OHMM             .3:   RESISTIVITY MUD FILTRATE SAMPLE
 MFST.F                68:   MUD FILTRATE SAMPLE TEMPERATURE
 RMC .OHMM            .38:   RESISTIVITY MUD CAKE
 MCST.F                70:   MUD CAKE SAMPLE TEMPERATURE
 MFSS.               MEAS:   MUD FILTRATE SAMPLE SOURCE
 MCSS.               MEAS:   MUD CAKE SAMPLE SOURCE
 RMB .OHMM            .32:   RESISTIVITY MUD AT BHT
 BHT .F                72:   BOTTOM HOLE TEMPERATURE
 TCS .HRS               2:   TIME CURCULATED STOPPED
 MRT .F                72:   MAXIMUM RECORDED TEMPERATURE
 LUN .               2958:   LOGGING UNIT NUMBER
 LUL .               CASP:   LOGGING UNIT LOCATION
 ENGI.           REYNOLDS:   RECORDING ENGINEER
 WITN.           DINSMORE:   WITNESSED BY
 CLNT.            A2DTECH:   CLIENT CODE
 ORIG.           5" PRINT:   ORIGIN OF DATA
 UWI .       490251069400:   UNIQUE WELL ID
 DICO. A2D Technologies, Inc.:   DIGITIZING COMPANY
~OTHER INFORMATION
~A   DEPT     CALD        GRD       RHOB       DPHI       CORR        SPR        ILD         SN   
# ...
  506.5000     8.0440   128.3276     2.5212     0.0979     0.0282   -41.9367     5.9111     6.8128
  507.0000     8.0413   127.2235     2.5185     0.0980     0.0340   -41.6418     5.8959     6.8254
  507.5000     8.0386   127.0556     2.5141     0.1067     0.0421   -41.3470     5.8807     6.8382
  508.0000     8.0360   126.7827     2.5042     0.1132     0.0502   -41.0828     5.8548     6.8512
  508.5000     8.0333   126.0411     2.4902     0.1203     0.0522   -41.0187     5.7741     6.8637
  509.0000     8.0305   125.2997     2.4763     0.1273     0.0426   -40.9502     5.6694     6.7577
  509.5000     8.0204   124.5618     2.4693     0.1308     0.0334   -40.8809     5.4489     6.6498
  510.0000     8.0271   123.8597     2.4724     0.1282     0.0292   -40.8116     5.4008     6.5436
  510.5000     8.1198   123.2157     2.4761     0.1256     0.0307   -40.7432     5.4008     6.4391
  511.0000     8.2132   123.2518     2.4819     0.1248     0.0318   -40.7146     5.4008     6.3758
  511.5000     8.1811   123.3889     2.4987     0.1177     0.0331   -40.7558     5.4008     6.5102
  512.0000     8.0892   126.4287     2.5154     0.1070     0.0343   -40.7958     5.4008     6.6847
  512.5000     8.0998   128.7743     2.5244     0.0980     0.0353   -40.8360     5.4008     6.8638
  513.0000     8.1084   128.3658     2.5266     0.0975     0.0305   -40.8759     5.4665     6.8286
  513.5000     8.1166   127.5248     2.5257     0.0950     0.0254   -40.9050     5.8017     6.8008
  514.0000     8.1238   126.6617     2.5259     0.0931     0.0205   -40.9310     6.1574     7.0470
  514.5000     8.0935   125.8034     2.5312     0.1030     0.0194   -40.9568     6.5349     7.2542
  515.0000     8.0976   125.2078     2.5247     0.1100     0.0242   -40.9826     6.9274     7.2886
  515.5000     8.1074   124.9988     2.5122     0.1074     0.0289   -41.0083     6.9915     7.3309
  516.0000     8.0673   124.7885     2.5099     0.1041     0.0334   -41.0342     6.6703     7.3892
  516.5000     8.0002   124.5974     2.5076     0.1077     0.0323   -41.0598     6.2018     7.3477
  517.0000     7.9976   125.5060     2.4986     0.1163     0.0249   -41.0845     6.3173     7.2821
  517.5000     8.0066   127.3386     2.4889     0.1216     0.0176   -41.0456     5.7080     7.2172
  518.0000     8.0159   127.1303     2.4876     0.1191     0.0141   -40.9203     5.7052     7.1528
  518.5000     8.0247   126.9602     2.5008     0.1120     0.0170   -40.8193     5.7065     7.0890
  519.0000     8.0172   126.7962     2.5110     0.1050     0.0199   -40.7236     5.8333     7.0256
  519.5000     7.9883   126.6202     2.5187     0.0979     0.0215   -40.6280     5.9075     6.9912
  520.0000     7.9597   126.0753     2.5265     0.0912     0.0214   -40.5311     5.9683     6.9915
  520.5000     7.9310   124.1143     2.5268     0.0912     0.0258   -40.5111     6.0275     6.9915
  521.0000     7.9022   123.6939     2.5236     0.0926     0.0308   -40.5263     6.0922     7.3670
  521.5000     7.8737   124.0873     2.5235     0.0940     0.0359   -40.5424     6.7186     7.7383
  522.0000     7.8611   124.4869     2.5361     0.0910     0.0369   -40.5583     7.3727     8.1284
  522.5000     7.8513   124.6019     2.5485     0.0881     0.0361   -40.5743     7.6258     8.3455
  523.0000     7.8768   124.3923     2.5484     0.0868     0.0367   -40.5902     7.8217     8.5404
  523.5000     7.9028   124.1856     2.5413     0.0909     0.0421   -40.6062     8.0297     8.7042
  524.0000     7.8923   123.9775     2.5338     0.0950     0.0474   -40.6221     8.0068     8.8280
  524.5000     7.8678   123.7693     2.5260     0.0992     0.0526   -40.6380     7.9821     8.9677
  525.0000     7.8523   123.5536     2.5213     0.1008     0.0577   -40.6539     7.9573     8.9534
  525.5000     7.8628   123.5599     2.5318     0.0970     0.0608   -40.6697     7.9327     8.9375
  526.0000     7.8652   123.7598     2.5453     0.0915     0.0581   -40.6855     7.9083     8.9217
  526.5000     7.8495   123.8490     2.5600     0.0838     0.0555   -40.7156     7.8822     8.9058
  527.0000     7.8499   123.3765     2.5733     0.0737     0.0530   -40.8488     7.8652     8.8899
  527.5000     7.8508   122.9079     2.5672     0.0743     0.0504   -40.9830     7.8470     8.8402
  528.0000     7.8533   122.6641     2.5561     0.0821     0.0479   -41.0998     7.8289     8.7774
  528.5000     7.8558   124.0430     2.5446     0.0878     0.0453   -41.0675     7.8095     8.7152
  529.0000     7.8583   123.4793     2.5428     0.0916     0.0427   -41.0373     7.8249     8.6533
  529.5000     7.8608   122.6088     2.5453     0.0900     0.0402   -41.0078     7.8413     8.5919
  530.0000     7.8633   121.7386     2.5478     0.0870     0.0376   -40.9782     7.8578     8.5437
  530.5000     7.8658   121.6940     2.5500     0.0844     0.0374   -40.9486     7.8743     8.5068
  531.0000     7.8685   121.7006     2.5470     0.0852     0.0374   -40.9197     7.9389     8.4699
  531.5000     7.8776   121.6933     2.5432     0.0874     0.0376   -40.9149     8.0446     8.4333
  532.0000     7.9003   121.3513     2.5382     0.0938     0.0457   -40.9603     8.1804     8.3967
  532.5000     7.9039   120.9564     2.5283     0.1098     0.0545   -41.0049     8.1809     8.3604
  533.0000     7.8935   121.7788     2.5151     0.1255     0.0632   -41.0495     8.1055     8.4072
  533.5000     7.8830   122.9265     2.4873     0.1450     0.0646   -41.0941     7.0461     8.3538
  534.0000     7.8714   124.0829     2.4395     0.1644     0.0586   -41.1388     6.2018     8.2572
  534.5000     7.8695   125.2374     2.4083     0.1739     0.0526   -41.1839     6.2122     8.1308
  535.0000     7.8771   126.3810     2.4296     0.1726     0.0501   -41.2286     6.2292     7.7404
  535.5000     8.5323   127.1018     2.4780     0.1233     0.0483   -41.2679     6.2453     7.2976
  536.0000     8.1972   126.5864     2.5268     0.1037     0.0465   -41.0072     6.2504     7.1217
  536.5000     7.8287   125.2233     2.5667     0.0833     0.0462   -40.2255     7.0122     7.2676
  537.0000     7.7807   123.8708     2.5633     0.0744     0.0481   -39.4520     7.1397     7.4569
  537.5000     7.7824   122.5129     2.5609     0.0734     0.0499   -38.6771     7.2790     7.6511
  538.0000     7.8152   121.1522     2.5649     0.0724     0.0513   -37.9021     7.5396     8.0078
  538.5000     7.8476   121.1535     2.5691     0.0749     0.0505   -37.1277     8.3257     9.0646
  539.0000     7.8801   122.2006     2.5647     0.0796     0.0497   -36.3579     9.1938     9.8532
  539.5000     7.9125   110.2515     2.5578     0.0843     0.0489   -35.9094     9.8906    10.1355
  540.0000     7.9448   104.5696     2.5509     0.0873     0.0481   -35.9497    10.2062    10.3600
  540.5000     7.9729   102.3673     2.5433     0.0899     0.0475   -35.9832    10.1799    10.5081
  541.0000     7.9836    98.8840     2.5361     0.0928     0.0490   -36.0187    10.1245    10.6586
  541.5000     7.9799    99.0496     2.5292     0.0965     0.0505   -36.0512    10.0695    10.8112
  542.0000     7.9276    99.7202     2.5203     0.1022     0.0520   -36.0989    10.0168    10.9672
  542.5000     7.9220   100.2304     2.5124     0.1079     0.0535   -35.3488    10.2788    11.1564
  543.0000     7.9398    99.7152     2.5044     0.1136     0.0550   -34.1972    10.9139    11.4663
  543.5000     7.9500    99.1637     2.4915     0.1185     0.0564   -33.0339    11.7784    11.7828
  544.0000     7.9500    98.5691     2.4864     0.1229     0.0579   -31.8843    12.7114    12.1080
  544.5000     7.9501    94.8849     2.4817     0.1298     0.0595   -30.9327    13.6369    12.5183
  545.0000     7.9494    88.0227     2.4452     0.1371     0.0609   -30.0666    14.3776    12.9561
  545.5000     7.9924    81.6787     2.4044     0.1559     0.0639   -28.3018    14.8738    13.4093
  546.0000     8.0491    79.1888     2.3635     0.1681     0.0677   -26.4443    15.3400    13.8784
  546.5000     8.0503    79.1246     2.3501     0.1687     0.0782   -24.5807    15.8229    14.3638
