~VERSION INFORMATION
 VERS.                2.0:   CWLS LOG ASCII STANDARD - VERSION 2.0
 WRAP.                 NO:   ONE LINE PER DEPTH STEP
~WELL INFORMATION
#MNEM.UNIT      DATA TYPE    INFORMATION
#----------   ------------   ------------------------------
 STRT.F           31.0000:   START DEPTH
 STOP.F         1450.0000:   STOP DEPTH
 STEP.F            0.5000:   STEP LENGTH
 NULL.          -999.2500:   NO VALUE
 COMP. FENIX & SCISSON INC:   COMPANY
 WELL.    NPR-3 SX #86-14:   WELL
 FLD .             TEAPOT:   FIELD
 LOC .      S14 T38N R78W:   LOCATION
 CNTY.            NATRONA:   COUNTY
 STAT.            WYOMING:   STATE
 CTRY. UNITED STATES OF AMERICA:   COUNTRY
 SRVC.            Unknown:   SERVICE COMPANY
 DATE.        05-APR-1978:   LOGDATE
 API .       490251060800:   API NUMBER
~CURVE INFORMATION
#MNEM.UNIT       API CODE    CURVE DESCRIPTION
#----------   ------------   ------------------------------
 DEPT.F                  :   
 CALD.IN     45 280 60 00:   CALIPER
 GRD .GAPI   45 310 01 00:   GAMMA RAY FROM DENSITY LOG
 RHOB.G/C3   45 350 01 00:   BULK DENSITY
 CORR.G/C3   45 356 01 00:   DENSITY CORRECTION
 DPHI.DEC    45 890 12 00:   DENSITY POROSITY SANDSTONE
 SPR .MV     05 010 01 00:   SPONTANEOUS POTENTIAL FROM RES.
 SN  .OHMM   05 040 16 00:   SHORT NORMAL 16"
 ILD .OHMM   05 120 46 00:   INDUCTION LOG DEEP
~PARAMETER INFORMATION
#MNEM.UNIT          VALUE    DESCRIPTION
#----------   ------------   ------------------------------
 PD  .                 GL:   PERMANENT DATUM
 EPD .F              5367:   ELEVATION PERMANENT DATUM
 LMF .                 KB:   LOG MEASURED FROM
 DMF .                 KB:   DRILLING MEASURED FROM
 EKB .F              5371:   KELLING BUSHING
 EGL .F              5369:   GROUND LEVEL
 DATE.           4-5-1978:   RUN DATE
 RUN .                  1:   RUN NUMBER
 DD  .F              1455:   DEPTH DRILLER
 DL  .F              1446:   DEPTH LOGGER
 BLI .F              1440:   BOTTOM LOG INTERVAL
 TLI .F               100:   TOP LOG INTERVAL
 CS  .IN            8.625:   CASING SIZE
 CBD .F                40:   CASING BOTTOM DRILLER
 BS  .IN            7.875:   BIT SIZE
 BSD .F              1455:   BIT SIZE AT DEPTH
 DFT .                KCL:   DRILLING FLUID TYPE
 DFD .                8.6:   DRILLING FLUID DENSITY
 DFV .                 31:   DRILLING FLUID VISCOSITY
 DFPH.                 10:   DRILLING FLUID PH
 DFL .                8.4:   DRILLING FLUID LOSS
 MSS .           FLOWLINE:   MUD SAMPLE SOURCE
 RMS .OHMM            .95:   RESISTIVITY MUD SAMPLE
 MST .F                54:   MUD SAMPLE TEMPERATURE
 RMF .OHMM            .95:   RESISTIVITY MUD FILTRATE SAMPLE
 MFST.F                62:   MUD FILTRATE SAMPLE TEMPERATURE
 RMC .OHMM             .8:   RESISTIVITY MUD CAKE
 MCST.F                62:   MUD CAKE SAMPLE TEMPERATURE
 MFSS.               MEAS:   MUD FILTRATE SAMPLE SOURCE
 RMB .OHMM            .66:   RESISTIVITY MUD AT BHT
 BHT .F                78:   BOTTOM HOLE TEMPERATURE
 TCS .HRS               6:   TIME CURCULATED STOPPED
 MRT .F                78:   MAXIMUM RECORDED TEMPERATURE
 LUN .               2958:   LOGGING UNIT NUMBER
 LUL .               CASP:   LOGGING UNIT LOCATION
 ENGI.             MILLER:   RECORDING ENGINEER
 WITN.           MCGINLEY:   WITNESSED BY
 CLNT.            A2DTECH:   CLIENT CODE
 ORIG.        2" 5" PRINT:   ORIGIN OF DATA
 UWI .       490251060800:   UNIQUE WELL ID
 DICO. A2D Technologies, Inc.:   DIGITIZING COMPANY
~OTHER INFORMATION
~A   DEPT     CALD         GRD      RHOB       CORR       DPHI        SPR         SN        ILD   
# ...
  436.0000     8.0600    77.3220     2.3965     0.0059     0.1527   -14.3069     7.4514     6.7375
  436.5000     8.0652    75.5219     2.3836     0.0086     0.1479   -15.7667     7.4711     6.7470
  437.0000     8.0704    73.7175     2.3977     0.0116     0.1432   -16.3358     7.4395     6.7764
  437.5000     8.0756    72.9909     2.4078     0.0145     0.1333   -16.6996     7.4148     6.8082
  438.0000     8.0809    71.3971     2.4177     0.0176     0.1199   -17.7707     7.4021     6.8406
  438.5000     8.0861    68.1623     2.4343     0.0157     0.1137   -19.2972     7.4600     6.8746
  439.0000     8.0913    68.7619     2.4515     0.0124     0.1175   -20.7688     7.4928     6.7997
  439.5000     8.0965    71.8351     2.4362     0.0088     0.1259   -21.8663     7.5222     6.7203
  440.0000     8.1017    80.4990     2.4259     0.0101     0.1315   -22.2953     7.5407     6.6606
  440.5000     8.1068    81.8989     2.4165     0.0117     0.1391   -22.4506     7.3901     6.6164
  441.0000     8.1038    80.9732     2.4113     0.0088     0.1399   -22.6093     7.2824     6.5721
  441.5000     8.0880    79.4275     2.4103     0.0060     0.1407   -22.7763     7.1545     6.5282
  442.0000     8.0724    78.7737     2.4013     0.0031     0.1443   -23.2594     6.9557     6.4592
  442.5000     8.0567    80.6782     2.3924     0.0012     0.1431   -24.1298     6.8113     6.3588
  443.0000     8.0412    82.1288     2.3967    -0.0002     0.1477   -25.0161     6.8113     6.2600
  443.5000     8.0310    82.1053     2.4007    -0.0017     0.1522   -26.1340     6.8703     6.1525
  444.0000     8.0364    82.5951     2.3860     0.0007     0.1534   -27.3948     6.9108     6.1661
  444.5000     8.0414    83.1055     2.3843     0.0058     0.1510   -27.9229     6.9385     6.1814
  445.0000     8.0464    82.4082     2.3877     0.0075     0.1530   -28.8014     6.7896     6.1967
  445.5000     8.0513    81.6983     2.3828     0.0056     0.1557   -29.8439     6.6789     6.2097
  446.0000     8.0563    80.2060     2.3755     0.0044     0.1579   -31.5056     6.5700     6.1400
  446.5000     8.0613    78.6500     2.3825     0.0159     0.1498   -32.3983     6.5035     6.0802
  447.0000     8.0662    77.6864     2.3949     0.0187     0.1415   -33.1191     6.4767     6.0209
  447.5000     8.0712    77.7204     2.4072     0.0196     0.1370   -33.2349     6.4430     5.9622
  448.0000     8.0762    78.8403     2.4171     0.0171     0.1383   -33.2352     6.4095     5.9169
  448.5000     8.0812    81.5309     2.4116     0.0103     0.1410   -33.2312     6.3842     5.8885
  449.0000     8.0861    83.6561     2.4058     0.0105     0.1437   -33.2146     6.3843     5.8602
  449.5000     8.0911    83.7527     2.4001     0.0121     0.1464   -33.7847     6.3844     5.8321
  450.0000     8.0961    83.0584     2.3926     0.0116     0.1491   -34.5312     6.3844     5.8041
  450.5000     8.1011    83.2325     2.3845     0.0064     0.1518   -35.7420     6.4550     5.7762
  451.0000     8.1060    81.8293     2.3771     0.0117     0.1530   -36.9410     6.5343     5.7485
  451.5000     8.1110    79.7997     2.3840     0.0210     0.1527   -37.8696     6.6145     5.7209
  452.0000     8.1160    79.6603     2.3967     0.0199     0.1525   -38.7061     6.6957     5.7138
  452.5000     8.1211    78.3149     2.3971     0.0182     0.1523   -39.1192     6.7681     5.8009
  453.0000     8.1260    77.3045     2.3884     0.0199     0.1539   -39.5455     6.8247     5.8947
  453.5000     8.1216    78.0360     2.3820     0.0231     0.1555   -40.0776     6.8809     5.9899
  454.0000     8.0701    78.7982     2.3850     0.0180     0.1557   -41.3105     6.9386     6.0866
  454.5000     8.0298    79.5763     2.4038     0.0079     0.1555   -42.5490     7.0785     6.1848
  455.0000     8.0552    79.6694     2.3802     0.0068     0.1488   -43.2354     7.2218     6.2846
  455.5000     8.0808    78.7582     2.4104     0.0085     0.1406   -43.8698     7.3681     6.3860
  456.0000     8.1064    77.7960     2.4104     0.0045     0.1385   -44.1725     7.5411     6.5035
  456.5000     8.1083    77.6282     2.4115     0.0071     0.1395   -44.0799     7.5058     6.5491
  457.0000     8.1062    80.5040     2.4110     0.0066     0.1379   -44.1694     7.4509     6.5930
  457.5000     8.1040    83.4066     2.4052     0.0034     0.1356   -44.8916     7.4025     6.6338
  458.0000     8.1019    84.2331     2.4002     0.0003     0.1333   -45.5875     7.5644     6.6660
  458.5000     8.0998    81.1784     2.4011    -0.0015     0.1371   -46.2267     7.7176     6.6984
  459.0000     8.0977    79.6616     2.4076     0.0017     0.1363   -46.2103     7.8266     6.7309
  459.5000     8.0955    80.6196     2.4103     0.0048     0.1351   -46.2077     7.8242     6.7635
  460.0000     8.0934    81.7279     2.4147     0.0053     0.1318   -46.2068     7.8250     6.7963
  460.5000     8.0915    81.7052     2.4194     0.0032     0.1310   -46.3393     7.8350     6.8113
  461.0000     8.0979    81.7132     2.4185     0.0010     0.1274   -46.5793     7.9028     6.8113
  461.5000     8.1206    81.7009     2.4280    -0.0012     0.1260   -46.8198     7.9712     6.8113
  462.0000     8.1431    80.3932     2.4300    -0.0034     0.1230   -47.0587     8.0402     6.9334
  462.5000     8.1662    74.7751     2.4268    -0.0057     0.1208   -47.2073     8.1098     7.0607
  463.0000     8.1568    68.8843     2.4406    -0.0079     0.1230   -47.2054     8.1800     7.1904
  463.5000     8.1352    66.0925     2.4256    -0.0092     0.1250   -47.2056     8.2508     7.2693
  464.0000     8.1132    69.5516     2.4106     0.0033     0.1239   -47.2026     8.3223     7.1416
  464.5000     8.1136    77.2285     2.4311     0.0121     0.1226   -47.1908     8.3481     6.9428
  465.0000     8.1180    83.6250     2.4107     0.0098     0.1287   -47.7078     8.0217     6.7499
  465.5000     8.1225    86.2025     2.4144     0.0076     0.1306   -48.7709     7.8029     6.5021
  466.0000     8.1269    87.0890     2.4277     0.0060     0.1261   -50.4007     7.5901     6.2339
  466.5000     8.1281    85.3305     2.4330     0.0081     0.1201   -51.0428     7.4025     6.1516
  467.0000     8.1199    78.7772     2.4357     0.0082     0.1137   -51.4207     7.3083     6.2025
  467.5000     8.1122    72.3813     2.4490     0.0069     0.1066   -51.4646     7.2668     6.2760
  468.0000     8.1044    71.6983     2.4518    -0.0007     0.1144   -51.5178     7.4316     6.3767
  468.5000     8.0966    76.8083     2.4288    -0.0001     0.1243   -51.5698     7.7578     6.5349
  469.0000     8.0888    79.3826     2.4282    -0.0007     0.1342   -51.6221     8.0985     6.6970
  469.5000     8.0810    79.5572     2.4214    -0.0012     0.1418   -51.6743     8.4543     6.8631
  470.0000     8.0731    79.1222     2.4071    -0.0018     0.1440   -51.7265     8.8237     7.0754
  470.5000     8.0755    78.7202     2.3985    -0.0005     0.1428   -51.7788     8.9891     7.5025
  471.0000     8.0846    79.1983     2.3958     0.0012     0.1427   -51.8310     8.6084     7.9543
  471.5000     8.0938    80.0770     2.4044     0.0028     0.1399   -51.8830     8.3481     8.0450
  472.0000     8.1030    82.6082     2.4035     0.0044     0.1473   -51.9321     8.3481     7.7566
  472.5000     8.1091    82.8620     2.3981     0.0060     0.1527   -51.9614     8.3481     7.5267
  473.0000     8.1039    83.1547     2.3858     0.0076     0.1535   -52.9504     8.1636     7.3343
  473.5000     8.0990    83.2394     2.3814     0.0093     0.1483   -54.0868     7.8797     7.2668
  474.0000     8.0940    81.8474     2.3895     0.0109     0.1427   -55.2342     7.6080     7.2410
  474.5000     8.0891    80.5270     2.4082     0.0122     0.1391   -55.8530     7.4502     7.2169
  475.0000     8.0841    77.7500     2.4036     0.0114     0.1395   -56.2403     7.4068     7.1644
  475.5000     8.0792    75.9919     2.4014     0.0100     0.1421   -56.6843     7.3636     7.0456
  476.0000     8.0743    77.4504     2.4076     0.0087     0.1452   -57.6111     7.3006     6.9288
