~VERSION INFORMATION
 VERS.                2.0:   CWLS LOG ASCII STANDARD - VERSION 2.0
 WRAP.                 NO:   ONE LINE PER DEPTH STEP
~WELL INFORMATION
#MNEM.UNIT      DATA TYPE    INFORMATION
#----------   ------------   ------------------------------
 STRT.F           12.0000:   START DEPTH
 STOP.F          660.0000:   STOP DEPTH
 STEP.F            0.5000:   STEP LENGTH
 NULL.          -999.2500:   NO VALUE
 COMP. LAWRENCE/ALLISON INC:   COMPANY
 WELL.    24-11 SX #11-11:   WELL
 FLD .             TEAPOT:   FIELD
 LOC .      S11 T38N R78W:   LOCATION
 CNTY.            NATRONA:   COUNTY
 STAT.            WYOMING:   STATE
 CTRY. UNITED STATES OF AMERICA:   COUNTRY
 SRVC.           Gearhart:   SERVICE COMPANY
 DATE.        21-JUN-1986:   LOGDATE
 API .       490251109900:   API NUMBER
~CURVE INFORMATION
#MNEM.UNIT       API CODE    CURVE DESCRIPTION
#----------   ------------   ------------------------------
 DEPT.F                  :   
 GRR .GAPI   07 310 01 00:   GAMMA RAY FROM RES. LOG.
 ILM .OHMM   07 120 44 00:   INDUCTION LOG MEDIUM
 ILD .OHMM   07 120 46 00:   INDUCTION LOG DEEP
~PARAMETER INFORMATION
#MNEM.UNIT          VALUE    DESCRIPTION
#----------   ------------   ------------------------------
 PD  .                 GL:   PERMANENT DATUM
 EPD .F              5157:   ELEVATION PERMANENT DATUM
 LMF .                 KB:   LOG MEASURED FROM
 DAPD.F                 5:   FEET ABOVE PERMANENT DATUM
 DMF .                 KB:   DRILLING MEASURED FROM
 EKB .F              5162:   KELLING BUSHING
 EGL .F              5157:   GROUND LEVEL
 DATE.            6-21-86:   RUN DATE
 RUN .                  1:   RUN NUMBER
 DD  .F               665:   DEPTH DRILLER
 DL  .F               667:   DEPTH LOGGER
 BLI .F               658:   BOTTOM LOG INTERVAL
 CS  .IN            8.625:   CASING SIZE
 CBD .F                47:   CASING BOTTOM DRILLER
 CBL .F                48:   CASING BOTTOM LOGGER
 BS  .IN            7.875:   BIT SIZE
 BSD .F               665:   BIT SIZE AT DEPTH
 DFT .                AIR:   DRILLING FLUID TYPE
 TCS .HRS            1130:   TIME CURCULATED STOPPED
 TLAB.HRS            1315:   TIME LOGGER AT BOTTOM
 MRT .F                67:   MAXIMUM RECORDED TEMPERATURE
 LUN .               7609:   LOGGING UNIT NUMBER
 LUL .           GILLETTE:   LOGGING UNIT LOCATION
 ENGI.            WANGLER:   RECORDING ENGINEER
 WITN.           JENNINGS:   WITNESSED BY
 CLNT.            A2DTECH:   CLIENT CODE
 ORIG.       2", 5" PRINT:   ORIGIN OF DATA
 UWI .       490251109900:   UNIQUE WELL ID
 DICO. A2D Technologies, Inc.:   DIGITIZING COMPANY
~OTHER INFORMATION
~A   DEPT       GRR       ILM        ILD   
   12.0000    76.7821  -999.2500  -999.2500
   12.5000    76.7821  -999.2500  -999.2500
   13.0000    76.7821  -999.2500  -999.2500
   13.5000    76.5732  -999.2500  -999.2500
   14.0000    74.7716  -999.2500  -999.2500
   14.5000    75.1976  -999.2500  -999.2500
   15.0000    77.9716  -999.2500  -999.2500
   15.5000    80.7389  -999.2500  -999.2500
   16.0000    80.8576  -999.2500  -999.2500
   16.5000    79.6469  -999.2500  -999.2500
   17.0000    78.3408  -999.2500  -999.2500
   17.5000    77.0473  -999.2500  -999.2500
   18.0000    76.0258  -999.2500  -999.2500
   18.5000    76.6413  -999.2500  -999.2500
   19.0000    77.2322  -999.2500  -999.2500
   19.5000    77.8202  -999.2500  -999.2500
   20.0000    78.3967  -999.2500  -999.2500
   20.5000    78.5957  -999.2500  -999.2500
   21.0000    78.7635  -999.2500  -999.2500
   21.5000    79.5265  -999.2500  -999.2500
   22.0000    80.5341  -999.2500  -999.2500
   22.5000    83.9011  -999.2500  -999.2500
   23.0000    85.6804  -999.2500  -999.2500
   23.5000    84.3677  -999.2500  -999.2500
   24.0000    80.9970  -999.2500  -999.2500
   24.5000    80.0436  -999.2500  -999.2500
   25.0000    80.7702  -999.2500  -999.2500
   25.5000    79.8594  -999.2500  -999.2500
   26.0000    78.3238  -999.2500  -999.2500
   26.5000    76.7639  -999.2500  -999.2500
   27.0000    77.8335  -999.2500  -999.2500
   27.5000    80.1747  -999.2500  -999.2500
   28.0000    79.5708  -999.2500  -999.2500
   28.5000    78.5474  -999.2500  -999.2500
   29.0000    77.5165  -999.2500  -999.2500
   29.5000    76.4903  -999.2500  -999.2500
   30.0000    75.9676  -999.2500  -999.2500
   30.5000    76.1824  -999.2500  -999.2500
   31.0000    77.0859  -999.2500  -999.2500
   31.5000    77.9500  -999.2500  -999.2500
   32.0000    76.3303  -999.2500  -999.2500
   32.5000    74.3947  -999.2500  -999.2500
   33.0000    73.3144  -999.2500  -999.2500
   33.5000    73.0108  -999.2500  -999.2500
   34.0000    74.7558  -999.2500  -999.2500
   34.5000    77.1023  -999.2500  -999.2500
   35.0000    79.5173  -999.2500  -999.2500
   35.5000    80.1908  -999.2500  -999.2500
   36.0000    80.4040  -999.2500  -999.2500
   36.5000    80.6029  -999.2500  -999.2500
   37.0000    80.8054  -999.2500  -999.2500
   37.5000    81.1850  -999.2500  -999.2500
   38.0000    81.6189  -999.2500  -999.2500
   38.5000    82.0510  -999.2500  -999.2500
   39.0000    82.4695  -999.2500  -999.2500
   39.5000    80.3390  -999.2500  -999.2500
   40.0000    75.8253  -999.2500  -999.2500
   40.5000    72.7931  -999.2500  -999.2500
   41.0000    76.6552  -999.2500  -999.2500
   41.5000    81.0665  -999.2500  -999.2500
   42.0000    83.5119  -999.2500  -999.2500
   42.5000    82.9323  -999.2500  -999.2500
   43.0000    82.3767  -999.2500  -999.2500
   43.5000    81.1137  -999.2500  -999.2500
   44.0000    78.8853  -999.2500  -999.2500
   44.5000    77.7616  -999.2500  -999.2500
   45.0000    80.7902  -999.2500  -999.2500
   45.5000    83.7130  -999.2500  -999.2500
   46.0000    83.9920  -999.2500  -999.2500
   46.5000    83.8236  -999.2500  -999.2500
   47.0000    83.7815  -999.2500  1984.5757
   47.5000    86.4037  1995.5031  1967.8938
   48.0000    92.9781  1277.2036    87.2091
   48.5000    99.4232   609.5247    23.3311
   49.0000   105.6692   628.0353     9.2774
   49.5000   109.9872   500.8091     6.3333
   50.0000   112.1972    62.5557     5.1195
   50.5000   114.3611    13.1841     4.2354
   51.0000   116.1083     7.1429     4.2354
   51.5000   116.6390     5.6016     4.3604
   52.0000   113.8044     5.2142     5.1337
   52.5000   110.5475     5.0616     6.3417
   53.0000   109.8466     5.5626     7.5760
   53.5000   111.3323     5.9899     7.5242
   54.0000   111.1031     6.4594     7.1510
   54.5000   109.6478     6.6438     6.5735
   55.0000   108.4585     6.5407     6.4292
   55.5000   110.8528     6.4383     6.3991
   56.0000   113.1737     6.3374     6.4702
   56.5000   114.0307     6.2382     6.5420
   57.0000   112.2383     6.2216     6.5814
   57.5000   110.9480     6.2216     6.4932
   58.0000   112.8280     6.1511     6.4317
   58.5000   115.0853     6.1366     6.3710
   59.0000   115.4304     6.1221     6.3108
   59.5000   112.7945     6.1052     6.2514
   60.0000   111.0869     6.1357     6.1635
   60.5000   109.8780     6.1798     6.2138
   61.0000   108.3925     6.2238     6.3144
   61.5000   105.6766     6.2684     6.4169
   62.0000   103.5349     6.3573     6.5210
   62.5000   106.6439     6.4647     6.6267
   63.0000   110.1864     6.5738     6.7342
   63.5000   113.7424     6.6846     6.8434
   64.0000   117.3065     6.7973     6.9544
   64.5000   118.9269     6.9119     7.0672
   65.0000   114.0459     7.0284     7.1818
   65.5000   109.2002     7.1469     7.2971
   66.0000   106.2895     7.2673     7.4220
   66.5000   105.4799     7.3898     7.5478
   67.0000   105.0145     7.4912     7.6757
   67.5000   103.6103     7.5805     7.8058
   68.0000   102.0703     7.6708     7.9381
   68.5000   102.7904     7.7621     8.0901
   69.0000   103.5127     7.8546     8.0389
   69.5000   103.3827     7.9482     7.9805
   70.0000   103.0058     8.0146     7.9398
   70.5000   102.6095     7.9976     7.7863
   71.0000   103.4958     7.9846     7.6492
   71.5000   105.3920     7.9715     7.5053
   72.0000   107.3461     7.9585     7.4999
   72.5000   107.7825     7.9456     7.4837
   73.0000   108.0718     7.8938     7.4676
   73.5000   109.0328     7.8110     7.4517
   74.0000   110.1724     7.7291     7.4358
   74.5000   111.3125     7.6474     7.4188
   75.0000   112.1398     7.5924     7.3977
   75.5000   111.3220     7.5372     7.3767
   76.0000   107.9931     7.4919     7.3558
   76.5000   104.5136     7.4596     7.3349
   77.0000   104.5665     7.4276     7.3141
   77.5000   106.5924     7.3957     7.2933
   78.0000   108.0766     7.3639     7.2726
   78.5000   107.0999     7.3323     7.2520
   79.0000   106.4619     7.3008     7.2314
   79.5000   108.4844     7.2694     7.2289
   80.0000   109.1505     7.2381     7.2971
   80.5000   107.7594     7.2068     7.2522
   81.0000   106.6180     7.1615     7.2290
   81.5000   108.4478     7.2156     7.2872
   82.0000   111.0508     7.3199     7.3397
   82.5000   114.3491     7.4257     7.3926
   83.0000   116.4989     7.5331     7.4458
   83.5000   117.8794     7.6420     7.4994
   84.0000   118.9666     7.7525     7.5535
   84.5000   120.1006     7.8655     7.6060
   85.0000   120.5705     7.8178     7.6577
   85.5000   120.3968     7.7958     7.7191
   86.0000   118.4732     7.7681     7.6493
   86.5000   115.0631     7.6739     7.5643
   87.0000   113.4772     7.5802     7.4798
   87.5000   113.8081     7.4877     7.3963
   88.0000   112.7695     7.3963     7.3138
   88.5000   111.7982     7.3294     7.2322
   89.0000   112.4807     7.2748     7.1514
   89.5000   114.3628     7.2206     7.0942
   90.0000   115.7684     7.1615     7.0484
   90.5000   114.6349     7.1450     6.9975
   91.0000   111.9818     7.1267     6.9467
   91.5000   109.2239     7.1085     6.8963
   92.0000   107.6259     7.0903     6.8462
   92.5000   106.9811     7.0722     6.7438
   93.0000   107.6851     7.0541     6.6251
   93.5000   109.5638     7.0362     6.4594
   94.0000   111.5665     7.0284     6.5319
   94.5000   117.1298     7.0051     6.6601
   95.0000   120.8109     6.9815     6.7908
   95.5000   122.6030     6.9579     6.9240
   96.0000   120.5882     6.9344     7.0599
   96.5000   115.4155     6.9111     7.1985
   97.0000   111.7706     6.8966     7.3399
   97.5000   109.9088     7.0253     7.4833
   98.0000   107.6037     7.1300     7.5949
   98.5000   104.7266     7.2308     7.7014
   99.0000   101.8668     7.5031     7.8094
   99.5000    99.0082     7.9188     7.8657
  100.0000    98.2743     8.6926     7.7942
  100.5000   100.0615     9.5325     7.7391
  101.0000   103.9499    10.4536     7.6844
  101.5000   105.6991    11.5542     7.6301
  102.0000   106.8470    11.6631     7.5761
  102.5000   107.9743    11.3693     7.5226
