~VERSION INFORMATION
 VERS.                2.0:   CWLS LOG ASCII STANDARD - VERSION 2.0
 WRAP.                 NO:   ONE LINE PER DEPTH STEP
~WELL INFORMATION
#MNEM.UNIT      DATA TYPE    INFORMATION
#----------   ------------   ------------------------------
 STRT.F         1420.0000:   START DEPTH
 STOP.F         1656.0000:   STOP DEPTH
 STEP.F            0.5000:   STEP LENGTH
 NULL.          -999.2500:   NO VALUE
 COMP. FENIX & SCISSON INC:   COMPANY
 WELL.         N/A #204-3:   WELL
 FLD .             TEAPOT:   FIELD
 LOC .       S3 T38N R78W:   LOCATION
 CNTY.            NATRONA:   COUNTY
 STAT.            WYOMING:   STATE
 CTRY. UNITED STATES OF AMERICA:   COUNTRY
 SRVC.            Unknown:   SERVICE COMPANY
 DATE.        11-JAN-1993:   LOGDATE
 API .       490251073600:   API NUMBER
~CURVE INFORMATION
#MNEM.UNIT       API CODE    CURVE DESCRIPTION
#----------   ------------   ------------------------------
 DEPT.F                  :   
 ROP .MIN/FT 91 810 01 00:   RATE OF DRILLING PENETRATION
 TGAS.UNITS  91 830 01 00:   TOTAL GAS FROM HOTWIRE
~PARAMETER INFORMATION
#MNEM.UNIT          VALUE    DESCRIPTION
#----------   ------------   ------------------------------
 EKB .F              5180:   KELLING BUSHING
 EGL .F              5170:   GROUND LEVEL
 DATE.            1-11-93:   RUN DATE
 BLI .F              1620:   BOTTOM LOG INTERVAL
 TLI .F              1420:   TOP LOG INTERVAL
 CS  .IN             15.5:   CASING SIZE
 ENGI.            R. HUSK:   RECORDING ENGINEER
 WITN.           C. TOWER:   WITNESSED BY
 CLNT.            A2DTECH:   CLIENT CODE
 ORIG.           5" PRINT:   ORIGIN OF DATA
 UWI .       490251073600:   UNIQUE WELL ID
 DICO. A2D Technologies, Inc.:   DIGITIZING COMPANY
~OTHER INFORMATION
~A  DEPT         ROP      TGAS  
 1420.0000     0.9959    87.9239
 1420.5000     0.9197    87.8947
 1421.0000     0.8519    87.8654
 1421.5000     0.8788    87.8362
 1422.0000     0.9834    87.8069
 1422.5000     1.1349    87.7776
 1423.0000     1.2620    87.7484
 1423.5000     1.2825    87.7191
 1424.0000     1.2823    87.6899
 1424.5000     1.2822    87.6606
 1425.0000     1.2821    87.6314
 1425.5000     1.2819    87.6021
 1426.0000     1.3040    87.5729
 1426.5000     1.3285    87.5436
 1427.0000     1.3725    87.5144
 1427.5000     1.4046    87.4851
 1428.0000     1.3680    87.4559
 1428.5000     1.2858    87.4266
 1429.0000     1.2336    87.3974
 1429.5000     1.1885    87.3681
 1430.0000     1.1781    87.3389
 1430.5000     1.1780    87.3096
 1431.0000     1.1873    87.2804
 1431.5000     1.2195    87.2511
 1432.0000     1.2290    87.2219
 1432.5000     1.1949    87.1926
 1433.0000     1.1657    87.1634
 1433.5000     1.1402    87.1341
 1434.0000     1.1155    87.1049
 1434.5000     1.1051    87.0756
 1435.0000     1.1183    87.0464
 1435.5000     1.1363    87.0171
 1436.0000     1.1560    86.9879
 1436.5000     1.1559    86.9586
 1437.0000     1.1581    86.9294
 1437.5000     1.1798    86.8966
 1438.0000     1.2944    82.7586
 1438.5000     1.7714    72.4138
 1439.0000     2.3084    66.2069
 1439.5000     2.9098    57.9310
 1440.0000     3.8306    49.6552
 1440.5000     4.3992    42.4138
 1441.0000     4.5919    38.2759
 1441.5000     4.7411    37.2414
 1442.0000     4.7833    36.2069
 1442.5000     4.7068    36.2069
 1443.0000     4.6040    36.2069
 1443.5000     4.6081    36.2069
 1444.0000     4.6649    36.2069
 1444.5000     4.7784    35.1724
 1445.0000     4.8601    34.1379
 1445.5000     4.8430    33.1034
 1446.0000     4.5654    32.0690
 1446.5000     3.8484    31.0345
 1447.0000     3.2887    30.0000
 1447.5000     2.7490    28.9655
 1448.0000     2.0047    27.9310
 1448.5000     1.7825    26.8966
 1449.0000     1.5829    25.8621
 1449.5000     1.3579    25.8621
 1450.0000     1.1915    24.8276
 1450.5000     1.0789    25.8856
 1451.0000     1.0157    25.9058
 1451.5000     0.9878    25.9260
 1452.0000     0.9877    25.9462
 1452.5000     0.9947    25.9664
 1453.0000     1.0139    27.0210
 1453.5000     1.0591    28.0759
 1454.0000     1.1547    29.1310
 1454.5000     1.2418    32.2590
 1455.0000     1.2693    34.3482
 1455.5000     1.2593    37.4718
 1456.0000     1.2536    34.3886
 1456.5000     1.2838    28.2018
 1457.0000     1.3511    24.0841
 1457.5000     1.4000    24.1043
 1458.0000     1.3455    23.0897
 1458.5000     1.2165    23.1119
 1459.0000     1.1567    22.0959
 1459.5000     1.1119    22.1211
 1460.0000     1.0883    22.1413
 1460.5000     1.0673    22.1615
 1461.0000     1.0519    22.1817
 1461.5000     1.0265    22.2019
 1462.0000     1.0085    23.2565
 1462.5000     1.0055    24.3112
 1463.0000     1.0054    24.3314
 1463.5000     1.0053    24.3517
 1464.0000     1.0051    24.3724
 1464.5000     1.0050    24.3970
 1465.0000     1.0049    23.3776
 1465.5000     1.0093    24.4373
 1466.0000     1.0092    25.4920
 1466.5000     1.0091    25.5122
 1467.0000     1.0194    26.5669
 1467.5000     1.0193    26.5870
 1468.0000     1.0192    26.6072
 1468.5000     1.0191    25.5929
 1469.0000     1.0190    22.3717
 1469.5000     1.0189    18.3970
 1470.0000     1.0188    14.2792
 1470.5000     1.0187    12.2254
 1471.0000     1.0186    11.2111
 1471.5000     1.0289    10.1968
 1472.0000     1.0288    10.2220
 1472.5000     1.0287    10.2422
 1473.0000     1.0286    10.2624
 1473.5000     1.0285    11.3172
 1474.0000     1.0284    11.3379
 1474.5000     1.0283    12.3970
 1475.0000     1.0177    12.4172
 1475.5000     1.0176    12.4373
 1476.0000     1.0175    13.4920
 1476.5000     1.0070    13.5122
 1477.0000     1.0069    13.5324
 1477.5000     1.0068    13.5526
 1478.0000     1.0067    14.6072
 1478.5000     1.0066    14.6276
 1479.0000     0.9960    13.6131
 1479.5000     1.0168    12.5988
 1480.0000     1.0912    11.5845
 1480.5000     1.2449    10.5702
 1481.0000     1.5488    10.5955
 1481.5000     1.8201    10.6156
 1482.0000     1.9766    10.6358
 1482.5000     1.9556    10.6560
 1483.0000     1.7154    10.6762
 1483.5000     1.5692    10.6966
 1484.0000     1.5273    11.7517
 1484.5000     1.5272    11.7763
 1485.0000     1.5271    11.7965
 1485.5000     1.5270    11.8167
 1486.0000     1.5269    12.8713
 1486.5000     1.5268    12.8915
 1487.0000     1.5267    12.9117
 1487.5000     1.5266    12.9319
 1488.0000     1.5265    12.9521
 1488.5000     1.5160    12.9724
 1489.0000     1.5159    13.1317
 1489.5000     1.5158    14.0521
 1490.0000     1.5052    14.0723
 1490.5000     1.5051    14.0925
 1491.0000     1.5050    14.1127
 1491.5000     1.5049    14.1329
 1492.0000     1.5048    14.1531
 1492.5000     1.5047    14.1733
 1493.0000     1.5046    14.1934
 1493.5000     1.5254    14.2138
 1494.0000     1.7605    14.2345
 1494.5000     2.0972    13.2195
 1495.0000     2.2766    13.2447
 1495.5000     2.3913    12.2254
 1496.0000     2.5060    11.2161
 1496.5000     2.5686    11.2363
 1497.0000     2.6729    11.2565
 1497.5000     2.7667    11.2767
 1498.0000     2.8605    11.2969
 1498.5000     2.9442    12.3517
 1499.0000     2.9881    13.4069
 1499.5000     3.0273    13.4315
 1500.0000     3.0167    13.4516
 1500.5000     2.7669    12.4809
 1501.0000     2.6109    11.4759
 1501.5000     2.3088    11.5389
 1502.0000     1.9963    11.5892
 1502.5000     2.0178    11.6396
 1503.0000     2.0392    11.6942
 1503.5000     2.0503    11.7488
 1504.0000     2.0093    11.7931
 1504.5000     1.9473    11.8495
 1505.0000     1.8435    11.8966
 1505.5000     1.7293    11.9503
 1506.0000     1.5838    11.9915
 1506.5000     1.4904    12.0280
 1507.0000     1.4388    12.0645
 1507.5000     1.3855    12.1010
 1508.0000     1.3461    12.1375
 1508.5000     1.3886    12.1739
 1509.0000     1.4414    12.2104
 1509.5000     1.5360    12.2469
 1510.0000     1.6932    12.2834
 1510.5000     1.9025    12.3198
 1511.0000     2.0702    12.3563
 1511.5000     1.8071    12.3928
 1512.0000     1.4486    12.4293
 1512.5000     1.2891    12.4658
 1513.0000     1.3525    12.5022
 1513.5000     1.4471    12.5387
 1514.0000     1.5729    12.5752
 1514.5000     1.8554    12.6117
 1515.0000     2.1483    12.6482
 1515.5000     2.5246    12.6846
 1516.0000     2.8210    12.7211
 1516.5000     3.0375    12.7576
 1517.0000     3.1634    12.7941
 1517.5000     3.2056    12.8306
 1518.0000     2.9872    12.8670
 1518.5000     2.8521    12.9035
 1519.0000     2.7379    12.9400
 1519.5000     2.7070    12.9765
 1520.0000     2.6347    13.0130
 1520.5000     2.6247    13.0494
 1521.0000     2.8029    13.0859
 1521.5000     2.9606    13.1224
 1522.0000     3.0783    13.1589
 1522.5000     3.2538    13.1953
 1523.0000     3.4214    13.2318
 1523.5000     3.5577    13.2683
 1524.0000     3.1407    13.3048
 1524.5000     2.6157    13.3413
 1525.0000     2.2895    13.3777
 1525.5000     2.1302    13.4142
 1526.0000     2.0471    13.4507
 1526.5000     2.1001    13.4872
 1527.0000     2.2051    13.5237
 1527.5000     2.2892    13.5601
 1528.0000     2.3733    13.5966
 1528.5000     2.4679    13.6331
 1529.0000     2.5551    13.6696
 1529.5000     2.5943    13.7061
 1530.0000     2.3028    13.7425
 1530.5000     1.9589    13.7790
 1531.0000     1.5420    13.8155
 1531.5000     1.3544    13.8520
 1532.0000     1.3031    13.8885
 1532.5000     1.3143    13.9249
 1533.0000     1.3149    13.9614
 1533.5000     1.3260    13.9979
 1534.0000     1.3370    14.0344
 1534.5000     1.3481    14.0708
 1535.0000     1.3487    14.1073
 1535.5000     1.3284    14.1438
 1536.0000     1.2761    14.1803
 1536.5000     1.1523    14.2168
 1537.0000     1.0903    14.2532
 1537.5000     1.0491    14.2897
 1538.0000     1.0287    14.3262
 1538.5000     1.0295    14.3627
 1539.0000     1.0405    14.3992
 1539.5000     1.0411    14.4356
 1540.0000     1.0418    14.5175
 1540.5000     1.0657    14.6190
 1541.0000     1.1579    14.7205
