~VERSION INFORMATION
 VERS.                2.0:   CWLS LOG ASCII STANDARD - VERSION 2.0
 WRAP.                 NO:   ONE LINE PER DEPTH STEP
~WELL INFORMATION
#MNEM.UNIT      DATA TYPE    INFORMATION
#----------   ------------   ------------------------------
 STRT.F           80.0000:   START DEPTH
 STOP.F          820.0000:   STOP DEPTH
 STEP.F            0.5000:   STEP LENGTH
 NULL.          -999.2500:   NO VALUE
 COMP. U S NAVY/INTEX OIL CO:   COMPANY
 WELL.      GOVT #15-S-35:   WELL
 FLD .        EAST TEAPOT:   FIELD
 LOC .      S35 T39N R78W:   LOCATION
 CNTY.            NATRONA:   COUNTY
 STAT.            WYOMING:   STATE
 CTRY. UNITED STATES OF AMERICA:   COUNTRY
 SRVC.       Schlumberger:   SERVICE COMPANY
 DATE.        12-FEB-1961:   LOGDATE
 API .       490250654500:   API NUMBER
~CURVE INFORMATION
#MNEM.UNIT       API CODE    CURVE DESCRIPTION
#----------   ------------   ------------------------------
 DEPT.F                  :   
 SPR .MV     05 010 01 00:   SPONTANEOUS POTENTIAL FROM RES.
 ASN .OHMM   05 041 16 00:   AMPLIFIED SHORT NORMAL 16"
 ILD .OHMM   05 120 46 00:   INDUCTION LOG DEEP
 CILD.MMHO   05 110 46 00:   CONDUCTIVITY INDUCTION LOG DEEP
 GR  .GAPI   30 310 01 00:   GAMMA RAY
~PARAMETER INFORMATION
#MNEM.UNIT          VALUE    DESCRIPTION
#----------   ------------   ------------------------------
 PD  .                 GL:   PERMANENT DATUM
 EPD .F              5069:   ELEVATION PERMANENT DATUM
 LMF .                 KB:   LOG MEASURED FROM
 DAPD.F                 4:   FEET ABOVE PERMANENT DATUM
 DMF .                 KB:   DRILLING MEASURED FROM
 EKB .F              5073:   KELLING BUSHING
 EGL .F              5069:   GROUND LEVEL
 DATE.            2-12-61:   RUN DATE
 RUN .                  1:   RUN NUMBER
 DD  .F               820:   DEPTH DRILLER
 DL  .F               820:   DEPTH LOGGER
 BLI .F               819:   BOTTOM LOG INTERVAL
 TLI .F                90:   TOP LOG INTERVAL
 CBD .F                12:   CASING BOTTOM DRILLER
 BS  .IN            7.875:   BIT SIZE
 BSD .F               820:   BIT SIZE AT DEPTH
 DFT .   GEL OIL EMULSION:   DRILLING FLUID TYPE
 DFD .                9.5:   DRILLING FLUID DENSITY
 DFV .                 50:   DRILLING FLUID VISCOSITY
 DFPH.                  8:   DRILLING FLUID PH
 DFL .                  9:   DRILLING FLUID LOSS
 MSS .          FLOW LINE:   MUD SAMPLE SOURCE
 RMS .OHMM           1.04:   RESISTIVITY MUD SAMPLE
 MST .F                56:   MUD SAMPLE TEMPERATURE
 MFSS.                  C:   MUD FILTRATE SAMPLE SOURCE
 MCSS.                  C:   MUD CAKE SAMPLE SOURCE
 RMB .OHMM           2.78:   RESISTIVITY MUD AT BHT
 BHT .F                77:   BOTTOM HOLE TEMPERATURE
 TCS .HRS               1:   TIME CURCULATED STOPPED
 MRT .F                77:   MAXIMUM RECORDED TEMPERATURE
 LUN .               2523:   LOGGING UNIT NUMBER
 LUL .               CSPR:   LOGGING UNIT LOCATION
 ENGI.             KNOBEL:   RECORDING ENGINEER
 WITN.          JORGENSEN:   WITNESSED BY
 CLNT.            A2DTECH:   CLIENT CODE
 ORIG.       2", 5" PRINT:   ORIGIN OF DATA
 UWI .       490250654500:   UNIQUE WELL ID
 DICO. A2D Technologies, Inc.:   DIGITIZING COMPANY
~OTHER INFORMATION
~A   DEPT      SPR          ASN        ILD      CILD        GR   
# ...
  690.0000   -22.8185    15.2245    12.0611    82.3759    65.4157
  690.5000   -22.8044    15.6473    12.5816    79.6813    62.0493
  691.0000   -22.7798    16.3031    13.2745    76.2350    60.6175
  691.5000   -22.7552    17.2584    13.9624    71.4268    64.5996
  692.0000   -22.7307    18.4963    14.6334    66.6141    60.6954
  692.5000   -22.7063    19.7300    15.5330    61.8014    55.6771
  693.0000   -22.6818    20.9591    16.4902    56.9887    50.2816
  693.5000   -22.6573    22.1889    17.9970    52.1760    52.7797
  694.0000   -22.6318    23.0398    19.5401    47.3633    47.6844
  694.5000   -22.6521    23.7828    21.0765    43.3101    43.6113
  695.0000   -22.6806    24.2936    22.6014    40.5600    40.8823
  695.5000   -22.7095    24.6568    23.0328    38.3466    44.5662
  696.0000   -22.7384    24.6057    22.6555    38.3466    43.0248
  696.5000   -22.7674    24.5668    22.2714    38.7724    41.9400
  697.0000   -22.7977    24.5261    21.8757    40.0100    47.7223
  697.5000   -22.8205    24.4864    21.7442    41.2475    50.7308
  698.0000   -22.5615    24.4800    21.6223    42.4851    56.7225
  698.5000   -22.2810    24.6984    21.4861    43.7226    54.7147
  699.0000   -22.0473    24.9199    21.8203    44.9602    53.7831
  699.5000   -22.1342    25.1406    22.3447    44.5908    56.0224
  700.0000   -22.2243    25.4792    23.1280    43.1607    57.0825
  700.5000   -22.3136    25.9340    23.9149    41.7306    55.2741
  701.0000   -22.4098    26.3891    24.7010    40.3006    56.9270
  701.5000   -22.2519    26.8436    25.4874    38.8705    58.6953
  702.0000   -21.9956    27.2972    26.2681    37.4405    53.7254
  702.5000   -21.7356    27.6009    26.8639    36.0104    53.0035
  703.0000   -21.4779    27.7331    26.8729    34.5837    48.2038
  703.5000   -21.5344    27.8650    26.8962    33.1576    47.4185
  704.0000   -21.6408    27.8779    26.9213    32.5651    47.1426
  704.5000   -21.7482    27.7457    26.9370    32.9735    50.9275
  705.0000   -21.8551    27.6145    26.7957    33.3831    57.2426
  705.5000   -21.9619    27.4823    26.6530    33.7957    58.6250
  706.0000   -22.0687    27.3502    26.5114    34.2082    54.3394
  706.5000   -22.1744    27.2182    26.3700    34.6207    50.1802
  707.0000   -22.2838    27.0863    26.2288    35.0332    50.4785
  707.5000   -22.4099    26.9546    26.0884    35.4457    50.3958
  708.0000   -22.2014    26.8228    25.9415    35.8582    51.9007
  708.5000   -22.1247    26.6054    25.6315    36.2707    49.4006
  709.0000   -22.0416    26.2522    25.3158    36.6833    50.8280
  709.5000   -21.9617    25.9014    24.9980    37.0958    50.0697
  710.0000   -21.8823    25.5508    24.6804    37.8553    49.0238
  710.5000   -21.8027    25.2001    24.1098    39.1753    51.8641
  711.0000   -21.7230    24.8494    23.3644    40.4953    49.6613
  711.5000   -21.6409    24.4988    22.6149    41.8154    51.5787
  712.0000   -21.5323    24.1480    21.8619    43.1355    54.3863
  712.5000   -21.4202    23.7964    21.1106    44.4505    52.2927
  713.0000   -21.3079    23.4370    20.4162    45.6405    53.8152
  713.5000   -21.1956    23.1287    20.0608    46.5892    55.7647
  714.0000   -21.0833    22.7125    19.7028    47.5382    53.9135
  714.5000   -20.9699    22.2990    19.3396    48.4853    56.5142
  715.0000   -20.8535    21.8746    18.9767    49.4317    59.8332
  715.5000   -20.8796    21.6094    18.6140    50.3781    61.7314
  716.0000   -20.9229    21.3951    18.2510    51.3244    58.9019
  716.5000   -20.9658    21.1808    17.8792    52.2708    57.6545
  717.0000   -21.0081    20.9670    17.6603    53.2171    61.0892
  717.5000   -21.0502    20.7528    17.4867    54.1635    64.1056
  718.0000   -21.1262    20.5385    17.3158    55.1099    67.6566
  718.5000   -21.1995    20.3253    17.1451    56.0562    64.3921
  719.0000   -21.2723    20.1502    16.9746    57.0026    57.9839
  719.5000   -21.3450    20.0924    16.8637    57.9489    55.0629
  720.0000   -21.4178    20.0321    16.8217    58.0531    58.2747
  720.5000   -21.4906    19.9716    16.7847    57.5942    60.2057
  721.0000   -21.5633    19.9113    16.8232    57.1300    56.4114
  721.5000   -21.6363    19.8509    16.8626    56.6671    58.8527
  722.0000   -21.7096    19.7905    16.9014    56.2051    62.8768
  722.5000   -21.7809    19.7298    16.9403    55.7430    60.3430
  723.0000   -21.8019    19.6715    16.9791    55.2810    60.7685
  723.5000   -21.6154    19.7012    17.0179    54.8190    61.3768
  724.0000   -21.4331    19.7379    17.0568    54.3570    53.2944
  724.5000   -21.2514    19.7749    17.0956    53.8950    48.8904
  725.0000   -21.0689    19.8115    17.1345    53.4329    50.6394
  725.5000   -20.8848    19.8479    17.1742    52.9708    52.3693
  726.0000   -20.8183    19.8556    17.1671    52.5083    53.3929
  726.5000   -20.7654    19.8154    17.1497    52.0459    49.9192
  727.0000   -20.7134    19.7760    17.1321    51.5831    51.6600
  727.5000   -20.6608    19.7364    17.1147    51.6507    54.7507
  728.0000   -20.6082    19.6962    17.0967    52.6157    58.2807
  728.5000   -20.5556    19.6161    17.0429    53.5782    60.0492
  729.0000   -20.5030    19.4581    16.7955    54.5407    57.4334
  729.5000   -20.4503    19.3014    16.5474    55.5033    54.1159
  730.0000   -20.3974    19.1446    16.2999    56.4658    51.7022
  730.5000   -20.3446    18.9878    16.0523    57.4283    54.6001
  731.0000   -20.2943    18.8311    15.8046    58.3909    52.4676
  731.5000   -20.3121    18.6743    15.5550    59.3534    50.7989
  732.0000   -20.4577    18.5176    15.2983    60.3160    49.8558
  732.5000   -20.4547    18.3608    15.2171    61.2785    53.0695
  733.0000   -20.4544    18.2039    15.1426    62.2410    53.2971
  733.5000   -20.4546    18.0470    15.0669    63.2036    51.4933
  734.0000   -20.4544    17.8910    14.9907    64.1661    52.8805
  734.5000   -20.4540    17.7718    14.9122    65.1286    55.4575
  735.0000   -20.4569    17.7576    14.8764    64.9651    57.9844
  735.5000   -20.5164    17.7412    14.8547    64.6557    60.0918
  736.0000   -20.5747    17.7245    14.8338    64.3464    60.2375
  736.5000   -20.6325    17.7078    14.8128    64.3548    61.8113
  737.0000   -20.6905    17.6920    14.7918    64.5226    65.4044
  737.5000   -20.7486    17.6992    14.7707    64.6904    67.1702
  738.0000   -20.8053    17.7899    14.7496    64.8582    64.0606
  738.5000   -20.8272    17.8784    14.7285    65.0260    60.9217
  739.0000   -20.7147    17.9667    14.7076    65.1938    59.3551
  739.5000   -20.6053    18.0551    14.6907    65.3616    60.8978
  740.0000   -20.4963    18.1439    14.6912    65.5294    62.5680
  740.5000   -20.3871    18.1957    14.6912    65.6977    64.3483
  741.0000   -20.2779    18.2273    14.6911    65.8679    63.1297
  741.5000   -20.1684    18.2600    14.6904    66.0419    61.7698
  742.0000   -20.0611    18.4603    14.6909    66.2143    62.5763
  742.5000   -20.0167    18.9316    14.6942    64.9333    60.6962
  743.0000   -19.9749    19.4055    15.0029    63.2496    56.7861
  743.5000   -19.9327    19.8873    15.8350    59.6832    54.6983
  744.0000   -19.8905    20.9549    16.6621    56.0611    55.9459
  744.5000   -19.8482    22.4326    17.7149    52.4390    58.0043
  745.0000   -19.8060    23.9436    19.1884    48.8169    58.7819
  745.5000   -19.7637    25.4476    20.6545    45.1948    57.9269
  746.0000   -19.7215    26.9517    22.1235    41.5727    61.8489
  746.5000   -19.6793    28.3215    23.6059    37.9506    64.0461
  747.0000   -19.6370    28.8013    25.0905    34.3285    52.5523
  747.5000   -19.5948    28.7269    24.6686    33.3665    53.1883
  748.0000   -19.5525    27.8892    23.3552    36.1883    60.5441
  748.5000   -19.5103    26.3197    21.9524    40.0624    64.0946
  749.0000   -19.4680    24.4947    20.5507    43.9364    59.1666
  749.5000   -19.4258    22.6701    19.1503    47.8104    56.5028
  750.0000   -19.3834    21.1938    17.7559    51.6846    57.5722
  750.5000   -19.3410    20.0623    16.4534    55.5592    57.4539
