~VERSION INFORMATION
 VERS.                2.0:   CWLS LOG ASCII STANDARD - VERSION 2.0
 WRAP.                 NO:   ONE LINE PER DEPTH STEP
~WELL INFORMATION
#MNEM.UNIT      DATA TYPE    INFORMATION
#----------   ------------   ------------------------------
 STRT.M         1049.9000:   START DEPTH
 STOP.M         2123.5000:   STOP DEPTH
 STEP.M            0.1000:   STEP LENGTH
 NULL.          -999.2500:   NO VALUE
 COMP. BROWN JOHN E&C INC:   COMPANY
 WELL. NAVAL PETROLEUM RESERVE 3 STX- #34-3:   WELL
 FLD .            WILDCAT:   FIELD
 LOC .       S3 T38N R78W:   LOCATION
 CNTY.            NATRONA:   COUNTY
 STAT.            WYOMING:   STATE
 CTRY. UNITED STATES OF AMERICA:   COUNTRY
 SRVC.            Unknown:   SERVICE COMPANY
 DATE.        04-SEP-1991:   LOGDATE
 API .       490251090400:   API NUMBER
~CURVE INFORMATION
#MNEM.UNIT       API CODE    CURVE DESCRIPTION
#----------   ------------   ------------------------------
 DEPT.M                  :   
 ROP .MIN/FT 91 810 01 00:   RAT OF DRILLING PENETRATION
 TGAS.UNITS  91 830 01 00:   TOTAL GAS FROM HOTWIRE
~PARAMETER INFORMATION
#MNEM.UNIT          VALUE    DESCRIPTION
#----------   ------------   ------------------------------
 EKB .F              5189:   KELLING BUSHING
 EGL .F              5179:   GROUND LEVEL
 DATE.             9-4-91:   RUN DATE
 DD  .F              2123:   DEPTH DRILLER
 CS  .IN            9.625:   CASING SIZE
 BS  .IN             8.75:   BIT SIZE
 BSD .F              2123:   BIT SIZE AT DEPTH
 ENGI.              TOWER:   RECORDING ENGINEER
 WITN.               HUSK:   WITNESSED BY
 CLNT.            A2DTECH:   CLIENT CODE
 ORIG.           5" PRINT:   ORIGIN OF DATA
 UWI .       490251090400:   UNIQUE WELL ID
 DICO. A2D Technologies, Inc.:   DIGITIZING COMPANY
~OTHER INFORMATION
~A  DEPT       ROP         TGAS 
# ...
 2094.8000     0.6546    22.4469
 2094.9000     0.6456    22.4520
 2095.0000     0.6370    22.4576
 2095.1000     0.6346    22.4623
 2095.2000     0.6323    22.4674
 2095.3000     0.6300    22.4726
 2095.4000     0.6277    22.3838
 2095.5000     0.6254    22.0540
 2095.6000     0.6230    22.0603
 2095.7000     0.6207    22.0646
 2095.8000     0.6184    22.0697
 2095.9000     0.6161    22.0749
 2096.0000     0.6146    22.0800
 2096.1000     0.6145    22.0853
 2096.2000     0.6143    22.0903
 2096.3000     0.6142    22.0954
 2096.4000     0.6141    22.1006
 2096.5000     0.6140    22.1057
 2096.6000     0.6139    22.1109
 2096.7000     0.6138    22.1166
 2096.8000     0.6137    22.1211
 2096.9000     0.6136    22.1263
 2097.0000     0.6135    22.1314
 2097.1000     0.6134    22.1366
 2097.2000     0.6133    22.1417
 2097.3000     0.6132    22.1469
 2097.4000     0.6130    22.1520
 2097.5000     0.6166    22.1571
 2097.6000     0.6209    22.1623
 2097.7000     0.6252    22.1674
 2097.8000     0.6296    22.1730
 2097.9000     0.6339    22.1777
 2098.0000     0.6360    22.1829
 2098.1000     0.6381    22.1880
 2098.2000     0.6402    22.1931
 2098.3000     0.6423    22.1983
 2098.4000     0.6450    22.2043
 2098.5000     0.6516    22.5003
 2098.6000     0.6581    22.6423
 2098.7000     0.6646    22.6474
 2098.8000     0.6712    22.6526
 2098.9000     0.6770    22.6579
 2099.0000     0.6813    22.9995
 2099.1000     0.6856    23.0966
 2099.2000     0.6900    23.2857
 2099.3000     0.6943    23.6428
 2099.4000     0.6986    23.9691
 2099.5000     0.7029    23.9750
 2099.6000     0.7072    24.2857
 2099.7000     0.7115    24.4131
 2099.8000     0.7159    24.4183
 2099.9000     0.7215    24.4611
 2100.0000     0.7281    24.6388
 2100.1000     0.7346    24.8164
 2100.2000     0.7411    24.9941
 2100.3000     0.7476    25.1718
 2100.4000     0.7507    25.2926
 2100.5000     0.7528    25.2943
 2100.6000     0.7550    25.2962
 2100.7000     0.7571    25.2977
 2100.8000     0.7593    25.2994
 2100.9000     0.7592    25.4489
 2101.0000     0.7591    25.7314
 2101.1000     0.7590    25.7332
 2101.2000     0.7589    25.7349
 2101.3000     0.7588    25.7366
 2101.4000     0.7587    25.7383
 2101.5000     0.7586    25.7400
 2101.6000     0.7585    25.7653
 2101.7000     0.7584    26.1723
 2101.8000     0.7578    26.1737
 2101.9000     0.7556    26.3913
 2102.0000     0.7535    26.6057
 2102.1000     0.7514    26.6074
 2102.2000     0.7495    26.6092
 2102.3000     0.7495    26.6109
 2102.4000     0.7495    26.8627
 2102.5000     0.7495    27.0429
 2102.6000     0.7495    27.0446
 2102.7000     0.7495    27.0463
 2102.8000     0.7495    27.0483
 2102.9000     0.7495    27.0497
 2103.0000     0.7495    27.2567
 2103.1000     0.7495    27.4817
 2103.2000     0.7495    27.4834
 2103.3000     0.7495    27.4853
 2103.4000     0.7495    27.8056
 2103.5000     0.7495    28.1570
 2103.6000     0.7495    28.3474
 2103.7000     0.7495    28.4313
 2103.8000     0.7495    28.7794
 2103.9000     0.7495    28.7811
 2104.0000     0.7495    28.7829
 2104.1000     0.7495    28.9797
 2104.2000     0.7495    29.2149
 2104.3000     0.7495    29.2166
 2104.4000     0.7495    29.2185
 2104.5000     0.7495    29.5288
 2104.6000     0.7495    29.6503
 2104.7000     0.7495    29.8030
 2104.8000     0.7495    30.0823
 2104.9000     0.7495    30.0840
 2105.0000     0.7495    30.4282
 2105.1000     0.7495    30.5160
 2105.2000     0.7495    30.5177
 2105.3000     0.7495    30.6258
 2105.4000     0.7495    30.9497
 2105.5000     0.7495    30.9517
 2105.6000     0.7495    31.2516
 2105.7000     0.7495    31.3834
 2105.8000     0.7495    31.5253
 2105.9000     0.7495    31.8154
 2106.0000     0.7495    31.8172
 2106.1000     0.7495    32.1515
 2106.2000     0.7495    32.2491
 2106.3000     0.7495    32.4257
 2106.4000     0.7495    32.6811
 2106.5000     0.7495    32.6829
 2106.6000     0.7474    32.6849
 2106.7000     0.7408    32.9747
 2106.8000     0.7342    33.3260
 2106.9000     0.7276    33.5469
 2107.0000     0.7210    33.5998
 2107.1000     0.7154    33.9790
 2107.2000     0.7110    33.9806
 2107.3000     0.7066    34.2259
 2107.4000     0.7022    34.4126
 2107.5000     0.6978    34.4143
 2107.6000     0.6921    34.4225
 2107.7000     0.6855    34.7746
 2107.8000     0.6789    35.1256
 2107.9000     0.6723    35.2783
 2108.0000     0.6657    35.4004
 2108.1000     0.6638    35.7103
 2108.2000     0.6638    35.7122
 2108.3000     0.6638    35.7137
 2108.4000     0.6638    35.7154
 2108.5000     0.6638    35.8717
 2108.6000     0.6638    36.1474
 2108.7000     0.6638    36.1492
 2108.8000     0.6638    36.1509
 2108.9000     0.6638    36.1526
 2109.0000     0.6638    36.1543
 2109.1000     0.6638    36.2658
 2109.2000     0.6638    36.5863
 2109.3000     0.6638    36.5882
 2109.4000     0.6638    36.5897
 2109.5000     0.6638    36.5914
 2109.6000     0.6638    36.5931
 2109.7000     0.6638    36.5949
 2109.8000     0.6638    36.5966
 2109.9000     0.6638    36.5983
 2110.0000     0.6638    36.6000
 2110.1000     0.6638    36.6017
 2110.2000     0.6638    36.6034
 2110.3000     0.6638    36.5848
 2110.4000     0.6638    36.1786
 2110.5000     0.6630    36.1800
 2110.6000     0.6608    36.1817
 2110.7000     0.6586    36.1834
 2110.8000     0.6564    36.1851
 2110.9000     0.6542    36.1870
 2111.0000     0.6531    36.1886
 2111.1000     0.6531    36.1903
 2111.2000     0.6531    36.1920
 2111.3000     0.6531    36.1937
 2111.4000     0.6531    36.1954
 2111.5000     0.6531    36.1975
 2111.6000     0.6531    36.1989
 2111.7000     0.6531    36.2006
 2111.8000     0.6531    36.2023
 2111.9000     0.6531    36.2040
 2112.0000     0.6531    36.2059
 2112.1000     0.6531    36.2074
 2112.2000     0.6531    36.2091
 2112.3000     0.6531    36.0531
 2112.4000     0.6531    35.7840
 2112.5000     0.6531    35.7857
 2112.6000     0.6531    35.7874
 2112.7000     0.6531    35.7891
 2112.8000     0.6531    35.7909
 2112.9000     0.6532    35.7926
 2113.0000     0.6554    35.7943
 2113.1000     0.6576    35.7962
 2113.2000     0.6598    35.7977
 2113.3000     0.6620    35.5734
 2113.4000     0.6638    35.3726
 2113.5000     0.6638    35.3743
 2113.6000     0.6638    35.3760
 2113.7000     0.6638    35.3777
 2113.8000     0.6638    35.1192
 2113.9000     0.6638    34.9526
 2114.0000     0.6638    34.8512
 2114.1000     0.6638    34.5273
 2114.2000     0.6638    34.5294
 2114.3000     0.6638    34.5309
 2114.4000     0.6648    34.3167
 2114.5000     0.6670    34.1057
 2114.6000     0.6692    34.1074
 2114.7000     0.6714    34.1092
 2114.8000     0.6736    33.7817
 2114.9000     0.6758    33.4335
 2115.0000     0.6780    33.0859
 2115.1000     0.6802    32.8303
 2115.2000     0.6824    32.8320
 2115.3000     0.6846    32.8340
 2115.4000     0.6868    32.5508
 2115.5000     0.6890    32.4086
 2115.6000     0.6912    32.2834
 2115.7000     0.6934    31.9354
 2115.8000     0.6959    31.5567
 2115.9000     0.6978    31.2395
 2116.0000     0.7000    31.1314
 2116.1000     0.7022    30.9716
 2116.2000     0.7044    30.7063
 2116.3000     0.7066    30.7080
 2116.4000     0.7066    30.3561
 2116.5000     0.7066    30.0085
 2116.6000     0.7066    29.6604
 2116.7000     0.7066    29.4291
 2116.8000     0.7066    29.3935
 2116.9000     0.7066    29.0042
 2117.0000     0.7066    29.0057
 2117.1000     0.7066    29.0074
 2117.2000     0.7066    29.0091
 2117.3000     0.7066    28.9392
 2117.4000     0.7066    28.5840
 2117.5000     0.7066    28.5857
 2117.6000     0.7066    28.3234
 2117.7000     0.7066    28.1606
 2117.8000     0.7066    28.0560
 2117.9000     0.7066    27.7353
 2118.0000     0.7066    27.7374
 2118.1000     0.7066    27.7389
 2118.2000     0.7066    27.7406
 2118.3000     0.7089    27.7423
 2118.4000     0.7133    27.7440
 2118.5000     0.7177    27.7458
 2118.6000     0.7221    27.7474
 2118.7000     0.7265    27.4954
 2118.8000     0.7309    27.3223
 2118.9000     0.7353    27.3240
 2119.0000     0.7397    27.3257
