~VERSION INFORMATION
 VERS.                2.0:   CWLS LOG ASCII STANDARD - VERSION 2.0
 WRAP.                 NO:   ONE LINE PER DEPTH STEP
~WELL INFORMATION
#MNEM.UNIT      DATA TYPE    INFORMATION
#----------   ------------   ------------------------------
 STRT.F           32.0000:   START DEPTH
 STOP.F          557.0000:   STOP DEPTH
 STEP.F            0.5000:   STEP LENGTH
 NULL.          -999.2500:   NO VALUE
 COMP. FENIX & SCISSON U.S. NAVY:   COMPANY
 WELL.   S-3 NPR #3 #31-3:   WELL
 FLD .              NPR-3:   FIELD
 LOC .       S3 T38N R78W:   LOCATION
 CNTY.            NATRONA:   COUNTY
 STAT.            WYOMING:   STATE
 CTRY. UNITED STATES OF AMERICA:   COUNTRY
 SRVC.              Welex:   SERVICE COMPANY
 DATE.        05-MAR-1977:   LOGDATE
 API .       490251039500:   API NUMBER
~CURVE INFORMATION
#MNEM.UNIT       API CODE    CURVE DESCRIPTION
#----------   ------------   ------------------------------
 DEPT.F                  :   
 CALD.IN     45 280 60 00:   CALIPER FROM DENSITY LOG
 DPHI.DEC    45 890 12 00:   DENSITY POROSITY SANDSTONE
 DRHO.G/C3   45 356 01 00:   DENSITY CORRECTION
 GRD .GAPI   45 310 01 00:   GAMMA RAY FROM DENSITY LOG
 RHOB.G/C3   45 350 01 00:   BULK DENSITY
 ILD .OHMM   07 120 46 00:   INDUCTION LOG DEEP
 ILM .OHMM   07 120 44 00:   INDUCTION LOG MEDIUM
 SGRD.OHMM   07 220 05 00:   SHALLOW GUARD RESISTIVITY
 SPR .MV     07 010 01 00:   SPONTANEOUS POTENTIAL FROM RES.
~PARAMETER INFORMATION
#MNEM.UNIT          VALUE    DESCRIPTION
#----------   ------------   ------------------------------
 PD  .                 GL:   PERMANENT DATUM
 EPD .F              5178:   ELEVATION PERMANENT DATUM
 LMF .                 GL:   LOG MEASURED FROM
 DMF .                 GL:   DRILLING MEASURED FROM
 EGL .F              5178:   GROUND LEVEL
 DATE.        05-MAR-1977:   RUN DATE
 RUN .                  1:   RUN NUMBER
 DD  .F               560:   DEPTH DRILLER
 DL  .F               560:   DEPTH LOGGER
 BLI .F               558:   BOTTOM LOG INTERVAL
 TLI .F                40:   TOP LOG INTERVAL
 CS  .IN            8.625:   CASING SIZE
 CBD .F                43:   CASING BOTTOM DRILLER
 CBL .F                43:   CASING BOTTOM LOGGER
 BS  .IN            7.875:   BIT SIZE
 BSD .F               560:   BIT SIZE AT DEPTH
 DFT .                KCL:   DRILLING FLUID TYPE
 DFD .                8.8:   DRILLING FLUID DENSITY
 DFV .                 32:   DRILLING FLUID VISCOSITY
 MSS .           FLOWLINE:   MUD SAMPLE SOURCE
 RMS .OHMM           1.46:   RESISTIVITY MUD SAMPLE
 MST .F                48:   MUD SAMPLE TEMPERATURE
 RMF .OHMM          0.972:   RESISTIVITY MUD FILTRATE SAMPLE
 MFST.F                48:   MUD FILTRATE SAMPLE TEMPERATURE
 RMC .OHMM           2.32:   RESISTIVITY MUD CAKE
 MCST.F                48:   MUD CAKE SAMPLE TEMPERATURE
 MFSS.               MEAS:   MUD FILTRATE SAMPLE SOURCE
 MCSS.               MEAS:   MUD CAKE SAMPLE SOURCE
 RMB .OHMM           1.03:   RESISTIVITY MUD AT BHT
 BHT .F                68:   BOTTOM HOLE TEMPERATURE
 TCS .HRS               2:   TIME CURCULATED STOPPED
 MRT .F                68:   MAXIMUM RECORDED TEMPERATURE
 LUN .               8611:   LOGGING UNIT NUMBER
 LUL .           GILLETTE:   LOGGING UNIT LOCATION
 ENGI.          D. LAWSON:   RECORDING ENGINEER
 WITN.     MR. STUEBINGER:   WITNESSED BY
 CLNT.            A2DTECH:   CLIENT CODE
 ORIG.           5" PRINT:   ORIGIN OF DATA
 UWI .       490251039500:   UNIQUE WELL ID
 DICO. A2D Technologies, Inc.:   DIGITIZING COMPANY
~OTHER INFORMATION
~A   DEPT       CALD     DPHI        DRHO        GRD        RHOB      ILD        ILM       SGRD        SPR   
# ...
  141.5000     8.3731     0.0957     0.0025   123.4784     2.4875     7.6297     8.4639     9.7355   -19.9927
  142.0000     8.3744     0.0956     0.0026   124.2812     2.4877     7.5290     8.4696     9.6090   -19.9810
  142.5000     8.3757     0.0939     0.0028   124.9958     2.4906     7.4296     8.4742     9.6149   -19.9693
  143.0000     8.3771     0.0944     0.0029   125.4603     2.4870     7.4347     8.5377     9.6208   -19.8087
  143.5000     8.3787     0.0962     0.0031   125.7759     2.4848     7.4387     8.6613     9.7609   -19.7970
  144.0000     8.3800     0.0929     0.0033   123.7069     2.4939     7.5464     8.7261     9.7668   -19.9345
  144.5000     8.3813     0.0884     0.0050   122.9792     2.4999     7.7088     8.8524     9.9090   -19.9224
  145.0000     8.3826     0.0883     0.0066   121.3573     2.4977     7.8746     9.0429    10.0533   -19.9107
  145.5000     8.3839     0.0883     0.0083   119.5865     2.5023     7.8789     9.1106    10.2092   -19.8988
  146.0000     8.3852     0.0847     0.0100   117.5175     2.5062     7.8833     9.1788    10.6486   -19.8869
  146.5000     8.3716     0.0840     0.0131   116.1898     2.5047     7.9423     9.1838    11.0980   -19.8727
  147.0000     8.3729     0.0816     0.0133   114.5405     2.5109     8.0027     9.1255    11.1048   -19.8609
  147.5000     8.3593     0.0785     0.0150   116.3820     2.5171     8.0071     9.1304    10.9572   -19.8492
  148.0000     8.3610     0.0759     0.0166   120.5724     2.5215     8.0670     9.1354    10.3751   -19.6887
  148.5000     8.3623     0.0779     0.0168   121.7777     2.5170     8.1274     9.1405    10.0980   -19.8287
  149.0000     8.3636     0.0797     0.0185   120.3049     2.5126     8.1882     9.1466    10.1042   -19.8141
  149.5000     8.3649     0.0803     0.0202   120.6248     2.5112     8.1362     9.1515    10.6122   -19.8024
  150.0000     8.3663     0.0796     0.0203   123.4739     2.5142     8.1407     9.0299    10.6924   -19.7907
  150.5000     8.3674     0.0793     0.0219   125.1307     2.5127     8.2007     9.0356    10.4053   -19.7790
  151.0000     8.3686     0.0844     0.0206   126.3404     2.5054     8.2047     9.0412    10.1290   -19.7657
  151.5000     8.3698     0.0831     0.0207   125.7618     2.5040     8.0957     9.0478    10.1352   -19.7490
  152.0000     8.3709     0.0798     0.0209   125.1831     2.5115     7.9892     9.0534    10.4260   -19.7310
  152.5000     8.3423     0.0831     0.0210   128.5196     2.5034     7.9930     9.0589    10.1476   -19.8653
  153.0000     8.3435     0.0846     0.0181   129.3953     2.5072     7.9417     9.0019    10.3002   -19.8507
  153.5000     8.3298     0.0863     0.0183   128.8167     2.4998     7.8898     8.8837    10.5908   -19.8362
  154.0000     8.3317     0.0879     0.0153   127.4689     2.4991     7.7851     8.8265     9.8903   -19.8214
  154.5000     8.3470     0.0917     0.0155   127.1854     2.4939     7.5250     8.7106     9.8281   -19.8065
  155.0000     8.3484     0.0925     0.0156   127.0474     2.4940     7.3739     8.5973     9.7648   -19.7889
  155.5000     8.3793     0.0910     0.0158   126.7675     2.4986     7.2761     8.3681     9.7723   -19.7743
  156.0000     8.3804     0.0948     0.0159   125.5899     2.4881     7.2255     8.1448     9.7028   -19.7598
  156.5000     8.3816     0.0954     0.0160   125.6045     2.4867     7.1830     8.0378     9.5086   -19.7452
  157.0000     8.3828     0.0936     0.0132   125.9662     2.4906     7.1873     8.0429     9.3830   -19.7307
  157.5000     8.3839     0.0894     0.0133   122.5040     2.4989     7.1907     8.0489     9.3881   -19.7161
  158.0000     8.3851     0.0867     0.0104   124.7541     2.5027     7.1941     8.0538     9.5241   -19.7016
  158.5000     8.3865     0.0882     0.0106   125.3651     2.4960     7.2977     8.1709     9.6620   -19.6870
  159.0000     8.3877     0.0827     0.0137   124.2623     2.5111     7.3518     8.2897     9.8701   -19.6724
  159.5000     8.3889     0.0736     0.0184   120.0325     2.5292     7.5095     8.4687    10.2941   -19.8067
  160.0000     8.3900     0.0659     0.0230   113.1917     2.5382     7.6705     8.6514    10.8859   -19.9410
  160.5000     8.3614     0.0664     0.0262   112.7556     2.5383     7.8350     8.6567    10.1530   -19.9228
  161.0000     8.3626     0.0637     0.0263   117.3938     2.5399     7.9479     8.7826    10.2411   -19.7594
  161.5000     8.3042     0.0736     0.0264   121.2832     2.5305     7.9556     8.7880    10.3894   -19.7449
  162.0000     8.3203     0.0807     0.0233   124.8745     2.5123     8.0663     8.7933    10.4658   -19.5815
  162.5000     8.3661     0.0837     0.0177   121.9085     2.5056     8.0709     8.9213    10.1168   -19.5669
  163.0000     8.3673     0.0857     0.0178   120.4322     2.5012     8.0748     8.9269     9.9831   -19.5524
  163.5000     8.3685     0.0878     0.0165   123.1300     2.4990     8.0786     8.9335    10.0579   -19.5378
  164.0000     8.3699     0.0896     0.0151   125.5291     2.4968     8.0824     8.9389    10.2744   -19.5233
  164.5000     8.3710     0.0896     0.0152   127.1957     2.4969     8.0862     8.9444    10.5685   -19.5087
  165.0000     8.3722     0.0871     0.0153   125.7328     2.4993     8.0901     9.0119    10.5742   -19.4940
  165.5000     8.3436     0.0894     0.0140   123.4901     2.4971     8.0939     9.0800    10.5800   -19.4792
  166.0000     8.3448     0.0942     0.0126   125.8892     2.4912     8.0977     9.0855    10.6592   -19.6139
  166.5000     8.3162     0.0945     0.0127   126.4999     2.4904     8.1016     9.0911    10.3037   -19.7481
  167.0000     8.3173     0.0966     0.0114   126.5145     2.4865     7.9941     9.0966    10.1662   -19.7299
  167.5000     8.3185     0.1001     0.0100   126.2310     2.4794     7.9428     9.1021    10.1731   -19.7154
  168.0000     8.3197     0.1013     0.0071   124.4573     2.4780     7.8918     9.1077    10.1786   -19.8533
  168.5000     8.3208     0.0977     0.0073   122.6835     2.4840     7.8420     9.1134    10.3261   -19.8351
  169.0000     8.3220     0.0899     0.0104   120.9097     2.4954     7.7907     9.0458    10.4756   -19.9730
  169.5000     8.3232     0.0880     0.0136   122.4146     2.5007     7.7954     8.9990    10.1938   -19.9548
  170.0000     8.3246     0.0913     0.0137   124.2176     2.4963     7.7990     9.0684    10.0591   -19.9402
  170.5000     8.3258     0.0907     0.0138   125.1264     2.4963     7.7481     9.1369    10.0660   -19.9256
  171.0000     8.3269     0.0885     0.0109   123.1544     2.4994     7.7526     9.2059    10.3541   -19.9107
  171.5000     8.3579     0.0903     0.0081   118.8999     2.4965     7.7563     9.2754    10.3598   -19.8929
  172.0000     8.3590     0.0966     0.0067   119.8087     2.4876     7.8138     9.2811    10.2024   -19.8784
  172.5000     8.3602     0.1007     0.0038   121.9097     2.4809     7.9264     9.4161     9.6121   -19.8638
  173.0000     8.3614     0.1013     0.0020   122.3714     2.4772     8.0485     9.4218     9.2249   -19.8493
  173.5000     8.3625     0.1010    -0.0019   121.9389     2.4758     8.2710     9.5588    10.3836   -19.8347
  174.0000     8.3637     0.0980    -0.0033   120.1652     2.4834     8.5069     9.6979    11.1336   -19.8202
  174.5000     8.3489     0.0955    -0.0016   115.4107     2.4879     8.6894     9.7095    11.1396   -19.8056
  175.0000     8.3214     0.0949     0.0000   112.4447     2.4910     8.8757     9.8451    11.2230   -19.7911
  175.5000     8.3077     0.0955     0.0032   114.2477     2.4881     8.8799     9.9896    11.5443   -19.7765
  176.0000     8.2791     0.0936     0.0033   116.0507     2.4942     8.8841    10.0650    11.7928   -19.7619
  176.5000     8.2508     0.0882     0.0034   113.3457     2.5017     9.0746    10.1411    11.7992   -19.7470
  177.0000     8.2519     0.0852     0.0036   111.9070     2.5048     9.3983    10.2886    11.6434   -19.7292
  177.5000     8.2531     0.0840     0.0037   113.5646     2.5064     9.6664    10.4382    11.8122   -19.7147
