~VERSION INFORMATION
 VERS.                2.0:   CWLS LOG ASCII STANDARD - VERSION 2.0
 WRAP.                 NO:   ONE LINE PER DEPTH STEP
~WELL INFORMATION
#MNEM.UNIT      DATA TYPE    INFORMATION
#----------   ------------   ------------------------------
 STRT.F           30.0000:   START DEPTH
 STOP.F          547.0000:   STOP DEPTH
 STEP.F            0.5000:   STEP LENGTH
 NULL.          -999.2500:   NO VALUE
 COMP.   FINIX & SCISSION:   COMPANY
 WELL. SX-11 NPR #3 #11-11:   WELL
 FLD .             TEAPOT:   FIELD
 LOC .      S11 T38N R78W:   LOCATION
 CNTY.            NATRONA:   COUNTY
 STAT.            WYOMING:   STATE
 CTRY. UNITED STATES OF AMERICA:   COUNTRY
 SRVC.       Schlumberger:   SERVICE COMPANY
 DATE.        01-MAR-1977:   LOGDATE
 API .       490251058500:   API NUMBER
~CURVE INFORMATION
#MNEM.UNIT       API CODE    CURVE DESCRIPTION
#----------   ------------   ------------------------------
 DEPT.F                  :   
 ILD .OHMM               :   INDUCTION LOG DEEP
 ILM .OHMM   07 120 44 00:   INDUCTION LOG MEDIUM
 LL8 .OHMM   07 220 08 00:   
 SPR .MV     07 010 01 00:   SPONTANEOUS POTENTIAL
 CALD.IN     45 280 60 00:   CALIPER FROM DENSITY LOG
 CORR.G/C3   45 356 01 00:   DENSITY CORRECTION
 DPHI.DEC    45 890 12 00:   DENSITY POROSITY SANDSTONE
 GRD .GAPI   45 310 01 00:   GAMMA RAY FROM DENSITY LOG
 RHOB.G/C3   45 350 01 00:   BULK DENSITY
~PARAMETER INFORMATION
#MNEM.UNIT          VALUE    DESCRIPTION
#----------   ------------   ------------------------------
 PD  .                 GL:   PERMANENT DATUM
 EPD .F              5158:   ELEVATION PERMANENT DATUM
 LMF .                 GL:   LOG MEASURED FROM
 DMF .                 GL:   DRILLING MEASURED FROM
 EKB .F              5161:   KELLING BUSHING
 EGL .F              5158:   GROUND LEVEL
 DATE.        01-MAR-1977:   RUN DATE
 RUN .                  1:   RUN NUMBER
 DD  .F               575:   DEPTH DRILLER
 DL  .F               548:   DEPTH LOGGER
 BLI .F               547:   BOTTOM LOG INTERVAL
 TLI .F                45:   TOP LOG INTERVAL
 CS  .IN            8.625:   CASING SIZE
 CBD .F                40:   CASING BOTTOM DRILLER
 CBL .F                45:   CASING BOTTOM LOGGER
 BS  .IN            7.875:   BIT SIZE
 BSD .F               575:   BIT SIZE AT DEPTH
 DFT .                PIT:   DRILLING FLUID TYPE
 DFD .                8.7:   DRILLING FLUID DENSITY
 DFV .                 46:   DRILLING FLUID VISCOSITY
 DFPH.                  8:   DRILLING FLUID PH
 DFL .                6.8:   DRILLING FLUID LOSS
 MSS .                PIT:   MUD SAMPLE SOURCE
 RMS .OHMM          0.632:   RESISTIVITY MUD SAMPLE
 MST .F                65:   MUD SAMPLE TEMPERATURE
 RMF .OHMM          0.465:   RESISTIVITY MUD FILTRATE SAMPLE
 MFST.F                65:   MUD FILTRATE SAMPLE TEMPERATURE
 MFSS.               MEAS:   MUD FILTRATE SAMPLE SOURCE
 RMB .OHMM          0.635:   RESISTIVITY MUD AT BHT
 BHT .F                68:   BOTTOM HOLE TEMPERATURE
 TCS .HRS              12:   TIME CURCULATED STOPPED
 MRT .F                68:   MAXIMUM RECORDED TEMPERATURE
 LUN .               5642:   LOGGING UNIT NUMBER
 LUL .               CSPR:   LOGGING UNIT LOCATION
 ENGI.         JIM MARTIN:   RECORDING ENGINEER
 WITN.         STUEBINGER:   WITNESSED BY
 CLNT.            A2DTECH:   CLIENT CODE
 ORIG.           5" PRINT:   ORIGIN OF DATA
 UWI .       490251058500:   UNIQUE WELL ID
 DICO. A2D Technologies, Inc.:   DIGITIZING COMPANY
~OTHER INFORMATION
~A   DEPT      ILD        ILM        LL8        SPR       CALD       CORR       DPHI         GRD      RHOB   
# ...
  431.5000    19.3660    16.9161    16.6159   -28.7512     7.7742     0.0230     0.1474    68.2589     2.3730
  432.0000    17.7126    15.8983    15.4713   -28.3902     7.7749     0.0245     0.1388    69.9170     2.3686
  432.5000    16.4196    15.2548    15.3670   -28.1200     7.7905     0.0320     0.1422    71.2752     2.3670
  433.0000    15.5398    14.9439    15.3709   -27.9540     7.8061     0.0252     0.1425    70.6844     2.3618
  433.5000    15.0152    14.7286    15.3739   -27.7889     7.8408     0.0200     0.1455    70.2436     2.3836
  434.0000    14.6777    14.6261    15.3770   -27.7719     7.8671     0.0357     0.1500    69.9527     2.4023
  434.5000    14.6105    14.5424    15.3801   -28.0419     7.9023     0.0371     0.1527    68.9121     2.3971
  435.0000    14.5143    14.5444    15.7061   -28.3382     7.9431     0.0394     0.1448    67.2719     2.4031
  435.5000    14.5053    14.6473    15.8185   -28.4703     7.9737     0.0386     0.1341    66.2313     2.4128
  436.0000    14.4202    14.6496    15.3900   -28.6048     8.0042     0.0348     0.1473    65.4906     2.4001
  436.5000    14.3240    14.6513    15.2861   -28.7254     8.0348     0.0310     0.1527    66.9988     2.3948
  437.0000    14.3275    14.7281    15.3962   -28.8713     8.0653     0.0257     0.1494    68.8068     2.3970
  437.5000    14.2312    14.6554    15.3993   -28.8548     8.0360     0.0228     0.1422    67.1666     2.4053
  438.0000    14.2342    14.6507    15.4023   -28.8382     7.9916     0.0363     0.1374    66.1259     2.4135
  438.5000    14.2376    14.5585    15.0894   -28.8219     7.9623     0.0423     0.1431    65.8351     2.4173
  439.0000    14.2401    14.4602    14.9883   -28.8044     7.9329     0.0205     0.1488    65.3933     2.4128
  439.5000    14.2431    14.3489    14.6830   -28.7868     7.9186     0.0145     0.1500    64.6536     2.4085
  440.0000    14.2460    14.1678    14.2847   -28.6209     7.9192     0.0175     0.1443    65.4523     2.4045
  440.5000    14.2490    14.0722    14.1883   -28.7584     7.9352     0.0280     0.1401    67.4283     2.4022
  441.0000    14.2521    13.8805    14.2904   -28.7395     7.9802     0.0489     0.1341    69.2354     2.4120
  441.5000    13.9626    13.8595    14.2934   -28.7231     8.0108     0.0616     0.1266    70.9071     2.4300
  442.0000    13.7737    13.6937    14.1982   -28.7056     8.0420     0.0459     0.1314    70.8176     2.4247
  442.5000    13.5875    13.5081    13.9083   -28.6901     8.0656     0.0369     0.1380    70.5542     2.4142
  443.0000    13.4038    13.4169    13.5317   -28.6731     8.0726     0.0391     0.1311    71.0152     2.4225
  443.5000    13.1342    13.2346    13.4409   -28.9566     8.0732     0.0459     0.1236    71.3240     2.4352
  444.0000    12.8632    13.0547    13.0764   -28.9401     8.0586     0.0443     0.1284    72.0825     2.4450
  444.5000    12.6437    12.7886    12.9591   -29.0798     8.0594     0.0391     0.1251    72.8411     2.4389
  445.0000    12.3361    12.6658    12.8127   -29.2070     8.0300     0.0323     0.1290    73.5996     2.4239
  445.5000    12.0132    12.4182    12.8159   -29.3405     8.0155     0.0181     0.1365    71.6595     2.4032
  446.0000    11.6888    12.2743    12.8184   -29.3202     7.9862     0.0113     0.1425    70.1692     2.3706
  446.5000    11.4513    11.9977    12.8210   -29.3069     7.9719     0.0241     0.1394    69.1286     2.3699
  447.0000    11.2959    11.8581    13.0024   -29.1407     7.9875     0.0181     0.1383    68.6856     2.3827
  447.5000    11.4560    11.7807    13.0954   -29.1217     8.0031     0.0233     0.1407    69.2964     2.3778
  448.0000    11.9433    11.7824    13.3736   -29.1055     8.0186     0.0142     0.1402    69.7551     2.3706
  448.5000    12.4514    12.1451    13.4692   -28.9168     8.0342     0.0180     0.1359    70.3638     2.3834
  449.0000    13.1618    13.0730    13.5655   -28.6239     8.0647     0.0292     0.1398    70.9724     2.4036
  449.5000    13.8168    13.7768    13.9493   -28.3083     8.0504     0.0367     0.1437    71.2812     2.4179
  450.0000    14.2076    14.2855    14.2450   -28.2904     8.0307     0.0451     0.1458    70.7271     2.4051
  450.5000    14.2022    14.2278    14.7911   -28.2726     7.9997     0.0441     0.1398    70.0940     2.3976
  451.0000    13.6252    13.7287    14.4537   -28.2548     7.9781     0.0381     0.1365    69.4882     2.4246
  451.5000    13.0754    13.1634    13.8600   -28.2369     7.9792     0.0415     0.1314    68.6175     2.4145
  452.0000    12.7187    12.6404    13.3111   -28.2191     7.9652     0.0501     0.1221    70.0360     2.4307
  452.5000    12.3718    12.2978    12.6855   -28.0516     7.9665     0.0449     0.1278    71.8591     2.4501
  453.0000    11.9734    11.9011    12.3430   -27.9975     7.9825     0.0471     0.1293    73.8938     2.4388
  453.5000    11.7994    11.6606    12.4330   -27.8412     7.9985     0.0381     0.1215    75.4020     2.4268
  454.0000    11.5723    11.5862    13.1456   -27.6987     7.9996     0.0321     0.1341    76.7603     2.4170
  454.5000    11.4166    11.5898    12.6148   -28.1300     7.9854     0.0755     0.1173    75.5698     2.4650
  455.0000    11.2638    11.5147    12.1054   -28.4160     7.9565     0.0800     0.1059    73.4797     2.4823
  455.5000    11.1885    11.5199    12.1105   -28.7443     7.9576     0.0463     0.1176    71.9894     2.4500
  456.0000    11.1923    11.5254    12.2835   -28.9791     7.9436     0.0336     0.1329    72.2982     2.4215
  456.5000    11.3169    11.6101    12.3730   -29.1078     7.9297     0.0246     0.1467    73.2067     2.4020
  457.0000    11.5123    11.6954    12.4631   -29.0887     7.9310     0.0194     0.1521    73.5132     2.3967
  457.5000    11.9202    11.8630    12.5539   -28.7715     7.9168     0.0268     0.1470    71.5753     2.4005
  458.0000    12.4282    12.3702    13.0018   -28.1549     7.9028     0.0418     0.1578    70.2349     2.4057
  458.5000    13.4133    13.3525    13.9036   -27.7121     7.9041     0.0504     0.1683    67.6951     2.3825
  459.0000    14.5768    15.0229    15.4695   -27.2210     7.9052     0.0454     0.1734    64.5556     2.3577
  459.5000    16.0617    17.2563    17.2879   -26.9038     7.9361     0.0545     0.1836    60.3666     2.3449
  460.0000    18.0685    19.6852    20.2796   -26.7362     7.9372     0.0882     0.1920    56.0277     2.3344
  460.5000    20.4670    22.1478    23.2999   -26.3471     7.8933     0.1024     0.2049    54.3875     2.3082
  461.0000    23.8336    24.7470    26.9562   -25.8024     7.8195     0.1055     0.2142    53.6468     2.2969
  461.5000    26.4436    26.8973    31.6657   -25.1821     7.7457     0.1166     0.2199    53.3536     2.2916
  462.0000    28.9529    29.0333    35.8338   -24.5609     7.6719     0.1293     0.2152    53.8145     2.2841
  462.5000    31.0514    31.3388    36.5982   -23.9396     7.5981     0.1241     0.2305    54.5731     2.2729
  463.0000    32.8449    33.3632    36.6105   -23.4737     7.5386     0.1390     0.2185    55.6315     2.2894
  463.5000    33.2522    33.1471    35.3763   -23.0821     7.4804     0.1188     0.2086    56.8398     2.3021
  464.0000    31.8183    32.0288    33.7136   -22.9414     7.5132     0.0859     0.2104    58.4979     2.3031
  464.5000    30.4143    30.9462    32.8033   -22.8323     7.5897     0.0709     0.2161    59.8561     2.2954
  465.0000    29.5330    29.9003    31.2475   -22.9607     7.6484     0.0634     0.2020    59.5652     2.3066
  465.5000    28.9245    29.0900    30.0019   -23.1431     7.6644     0.0761     0.1927    58.2149     2.3232
  466.0000    28.2115    28.3015    29.3924   -23.2275     7.6655     0.0918     0.1813    57.1843     2.3361
  466.5000    27.6213    27.5679    28.6013   -23.3607     7.6665     0.0948     0.1757    58.1229     2.3540
  467.0000    27.0794    26.9969    28.2174   -23.3384     7.6825     0.0806     0.1822    59.3214     2.3463
  467.5000    26.8219    26.4784    27.8362   -23.2543     7.6985     0.0761     0.1783    60.2599     2.3547
