~VERSION INFORMATION
 VERS.                2.0:   CWLS LOG ASCII STANDARD - VERSION 2.0
 WRAP.                 NO:   ONE LINE PER DEPTH STEP
~WELL INFORMATION
#MNEM.UNIT      DATA TYPE    INFORMATION
#----------   ------------   ------------------------------
 STRT.F            0.0000:   START DEPTH
 STOP.F         4112.0000:   STOP DEPTH
 STEP.F            0.5000:   STEP LENGTH
 NULL.          -999.2500:   NO VALUE
 COMP. LAWRENCE-ALLISON &AS:   COMPANY
 WELL. N P R 3-76-1-SX #3-3:   WELL
 FLD .          N.P.R. #3:   FIELD
 LOC .       S3 T38N R78W:   LOCATION
 CNTY.            NATRONA:   COUNTY
 STAT.            WYOMING:   STATE
 CTRY. UNITED STATES OF AMERICA:   COUNTRY
 SRVC.      Dresser Atlas:   SERVICE COMPANY
 DATE.        04-SEP-1983:   LOGDATE
 API .       490251093100:   API NUMBER
~CURVE INFORMATION
#MNEM.UNIT       API CODE    CURVE DESCRIPTION
#----------   ------------   ------------------------------
 DEPT.F                  :   
 DEN .G/C3   45 350 01 00:   COMPENSATED BULK DENSTIY
 CORR.G/C3   45 356 01 00:   DENSITY CORRECTION
 PORD.DEC    45 890 12 00:   POROSITY DENSITY SANDSTONE
 CNC .DEC    42 890 03 00:   NEUTRON POROSITY SANDSTONE
 SPR .MV     07 010 01 00:   SPONTANEOUS POTENTIAL
 GRR .GAPI   07 310 01 00:   GAMMA RAY FROM RES. LOG.
 RFOC.OHMM   07 220 04 00:   RESISTIVITY FOCUSED LOG
 CALD.IN     45 280 60 00:   CALIPER
 AC  .US/F   60 520 00 00:   ACOUSTIC SONIC
 RILD.OHMM   07 120 46 00:   INDUCTION LOG DEEP RESISTIVITY
 RILM.OHMM   07 120 44 00:   INDUCTION LOG MEDIUM RESISTIVITY
~PARAMETER INFORMATION
#MNEM.UNIT          VALUE    DESCRIPTION
#----------   ------------   ------------------------------
 PD  .                 GL:   PERMANENT DATUM
 EPD .F              5147:   ELEVATION PERMANENT DATUM
 LMF .                 KB:   LOG MEASURED FROM
 DAPD.F                10:   FEET ABOVE PERMANENT DATUM
 DMF .                 KB:   DRILLING MEASURED FROM
 EKB .F              5157:   KELLING BUSHING
 EGL .F              5147:   GROUND LEVEL
 DATE.             9-4-83:   RUN DATE
 RUN .                  1:   RUN NUMBER
 DD  .F              4119:   DEPTH DRILLER
 DL  .F              4115:   DEPTH LOGGER
 BLI .F              4112:   BOTTOM LOG INTERVAL
 CS  .IN            9.625:   CASING SIZE
 CBD .F               491:   CASING BOTTOM DRILLER
 CBL .F               494:   CASING BOTTOM LOGGER
 BS  .IN             8.75:   BIT SIZE
 BSD .F              4119:   BIT SIZE AT DEPTH
 DFT .            KCL GEL:   DRILLING FLUID TYPE
 DFD .                8.9:   DRILLING FLUID DENSITY
 DFV .                 46:   DRILLING FLUID VISCOSITY
 DFPH.                  9:   DRILLING FLUID PH
 DFL .               13.6:   DRILLING FLUID LOSS
 MSS .            MUDTANK:   MUD SAMPLE SOURCE
 RMS .OHMM           .315:   RESISTIVITY MUD SAMPLE
 MST .F                92:   MUD SAMPLE TEMPERATURE
 RMF .OHMM            .25:   RESISTIVITY MUD FILTRATE SAMPLE
 MFST.F                84:   MUD FILTRATE SAMPLE TEMPERATURE
 RMC .OHMM             .4:   RESISTIVITY MUD CAKE
 MCST.F                92:   MUD CAKE SAMPLE TEMPERATURE
 MFSS.                  M:   MUD FILTRATE SAMPLE SOURCE
 MCSS.                  C:   MUD CAKE SAMPLE SOURCE
 RMB .OHMM            .22:   RESISTIVITY MUD AT BHT
 BHT .F               132:   BOTTOM HOLE TEMPERATURE
 TCS .HRS               4:   TIME CURCULATED STOPPED
 MRT .F               132:   MAXIMUM RECORDED TEMPERATURE
 LUN .               6274:   LOGGING UNIT NUMBER
 LUL .               GLTE:   LOGGING UNIT LOCATION
 ENGI.             RAUTIO:   RECORDING ENGINEER
 WITN.             STRONG:   WITNESSED BY
 CLNT.            A2DTECH:   CLIENT CODE
 ORIG. 1", 2", 2.5", 5" PRINT:   ORIGIN OF DATA
 UWI .       490251093100:   UNIQUE WELL ID
 DICO. A2D Technologies, Inc.:   DIGITIZING COMPANY
~OTHER INFORMATION
~A    DEPT     DEN       CORR       PORD        CNC        SPR          GRR     RFOC       CALD         AC       RILD       RILM   
# ...
 2897.5000     2.3218     0.1804     0.2088     0.2369   -38.8050   157.0435     3.0419     9.7948   102.3253     2.6595     2.7515
 2898.0000     2.3791     0.0642     0.1695     0.2298   -39.1407   138.2015     3.9531     9.7940    95.6004     3.0136     3.1730
 2898.5000     2.4730    -0.0082     0.1250     0.2213   -40.5141   116.6989     5.1373     9.7933    86.9387     3.4151     3.6592
 2899.0000     2.5229    -0.0091     0.0835     0.2130   -41.8686   114.1561     6.6750     9.7926    81.9585     3.8705     4.2197
 2899.5000     2.5341    -0.0068     0.0776     0.2118   -42.6110   114.6686     6.6203     9.7918    79.6404     4.3868     4.8662
 2900.0000     2.5361     0.0115     0.0731     0.2101   -43.0899   116.1988     6.4997     9.7911    78.9976     4.9721     5.6117
 2900.5000     2.5400     0.0309     0.0651     0.2172   -43.5687   117.3071     6.3811     9.7904    79.4230     5.6353     6.0832
 2901.0000     2.5380     0.0331     0.0677     0.2205   -44.0527   122.7245     6.2642     9.7896    79.8515     5.8930     6.0832
 2901.5000     2.5345     0.0178     0.0698     0.2210   -44.5365   128.2941     6.1490     9.7889    80.1768     5.9325     6.0832
 2902.0000     2.5385     0.0084     0.0677     0.2237   -44.7700   132.3523     6.0826     9.7882    80.4743     5.9720     6.0832
 2902.5000     2.5422     0.0323     0.0659     0.2265   -44.9259   127.9262     6.1543     9.7874    80.7391     6.0117     6.0832
 2903.0000     2.5433     0.0274     0.0653     0.2257   -45.0802   121.2446     6.2236     9.7867    80.9675     6.0517     6.0832
 2903.5000     2.5406     0.0159     0.0657     0.2312   -45.2386   122.2830     6.2937     9.7860    80.8865     6.0917     6.0832
 2904.0000     2.5381     0.0051     0.0670     0.2360   -45.3943   122.0523     6.3646     9.7853    80.7965     6.1325     6.1009
 2904.5000     2.5357     0.0267     0.0689     0.2386   -45.5533   119.4304     6.4362     9.7845    80.7079     6.1737     6.1686
 2905.0000     2.5333     0.0380     0.0707     0.2318   -45.7106   120.3462     6.5087     9.7838    80.7166     6.2152     6.2370
 2905.5000     2.5307     0.0333     0.0715     0.2209   -45.8073   123.4823     6.5820     9.7831    80.8504     6.2569     6.3062
 2906.0000     2.5324     0.0318     0.0708     0.2219   -45.7065   128.6688     6.6561     9.7823    80.9843     6.2990     6.3761
 2906.5000     2.5362     0.0435     0.0693     0.2233   -45.6033   128.4815     6.7311     9.7816    81.0050     6.2613     6.4468
 2907.0000     2.5380     0.0490     0.0678     0.2206   -45.4827   130.7212     6.7896     9.7809    80.6203     6.1956     6.5183
 2907.5000     2.5368     0.0370     0.0680     0.2177   -45.5502   134.3809     6.9309     9.7802    80.1697     6.1306     6.5906
 2908.0000     2.5359     0.0257     0.0686     0.2145   -45.8707   132.7846     7.1011     9.7794    79.7831     6.0663     6.6664
 2908.5000     2.5353     0.0123     0.0691     0.2224   -46.1759   131.4215     7.2755     9.7787    79.4711     6.0026     6.6329
 2909.0000     2.5343     0.0169     0.0684     0.2313   -46.4781   129.9632     7.4406     9.7780    79.6747     5.9396     6.4739
 2909.5000     2.5378     0.0318     0.0675     0.2345   -46.7870   131.8949     7.0406     9.7772    80.1767     5.8773     6.3188
 2910.0000     2.5341     0.0477     0.0693     0.2345   -47.0939   133.8778     6.6880     9.7765    81.3854     5.8156     6.1673
 2910.5000     2.5306     0.0304     0.0715     0.2431   -47.3947   132.6402     6.3531     9.7758    82.7545     5.7580     6.0195
 2911.0000     2.5272     0.0094     0.0740     0.2548   -47.7077   129.6265     6.0349     9.7750    83.8942     5.6951     5.8752
 2911.5000     2.5226     0.0011     0.0763     0.2605   -48.0267   126.5458     5.7327     9.7743    84.3720     5.6362     5.7580
 2912.0000     2.5262     0.0081     0.0740     0.2495   -48.2222   123.4612     5.3514     9.7736    83.8186     5.5779     5.7580
 2912.5000     2.5315     0.0029     0.0715     0.2343   -47.9130   121.2572     5.3759     9.7729    83.1756     5.5202     5.8137
 2913.0000     2.5302    -0.0096     0.0722     0.2268   -47.6051   122.5097     5.4503     9.7721    82.5649     5.4631     6.0145
 2913.5000     2.5284    -0.0101     0.0731     0.2294   -47.2908   120.5559     5.6834     9.7714    82.2620     5.6322     6.2223
 2914.0000     2.5318     0.0066     0.0711     0.2301   -46.9719   116.9301     5.8941     9.7707    81.9536     5.8765     6.4373
 2914.5000     2.5354     0.0224     0.0690     0.2294   -46.6627   113.4068     6.0832     9.7699    81.6341     6.1314     6.6597
 2915.0000     2.5400     0.0380     0.0669     0.2275   -46.3451   112.5552     6.5605     9.7692    80.7485     6.3973     6.8898
 2915.5000     2.5465     0.0445     0.0648     0.2222   -46.0127   113.8539     7.0131     9.7685    79.2425     6.6745     7.1279
 2916.0000     2.5447     0.0278     0.0658     0.2136   -45.7950   115.0744     7.4970     9.7677    77.7365     6.9637     7.3741
 2916.5000     2.5399     0.0136     0.0680     0.2038   -45.7542   116.2347     8.0142     9.7670    76.2305     7.2651     7.6289
 2917.0000     2.5348    -0.0020     0.0701     0.1941   -45.6962   117.5333     8.5672     9.7663    75.2508     7.5793     7.8925
 2917.5000     2.5322    -0.0114     0.0702     0.1839   -45.6320   116.8930     9.1008     9.7655    74.7439     8.0105     8.1651
 2918.0000     2.5339    -0.0038     0.0695     0.1855   -45.5798   115.3068     9.2708     9.7648    74.5441     8.0019     8.4581
 2918.5000     2.5352     0.0010     0.0688     0.1917   -45.5202   115.8435     9.0950     9.7641    74.5419     8.1222     8.2440
 2919.0000     2.5354     0.0065     0.0686     0.1991   -45.4448   119.0043     8.9159     9.7634    75.0439     7.9923     8.1414
 2919.5000     2.5330     0.0112     0.0697     0.2050   -45.5960   122.0288     8.7403     9.7626    75.8337     7.8649     8.0401
 2920.0000     2.5306     0.0161     0.0714     0.2095   -45.9310   124.7955     8.5682     9.7619    76.7301     7.7397     7.9401
 2920.5000     2.5282     0.0018     0.0734     0.2137   -46.2656   127.9345     8.3996     9.7612    77.6747     7.6165     7.8413
 2921.0000     2.5257    -0.0140     0.0753     0.2132   -46.5835   126.2299     8.2343     9.7604    78.1118     7.4949     7.7437
 2921.5000     2.5234    -0.0142     0.0773     0.2123   -46.8608   122.6287     8.0723     9.7597    78.3733     7.3750     7.6473
 2922.0000     2.5208     0.0055     0.0787     0.2114   -47.5586   118.4388     7.9135     9.7590    78.4103     7.2570     7.5522
 2922.5000     2.5229     0.0245     0.0759     0.2104   -48.5454   114.7880     7.8374     9.7583    78.4489     7.1409     7.4582
 2923.0000     2.5276     0.0427     0.0739     0.2095   -49.4865   117.5984     7.7569     9.7575    78.5535     7.0257     7.3654
 2923.5000     2.5242     0.0597     0.0769     0.2095   -50.1883   121.4174     7.6773     9.7568    78.7725     6.9130     7.2739
 2924.0000     2.5198     0.0481     0.0799     0.2125   -50.1920   125.4245     7.5984     9.7561    79.1559     6.7896     7.1726
 2924.5000     2.5148     0.0244     0.0819     0.2156   -50.1912   127.5176     7.5199     9.7553    79.4711     6.8458     7.2199
 2925.0000     2.5175     0.0183     0.0811     0.2169   -50.3433   125.7581     7.4415     9.7550    79.3713     6.9151     7.3128
 2925.5000     2.5278     0.0373     0.0749     0.2255   -50.6310   122.7753     7.7159     9.7550    78.7927     6.9874     7.4071
 2926.0000     2.5373     0.0528     0.0697     0.2328   -50.9111   119.6767     7.9999     9.7550    78.3293     7.0604     7.5030
 2926.5000     2.5476     0.0443     0.0645     0.2361   -51.1831   120.6277     8.2995     9.7550    77.8743     7.1342     7.6003
 2927.0000     2.5499     0.0318     0.0594     0.2260   -51.4561   121.6803     8.1660     9.7550    77.9435     7.2088     7.6987
 2927.5000     2.5520     0.0248     0.0590     0.2173   -51.7387   120.2732     8.0323     9.7550    78.0550     7.2841     7.7976
