~VERSION INFORMATION
 VERS.                2.0:   CWLS LOG ASCII STANDARD - VERSION 2.0
 WRAP.                 NO:   ONE LINE PER DEPTH STEP
~WELL INFORMATION
#MNEM.UNIT      DATA TYPE    INFORMATION
#----------   ------------   ------------------------------
 STRT.F           20.0000:   START DEPTH
 STOP.F          478.0000:   STOP DEPTH
 STEP.F            0.5000:   STEP LENGTH
 NULL.          -999.2500:   NO VALUE
 COMP. FENIX & SCISSON INC:   COMPANY
 WELL.   56 31 SX #56-3FP:   WELL
 FLD .             TEAPOT:   FIELD
 LOC .       S3 T38N R78W:   LOCATION
 CNTY.            NATRONA:   COUNTY
 STAT.            WYOMING:   STATE
 CTRY. UNITED STATES OF AMERICA:   COUNTRY
 SRVC.              Welex:   SERVICE COMPANY
 DATE.        06-JUN-1980:   LOGDATE
 API .       490251082300:   API NUMBER
~CURVE INFORMATION
#MNEM.UNIT       API CODE    CURVE DESCRIPTION
#----------   ------------   ------------------------------
 DEPT.F                  :   
 RHOB.G/C3   45 350 01 00:   BULK DENSITY
 CORR.G/C3   45 356 01 00:   DENSITY CORRECTION
 GRD .GAPI   45 310 01 00:   GAMMA RAY FROM DENSITY LOG
 CALD.IN     45 280 60 00:   CALIPER
 DPHI.DEC    45 890 12 00:   DENSITY POROSITY SANDSTONE
 NPHI.DEC    42 890 03 00:   NEUTRON POROSITY SANDSTONE
 SPR .MV     07 010 01 00:   SPONTANEOUS POTENTIAL
 ILD .OHMM   07 120 46 00:   INDUCTION LOG DEEP
 ILM .OHMM   07 120 44 00:   INDUCTION LOG MEDIUM
 SGRD.OHMM   07 220 05 00:   SHALLOW GUARD RESISTIVITY
~PARAMETER INFORMATION
#MNEM.UNIT          VALUE    DESCRIPTION
#----------   ------------   ------------------------------
 PD  .                 GL:   PERMANENT DATUM
 EPD .F              5173:   ELEVATION PERMANENT DATUM
 LMF .                 KB:   LOG MEASURED FROM
 DAPD.F                 5:   FEET ABOVE PERMANENT DATUM
 DMF .                 KB:   DRILLING MEASURED FROM
 EKB .F              5178:   KELLING BUSHING
 EGL .F              5173:   GROUND LEVEL
 DATE.             6-6-80:   RUN DATE
 RUN .                  1:   RUN NUMBER
 DD  .F               450:   DEPTH DRILLER
 DL  .F               476:   DEPTH LOGGER
 BLI .F               474:   BOTTOM LOG INTERVAL
 TLI .F                30:   TOP LOG INTERVAL
 BS  .IN            9.875:   BIT SIZE
 BSD .F               450:   BIT SIZE AT DEPTH
 DFT .            KCL MUD:   DRILLING FLUID TYPE
 DFD .                9.5:   DRILLING FLUID DENSITY
 DFV .                 48:   DRILLING FLUID VISCOSITY
 DFPH.                7.5:   DRILLING FLUID PH
 DFL .                  7:   DRILLING FLUID LOSS
 MSS .           FLOWLINE:   MUD SAMPLE SOURCE
 RMS .OHMM           1.56:   RESISTIVITY MUD SAMPLE
 MST .F                62:   MUD SAMPLE TEMPERATURE
 RMF .OHMM           1.24:   RESISTIVITY MUD FILTRATE SAMPLE
 MFST.F                62:   MUD FILTRATE SAMPLE TEMPERATURE
 RMC .OHMM           1.87:   RESISTIVITY MUD CAKE
 MCST.F                62:   MUD CAKE SAMPLE TEMPERATURE
 MFSS.           MEASURED:   MUD FILTRATE SAMPLE SOURCE
 MCSS.           MEASURED:   MUD CAKE SAMPLE SOURCE
 RMB .OHMM           1.32:   RESISTIVITY MUD AT BHT
 BHT .F                73:   BOTTOM HOLE TEMPERATURE
 TCS .HRS               6:   TIME CURCULATED STOPPED
 MRT .F                73:   MAXIMUM RECORDED TEMPERATURE
 LUN .               1892:   LOGGING UNIT NUMBER
 LUL .             CASPER:   LOGGING UNIT LOCATION
 ENGI.               REIN:   RECORDING ENGINEER
 WITN.              AMEND:   WITNESSED BY
 CLNT.            A2DTECH:   CLIENT CODE
 ORIG.        2" 5" PRINT:   ORIGIN OF DATA
 UWI .       490251082300:   UNIQUE WELL ID
 DICO. A2D Technologies, Inc.:   DIGITIZING COMPANY
~OTHER INFORMATION
~A   DEPT     RHOB       CORR        GRD       CALD       DPHI       NPHI        SPR          ILD        ILM     SGRD   
# ...
  187.5000     2.4289     0.0515    89.1603     9.9505     0.1518     0.3257   -34.6627     3.2207     4.1610     4.3637
  188.0000     2.4418     0.0576    89.0782     9.9505     0.1490     0.3204   -34.4550     3.3773     4.1725     4.3989
  188.5000     2.4132     0.0339    88.9975     9.9505     0.1566     0.3169   -34.2461     3.3660     4.1840     4.4437
  189.0000     2.4289     0.0369    88.9169     9.9505     0.1517     0.3246   -34.1106     3.3444     4.1955     4.4927
  189.5000     2.4455     0.0479    88.8366     9.9505     0.1455     0.3226   -34.0282     3.3229     4.2110     4.5423
  190.0000     2.4433     0.0591    88.7582     9.9505     0.1446     0.3201   -33.9713     3.2385     4.1377     4.6164
  190.5000     2.4485     0.0595    88.8136     9.9505     0.1439     0.3245   -34.2838     3.1259     4.0302     4.5338
  191.0000     2.4155     0.0448    89.0355     9.9505     0.1638     0.3229   -34.5986     3.0172     3.7367     4.3032
  191.5000     2.3904     0.0298    89.2553     9.9505     0.1819     0.3295   -34.9114     2.9123     3.1560     3.7751
  192.0000     2.3672     0.0264    89.4773     9.9505     0.1925     0.3355   -35.2258     2.8110     2.8623     3.4402
  192.5000     2.3676     0.0352    89.7017     9.9487     0.1917     0.3415   -35.4278     2.7087     3.4400     3.5484
  193.0000     2.3901     0.0524    89.8701     9.9461     0.1726     0.3471   -35.4814     2.7087     3.2802     3.6018
  193.5000     2.3960     0.0576    89.2691     9.9435     0.1780     0.3462   -35.2651     2.7089     3.1793     3.5584
  194.0000     2.3900     0.0479    88.6684     9.9409     0.1824     0.3473   -35.0608     2.7080     3.1092     3.5362
  194.5000     2.3903     0.0431    88.0713     9.9383     0.1683     0.3457   -34.9398     2.7704     3.9641     4.0870
  195.0000     2.4067     0.0499    87.4747     9.9357     0.1658     0.3465   -34.9411     2.8281     4.1725     4.3023
  195.5000     2.4077     0.0447    86.9383     9.9331     0.1625     0.3416   -34.9409     2.9117     4.1040     4.3268
  196.0000     2.4176     0.0477    86.9742     9.9305     0.1594     0.3363   -34.9407     3.0289     4.0610     4.4685
  196.5000     2.4299     0.0515    87.0206     9.9279     0.1544     0.3309   -34.9429     3.1516     4.3488     4.6914
  197.0000     2.4455     0.0553    87.0635     9.9253     0.1498     0.3313   -34.7925     3.2790     4.6350     4.9235
  197.5000     2.4373     0.0590    87.1002     9.9226     0.1468     0.3286   -34.5586     3.4116     4.9232     5.1670
  198.0000     2.4448     0.0608    86.7706     9.9200     0.1472     0.3249   -34.3226     3.5362     5.0024     5.2689
  198.5000     2.4325     0.0495    86.0364     9.9174     0.1423     0.3281   -34.0864     3.6309     5.0792     5.2954
  199.0000     2.4491     0.0631    85.3085     9.9148     0.1457     0.3246   -33.8505     3.7196     5.1572     5.3220
  199.5000     2.4471     0.0592    84.5608     9.9122     0.1498     0.3317   -33.6146     3.8104     5.2024     5.3478
  200.0000     2.4400     0.0492    84.6745     9.9115     0.1479     0.3297   -33.3784     3.8412     5.0919     5.2729
  200.5000     2.4416     0.0510    85.1087     9.9126     0.1479     0.3334   -33.1425     3.8412     5.0154     5.2024
  201.0000     2.4387     0.0573    85.5537     9.9137     0.1457     0.3376   -32.9086     3.8412     4.9403     5.1328
  201.5000     2.4453     0.0637    85.9987     9.9149     0.1407     0.3413   -32.8368     3.8412     4.8664     5.0642
  202.0000     2.4526     0.0681    86.4442     9.9160     0.1487     0.3404   -32.9803     3.8412     4.7935     4.9965
  202.5000     2.4377     0.0629    86.8922     9.9171     0.1525     0.3378   -33.1213     3.7591     4.7222     4.9297
  203.0000     2.4363     0.0619    87.4108     9.9183     0.1473     0.3329   -33.2631     3.6764     4.6526     4.8637
  203.5000     2.4446     0.0686    87.9392     9.9194     0.1535     0.3280   -33.4048     3.5955     4.5959     4.7987
  204.0000     2.4416     0.0737    88.4713     9.9206     0.1602     0.3240   -33.5462     3.5164     4.5398     4.7342
  204.5000     2.4262     0.0623    89.0027     9.9217     0.1689     0.3269   -33.6872     3.4391     4.4845     4.6726
  205.0000     2.4101     0.0509    89.5339     9.9228     0.1783     0.3262   -33.7304     3.3634     4.4298     4.5570
  205.5000     2.3937     0.0397    90.0651     9.9240     0.1808     0.3268   -33.6693     3.2894     4.3757     4.4621
  206.0000     2.3896     0.0392    90.5963     9.9251     0.1807     0.3302   -33.6101     3.2171     4.3114     4.3681
  206.5000     2.3889     0.0398    91.1559     9.9263     0.1837     0.3336   -33.6011     3.1463     4.1700     4.2761
  207.0000     2.3819     0.0364    91.0699     9.9274     0.1935     0.3373   -33.8096     3.0771     4.0331     4.1860
  207.5000     2.3636     0.0231    90.7748     9.9285     0.2020     0.3349   -34.0129     3.0094     3.9030     3.9751
  208.0000     2.3515     0.0100    90.4708     9.9297     0.2077     0.3365   -34.2135     2.9423     3.4881     3.8060
  208.5000     2.3409     0.0007    90.1678     9.9308     0.2089     0.3351   -34.3542     2.9509     3.0493     4.0125
  209.0000     2.3441     0.0089    89.8651     9.9321     0.1941     0.3309   -34.3484     2.9618     3.4659     4.2604
  209.5000     2.3600     0.0170    89.5636     9.9333     0.1768     0.3265   -34.0417     2.9985     4.1125     4.5237
  210.0000     2.3936     0.0249    89.2598     9.9346     0.1647     0.3245   -33.6972     3.0967     4.6850     4.8033
  210.5000     2.4206     0.0323    89.1012     9.9358     0.1584     0.3144   -33.3527     3.1981     4.7739     5.1001
  211.0000     2.4276     0.0325    89.0773     9.9371     0.1557     0.3125   -33.0080     3.3028     4.8650     5.1547
  211.5000     2.4241     0.0325    89.0560     9.9383     0.1630     0.3150   -32.6648     3.4109     4.9232     5.1547
  212.0000     2.4259     0.0327    89.0352     9.9396     0.1684     0.3150   -32.3765     3.5226     4.9001     5.1202
  212.5000     2.4072     0.0224    89.0141     9.9408     0.1730     0.3127   -32.3970     3.6252     4.8781     5.0609
  213.0000     2.4059     0.0192    88.9930     9.9421     0.1714     0.3141   -32.4117     3.7019     4.9402     5.1463
  213.5000     2.4021     0.0206    88.9720     9.9433     0.1735     0.3175   -32.4256     3.7803     5.0315     5.2727
  214.0000     2.3942     0.0119    88.9515     9.9446     0.1758     0.3192   -32.4393     3.8602     5.1244     5.3559
  214.5000     2.4015     0.0119    88.9326     9.9459     0.1687     0.3156   -32.4531     3.8802     5.2038     5.3752
  215.0000     2.4121     0.0139    88.8914     9.9471     0.1611     0.3129   -32.4668     3.8846     5.2068     5.3946
  215.5000     2.4219     0.0160    88.5328     9.9484     0.1586     0.3151   -32.4806     3.8891     5.2106     5.4141
  216.0000     2.4323     0.0220    88.1816     9.9496     0.1533     0.3182   -32.4943     3.8935     5.2144     5.4337
  216.5000     2.4402     0.0286    87.8325     9.9505     0.1481     0.3257   -32.5081     3.8979     5.2182     5.4533
  217.0000     2.4463     0.0353    87.5360     9.9505     0.1459     0.3278   -32.5218     3.9024     5.2220     5.4731
  217.5000     2.4436     0.0419    87.9345     9.9505     0.1476     0.3286   -32.5356     3.9067     5.2258     5.4970
  218.0000     2.4439     0.0427    88.3168     9.9505     0.1500     0.3278   -32.5493     3.9118     5.2297     5.4914
  218.5000     2.4363     0.0446    88.6971     9.9505     0.1500     0.3258   -32.5634     3.8839     5.2335     5.4838
  219.0000     2.4499     0.0545    89.0854     9.9505     0.1447     0.3238   -32.5788     3.8457     5.2373     5.4762
  219.5000     2.4420     0.0581    89.2106     9.9505     0.1525     0.3217   -32.5155     3.8077     5.2411     5.4686
  220.0000     2.4291     0.0462    89.3183     9.9505     0.1618     0.3198   -32.4412     3.7712     5.2449     5.4610
  220.5000     2.4213     0.0485    89.4279     9.9505     0.1610     0.3247   -32.3430     3.7778     5.2501     5.4534
