~VERSION INFORMATION
 VERS.                2.0:   CWLS LOG ASCII STANDARD - VERSION 2.0
 WRAP.                 NO:   ONE LINE PER DEPTH STEP
~WELL INFORMATION
#MNEM.UNIT      DATA TYPE    INFORMATION
#----------   ------------   ------------------------------
 STRT.F            0.0000:   START DEPTH
 STOP.F          542.0000:   STOP DEPTH
 STEP.F            0.5000:   STEP LENGTH
 NULL.          -999.2500:   NO VALUE
 COMP. LAWRENCE/ALLISON INC:   COMPANY
 WELL.          SX #12-11:   WELL
 FLD .             TEAPOT:   FIELD
 LOC .      S11 T38N R78W:   LOCATION
 CNTY.            NATRONA:   COUNTY
 STAT.            WYOMING:   STATE
 CTRY. UNITED STATES OF AMERICA:   COUNTRY
 SRVC.           Gearhart:   SERVICE COMPANY
 DATE.        16-SEP-1988:   LOGDATE
 API .       490251124300:   API NUMBER
~CURVE INFORMATION
#MNEM.UNIT       API CODE    CURVE DESCRIPTION
#----------   ------------   ------------------------------
 DEPT.F                  :   
 GRR .GAPI   07 310 01 00:   GAMMA RAY FROM RES. LOG.
 RLL .OHMM   07 220 00 00:   LATEROLOG RESISTIVITY
 RILD.OHMM   07 120 46 00:   INDUCTION LOG DEEP RESISTIVITY
 RILM.OHMM   07 120 44 00:   INDUCTION LOG MEDIUM RESISTIVITY
 SPR .MV     07 010 01 00:   SPONTANEOUS POTENTIAL
~PARAMETER INFORMATION
#MNEM.UNIT          VALUE    DESCRIPTION
#----------   ------------   ------------------------------
 PD  .                 GL:   PERMANENT DATUM
 EPD .F              5163:   ELEVATION PERMANENT DATUM
 LMF .                 KB:   LOG MEASURED FROM
 DAPD.F                10:   FEET ABOVE PERMANENT DATUM
 DMF .                 KB:   DRILLING MEASURED FROM
 EKB .F              5173:   KELLING BUSHING
 EDF .F              5172:   DRILLING FLOOR
 EGL .F              5163:   GROUND LEVEL
 DATE.            9-16-88:   RUN DATE
 RUN .                  1:   RUN NUMBER
 DD  .F               550:   DEPTH DRILLER
 DL  .F               545:   DEPTH LOGGER
 BLI .F               542:   BOTTOM LOG INTERVAL
 CS  .IN            9.625:   CASING SIZE
 CBD .F                50:   CASING BOTTOM DRILLER
 CBL .F                50:   CASING BOTTOM LOGGER
 BS  .IN             8.75:   BIT SIZE
 BSD .F               550:   BIT SIZE AT DEPTH
 DFT .                MUD:   DRILLING FLUID TYPE
 MSS .           FLOWLINE:   MUD SAMPLE SOURCE
 RMS .OHMM            .55:   RESISTIVITY MUD SAMPLE
 MST .F                70:   MUD SAMPLE TEMPERATURE
 RMF .OHMM            .42:   RESISTIVITY MUD FILTRATE SAMPLE
 MFST.F                71:   MUD FILTRATE SAMPLE TEMPERATURE
 RMC .OHMM            .71:   RESISTIVITY MUD CAKE
 MCST.F                71:   MUD CAKE SAMPLE TEMPERATURE
 MFSS.                  M:   MUD FILTRATE SAMPLE SOURCE
 MCSS.                  M:   MUD CAKE SAMPLE SOURCE
 RMB .OHMM            .30:   RESISTIVITY MUD AT BHT
 BHT .F                81:   BOTTOM HOLE TEMPERATURE
 TCS .HRS            1430:   TIME CURCULATED STOPPED
 TLAB.HRS            1900:   TIME LOGGER AT BOTTOM
 MRT .F                81:   MAXIMUM RECORDED TEMPERATURE
 LUN .               7597:   LOGGING UNIT NUMBER
 LUL .           GILLETTE:   LOGGING UNIT LOCATION
 ENGI.     BENCK/ROUSSEAU:   RECORDING ENGINEER
 WITN.             STRONG:   WITNESSED BY
 CLNT.            A2DTECH:   CLIENT CODE
 ORIG.        2" 5" PRINT:   ORIGIN OF DATA
 UWI .       490251124300:   UNIQUE WELL ID
 DICO. A2D Technologies, Inc.:   DIGITIZING COMPANY
~OTHER INFORMATION
~A    DEPT      GRR       RLL       RILD       RILM        SPR   
# ...
  305.0000   125.0257     7.0689     6.2159     6.1696   -52.4913
  305.5000   127.1757     6.9758     5.9414     5.8144   -52.5983
  306.0000   128.3312     6.8089     5.6790     5.4797   -52.7080
  306.5000   127.3637     6.3359     5.4282     5.1642   -52.6031
  307.0000   126.9108     5.8836     5.1892     4.8670   -52.3324
  307.5000   129.3458     5.5406     5.0936     4.5868   -52.0570
  308.0000   130.6473     5.5927     5.2861     4.4248   -52.0089
  308.5000   130.4126     5.7741     5.5411     4.8430   -52.1274
  309.0000   126.0612     5.9397     5.8085     5.1672   -52.2476
  309.5000   121.6974     6.4297     6.0888     5.5132   -52.3269
  310.0000   122.5159     7.0445     6.3826     5.8823   -52.1816
  310.5000   124.1489     7.7181     6.6906     6.0810   -52.0396
  311.0000   125.7884     7.9905     7.0135     6.3224   -51.8982
  311.5000   127.4244     7.9944     7.3717     6.5734   -51.7569
  312.0000   129.0780     8.0035     7.5119     6.8349   -51.6165
  312.5000   130.5319     8.0104     7.6191     7.1059   -51.5228
  313.0000   127.4159     8.0175     7.6908     7.2039   -51.4853
  313.5000   124.0792     8.0246     7.6246     7.1824   -51.4471
  314.0000   120.8550     8.0318     7.5623     7.1680   -51.4090
  314.5000   124.3150     8.0389     7.5006     7.1539   -51.3694
  315.0000   128.5851     8.0460     7.4390     7.1399   -51.3143
  315.5000   131.7817     8.0529     7.4080     7.1259   -52.0411
  316.0000   130.8325     8.0598     7.4459     7.1119   -52.4670
  316.5000   128.5439     8.0121     7.4720     7.0980   -52.2575
  317.0000   126.2142     7.9694     7.4979     7.0838   -52.0541
  317.5000   123.8740     7.9266     7.5239     7.0689   -51.8482
  318.0000   121.7755     7.8840     7.5500     7.1342   -51.7435
  318.5000   123.1274     7.8417     7.5763     7.2062   -51.9540
  319.0000   124.5671     7.7996     7.6026     7.2701   -52.1016
  319.5000   126.0091     7.7632     7.6289     7.1277   -51.4756
  320.0000   125.2234     7.9101     7.6554     7.0689   -50.9162
  320.5000   124.0802     8.0224     7.6820     7.0689   -50.4877
  321.0000   124.3376     8.1436     7.7090     7.1033   -50.9870
  321.5000   125.1794     8.2667     7.7365     7.1663   -51.5353
  322.0000   127.4626     8.4463     7.7660     7.2299   -51.8667
  322.5000   129.8761     8.4141     7.5184     7.2704   -51.5045
  323.0000   132.2809     8.3577     7.1050     7.1049   -51.1614
  323.5000   132.7441     8.3016     6.7143     6.9864   -50.8203
  324.0000   131.0927     8.0550     6.3451     6.6111   -50.4826
  324.5000   129.4518     7.6691     5.8609     6.0878   -50.5140
  325.0000   128.4869     7.3017     5.9532     5.6058   -50.9394
  325.5000   128.2474     6.9519     6.1421     5.3367   -51.3622
  326.0000   130.5239     6.6189     6.1032     5.2870   -51.7416
  326.5000   133.1024     6.4366     6.0555     5.4673   -51.1449
  327.0000   135.8649     6.4366     6.0081     5.5957   -50.4525
  327.5000   139.0057     6.9204     5.9611     5.7293   -50.9705
  328.0000   137.6731     7.6908     5.9145     5.8063   -51.8961
  328.5000   134.8865     7.6908     5.8611     5.8063   -51.3591
  329.0000   133.2199     7.2865     5.8760     5.5923   -51.7295
  329.5000   131.5658     6.7980     5.8938     5.3944   -52.3038
  330.0000   130.8009     6.3418     5.9118     5.2034   -52.1878
  330.5000   132.6140     6.0249     5.9298     5.0925   -51.7714
  331.0000   134.4258     5.9678     5.9479     5.3548   -51.3398
  331.5000   136.0696     5.9718     5.9660     5.6132   -50.9045
  332.0000   136.2553     6.7445     6.1230     5.8841   -50.7953
  332.5000   136.0060     7.2796     6.3253     6.0280   -50.9311
  333.0000   134.7357     7.3732     6.5343     6.0562   -51.0716
  333.5000   131.2812     7.4049     6.7502     6.1139   -51.2113
  334.0000   127.6568     7.4031     6.9732     6.4090   -51.2861
  334.5000   124.0050     7.5885     7.2035     6.7182   -51.0047
  335.0000   122.5195     7.9547     7.4025     6.8089   -50.7278
  335.5000   122.4883     8.3386     7.4844     6.8730   -50.4509
  336.0000   122.8640     8.7410     6.8033     6.3097   -50.1714
  336.5000   123.4900     9.0188     6.3929     5.9150   -49.9188
  337.0000   124.1568     7.9517     6.0078     5.5451   -50.3319
  337.5000   125.7314     7.2365     5.6763     5.1983   -50.7719
  338.0000   127.3495     6.5792     5.5296     4.8594   -50.9981
  338.5000   128.9638     6.1920     5.4377     4.8594   -50.2574
  339.0000   130.5809     6.5990     5.6288     4.9052   -49.7225
  339.5000   132.1638     7.0736     5.8495     5.1138   -50.1967
  340.0000   131.9345     7.5824     6.0790     5.4389   -50.5838
  340.5000   128.9818     8.1356     6.3174     5.7846   -50.9690
  341.0000   126.0828     8.0416     6.5652     6.1523   -51.2848
  341.5000   123.0823     7.9474     6.8227     6.5434   -50.6722
  342.0000   125.3504     7.9101     7.0903     6.8730   -50.2473
  342.5000   130.3579     8.1219     7.3684     7.1119   -50.1478
  343.0000   135.0963     8.2764     7.6574     7.3581   -50.2129
  343.5000   135.3317     8.4340     7.9577     7.6129   -50.2850
  344.0000   130.7919     8.5944     8.1659     7.7901   -50.1470
  344.5000   126.0606     8.7580     8.2374     7.8537   -49.9085
  345.0000   123.6058     8.9247     8.3096     7.9178   -49.6681
  345.5000   122.4219     9.0188     8.3825     7.9824   -49.4859
  346.0000   121.3776     8.9740     8.4560     8.0475   -49.4894
  346.5000   122.4283     8.9433     8.5258     8.1131   -49.4897
  347.0000   124.1276     8.9124     8.4653     8.1356   -49.4898
  347.5000   125.8650     8.8817     8.4086     8.0704   -49.4899
  348.0000   127.2352     8.8511     8.3520     8.0192   -49.4898
  348.5000   124.0987     8.8206     8.2959     7.9682   -49.4884
  349.0000   120.9705     8.7903     8.2404     7.9177   -49.4106
  349.5000   117.8814     8.7689     8.2122     7.8674   -49.2480
  350.0000   118.7149     8.8315     8.3580     7.8174   -49.0862
  350.5000   119.9945     8.8892     8.4572     7.7632   -48.9135
  351.0000   121.2805     8.9473     8.5576     7.9042   -49.0753
  351.5000   122.6067     9.0057     8.6592     8.0623   -49.3502
  352.0000   122.9001     9.0645     8.7625     8.2235   -49.6281
  352.5000   122.9211     9.1496     8.8678     8.3880   -49.9044
  353.0000   120.7239     9.2871     9.0182     8.5558   -50.1836
  353.5000   116.7489     9.4266     8.6170     8.7269   -50.2112
  354.0000   112.8161     9.6302     7.9335     8.7694   -50.0466
  354.5000   111.1370     9.2508     7.3042     7.5236   -49.8792
  355.0000   113.7934     8.6182     6.7249     6.5940   -49.7114
  355.5000   116.3936     8.0288     6.3425     5.7787   -49.5440
  356.0000   118.9748     7.4798     6.0848     5.0611   -49.3765
  356.5000   124.1172     7.2704     6.1654     4.6816   -49.2087
  357.0000   130.7722     7.2704     6.2514     4.6734   -49.0399
  357.5000   133.9954     7.5885     6.3207     5.4346   -48.8856
  358.0000   128.4975     8.4100     6.8387     6.1834   -48.9967
  358.5000   121.3251     9.3203     7.4246     7.0030   -49.1169
  359.0000   115.5717    10.2830     8.0607     7.2704   -49.2361
  359.5000   114.4041    10.3755     8.7513     7.9263   -49.3551
  360.0000   113.1683    10.4650     9.5010     8.6567   -49.4736
  360.5000   112.1872    10.5554    10.1498     9.4545   -49.4675
  361.0000   114.4304    10.6768    10.3701     9.9979   -49.4182
  361.5000   116.9305    10.6383    10.5955    10.2830   -49.3692
  362.0000   119.4373    10.5615    10.8249    10.0703   -49.3201
  362.5000   121.6691    10.4775    11.0591     9.8123   -49.2727
  363.0000   121.7085    10.3798    11.2981     9.8123   -49.2221
  363.5000   121.6713    10.3798    11.5432     9.8123   -49.1731
  364.0000   118.6235    10.6757    12.6173    10.6977   -49.1242
  364.5000   110.8615    11.7221    14.1662    12.4559   -49.0752
  365.0000   103.0057    13.5062    15.9034    14.5030   -49.0262
  365.5000    95.1522    15.5617    17.8545    16.8865   -48.9776
