~VERSION INFORMATION
 VERS.                2.0:   CWLS LOG ASCII STANDARD - VERSION 2.0
 WRAP.                 NO:   ONE LINE PER DEPTH STEP
~WELL INFORMATION
#MNEM.UNIT      DATA TYPE    INFORMATION
#----------   ------------   ------------------------------
 STRT.F            0.0000:   START DEPTH
 STOP.F         3139.0000:   STOP DEPTH
 STEP.F            0.5000:   STEP LENGTH
 NULL.          -999.2500:   NO VALUE
 COMP. BROWN JOHN E&C INC:   COMPANY
 WELL.       TX-10 #63-10:   WELL
 FLD .             TEAPOT:   FIELD
 LOC .      S10 T38N R78W:   LOCATION
 CNTY.            NATRONA:   COUNTY
 STAT.            WYOMING:   STATE
 CTRY. UNITED STATES OF AMERICA:   COUNTRY
 SRVC.       Schlumberger:   SERVICE COMPANY
 DATE.        05-OCT-1982:   LOGDATE
 API .       490251090100:   API NUMBER
~CURVE INFORMATION
#MNEM.UNIT       API CODE    CURVE DESCRIPTION
#----------   ------------   ------------------------------
 DEPT.F                  :   
 DPHI.DEC    45 890 12 00:   DENSITY POROSITY  SANDSTONE
 GRD .GAPI   45 310 01 00:   GAMMA RAY FROM DENSITY LOG
 NPHI.DEC    42 890 03 00:   NEUTRON POROSITY SANDSTONE
 CALD.IN     45 280 60 00:   CALIPER FROM DENSITY LOG
 CORR.G/C3   45 356 01 00:   DENSITY CORRECTION
 RHOB.G/C3   45 350 01 00:   BULK DENSITY
 ILD .OHMM   07 120 46 00:   INDUCTION LOG DEEP
 ILM .OHMM   07 120 44 00:   INDUCTION LOG MEDIUM
 SFLU.OHMM   07 220 01 00:   SPHERICALLY FOCUSED LOG UNAVERAGED RESISTIVITY
 SPR .MV     07 010 01 00:   SPONTANEOUS POTENTIAL
~PARAMETER INFORMATION
#MNEM.UNIT          VALUE    DESCRIPTION
#----------   ------------   ------------------------------
 PD  .                 GL:   PERMANENT DATUM
 EPD .F              5189:   ELEVATION PERMANENT DATUM
 LMF .                 KB:   LOG MEASURED FROM
 DAPD.F                10:   FEET ABOVE PERMANENT DATUM
 DMF .                 KB:   DRILLING MEASURED FROM
 EKB .F              5199:   KELLING BUSHING
 EGL .F              5189:   GROUND LEVEL
 DATE.        05-OCT-1982:   RUN DATE
 RUN .                  1:   RUN NUMBER
 DD  .F              3200:   DEPTH DRILLER
 DL  .F              3142:   DEPTH LOGGER
 BLI .F              3139:   BOTTOM LOG INTERVAL
 TLI .F               484:   TOP LOG INTERVAL
 CS  .IN            9.625:   CASING SIZE
 CBD .F               482:   CASING BOTTOM DRILLER
 CBL .F               484:   CASING BOTTOM LOGGER
 BS  .IN            7.875:   BIT SIZE
 BSD .F              3200:   BIT SIZE AT DEPTH
 DFT .        KCL/POLYMER:   DRILLING FLUID TYPE
 DFD .                8.6:   DRILLING FLUID DENSITY
 DFV .                 38:   DRILLING FLUID VISCOSITY
 DFPH.                8.5:   DRILLING FLUID PH
 DFL .                6.8:   DRILLING FLUID LOSS
 MSS .           MUD TANK:   MUD SAMPLE SOURCE
 RMS .OHMM            .40:   RESISTIVITY MUD SAMPLE
 MST .F                64:   MUD SAMPLE TEMPERATURE
 RMF .OHMM            .34:   RESISTIVITY MUD FILTRATE SAMPLE
 MFST.F                64:   MUD FILTRATE SAMPLE TEMPERATURE
 RMC .OHMM            .36:   RESISTIVITY MUD CAKE
 MCST.F                64:   MUD CAKE SAMPLE TEMPERATURE
 MFSS.               MEAS:   MUD FILTRATE SAMPLE SOURCE
 MCSS.               CALC:   MUD CAKE SAMPLE SOURCE
 RMB .OHMM             .2:   RESISTIVITY MUD AT BHT
 BHT .F               125:   BOTTOM HOLE TEMPERATURE
 TCS .HRS            2300:   TIME CURCULATED STOPPED
 TLAB.HRS            0500:   TIME LOGGER AT BOTTOM
 MRT .F               125:   MAXIMUM RECORDED TEMPERATURE
 LUN .               8043:   LOGGING UNIT NUMBER
 LUL .                GLT:   LOGGING UNIT LOCATION
 ENGI.            NEUFFER:   RECORDING ENGINEER
 WITN.             STRONG:   WITNESSED BY
 CLNT.            A2DTECH:   CLIENT CODE
 ORIG.           5" PRINT:   ORIGIN OF DATA
 UWI .       490251090100:   UNIQUE WELL ID
 DICO. A2D Technologies, Inc.:   DIGITIZING COMPANY
~OTHER INFORMATION
~A    DEPT    DPHI          GRD     NPHI       CALD       CORR       RHOB        ILD        ILM       SFLU        SPR   
# ...
 1005.0000     0.0935   102.0064     0.3071    11.4128     0.0635     2.5039     9.0778     7.3188     8.5551   -80.2891
 1005.5000     0.0897    99.0496     0.3065    11.4274     0.0718     2.5091     9.0130     7.2156     8.4355   -80.2934
 1006.0000     0.0865    96.6842     0.3071    11.5028     0.0748     2.5166     8.8871     7.2121     8.4310   -80.2988
 1006.5000     0.0918    96.0887     0.3147    11.5631     0.0695     2.5106     8.7629     7.3096     8.2576   -80.3031
 1007.0000     0.0973    97.5568     0.3237    11.5930     0.0649     2.4993     8.6400     7.4083     8.1422   -80.3073
 1007.5000     0.0947    99.9111     0.3407    11.6078     0.0604     2.4970     8.5193     7.4054     8.0840   -80.4636
 1008.0000     0.0926   101.6755     0.3331    11.5769     0.0573     2.5016     8.5171     7.4018     7.9709   -80.6198
 1008.5000     0.0912   103.7335     0.3231    11.5310     0.0558     2.5060     8.3898     7.3480     7.9684   -80.4721
 1009.0000     0.0876   105.4979     0.3195    11.5001     0.0565     2.5090     8.2803     7.1946     7.9663   -80.6295
 1009.5000     0.0850   106.9673     0.3181    11.4693     0.0589     2.5142     8.2212     7.0931     7.9094   -80.7857
 1010.0000     0.0826   107.8467     0.3243    11.4689     0.0595     2.5224     8.2760     6.9925     7.9064   -80.9430
 1010.5000     0.0873   107.8398     0.3343    11.4847     0.0557     2.5142     8.2733     6.8939     7.8507   -81.0993
 1011.0000     0.0944   107.8343     0.3434    11.4984     0.0512     2.5051     8.2712     6.9389     7.8485   -81.2555
 1011.5000     0.0915   107.8287     0.3484    11.4827     0.0489     2.5044     8.3263     6.9843     7.8463   -81.2599
 1012.0000     0.0862   107.2319     0.3343    11.4822     0.0511     2.5081     8.3676     6.9809     7.8442   -81.1121
 1012.5000     0.0809   107.2263     0.3240    11.4817     0.0587     2.5238     8.3215     6.9782     7.7341   -80.9644
 1013.0000     0.0820   107.2208     0.3134    11.4813     0.0632     2.5268     8.2623     6.9274     7.6788   -80.6658
 1013.5000     0.0903   106.0353     0.3063    11.4809     0.0625     2.5214     8.2599     6.8731     7.6240   -80.5181
 1014.0000     0.0969   104.2585     0.3031    11.4804     0.0594     2.5072     8.2008     6.7795     7.5173   -80.2195
 1014.5000     0.1009   102.1881     0.3134    11.4951     0.0533     2.4967     8.1419     6.7302     7.4118   -80.0707
 1015.0000     0.1035    99.8227     0.3252    11.4946     0.0463     2.4862     8.0282     6.7276     7.3589   -80.0761
 1015.5000     0.1056    97.7414     0.3352    11.4790     0.0427     2.4832     8.0262     6.6786     7.3569   -80.0814
 1016.0000     0.0956    95.6805     0.3447    11.4786     0.0503     2.4884     8.0188     6.5839     7.4060   -80.3897
 1016.5000     0.0844    95.3800     0.3453    11.4781     0.0563     2.5094     7.9114     6.5360     7.4036   -80.3940
 1017.0000     0.0797    97.1443     0.3355    11.4625     0.0624     2.5281     7.9094     6.5335     7.5052   -80.3982
 1017.5000     0.0753    99.5674     0.3238    11.4621     0.0646     2.5348     7.9073     6.6236     7.5221   -80.5555
 1018.0000     0.0729   102.4416     0.3141    11.4615     0.0646     2.5401     7.9680     6.7112     7.6052   -80.5598
 1018.5000     0.0791   104.2074     0.3096    11.4764     0.0600     2.5371     8.0799     6.7551     7.6658   -80.5641
 1019.0000     0.0879   103.6105     0.3099    11.4758     0.0509     2.5172     8.2348     6.7986     7.7599   -80.5694
 1019.5000     0.0941   102.4237     0.3102    11.4754     0.0403     2.4995     8.2897     6.9381     7.8658   -80.7257
 1020.0000     0.0988   100.6482     0.3103    11.4749     0.0350     2.4950     8.4610     7.0799     7.9256   -80.7300
 1020.5000     0.0950    99.7578     0.3103    11.4745     0.0327     2.4980     8.5764     7.2253     8.1381   -80.5812
 1021.0000     0.0888    99.4572     0.3103    11.4893     0.0357     2.5099     8.6934     7.3236     8.2492   -80.4346
 1021.5000     0.0800    97.9754     0.3106    11.4888     0.0425     2.5234     8.8115     7.3200     8.3613   -80.4399
 1022.0000     0.0758    95.3150     0.3103    11.4882     0.0539     2.5369     8.6878     7.3679     8.5428   -80.3634
 1022.5000     0.0761    93.5396     0.3100    11.4878     0.0584     2.5369     8.5664     7.3136     8.4727   -80.1435
 1023.0000     0.0801    94.1750     0.3097    11.4874     0.0546     2.5233     8.4468     7.3107     8.3542   -80.1489
 1023.5000     0.0820    98.2469     0.3023    11.4869     0.0629     2.5203     8.4142     7.2076     8.1807   -80.3061
 1024.0000     0.0776    98.8327     0.2984    11.4864     0.0826     2.5293     8.2688     7.1054     8.0618   -80.3104
 1024.5000     0.0744    98.8258     0.2979    11.4860     0.1000     2.5368     8.2098     7.0537     7.8983   -80.3147
 1025.0000     0.0732    98.8189     0.3015    11.4856     0.0932     2.5330     8.2076     7.0025     7.8419   -80.3635
 1025.5000     0.0847    98.8134     0.3042    11.4851     0.0765     2.5217     8.2055     6.9997     7.7858   -80.4763
 1026.0000     0.0920    98.8079     0.3092    11.4846     0.0627     2.5060     8.2029     6.9963     7.7833   -80.4806
 1026.5000     0.0991    98.8023     0.3124    11.4690     0.0454     2.4857     8.2007     6.9936     7.7813   -80.6368
 1027.0000     0.1056    98.5004     0.3112    11.4686     0.0386     2.4804     8.1986     7.0393     7.7793   -80.6422
 1027.5000     0.1024    99.3799     0.3083    11.4529     0.0391     2.4826     8.1396     7.0325     7.7773   -80.7984
 1028.0000     0.1012   100.2593     0.3038    11.4525     0.0417     2.4894     8.0815     6.9847     7.7747   -80.8027
 1028.5000     0.1009    99.9587     0.2999    11.4672     0.0469     2.4916     8.0794     6.9340     7.8271   -80.9590
 1029.0000     0.1006    98.4770     0.2986    11.4667     0.0506     2.4916     8.0217     6.8836     7.7707   -80.9643
 1029.5000     0.0991    96.9965     0.3059    11.4815     0.0506     2.4930     7.9643     6.7865     7.6620   -80.9686
 1030.0000     0.0935    96.4010     0.3192    11.4810     0.0582     2.5000     7.8989     6.7366     7.5544   -80.9729
 1030.5000     0.0832    97.9508     0.3304    11.4806     0.0688     2.5170     7.8506     6.6876     7.4488   -80.8252
 1031.0000     0.0779   100.5184     0.3278    11.4800     0.0763     2.5290     7.7946     6.6850     7.4469   -80.6785
 1031.5000     0.0761   101.1042     0.3127    11.4796     0.0809     2.5327     7.7385     6.5907     7.3428   -80.5298
 1032.0000     0.0823   101.0973     0.3054    11.4792     0.0763     2.5289     7.6832     6.4972     7.2898   -80.2312
 1032.5000     0.0873   101.6803     0.3019    11.4939     0.0687     2.5184     7.6284     6.4947     7.2765   -80.2356
 1033.0000     0.0915   102.5598     0.3010    11.4934     0.0611     2.5109     7.5218     6.4921     7.1861   -80.2408
 1033.5000     0.0953   104.9141     0.3042    11.4930     0.0572     2.4996     7.5194     6.4858     7.0856   -80.0931
 1034.0000     0.0988   108.7673     0.3119    11.5229     0.0535     2.4936     7.5177     6.4418     7.0345   -80.0974
 1034.5000     0.0900   110.5078     0.3299    11.9624     0.0527     2.5003     7.5156     6.3950     7.0327   -80.1027
 1035.0000     0.0879   108.4360     0.3406    12.9332     0.0550     2.5086     7.5135     6.3485     7.0801   -80.1070
 1035.5000     0.0879   102.8257     0.3428    12.9480     0.0580     2.5123     7.4594     6.3023     7.2260   -80.2632
 1036.0000     0.0879    99.2489     0.3334    12.6884     0.0641     2.5123     7.4575     6.2993     7.2237   -80.2675
 1036.5000     0.0832    98.3885     0.3222    12.4159     0.0678     2.5167     7.5073     6.2535     7.2218   -80.2729
 1037.0000     0.0797    98.9730     0.3122    12.2333     0.0693     2.5250     7.5048     6.2082     7.2199   -80.5811
 1037.5000     0.0806    99.8524     0.3099    12.0812     0.0655     2.5257     7.5029     6.2056     7.1190   -80.5854
 1038.0000     0.0817    99.8455     0.3140    11.9410     0.0602     2.5227     7.4495     6.1600     7.0190   -80.7437
