~VERSION INFORMATION
 VERS.                2.0:   CWLS LOG ASCII STANDARD - VERSION 2.0
 WRAP.                 NO:   ONE LINE PER DEPTH STEP
~WELL INFORMATION
#MNEM.UNIT      DATA TYPE    INFORMATION
#----------   ------------   ------------------------------
 STRT.F           36.0000:   START DEPTH
 STOP.F          557.0000:   STOP DEPTH
 STEP.F            0.5000:   STEP LENGTH
 NULL.          -999.2500:   NO VALUE
 COMP. FENIX & SCISSON U.S. NAVY:   COMPANY
 WELL.        NPR #62-S-3:   WELL
 FLD .             TEAPOT:   FIELD
 LOC .       S3 T38N R78W:   LOCATION
 CNTY.            NATRONA:   COUNTY
 STAT.            WYOMING:   STATE
 CTRY. UNITED STATES OF AMERICA:   COUNTRY
 SRVC.              Welex:   SERVICE COMPANY
 DATE.        07-MAY-1977:   LOGDATE
 API .       490251035000:   API NUMBER
~CURVE INFORMATION
#MNEM.UNIT       API CODE    CURVE DESCRIPTION
#----------   ------------   ------------------------------
 DEPT.F                  :   
 SPR .MV     07 010 01 00:   SPONTANEOUS POTENTIAL
 ILD .OHMM   07 120 46 00:   INDUCTION LOG DEEP
 ILM .OHMM   07 120 44 00:   INDUCTION LOG MEDIUM
 SGRD.OHMM   07 221 05 00:   SHALLOW SHORT GUARD RESISTIVITY
 GRD .GAPI   45 310 01 00:   GAMMA RAY FROM DENSITY LOG
 CALD.IN     45 280 60 00:   CALIPER FROM DENSITY LOG
 CORR.G/C3   45 356 01 00:   DENSITY CORRECTION
 RHOB.G/C3   45 350 01 00:   BULK DENSITY
 DPHI.DEC    45 890 12 00:   DENSITY POROSITY SANDSTONE
 NEUT.NAPI   35 330 01 00:   NEUTRON
~PARAMETER INFORMATION
#MNEM.UNIT          VALUE    DESCRIPTION
#----------   ------------   ------------------------------
 PD  .                 GL:   PERMANENT DATUM
 EPD .F              5136:   ELEVATION PERMANENT DATUM
 LMF .                 GL:   LOG MEASURED FROM
 DMF .                 GL:   DRILLING MEASURED FROM
 EGL .F              5136:   GROUND LEVEL
 DATE.        07-MAY-1977:   RUN DATE
 RUN .                  1:   RUN NUMBER
 DD  .F               560:   DEPTH DRILLER
 DL  .F               560:   DEPTH LOGGER
 BLI .F               558:   BOTTOM LOG INTERVAL
 TLI .F                35:   TOP LOG INTERVAL
 CS  .IN            8.625:   CASING SIZE
 CBD .F                40:   CASING BOTTOM DRILLER
 CBL .F                42:   CASING BOTTOM LOGGER
 BS  .IN            7.875:   BIT SIZE
 BSD .F               560:   BIT SIZE AT DEPTH
 DFT .             KCLMUD:   DRILLING FLUID TYPE
 DFD .                8.8:   DRILLING FLUID DENSITY
 MSS .           FLOWLINE:   MUD SAMPLE SOURCE
 RMS .OHMM           0.24:   RESISTIVITY MUD SAMPLE
 MST .F                60:   MUD SAMPLE TEMPERATURE
 RMF .OHMM           0.20:   RESISTIVITY MUD FILTRATE SAMPLE
 MFST.F                60:   MUD FILTRATE SAMPLE TEMPERATURE
 RMC .OHMM           0.29:   RESISTIVITY MUD CAKE
 MCST.F                60:   MUD CAKE SAMPLE TEMPERATURE
 MFSS.               MEAS:   MUD FILTRATE SAMPLE SOURCE
 MCSS.               MEAS:   MUD CAKE SAMPLE SOURCE
 RMB .OHMM             17:   RESISTIVITY MUD AT BHT
 BHT .F                71:   BOTTOM HOLE TEMPERATURE
 TCS .HRS            0230:   TIME CURCULATED STOPPED
 MRT .F                71:   MAXIMUM RECORDED TEMPERATURE
 LUN .               8611:   LOGGING UNIT NUMBER
 LUL .           GILLETTE:   LOGGING UNIT LOCATION
 ENGI.            C. DOCK:   RECORDING ENGINEER
 WITN.           ROB LYON:   WITNESSED BY
 CLNT.            A2DTECH:   CLIENT CODE
 ORIG.           5" PRINT:   ORIGIN OF DATA
 UWI .       490251035000:   UNIQUE WELL ID
 DICO. A2D Technologies, Inc.:   DIGITIZING COMPANY
~OTHER INFORMATION
~A   DEPT      SPR        ILD        ILM       SGRD        GRD       CALD       CORR       RHOB       DPHI       NEUT   
# ...
  304.0000   -44.1538     7.9172     9.8638    11.8337   127.8950     7.8144    -0.0043     2.4851     0.1140   382.1455
  304.5000   -44.1406     7.9763    10.1367    12.0999   123.8815     7.8154    -0.0035     2.4829     0.1149   379.2199
  305.0000   -44.1273     7.9806    10.3549    12.1049   121.3606     7.8165    -0.0026     2.4859     0.1124   375.3939
  305.5000   -44.1140     7.9849    10.4325    12.2791   121.9740     7.8324    -0.0018     2.4897     0.1106   371.3428
  306.0000   -44.1007     7.9893    10.4394    12.2842   125.4232     7.8335    -0.0017     2.4883     0.1112   369.9925
  306.5000   -44.0874     7.9375    10.4452    12.0362   128.7232     7.8345    -0.0032     2.4816     0.1147   367.2918
  307.0000   -44.0742     7.8871    10.3074    11.7932   130.2321     7.8356    -0.0031     2.4854     0.1156   364.5912
  307.5000   -44.0609     7.7842    10.0317    11.9643   129.3530     7.8366    -0.0023     2.4862     0.1141   364.5912
  308.0000   -44.0476     7.7338     9.6962    12.1351   127.5783     7.8377    -0.0022     2.4862     0.1122   363.2408
  308.5000   -44.1834     7.5804     9.6333    12.1400   127.7439     7.8238    -0.0014     2.4863     0.1110   361.8905
  309.0000   -44.1699     7.4805     9.8420    11.9707   129.5514     7.8099    -0.0013     2.4893     0.1107   363.2408
  309.5000   -44.1565     7.3819    10.1236    11.7360   130.1648     7.8109    -0.0020     2.4916     0.1103   364.5912
  310.0000   -44.2925     7.3348    10.4133    11.6597   128.6886     7.7970    -0.0026     2.4924     0.1094   365.9415
  310.5000   -44.4283     7.2883    10.4913    11.9360   126.9099     7.7981    -0.0026     2.4940     0.1085   367.5168
  311.0000   -44.5640     7.2421    10.3529    12.0813   130.2139     7.7991    -0.0025     2.4948     0.1084   365.9415
  311.5000   -44.8488     7.1468    10.0066    11.8372   131.8726     7.8002    -0.0024     2.4948     0.1096   364.5912
  312.0000   -45.1336     7.0041     9.8746    11.6802   130.7185     7.8012    -0.0031     2.4897     0.1141   361.8905
  312.5000   -45.5674     6.7701     9.7430    11.6031   129.8139     7.8023    -0.0045     2.4822     0.1174   357.8394
  313.0000   -45.8522     6.4541     9.4184    11.6091   131.0244     7.8182    -0.0052     2.4778     0.1176   351.0878
  313.5000   -46.2827     6.2385     8.8550    11.5324   132.8318     7.8193    -0.0066     2.4793     0.1161   342.7607
  314.0000   -46.5675     6.0718     7.8230    11.3008   135.5347     7.8203    -0.0058     2.4831     0.1158   336.2341
  314.5000   -46.8556     5.9096     7.1544    10.1180   139.1332     7.8214    -0.0042     2.4832     0.1151   333.5334
  315.0000   -46.9913     5.8317     6.6801     7.0575   141.8362     7.8224    -0.0026     2.4742     0.1187   336.2341
  315.5000   -46.8257     5.7947     6.9669     6.6786   143.7928     7.8234    -0.0018     2.4698     0.1226   337.5844
  316.0000   -46.3653     5.7979     7.5217    10.7086   141.5704     7.8245    -0.0010     2.4714     0.1201   338.9347
  316.5000   -45.9050     5.8435     8.1206    10.6389   138.1540     7.8255    -0.0017     2.4775     0.1177   340.2851
  317.0000   -45.5936     5.8848     8.8892    10.3511   133.9912     7.8266    -0.0016     2.4805     0.1168   341.6354
  317.5000   -45.4313     5.8437     9.4000    10.4285   127.7390     7.8276    -0.0023     2.4780     0.1197   340.2851
  318.0000   -45.5704     5.7307     9.4691    11.5766   125.3522     7.8436    -0.0067     2.4686     0.1251   338.9347
  318.5000   -45.5538     5.6501     8.2518    11.8237   129.5628     7.8446    -0.0119     2.4574     0.1329   337.5844
  319.0000   -45.8386     5.5422     6.1328    11.2692   131.5195     7.8606    -0.0148     2.4410     0.1440   334.8837
  319.5000   -46.1237     5.4692     5.1621    10.3019   132.7299     7.8467    -0.0163     2.4245     0.1557   333.5334
  320.0000   -46.5574     5.4345     5.3097     8.0290   133.9403     7.8478    -0.0170     2.4021     0.1616   333.5334
  320.5000   -46.6930     5.4758     6.1429     5.7974   134.5537     7.8488    -0.0154     2.4119     0.1586   336.2341
  321.0000   -46.5306     5.5550     6.8654     9.2313   133.5204     7.8499    -0.0130     2.4367     0.1465   340.2851
  321.5000   -46.3602     5.7136     7.3609    10.8323   133.3924     7.8359    -0.0107     2.4622     0.1300   348.3871
  322.0000   -46.0566     5.8363     7.6241    11.0646   135.9661     7.8221    -0.0084     2.4742     0.1194   355.1388
  322.5000   -45.5961     5.9617     7.8422    11.3019   132.1817     7.8231    -0.0068     2.4803     0.1167   359.1898
  323.0000   -45.2846     6.1320     8.0666    11.3853   127.8449     7.8092    -0.0060     2.4833     0.1146   360.5401
  323.5000   -44.9706     6.3071     8.3549    11.3900   122.8090     7.8103    -0.0051     2.4864     0.1124   359.1898
  324.0000   -44.9573     6.5321     8.5348    11.3947   120.3400     7.7964    -0.0043     2.4932     0.1088   359.1898
  324.5000   -44.9440     6.7652     8.3642    11.3204   123.2372     7.7975    -0.0035     2.5015     0.1048   356.4891
  325.0000   -44.9307     6.9096     8.1970    11.2468   125.0124     7.8134    -0.0026     2.5030     0.1039   353.7885
  325.5000   -45.2155     6.4977     8.2584    11.0965   125.6271     7.8145    -0.0011     2.5046     0.1042   350.8629
  326.0000   -45.3546     6.1519     8.4947    11.0244   127.0327     7.8155    -0.0010     2.5024     0.1035   345.6864
  326.5000   -45.7851     5.8244     8.5061    11.9863   128.9622     7.8166    -0.0024     2.4942     0.1026   338.9347
  327.0000   -46.2189     5.5144     7.8812    12.7899   130.9563     7.8178    -0.0038     2.4852     0.1071   332.1830
  327.5000   -46.6527     5.2571     6.3203    10.9619   133.3844     7.8189    -0.0053     2.4740     0.1263   324.0810
  328.0000   -46.9408     5.1514     5.1747     7.2838   135.6060     7.8199    -0.0075     2.4576     0.1476   315.9790
  328.5000   -46.7752     5.0492     6.1122     5.7155   136.1591     7.8209    -0.0104     2.4322     0.1488   310.5776
  329.0000   -46.3148     5.0869     6.3307     9.7631   134.2955     7.8220    -0.0118     2.4275     0.1475   318.6797
  329.5000   -45.8544     5.2684     6.6483     7.9072   131.6988     7.8230    -0.0125     2.4435     0.1319   324.0810
  330.0000   -45.2450     5.5323     7.2776     9.8878   122.9005     7.8241    -0.0132     2.4616     0.1207   332.1830
  330.5000   -44.6356     5.8902     8.0813    11.4707   120.3261     7.8251    -0.0115     2.4789     0.1132   337.5844
  331.0000   -44.0262     6.1852     8.7267    11.7112   118.8736     7.8262    -0.0084     2.4941     0.1086   342.9857
  331.5000   -43.8639     6.5852     9.7530    12.1431   117.7222     7.8272    -0.0062     2.4999     0.1065   345.6864
  332.0000   -43.5526     6.9151     9.8193    12.9203   117.4678     7.8281    -0.0064     2.4943     0.1173   349.7374
  332.5000   -43.3902     7.2614     9.9790    12.5263   120.3241     7.8293    -0.0115     2.4817     0.1202   352.4381
  333.0000   -43.3770     7.5726    10.8521    12.4762   121.6838     7.8303    -0.0127     2.4731     0.1211   353.7885
  333.5000   -43.3636     7.7889    11.6300    13.0130   120.8047     7.8314    -0.0119     2.4732     0.1178   355.1388
  334.0000   -43.3502     7.9562    12.2897    13.4764   117.8360     7.8026    -0.0096     2.4792     0.1138   359.1898
  334.5000   -43.3368     8.0711    12.3701    12.7556   117.2512     7.8036    -0.0072     2.4883     0.1102   362.1154
  335.0000   -43.3234     8.1878    11.3527    12.8497   121.0031     7.7895    -0.0041     2.4958     0.1078   364.5912
  335.5000   -43.3100     8.1922    10.2620    13.3086   123.2583     7.7908    -0.0033     2.5004     0.1077   368.6422
  336.0000   -43.1449     8.2534    10.1392    13.4987   124.7672     7.7918    -0.0032     2.4892     0.1119   371.3428
  336.5000   -43.1316     8.3151    10.7976    12.3400   125.3806     7.7928    -0.0032     2.4870     0.1086   375.3939
  337.0000   -43.1184     8.3196    11.1066    12.8710   124.3522     7.7939    -0.0031     2.5013     0.1046   376.7442
