~VERSION INFORMATION
 VERS.                2.0:   CWLS LOG ASCII STANDARD - VERSION 2.0
 WRAP.                 NO:   ONE LINE PER DEPTH STEP
~WELL INFORMATION
#MNEM.UNIT      DATA TYPE    INFORMATION
#----------   ------------   ------------------------------
 STRT.F           20.5000:   START DEPTH
 STOP.F          725.0000:   STOP DEPTH
 STEP.F            0.5000:   STEP LENGTH
 NULL.          -999.2500:   NO VALUE
 COMP. FENIX & SCISSON INC:   COMPANY
 WELL.       NPR 3 #67-27:   WELL
 FLD .             TEAPOT:   FIELD
 LOC .      S27 T39N R78W:   LOCATION
 CNTY.            NATRONA:   COUNTY
 STAT.            WYOMING:   STATE
 CTRY. UNITED STATES OF AMERICA:   COUNTRY
 SRVC.           BIRDWELL:   SERVICE COMPANY
 DATE.        15-SEP-1978:   LOGDATE
 API .       490251069400:   API NUMBER
~CURVE INFORMATION
#MNEM.UNIT       API CODE    CURVE DESCRIPTION
#----------   ------------   ------------------------------
 DEPT.F                  :   
 CALD.IN     45 280 60 00:   CALIPER
 GRD .GAPI   45 310 01 00:   GAMMA RAY FROM DENSITY LOG
 RHOB.G/C3   45 350 01 00:   BULK DENSITY
 DPHI.DEC    45 890 12 00:   DENSITY POROSITY SANDSTONE
 CORR.G/C3   45 356 01 00:   DENSITY CORRECTION
 SPR .MV     05 010 01 00:   SPONTANEOUS POTENTIAL FROM RES.
 ILD .OHMM   05 120 46 00:   INDUCTION LOG DEEP
 SN  .OHMM   05 040 16 00:   SHORT NORMAL 16"
~PARAMETER INFORMATION
#MNEM.UNIT          VALUE    DESCRIPTION
#----------   ------------   ------------------------------
 PD  .                 GL:   PERMANENT DATUM
 EPD .F              5027:   ELEVATION PERMANENT DATUM
 LMF .                 KB:   LOG MEASURED FROM
 DAPD.F                 4:   FEET ABOVE PERMANENT DATUM
 DMF .                 KB:   DRILLING MEASURED FROM
 EKB .F              5031:   KELLING BUSHING
 EGL .F              5027:   GROUND LEVEL
 DATE.            9-15-78:   RUN DATE
 RUN .                  1:   RUN NUMBER
 DD  .F               728:   DEPTH DRILLER
 DL  .F               719:   DEPTH LOGGER
 BLI .F               713:   BOTTOM LOG INTERVAL
 TLI .F                30:   TOP LOG INTERVAL
 CS  .IN            8.625:   CASING SIZE
 CBD .F                34:   CASING BOTTOM DRILLER
 CBL .F                34:   CASING BOTTOM LOGGER
 BS  .IN            7.875:   BIT SIZE
 BSD .F               728:   BIT SIZE AT DEPTH
 DFT .            KCL MUD:   DRILLING FLUID TYPE
 DFD .                  9:   DRILLING FLUID DENSITY
 DFV .                 46:   DRILLING FLUID VISCOSITY
 DFPH.                  9:   DRILLING FLUID PH
 DFL .                7.6:   DRILLING FLUID LOSS
 MSS .          FLOW LINE:   MUD SAMPLE SOURCE
 RMS .OHMM            .34:   RESISTIVITY MUD SAMPLE
 MST .F                68:   MUD SAMPLE TEMPERATURE
 RMF .OHMM             .3:   RESISTIVITY MUD FILTRATE SAMPLE
 MFST.F                68:   MUD FILTRATE SAMPLE TEMPERATURE
 RMC .OHMM            .38:   RESISTIVITY MUD CAKE
 MCST.F                70:   MUD CAKE SAMPLE TEMPERATURE
 MFSS.               MEAS:   MUD FILTRATE SAMPLE SOURCE
 MCSS.               MEAS:   MUD CAKE SAMPLE SOURCE
 RMB .OHMM            .32:   RESISTIVITY MUD AT BHT
 BHT .F                72:   BOTTOM HOLE TEMPERATURE
 TCS .HRS               2:   TIME CURCULATED STOPPED
 MRT .F                72:   MAXIMUM RECORDED TEMPERATURE
 LUN .               2958:   LOGGING UNIT NUMBER
 LUL .               CASP:   LOGGING UNIT LOCATION
 ENGI.           REYNOLDS:   RECORDING ENGINEER
 WITN.           DINSMORE:   WITNESSED BY
 CLNT.            A2DTECH:   CLIENT CODE
 ORIG.           5" PRINT:   ORIGIN OF DATA
 UWI .       490251069400:   UNIQUE WELL ID
 DICO. A2D Technologies, Inc.:   DIGITIZING COMPANY
~OTHER INFORMATION
~A   DEPT     CALD        GRD       RHOB       DPHI       CORR        SPR        ILD         SN   
# ...
   61.0000     8.0300   119.9751     2.4223     0.1608     0.0609   -63.1854     4.8802     5.2035
   61.5000     8.0213   119.1636     2.4211     0.1628     0.0686   -63.4625     4.8587     5.1850
   62.0000     8.0122   118.3522     2.4199     0.1648     0.0762   -63.4651     4.8281     5.1668
   62.5000     8.0241   117.5370     2.4188     0.1641     0.0832   -63.4236     4.7979     5.1575
   63.0000     8.0440   116.9841     2.4197     0.1619     0.0805   -63.3814     4.7678     5.1575
   63.5000     8.0651   116.5493     2.4233     0.1612     0.0784   -63.3402     4.7416     5.1559
   64.0000     8.0260   117.1389     2.4268     0.1602     0.0562   -63.3050     4.7240     5.1504
   64.5000     7.9639   118.4455     2.4304     0.1544     0.0313   -63.1457     4.7067     5.1448
   65.0000     7.9012   120.3593     2.4340     0.1479     0.0148   -62.9631     4.6894     5.1393
   65.5000     7.8801   121.1028     2.4353     0.1575     0.0162   -62.7798     4.6722     5.1338
   66.0000     7.8559   120.3504     2.4325     0.1709     0.0289   -62.5967     4.6601     5.1283
   66.5000     7.8119   119.8744     2.4051     0.1825     0.0225   -62.4138     4.6689     5.1229
   67.0000     7.7973   119.5283     2.3802     0.1879     0.0161   -62.2308     4.6756     5.1173
   67.5000     7.8661   118.3922     2.3825     0.1736     0.0119   -62.0478     4.6823     5.1102
   68.0000     7.9357   117.1608     2.4315     0.1452     0.0138   -61.8649     4.6891     5.3062
   68.5000     8.0114   116.1015     2.4672     0.1398     0.0156   -61.6819     4.6958     5.4493
   69.0000     7.9103   116.5331     2.4623     0.1484     0.0174   -61.4989     4.7030     5.4526
   69.5000     7.7979   117.4252     2.4481     0.1590     0.0192   -61.3154     4.6921     5.4524
   70.0000     7.7921   117.6174     2.4214     0.1694     0.0211   -61.1296     4.6798     5.3649
   70.5000     7.8256   117.3458     2.3957     0.1803     0.0202   -61.2016     4.6675     5.2402
   71.0000     7.8842   117.1126     2.3921     0.1867     0.0184   -61.1577     4.6552     5.1562
   71.5000     7.9415   117.2121     2.3874     0.1821     0.0167   -60.3893     4.6430     5.1580
   72.0000     7.9987   117.3170     2.3963     0.1739     0.0149   -59.6285     4.6308     5.1575
   72.5000     8.0529   117.4201     2.4061     0.1703     0.0131   -59.5000     4.6174     5.1575
   73.0000     8.0831   117.5222     2.4087     0.1705     0.0114   -59.4949     4.6174     5.1575
   73.5000     8.1131   117.6325     2.4088     0.1706     0.0096   -59.2846     4.6174     5.1580
   74.0000     8.1431   118.0751     2.4081     0.1707     0.0078   -58.7420     4.7033     5.1328
   74.5000     8.1698   119.3651     2.4107     0.1676     0.0084   -58.1967     4.7908     5.1140
   75.0000     8.1632   119.1038     2.4143     0.1631     0.0096   -58.0804     4.7908     5.0951
   75.5000     8.1554   118.3024     2.4241     0.1527     0.0107   -58.0549     4.7908     5.0763
   76.0000     8.1460   117.5004     2.4339     0.1525     0.0119   -58.0316     4.7906     5.0633
   76.5000     8.1312   116.9886     2.4285     0.1637     0.0131   -58.0075     4.7994     5.0971
   77.0000     8.0795   116.7666     2.4149     0.1787     0.0131   -57.9831     4.8091     5.1233
   77.5000     8.0232   116.5429     2.4002     0.1767     0.0126   -57.9591     4.8189     5.1578
   78.0000     7.9665   116.3226     2.3983     0.1747     0.0120   -57.9338     4.8281     5.1496
   78.5000     7.9326   116.3005     2.4025     0.1726     0.0115   -57.9139     4.8364     5.1384
   79.0000     7.9075   116.4071     2.4067     0.1706     0.0109   -57.4887     4.6918     5.1270
   79.5000     7.8825   116.7899     2.4099     0.1686     0.0104   -56.7890     4.5855     5.1162
   80.0000     7.8575   116.9854     2.4118     0.1666     0.0098   -56.4927     4.5285     5.0966
   80.5000     7.8325   117.1524     2.4131     0.1646     0.0093   -56.4661     4.5194     5.0628
   81.0000     7.8075   117.6491     2.4108     0.1672     0.0087   -56.4447     4.5103     5.0636
   81.5000     7.7825   118.1611     2.4042     0.1793     0.0082   -56.4240     4.5013     5.0632
   82.0000     7.7918   118.0641     2.3834     0.1913     0.0076   -56.4027     4.4914     5.0634
   82.5000     7.8356   117.7344     2.3760     0.1927     0.0071   -56.3815     4.5621     5.0636
   83.0000     7.8793   117.3959     2.3809     0.1872     0.0065   -56.3602     4.6407     5.1216
   83.5000     7.9231   117.3008     2.3864     0.1683     0.0061   -56.3389     4.7239     5.2061
   84.0000     7.9669   117.2981     2.4140     0.1405     0.0076   -56.3177     4.8195     5.2919
   84.5000     8.0106   117.3014     2.4455     0.1446     0.0130   -56.3040     4.9289     5.3793
   85.0000     8.0553   117.5764     2.4485     0.1504     0.0168   -56.3340     5.0392     5.4682
   85.5000     8.1047   117.8831     2.4286     0.1619     0.0203   -56.3635     5.1518     5.5574
   86.0000     8.0973   118.1040     2.4242     0.1665     0.0240   -56.3928     5.2671     5.6075
   86.5000     8.1001   118.0998     2.4151     0.1715     0.0277   -56.4223     5.3132     5.6151
   87.0000     8.1200   118.1008     2.4055     0.1767     0.0313   -56.4517     5.3290     5.6228
   87.5000     8.1400   118.1716     2.4029     0.1736     0.0293   -56.4801     5.3449     5.6304
   88.0000     8.1600   118.4252     2.4076     0.1704     0.0269   -56.4665     5.3608     5.6380
   88.5000     8.1800   118.6760     2.4123     0.1671     0.0246   -56.3655     5.3768     5.6457
   89.0000     8.1813   118.9226     2.4170     0.1639     0.0223   -56.2660     5.3928     5.6537
   89.5000     8.1639   118.9781     2.4201     0.1630     0.0199   -56.1651     5.4008     5.6556
   90.0000     8.1466   118.5445     2.4201     0.1628     0.0176   -55.9614     5.3436     5.6557
   90.5000     8.1295   118.5384     2.4201     0.1634     0.0152   -55.5393     5.3017     5.6556
   91.0000     8.1114   118.9094     2.4222     0.1643     0.0129   -55.1191     5.3024     5.6556
   91.5000     8.0270   119.0279     2.4256     0.1595     0.0113   -55.0969     5.3021     5.6556
   92.0000     7.9350   118.7711     2.4320     0.1507     0.0109   -55.0993     5.3022     5.6556
   92.5000     7.8688   118.7018     2.4401     0.1423     0.0105   -55.1000     5.3022     5.6556
   93.0000     7.8699   118.8286     2.4480     0.1423     0.0101   -55.1000     5.3022     5.6556
   93.5000     7.8698   118.9726     2.4490     0.1514     0.0097   -55.1000     5.3022     5.6556
   94.0000     7.8698   119.0627     2.4378     0.1577     0.0106   -55.0999     5.3022     5.6556
   94.5000     7.8775   118.7171     2.4270     0.1641     0.0139   -55.0981     5.3022     5.6556
   95.0000     7.9483   118.3641     2.4161     0.1705     0.0281   -55.1906     5.3022     5.6556
   95.5000     8.0199   118.0127     2.4084     0.1736     0.0497   -55.3141     5.3022     5.6547
   96.0000     8.0830   117.7380     2.4053     0.1755     0.0854   -55.4402     5.3022     5.6726
   96.5000     8.1248   118.0795     2.4097     0.1712     0.1278   -55.3007     5.3021     5.7067
   97.0000     8.1670   118.4301     2.4142     0.1671     0.1662   -54.9151     5.3021     5.7413
   97.5000     8.2096   118.7808     2.4185     0.1631     0.1914   -54.5201     5.3023     5.7759
   98.0000     8.2293   119.1243     2.4309     0.1535     0.1968   -54.4622     5.3015     5.8107
   98.5000     8.0943   119.4669     2.4482     0.1380     0.1927   -54.4261     5.3477     5.8458
   99.0000     8.0039   119.0135     2.4743     0.1248     0.1525   -54.3885     5.3830     5.8810
   99.5000     7.9365   118.5662     2.5067     0.1068     0.1057   -54.3481     5.4176     5.9165
  100.0000     7.8674   118.1212     2.5721     0.0899     0.0597   -54.3202     5.4523     5.9521
  100.5000     7.8267   117.6760     2.5651     0.0852     0.0266   -53.8275     5.5980     6.0327
  101.0000     7.7930   117.2127     2.5425     0.1172     0.0266   -53.5715     5.7369     6.1870
