~VERSION INFORMATION
 VERS.                2.0:   CWLS LOG ASCII STANDARD - VERSION 2.0
 WRAP.                 NO:   ONE LINE PER DEPTH STEP
~WELL INFORMATION
#MNEM.UNIT      DATA TYPE    INFORMATION
#----------   ------------   ------------------------------
 STRT.F            2.5000:   START DEPTH
 STOP.F         1003.0000:   STOP DEPTH
 STEP.F            0.5000:   STEP LENGTH
 NULL.          -999.2500:   NO VALUE
 COMP. U S NAVY-INTEX OIL:   COMPANY
 WELL.   NPR #3 #87-SX-27:   WELL
 FLD .             TEAPOT:   FIELD
 LOC .      S27 T39N R78W:   LOCATION
 CNTY.            NATRONA:   COUNTY
 STAT.            WYOMING:   STATE
 CTRY. UNITED STATES OF AMERICA:   COUNTRY
 SRVC. Schlumberger Well Surveying Corp:   SERVICE COMPANY
 DATE.        13-AUG-1961:   LOGDATE
 API .       490250659000:   API NUMBER
~CURVE INFORMATION
#MNEM.UNIT       API CODE    CURVE DESCRIPTION
#----------   ------------   ------------------------------
 DEPT.F                  :   
 ASN .OHMM   05 041 16 00:   AMPLIFIER SHORT NORMAL
 SPR .MV     05 010 01 00:   SPONTANEOUS POTENSIAL
 CILD.MMHO   05 110 46 00:   CONDUCTIVITY INDUCTION LOG DEEP
 ILD .OHMM   05 120 46 00:   INDUCTION LOG DEEP
 GRN .MG/TON 35 310 30 00:   GAMMA RAY
 NEUT.NAPI   35 330 01 00:   NEUTRON
~PARAMETER INFORMATION
#MNEM.UNIT          VALUE    DESCRIPTION
#----------   ------------   ------------------------------
 PD  .                 GL:   PERMANENT DATUM
 EPD .F              5082:   ELEVATION PERMANENT DATUM
 LMF .                 KB:   LOG MEASURED FROM
 DAPD.F                 5:   FEET ABOVE PERMANENT DATUM
 DMF .                 KB:   DRILLING MEASURED FROM
 EKB .F              5087:   KELLING BUSHING
 EGL .F              5082:   GROUND LEVEL
 DATE.        13-AUG-1961:   RUN DATE
 RUN .                  1:   RUN NUMBER
 DD  .F              1000:   DEPTH DRILLER
 DL  .F              1003:   DEPTH LOGGER
 BLI .F              1002:   BOTTOM LOG INTERVAL
 TLI .F                90:   TOP LOG INTERVAL
 BS  .IN             6.75:   BIT SIZE
 BSD .F              1000:   BIT SIZE AT DEPTH
 DFT . OIL EMUL (12% OIL):   DRILLING FLUID TYPE
 DFD .                9.3:   DRILLING FLUID DENSITY
 DFV .                 60:   DRILLING FLUID VISCOSITY
 DFL .                  4:   DRILLING FLUID LOSS
 MSS .           FLOWLINE:   MUD SAMPLE SOURCE
 RMS .OHMM           1.29:   RESISTIVITY MUD SAMPLE
 MST .F                80:   MUD SAMPLE TEMPERATURE
 TCS .HRS               1:   TIME CURCULATED STOPPED
 LUN .               2523:   LOGGING UNIT NUMBER
 LUL .               CSPR:   LOGGING UNIT LOCATION
 ENGI.              SCOTT:   RECORDING ENGINEER
 WITN.          JORGENSEN:   WITNESSED BY
 CLNT.            A2DTECH:   CLIENT CODE
 ORIG.       2", 5" PRINT:   ORIGIN OF DATA
 UWI .       490250659000:   UNIQUE WELL ID
 DICO. A2D Technologies, Inc.:   DIGITIZING COMPANY
~OTHER INFORMATION
~A    DEPT     ASN        SPR       CILD        ILD          GRN     NEUT   
# ...
  626.5000     9.1061   -14.7147   127.1445     7.7914     6.2191   341.9709
  627.0000     9.1427   -14.7147   126.1261     7.7905     6.2167   327.4568
  627.5000     9.1659   -14.7147   123.7363     7.7899     6.1964   315.8165
  628.0000     9.1507   -14.7147   123.1231     7.7891     6.1542   310.8228
  628.5000     9.1104   -14.7798   123.1231     7.7884     6.0685   310.6418
  629.0000     9.0453   -14.8749   124.6144     7.6968     6.0229   317.9229
  629.5000     9.0211   -15.1652   126.5217     7.6362     6.1068   334.8024
  630.0000     9.0150   -15.3153   129.1291     7.5251     6.2490   339.5652
  630.5000     9.0749   -15.4655   130.6306     7.4842     6.2113   346.4655
  631.0000     9.1498   -15.4655   132.1321     7.4833     6.2214   350.3702
  631.5000     9.1797   -15.2803   129.6220     7.4827     6.3121   354.0431
  632.0000     9.1796   -15.0150   129.1291     7.5572     6.8368   347.2015
  632.5000     9.1794   -14.6396   127.6276     7.7246     6.9639   335.8840
  633.0000     9.1796   -14.3944   125.2603     7.8755     7.0028   324.6784
  633.5000     9.2138   -14.1141   124.3069     8.0067     6.9630   318.3309
  634.0000     9.2627   -14.1141   123.1231     8.0813     6.8894   311.7757
  634.5000     9.3140   -14.1241   121.6216     8.0806     6.9421   308.4481
  635.0000     9.3686   -14.5145   121.6216     8.0797     6.9779   319.0668
  635.5000     9.4092   -14.9099   121.6216     8.0791     7.0091   320.5805
  636.0000     9.4787   -15.3153   122.2023     8.0763     7.0551   319.0529
  636.5000     9.5152   -15.5505   123.1231     7.9528     7.0853   316.6189
  637.0000     9.4876   -15.6156   123.1231     7.9262     6.9962   315.0626
  637.5000     9.3581   -15.6156   123.1231     7.9254     6.7007   315.2341
  638.0000     9.3027   -15.6156   123.1231     7.8835     6.7192   322.1401
  638.5000     9.2527   -15.6006   123.1231     7.8486     6.8501   333.4853
  639.0000     9.2225   -15.3153   124.6246     7.7725     6.9795   345.5766
  639.5000     9.2330   -15.1101   124.6246     7.7718     7.0231   360.9650
  640.0000     9.3273   -14.8649   125.3253     7.7711     7.0322   375.3207
  640.5000     9.3947   -14.6196   126.1261     7.7702     6.6228   378.9558
  641.0000     9.3793   -14.5245   127.6276     7.7696     6.2708   377.9299
  641.5000     9.2518   -14.4144   127.6276     7.7688     6.3687   372.8688
  642.0000     9.1798   -14.4144   127.6375     7.7681     6.6649   351.3016
  642.5000     9.1764   -14.4144   129.1291     7.7673     6.8363   328.0393
  643.0000     9.2110   -14.2643   129.1291     7.7665     6.9113   322.7421
  643.5000     9.2512   -14.2643   129.1291     7.7299     6.9563   313.4659
  644.0000     9.1910   -14.2643   129.1291     7.6898     6.9866   308.5369
  644.5000     9.1525   -14.2643   129.1291     7.6889     6.8208   303.7403
  645.0000     9.1129   -14.3143   129.1291     7.6130     6.8911   309.5031
  645.5000     9.0704   -14.4144   129.1291     7.6122     6.9493   317.7924
  646.0000     9.0335   -14.5045   129.1291     7.5643     6.9714   324.9732
  646.5000     8.9939   -14.7147   129.1291     7.5161     6.9359   329.1118
  647.0000     8.9648   -14.8649   129.6646     7.4593     6.8507   331.7916
  647.5000     8.9296   -15.0150   130.6306     7.4586     6.7894   322.4155
  648.0000     8.9045   -15.0350   130.6306     7.3825     6.7411   315.4092
  648.5000     8.9044   -15.1652   132.1321     7.3064     6.7225   317.3447
  649.0000     8.9078   -15.3153   132.1321     7.3057     6.7266   331.3458
  649.5000     8.9491   -15.3153   132.1321     7.2297     6.7957   343.2509
  650.0000     8.9865   -15.2152   132.1321     7.1787     6.8656   356.7971
  650.5000     8.9939   -15.1652   132.1321     7.1529     6.7666   357.5925
  651.0000     8.9186   -15.1652   132.1321     7.1521     6.6341   335.7012
  651.5000     8.8406   -15.0801   132.1321     7.0761     6.5489   330.2038
  652.0000     8.7666   -15.0150   132.1321     7.0753     6.5865   327.2117
  652.5000     8.6882   -15.0150   132.1321     7.0745     6.6477   311.0974
  653.0000     8.6434   -14.7948   132.1321     7.1827     6.6920   305.6418
  653.5000     8.6326   -14.3844   130.6306     7.3047     6.6595   310.4490
  654.0000     8.6807   -13.8138   130.2602     7.4487     6.6090   313.6025
  654.5000     8.7813   -13.4585   129.1291     7.4734     6.5438   307.3491
  655.0000     8.9174   -13.2132   127.6276     7.5979     6.4393   300.4822
  655.5000     9.0043   -14.0591   126.1261     7.7174     6.2998   298.7991
  656.0000     9.1021   -14.4144   124.6246     7.8394     6.2460   306.9569
  656.5000     9.2473   -14.5646   123.9917     7.8968     6.2168   312.2093
  657.0000     9.3330   -14.6446   123.0380     7.9714     6.2620   313.0104
  657.5000     9.4272   -14.7147   121.6216     7.9706     6.5833   305.3409
  658.0000     9.4571   -14.7147   121.6216     7.9698     6.7519   301.9118
  658.5000     9.4755   -14.7147   121.6216     7.9691     6.8574   298.2131
  659.0000     9.4868   -14.7147   122.5175     7.8931     6.8418   296.1980
  659.5000     9.5017   -14.7147   123.4711     7.8923     6.7744   292.1261
  660.0000     9.4164   -14.7147   126.1261     7.8163     6.9050   279.3651
  660.5000     9.3061   -14.7147   126.8793     7.8155     6.9251   274.6519
  661.0000     9.2581   -14.6246   129.1291     7.7395     6.8497   294.3804
  661.5000     9.1845   -14.5646   130.6306     7.6516     6.8644   304.6557
  662.0000     9.1207   -14.5646   132.4374     7.4366     6.9227   301.3757
  662.5000     9.0910   -14.5646   133.6336     7.3293     6.9551   295.1164
  663.0000     9.0652   -14.5446   135.1351     7.2058     6.9818   291.8532
  663.5000     9.0267   -14.4144   136.6366     6.9825     7.0078   288.2181
  664.0000     8.9608   -14.4144   138.1381     6.8835     6.9927   286.7426
  664.5000     8.8094   -14.2643   139.8850     6.8305     6.8750   286.4745
  665.0000     8.6366   -14.2643   142.9678     6.7119     6.4455   289.7653
  665.5000     8.3814   -14.2192   144.1441     6.5884     6.3820   310.2954
  666.0000     8.2835   -14.1141   145.6456     6.5270     6.5189   332.4898
  666.5000     8.2833   -14.1141   145.4629     6.5264     6.7603   336.0499
  667.0000     8.2832   -14.1141   144.1441     6.6009     6.9593   332.4322
  667.5000     8.2830   -14.1141   142.0544     6.6000     7.0043   325.6350
  668.0000     8.3201   -14.1141   141.0608     6.7008     7.0150   320.8439
  668.5000     8.3728   -14.1291   138.1381     6.8245     7.0063   320.0045
  669.0000     8.5081   -14.4144   136.1911     6.9448     6.9690   334.0766
  669.5000     8.6339   -14.4695   133.6336     7.0668     6.8867   338.2810
  670.0000     8.7177   -14.7147   131.2813     7.1987     6.7962   324.2823
  670.5000     8.7445   -14.7147   129.1291     7.3481     6.7510   301.0311
  671.0000     8.7934   -14.8649   127.6276     7.4423     6.7886   292.0051
  671.5000     8.8422   -14.7147   126.1261     7.6482     6.8274   300.6785
  672.0000     8.9493   -14.3343   126.1261     7.7520     6.7217   316.9879
  672.5000     9.0773   -14.0641   126.1261     7.8727     6.5548   321.9593
  673.0000     9.2324   -13.8138   126.1261     7.8720     6.5269   321.5409
  673.5000     9.3643   -13.5986   126.1261     7.8712     6.6151   313.1690
  674.0000     9.4522   -13.5135   126.1261     7.8704     6.7444   302.6558
  674.5000     9.4589   -13.5135   126.1261     7.8697     6.7733   292.6530
  675.0000     9.4469   -14.0140   127.6276     7.8564     6.5094   283.5392
  675.5000     9.3617   -14.2643   129.1291     7.7175     6.1299   281.1299
  676.0000     9.3211   -14.5045   130.6306     7.6847     6.0797   278.1501
  676.5000     9.2713   -14.7497   132.1321     7.5612     6.3209   278.9554
  677.0000     9.2228   -15.0150   132.1321     7.4140     6.4217   285.7888
  677.5000     9.1550   -15.2402   133.6336     7.3896     6.4895   280.4656
  678.0000     9.0907   -15.3353   133.6336     7.2620     6.6072   270.6650
