~VERSION INFORMATION
 VERS.                2.0:   CWLS LOG ASCII STANDARD - VERSION 2.0
 WRAP.                 NO:   ONE LINE PER DEPTH STEP
~WELL INFORMATION
#MNEM.UNIT      DATA TYPE    INFORMATION
#----------   ------------   ------------------------------
 STRT.F            0.5000:   START DEPTH
 STOP.F          696.0000:   STOP DEPTH
 STEP.F            0.5000:   STEP LENGTH
 NULL.          -999.2500:   NO VALUE
 COMP. LAWRENCE/ALLISON INC:   COMPANY
 WELL. SX 11 WP #26-44-11:   WELL
 FLD .             TEAPOT:   FIELD
 LOC .      S11 T38N R78W:   LOCATION
 CNTY.            NATRONA:   COUNTY
 STAT.            WYOMING:   STATE
 CTRY. UNITED STATES OF AMERICA:   COUNTRY
 SRVC.      Dresser Atlas:   SERVICE COMPANY
 DATE.        08-SEP-1984:   LOGDATE
 API .       490251097600:   API NUMBER
~CURVE INFORMATION
#MNEM.UNIT       API CODE    CURVE DESCRIPTION
#----------   ------------   ------------------------------
 DEPT.F                  :   
 AC  .US/F   60 520 00 00:   ACCOUSTIC
 SPR .MV     07 010 01 00:   SPONTANEOUS POTENTIAL FROM RES.
 RILD.OHMM   07 120 46 00:   RESISTIVITY INDUCTION LOG DEEP
 RILM.OHMM   07 120 44 00:   RESISTIVITY INDUCTION LOG MEDIUM
 RFOC.OHMM   07 220 04 00:   RESISTIVITY FOCUSED LOG
 GRR .GAPI   07 310 01 00:   GAMMA RAY FROM RESISTIVITY
 CALD.IN     45 280 60 00:   CALIPER FROM DENSITY LOG
 DEN .G/C3   45 350 01 00:   COMPENSATED BULK DENSTIY
 CORR.G/C3   45 356 01 00:   DENSITY CORRECTION
 PORD.DEC    45 890 12 00:   POROSITY DENSITY SANDSTONE
 CNC .DEC    42 890 03 00:   NEUTRON POROSITY SANDSTONE
~PARAMETER INFORMATION
#MNEM.UNIT          VALUE    DESCRIPTION
#----------   ------------   ------------------------------
 PD  .                 GL:   PERMANENT DATUM
 EPD .F              5186:   ELEVATION PERMANENT DATUM
 LMF .                 GL:   LOG MEASURED FROM
 DMF .                 GL:   DRILLING MEASURED FROM
 EGL .F              5186:   GROUND LEVEL
 DATE.         8-SEP-1984:   RUN DATE
 RUN .                  1:   RUN NUMBER
 DD  .F               712:   DEPTH DRILLER
 DL  .F               695:   DEPTH LOGGER
 BLI .F               693:   BOTTOM LOG INTERVAL
 CS  .IN            8.625:   CASING SIZE
 CBD .F                40:   CASING BOTTOM DRILLER
 CBL .F                45:   CASING BOTTOM LOGGER
 BS  .IN            7.875:   BIT SIZE
 BSD .F               712:   BIT SIZE AT DEPTH
 DFT .          KCL WATER:   DRILLING FLUID TYPE
 MSS .           FLOWLINE:   MUD SAMPLE SOURCE
 RMS .OHMM            .22:   RESISTIVITY MUD SAMPLE
 MST .F                72:   MUD SAMPLE TEMPERATURE
 RMF .OHMM            .17:   RESISTIVITY MUD FILTRATE SAMPLE
 MFST.F                72:   MUD FILTRATE SAMPLE TEMPERATURE
 RMC .OHMM            .28:   RESISTIVITY MUD CAKE
 MCST.F                72:   MUD CAKE SAMPLE TEMPERATURE
 MFSS.               CALC:   MUD FILTRATE SAMPLE SOURCE
 MCSS.               CALC:   MUD CAKE SAMPLE SOURCE
 RMB .OHMM            .18:   RESISTIVITY MUD AT BHT
 BHT .F                90:   BOTTOM HOLE TEMPERATURE
 TCS .HRS               3:   TIME CURCULATED STOPPED
 MRT .F                90:   MAXIMUM RECORDED TEMPERATURE
 LUN .               6274:   LOGGING UNIT NUMBER
 LUL .               GLTE:   LOGGING UNIT LOCATION
 ENGI.             RAUTIO:   RECORDING ENGINEER
 WITN.           JENNINGS:   WITNESSED BY
 CLNT.            A2DTECH:   CLIENT CODE
 ORIG. 1", 2', 2.5", 5" PRNT:   ORIGIN OF DATA
 UWI .       490251097600:   UNIQUE WELL ID
 DICO. A2D Technologies, Inc.:   DIGITIZING COMPANY
~OTHER INFORMATION
~A    DEPT      AC        SPR       RILD       RILM       RFOC         GRR      CALD        DEN       CORR       PORD        CNC   
# ...
  488.5000    98.2670     3.8710    16.6580    15.7230    15.4330    73.2482     7.7950     2.3720     0.0170     0.1830     0.2664
  489.0000    97.9590     3.5000    16.4140    15.5710    15.2700    72.9757     7.7950     2.3770     0.0060     0.1810     0.2688
  489.5000    97.5830     3.1310    16.2450    15.4190    15.1070    73.0090     7.8000     2.3810     0.0010     0.1790     0.2663
  490.0000    97.2060     2.7600    16.0780    15.2990    14.9440    73.0423     7.8040     2.3750     0.0090     0.1800     0.2610
  490.5000    96.8300     2.3790    15.9110    15.1870    14.7820    72.1772     7.8090     2.3680    -0.0070     0.1840     0.2603
  491.0000    96.4530     2.2330    15.7440    15.0750    14.6190    71.9094     7.8130     2.3620    -0.0200     0.1890     0.2600
  491.5000    96.0770     2.1610    15.5770    14.9630    14.4560    73.1279     7.8180     2.3640    -0.0100     0.1890     0.2602
  492.0000    95.7000     2.0910    15.4100    14.8510    14.3000    74.3368     7.8230     2.3700     0.0020     0.1860     0.2633
  492.5000    95.2790     2.0220    15.2500    14.7390    14.2530    72.0045     7.8270     2.3760     0.0110     0.1810     0.2703
  493.0000    95.8470     1.9530    15.2690    14.6870    14.1690    70.8431     7.8310     2.3750     0.0020     0.1810     0.2742
  493.5000    96.4930     1.8830    15.2880    14.6670    14.2980    69.3902     7.8290     2.3700    -0.0050     0.1830     0.2692
  494.0000    97.0720     1.8140    15.3060    14.6470    14.4990    71.7938     7.8260     2.3660     0.0020     0.1860     0.2629
  494.5000    97.2930     1.7460    15.3250    14.6270    14.7000    73.3086     7.8230     2.3650     0.0070     0.1880     0.2580
  495.0000    97.4700     1.6800    15.3440    14.6070    14.9010    73.6334     7.8200     2.3680     0.0030     0.1870     0.2591
  495.5000    97.1890     1.4390    15.3630    14.5870    15.1020    74.8472     7.8170     2.3720     0.0040     0.1840     0.2621
  496.0000    96.9380     1.1700    15.3890    14.5670    15.2500    76.9498     7.8150     2.3740     0.0100     0.1820     0.2649
  496.5000    96.6870     0.9020    15.3230    14.5090    14.9700    75.7884     7.8120     2.3760     0.0150     0.1820     0.2667
  497.0000    96.4740     0.6320    15.1780    14.4450    14.7490    74.0486     7.8090     2.3810     0.0190     0.1790     0.2650
  497.5000    95.7680     0.4900    15.0330    14.3810    14.5280    72.5957     7.8070     2.3920     0.0120     0.1740     0.2603
  498.0000    95.1540     0.3610    14.8890    14.3170    14.3060    73.2168     7.8040     2.4040     0.0080     0.1680     0.2519
  498.5000    94.5410     0.2300    14.6990    14.2530    14.0850    73.8427     7.8020     2.4140     0.0060     0.1620     0.2479
  499.0000    93.6040     0.0870    14.9080    14.1690    13.8640    75.0564     7.7990     2.4200     0.0040     0.1560     0.2438
  499.5000    91.5080     0.2540    15.3330    14.4810    13.6430    75.9738     7.7970     2.4270     0.0020     0.1530     0.2302
  500.0000    87.9580     0.1490    15.7590    14.9320    13.5320    73.9235     7.7940     2.4500     0.0050     0.1440     0.2172
  500.5000    84.4080    -0.1110    16.1840    15.3830    14.6600    72.7642     7.7920     2.4890     0.0110     0.1210     0.2098
  501.0000    80.8580    -0.8930    16.5650    15.8340    16.2690    71.0206     7.7920     2.5290     0.0220     0.0990     0.1977
  501.5000    77.3510    -1.6570    16.7180    16.2630    17.8780    69.5648     7.7920     2.5530     0.0330     0.0790     0.1940
  502.0000    77.1510    -2.4380    16.5780    16.2630    20.2780    68.1089     7.7920     2.5550     0.0430     0.0730     0.1970
  502.5000    81.4040    -2.5860    16.0580    15.4040    19.9150    68.1345     7.7920     2.5410     0.0400     0.0830     0.2182
  503.0000    84.9040    -2.7030    15.3950    14.7460    18.2970    70.5348     7.7920     2.5120     0.0300     0.1000     0.2357
  503.5000    88.4040    -2.8210    14.7320    14.0890    16.6800    72.9308     7.7920     2.4740     0.0190     0.1230     0.2571
  504.0000    90.9600    -2.9400    14.0680    13.4310    15.1340    76.5119     7.7950     2.4360     0.0080     0.1410     0.2562
  504.5000    92.8880    -3.0590    13.4050    12.7740    14.1290    78.0190     7.8000     2.4150    -0.0030     0.1550     0.2549
  505.0000    93.2340    -3.1770    12.6890    12.4500    13.0440    75.9749     7.8050     2.4060    -0.0120     0.1610     0.2598
  505.5000    93.5670    -3.2960    12.6520    12.4340    13.0070    73.3338     7.8100     2.4020    -0.0110     0.1650     0.2600
  506.0000    93.9000    -3.4150    12.6120    12.4190    12.9680    70.9891     7.8150     2.4000    -0.0030     0.1670     0.2577
  506.5000    94.2340    -3.5340    12.5720    12.4030    12.9280    70.7141     7.8200     2.3980     0.0050     0.1690     0.2571
  507.0000    94.4820    -3.6520    12.5320    12.3880    12.8880    71.3409     7.8250     2.3930     0.0010     0.1710     0.2629
  507.5000    94.4820    -3.7710    12.4920    12.3730    12.8480    71.9591     7.8300     2.3880    -0.0050     0.1740     0.2650
  508.0000    94.4600    -3.8910    12.4500    12.3570    12.8060    73.1699     7.8320     2.3860     0.0000     0.1760     0.2695
  508.5000    94.3770    -4.0100    12.3870    12.3300    12.7560    73.1955     7.8320     2.3900     0.0070     0.1740     0.2744
  509.0000    94.2830    -4.1920    12.3240    12.2220    12.6870    72.3280     7.8320     2.3960     0.0060     0.1710     0.2728
  509.5000    93.9560    -4.4210    12.2610    12.1150    12.6180    72.0573     7.8320     2.3990     0.0000     0.1690     0.2688
  510.0000    93.5810    -4.6570    12.1990    12.0080    12.5490    71.1983     7.8320     2.4030    -0.0060     0.1670     0.2573
  510.5000    93.2060    -5.0280    12.1360    11.9010    12.4800    71.8208     7.8320     2.4060    -0.0040     0.1640     0.2563
  511.0000    92.8880    -5.4110    12.0730    11.7940    12.4110    73.3321     7.8320     2.4140     0.0040     0.1600     0.2600
  511.5000    93.1660    -5.7930    12.0100    11.6870    12.3420    74.5430     7.8300     2.4160     0.0120     0.1570     0.2599
  512.0000    93.4790    -6.1750    11.9480    11.5750    12.2730    73.9717     7.8270     2.4130     0.0150     0.1590     0.2602
  512.5000    93.7910    -6.5570    11.8850    11.5280    12.2040    73.7010     7.8240     2.3950     0.0020     0.1660     0.2611
  513.0000    93.5630    -6.9390    11.8220    11.4800    12.1350    74.0315     7.8210     2.3900    -0.0110     0.1740     0.2650
  513.5000    93.1050    -7.3180    11.7600    11.4310    12.0660    74.6497     7.8180     2.3970    -0.0170     0.1700     0.2625
  514.0000    92.6460    -7.6230    11.6970    11.3820    12.0080    74.9716     7.8150     2.4150    -0.0080     0.1610     0.2569
  514.5000    92.1880    -7.3890    11.6340    11.3340    11.9370    77.0713     7.8120     2.4340     0.0030     0.1500     0.2550
  515.0000    91.6930    -7.1530    11.5710    11.2850    11.8630    78.5827     7.8090     2.4410     0.0140     0.1420     0.2623
  515.5000    92.1120    -6.9160    11.5090    11.2360    11.7880    80.9787     7.8060     2.4360     0.0130     0.1460     0.2684
  516.0000    92.5660    -6.9220    11.4730    11.1630    11.6810    82.1895     7.8030     2.4240     0.0080     0.1510     0.2634
  516.5000    93.0210    -7.0590    11.5260    11.3640    11.7150    81.9188     7.8000     2.4140     0.0050     0.1570     0.2600
  517.0000    93.4750    -7.1980    11.5690    11.4150    11.7740    79.5783     7.7970     2.4110     0.0030     0.1600     0.2571
  517.5000    93.6580    -7.3360    11.6110    11.4680    11.8330    76.3447     7.7940     2.4110     0.0040     0.1610     0.2562
  518.0000    93.6080    -7.4750    11.6530    11.5210    11.8930    75.1809     7.7930     2.4140     0.0070     0.1590     0.2561
  518.5000    93.5580    -7.6150    11.6950    11.5740    11.9520    75.8033     7.7960     2.4160     0.0110     0.1560     0.2576
