~VERSION INFORMATION
 VERS.                2.0:   CWLS LOG ASCII STANDARD - VERSION 2.0
 WRAP.                 NO:   ONE LINE PER DEPTH STEP
~WELL INFORMATION
#MNEM.UNIT      DATA TYPE    INFORMATION
#----------   ------------   ------------------------------
 STRT.F           42.0000:   START DEPTH
 STOP.F          612.0000:   STOP DEPTH
 STEP.F            0.5000:   STEP LENGTH
 NULL.          -999.2500:   NO VALUE
 COMP. FENIX AND SCISSON INCORPORATED:   COMPANY
 WELL. RES 3 TEAPOT DOM #25SX11-11:   WELL
 FLD .             TEAPOT:   FIELD
 LOC .      S11 T38N R78W:   LOCATION
 CNTY.            NATRONA:   COUNTY
 STAT.            WYOMING:   STATE
 CTRY. UNITED STATES OF AMERICA:   COUNTRY
 SRVC.            Unknown:   SERVICE COMPANY
 DATE.        16-FEB-1978:   LOGDATE
 API .       490251058000:   API NUMBER
~CURVE INFORMATION
#MNEM.UNIT       API CODE    CURVE DESCRIPTION
#----------   ------------   ------------------------------
 DEPT.F                  :   
 ILD .OHMM   05 120 46 00:   INDUCTION LOG DEEP
 SN  .OHMM   05 040 16 00:   SHORT NORMAL 16"
 SPR .MV     05 010 01 00:   SPONTANEOUS POTENTIAL FROM RES.
 CALD.IN     45 280 60 00:   CALIPER FROM DENSITY LOG
 CORR.G/C3   45 356 01 00:   DENSITY CORRECTION
 DPHI.DEC    45 890 12 00:   DENSITY POROSITY SANDSTONE
 GRD .GAPI   45 310 01 00:   GAMMA RAY FROM DENSITY LOG
 RHOB.G/C3   45 350 01 00:   BULK DENSITY
~PARAMETER INFORMATION
#MNEM.UNIT          VALUE    DESCRIPTION
#----------   ------------   ------------------------------
 PD  .                 GL:   PERMANENT DATUM
 EPD .F              5167:   ELEVATION PERMANENT DATUM
 LMF .                 KB:   LOG MEASURED FROM
 DAPD.F                 3:   FEET ABOVE PERMANENT DATUM
 DMF .                 KB:   DRILLING MEASURED FROM
 EKB .F              5170:   KELLING BUSHING
 EGL .F              5167:   GROUND LEVEL
 DATE.        16-FEB-1978:   RUN DATE
 RUN .                  1:   RUN NUMBER
 DD  .F               610:   DEPTH DRILLER
 DL  .F               615:   DEPTH LOGGER
 BLI .F               610:   BOTTOM LOG INTERVAL
 TLI .F                40:   TOP LOG INTERVAL
 CS  .IN            8.625:   CASING SIZE
 CBD .F                40:   CASING BOTTOM DRILLER
 CBL .F                40:   CASING BOTTOM LOGGER
 BS  .IN            7.875:   BIT SIZE
 BSD .F               610:   BIT SIZE AT DEPTH
 DFT .        LIGNO/ SULF:   DRILLING FLUID TYPE
 DFD .                8.7:   DRILLING FLUID DENSITY
 DFV .                 30:   DRILLING FLUID VISCOSITY
 DFPH.                 10:   DRILLING FLUID PH
 DFL .                4.6:   DRILLING FLUID LOSS
 MSS .           FLOWLINE:   MUD SAMPLE SOURCE
 RMS .OHMM            1.7:   RESISTIVITY MUD SAMPLE
 MST .F                69:   MUD SAMPLE TEMPERATURE
 RMF .OHMM            1.5:   RESISTIVITY MUD FILTRATE SAMPLE
 MFST.F                70:   MUD FILTRATE SAMPLE TEMPERATURE
 RMC .OHMM            2.5:   RESISTIVITY MUD CAKE
 MCST.F                70:   MUD CAKE SAMPLE TEMPERATURE
 MFSS.               MEAS:   MUD FILTRATE SAMPLE SOURCE
 RMB .OHMM            1.6:   RESISTIVITY MUD AT BHT
 BHT .F                70:   BOTTOM HOLE TEMPERATURE
 TCS .HRS               3:   TIME CURCULATED STOPPED
 MRT .F                70:   MAXIMUM RECORDED TEMPERATURE
 LUN .               2958:   LOGGING UNIT NUMBER
 LUL .             CASPER:   LOGGING UNIT LOCATION
 ENGI.            POINTER:   RECORDING ENGINEER
 WITN.           MCGINLEY:   WITNESSED BY
 CLNT.            A2DTECH:   CLIENT CODE
 ORIG.           5" PRINT:   ORIGIN OF DATA
 UWI .       490251058000:   UNIQUE WELL ID
 DICO. A2D Technologies, Inc.:   DIGITIZING COMPANY
~OTHER INFORMATION
~A   DEPT      ILD         SN         SPR      CALD       CORR       DPHI        GRD       RHOB   
# ...
  285.0000     7.1442     7.6909    -8.0784     7.8410     0.0311     0.1270    94.1352     2.4437
  285.5000     7.1414     7.7404    -8.0915     7.8393     0.0325     0.1207    93.5030     2.4541
  286.0000     7.1883     7.7352    -7.9498     7.8247     0.0309     0.1150    92.9094     2.4624
  286.5000     7.2911     7.7311    -7.9662     7.8090     0.0264     0.1141    93.8059     2.4646
  287.0000     7.3848     7.7798    -8.1308     7.8084     0.0263     0.1129    94.7024     2.4668
  287.5000     7.4851     7.8854    -8.2955     7.8078     0.0292     0.1141    94.5430     2.4683
  288.0000     7.5861     7.9904    -8.3091     7.7920     0.0306     0.1138    94.8362     2.4667
  288.5000     7.7435     8.0979    -8.9310     7.7763     0.0286     0.1129    95.4310     2.4697
  289.0000     7.9025     8.1510    -9.8532     7.7605     0.0199     0.1111    95.8849     2.4727
  289.5000     8.0099     8.2595   -10.0178     7.7448     0.0139     0.1090    98.8809     2.4764
  290.0000     8.1744     8.3706    -9.4249     7.7290     0.0123     0.1066    99.3270     2.4801
  290.5000     8.1712     8.6007    -9.2864     7.7284     0.0137     0.1060    98.1097     2.4838
  291.0000     8.2256     8.5961    -9.1481     7.7580     0.0211     0.1112    95.2355     2.4875
  291.5000     8.2797     8.5320    -9.0097     7.7423     0.0225     0.1220    94.4749     2.4851
  292.0000     8.2755     8.5275    -8.8713     7.7054     0.0254     0.1229    95.6709     2.4544
  292.5000     8.3299     8.4639    -9.0392     7.2274     0.0268     0.1208    97.9248     2.4544
  293.0000     8.3264     8.4008    -9.5068     7.4382     0.0282     0.1187   101.4052     2.4528
  293.5000     8.3803     8.4549   -10.1260     7.8908     0.0266     0.1172   102.1289     2.4543
  294.0000     8.3770     8.5093    -9.5212     7.9205     0.0280     0.1172   102.2734     2.4595
  294.5000     8.3736     8.5036    -8.7886     7.9198     0.0309     0.1184   101.8102     2.4625
  295.0000     8.1977     8.4991    -8.4987     7.9343     0.0293     0.1211   101.5000     2.4632
  295.5000     8.1376     8.5538    -8.3603     7.9337     0.0247     0.1229    99.2291     2.4631
  296.0000     8.0177     8.4899    -8.2219     7.9481     0.0247     0.1256    94.6957     2.4571
  296.5000     7.9626     8.4843    -7.9352     7.9474     0.0291     0.1290    91.4794     2.4533
  297.0000     7.9044     8.4798    -7.7968     7.9468     0.0320     0.1257    88.3417     2.4510
  297.5000     7.9012     8.3005    -8.2678     7.9462     0.0349     0.1224    88.0315     2.4435
  298.0000     7.9539     8.2960    -8.8869     7.9456     0.0363     0.1176    88.3247     2.4502
  298.5000     8.0054     8.2916    -9.0516     7.9450     0.0347     0.1137    88.7686     2.4607
  299.0000     8.0579     8.2872    -8.7617     7.9444     0.0346     0.1161    89.9668     2.4689
  299.5000     8.0538     8.2816    -8.3202     7.9286     0.0345     0.1185    91.0140     2.4749
  300.0000     7.9395     8.3932    -8.6364     7.9279     0.0344     0.1170    93.2680     2.4703
  300.5000     7.9363     8.3317    -8.4937     7.9122     0.0328     0.1146    96.4668     2.4643
  301.0000     7.9892     8.3284    -9.8683     7.9116     0.0327     0.1128    94.6063     2.4642
  301.5000     7.9851     8.3250    -9.7234     7.9110     0.0356     0.1113    93.8436     2.4689
  302.0000     7.9267     8.2641    -9.2777     7.8952     0.0370     0.1102    93.2318     2.4641
  302.5000     7.8686     8.2607    -9.2888     7.8946     0.0368     0.1099    90.5083     2.4671
  303.0000     7.8110     8.2566    -9.1439     7.8789     0.0367     0.1099    87.9357     2.4723
  303.5000     7.7996     8.1962    -9.1549     7.8177     0.0366     0.1099    88.5305     2.4760
  304.0000     7.6962     8.1362    -8.8606     7.7567     0.0365     0.1112    90.5128     2.4775
  304.5000     7.6398     8.0207    -8.5665     7.4842     0.0378     0.1133    93.6396     2.4752
  305.0000     7.5839     7.9620    -8.4238     7.4686     0.0392     0.1223    93.1786     2.4699
  305.5000     7.4762     7.8490    -8.5863     7.6793     0.0406     0.1296    92.7176     2.4608
  306.0000     7.3191     7.7914    -9.0497     7.8298     0.0449     0.1332    92.5582     2.4487
  306.5000     7.3161     7.6801    -9.5131     7.8745     0.0523     0.1350    92.5497     2.4427
  307.0000     7.4155     7.6770    -9.8249     7.8435     0.0597     0.1332    94.2003     2.4396
  307.5000     7.4124     7.6740    -9.8338     7.8127     0.0730     0.1261    97.5101     2.4335
  308.0000     7.3574     7.7243    -9.2365     7.7517     0.0879     0.1177    97.6524     2.4448
  308.5000     7.3035     7.6678    -8.9423     7.6755     0.0998     0.1021    97.4909     2.4530
  309.0000     7.1500     7.6116    -9.1273     7.4786     0.1073     0.0828    96.8791     2.4800
  309.5000     6.9513     7.3943    -9.5683     7.5233     0.0995     0.0880    95.6639     2.4845
  310.0000     6.5274     6.9482    -9.5771     7.6888     0.0590     0.1066    93.3930     2.5137
  310.5000     6.2151     6.7551    -9.4322     7.8564     0.0364     0.1157    86.5971     2.4934
  311.0000     6.0845     6.6131    -9.4432     7.9442     0.0333     0.1190    85.8344     2.4701
  311.5000     5.9559     6.4741    -9.6036     7.9740     0.0317     0.1178    86.7610     2.4715
  312.0000     5.9129     6.4267    -9.7639     7.9885     0.0301     0.1158    88.8319     2.4565
  312.5000     5.9926     6.5140    -9.9242     8.0030     0.0298     0.1143    91.0858     2.4594
  313.0000     6.2451     6.6079    -9.9152     8.0173     0.0283     0.1146    92.6045     2.4654
  313.5000     6.4632     6.8800    -9.7904     8.0167     0.0327     0.1239    92.5991     2.4605
  314.0000     6.7825     7.0710    -9.6499     8.0161     0.0371     0.1249    92.4428     2.4398
  314.5000     6.9715     7.2169    -9.5050     8.0154     0.0429     0.1203    92.1357     2.4480
  315.0000     7.1147     7.3157    -9.0615     7.9997     0.0458     0.1168    90.7728     2.4524
  315.5000     7.1614     7.4667    -8.7651     8.0321     0.0472     0.1138    89.4099     2.4607
  316.0000     7.1584     7.5674    -9.5337     8.0317     0.0471     0.1123    91.3653     2.4704
  316.5000     7.3055     7.6701    -9.9971     7.8783     0.0439     0.1139    95.4308     2.4726
  317.0000     7.3025     7.6663   -10.1576     7.8648     0.0393     0.1193    93.3137     2.4718
  317.5000     7.3512     7.7174   -10.0147     7.8947     0.0332     0.1241    91.9508     2.4672
  318.0000     7.3994     7.6601    -9.7205     7.9093     0.0331     0.1254    90.8895     2.4567
  318.5000     7.3445     7.6040    -9.5778     7.9090     0.0315     0.1257    90.8491     2.4506
  319.0000     7.1404     7.2907   -10.6495     7.9086     0.0314     0.1263    91.4869     2.4506
  319.5000     6.8938     7.0390   -10.2037     7.9082     0.0313     0.1272    91.6273     2.4505
  320.0000     6.7489     6.9391    -8.6974     7.9079     0.0311     0.1297    91.1680     2.4490
  320.5000     6.6994     6.9356    -8.4032     7.9075     0.0310     0.1324    90.8609     2.4452
  321.0000     6.7428     6.9328    -8.2605     7.9070     0.0309     0.1352    92.2129     2.4391
  321.5000     6.7401     6.8821    -8.4212     7.9067     0.0323     0.1409    95.2241     2.4323
  322.0000     6.7373     6.8793    -9.0380     7.9063     0.0351     0.1439    95.0678     2.4263
  322.5000     6.5957     6.8289    -9.3498     7.9059     0.0366     0.1514    94.2829     2.4175
  323.0000     6.3680     6.6854    -9.0534     7.9041     0.0394     0.1581    93.0947     2.4014
  323.5000     6.0214     6.4453    -8.9107     7.9052     0.0423     0.1494    92.7876     2.3946
  324.0000     5.6150     6.0185    -9.8308     7.9048     0.0437     0.1328    92.9344     2.4035
  324.5000     5.3799     5.6515   -10.2942     7.9045     0.0435     0.1191    94.1342     2.4388
  325.0000     5.2339     5.4944    -9.5455     7.9041     0.0419     0.1113    95.1845     2.4553
