~VERSION INFORMATION
 VERS.                2.0:   CWLS LOG ASCII STANDARD - VERSION 2.0
 WRAP.                 NO:   ONE LINE PER DEPTH STEP
~WELL INFORMATION
#MNEM.UNIT      DATA TYPE    INFORMATION
#----------   ------------   ------------------------------
 STRT.F            9.5000:   START DEPTH
 STOP.F          640.5000:   STOP DEPTH
 STEP.F            0.5000:   STEP LENGTH
 NULL.          -999.2500:   NO VALUE
 COMP. FENIX & SCISSON INC:   COMPANY
 WELL. 27-32 SX 11 WI #27-32 SX:   WELL
 FLD .            WILDCAT:   FIELD
 LOC .      S11 T38N R78W:   LOCATION
 CNTY.            NATRONA:   COUNTY
 STAT.            WYOMING:   STATE
 CTRY. UNITED STATES OF AMERICA:   COUNTRY
 SRVC.      Dresser Atlas:   SERVICE COMPANY
 DATE.        01-AUG-1980:   LOGDATE
 API .       490251083700:   API NUMBER
~CURVE INFORMATION
#MNEM.UNIT       API CODE    CURVE DESCRIPTION
#----------   ------------   ------------------------------
 DEPT.F                  :   
 SPR .MV     07 010 01 00:   SPONTANEOUS POTENTIAL
 SFL .OHMM   07 220 01 00:   SHALLOW FOCUSED LOG RESISTIVITY
 ILD .OHMM   07 120 46 00:   INDUCTION LOG DEEP
 ILM .OHMM   07 120 44 00:   INDUCTION LOG MEDIUM
 GRD .GAPI   45 310 01 00:   GAMMA RAY FROM DENSITY LOG
 CALD.IN     45 280 60 00:   CALIPER
 RHOB.G/C3   45 350 01 00:   BULK DENSITY
 CORR.G/C3   45 356 01 00:   DENSITY CORRECTION
 DPHI.DEC    45 890 12 00:   DENSITY POROSITY SANDSTONE
 NPHI.DEC    42 890 03 00:   NEUTRON POROSITY SANDSTONE
~PARAMETER INFORMATION
#MNEM.UNIT          VALUE    DESCRIPTION
#----------   ------------   ------------------------------
 PD  .                 GL:   PERMANENT DATUM
 EPD .F              5189:   ELEVATION PERMANENT DATUM
 LMF .                 KB:   LOG MEASURED FROM
 DAPD.F                 5:   FEET ABOVE PERMANENT DATUM
 DMF .                 KB:   DRILLING MEASURED FROM
 EKB .F              5194:   KELLING BUSHING
 EGL .F              5189:   GROUND LEVEL
 DATE.             8-1-80:   RUN DATE
 RUN .                  1:   RUN NUMBER
 DD  .F               625:   DEPTH DRILLER
 DL  .F               634:   DEPTH LOGGER
 BLI .F               632:   BOTTOM LOG INTERVAL
 TLI .F                12:   TOP LOG INTERVAL
 BS  .IN            7.875:   BIT SIZE
 BSD .F               625:   BIT SIZE AT DEPTH
 DFT .           CHEM GEL:   DRILLING FLUID TYPE
 DFD .                9.1:   DRILLING FLUID DENSITY
 DFV .                 44:   DRILLING FLUID VISCOSITY
 DFPH.                9.5:   DRILLING FLUID PH
 DFL .                7.6:   DRILLING FLUID LOSS
 MSS .           FLOWLINE:   MUD SAMPLE SOURCE
 RMS .OHMM            .27:   RESISTIVITY MUD SAMPLE
 MST .F                70:   MUD SAMPLE TEMPERATURE
 RMF .OHMM            .16:   RESISTIVITY MUD FILTRATE SAMPLE
 MFST.F                65:   MUD FILTRATE SAMPLE TEMPERATURE
 MFSS.               MEAS:   MUD FILTRATE SAMPLE SOURCE
 MCSS.               MEAS:   MUD CAKE SAMPLE SOURCE
 RMB .OHMM            .21:   RESISTIVITY MUD AT BHT
 BHT .F                94:   BOTTOM HOLE TEMPERATURE
 TCS .HRS            0040:   TIME CURCULATED STOPPED
 MRT .F                94:   MAXIMUM RECORDED TEMPERATURE
 LUN .               6145:   LOGGING UNIT NUMBER
 LUL .              GLTTE:   LOGGING UNIT LOCATION
 ENGI.              HENRY:   RECORDING ENGINEER
 WITN.              AMEND:   WITNESSED BY
 CLNT.            A2DTECH:   CLIENT CODE
 ORIG.     1", 2.5" PRINT:   ORIGIN OF DATA
 UWI .       490251083700:   UNIQUE WELL ID
 DICO. A2D Technologies, Inc.:   DIGITIZING COMPANY
~OTHER INFORMATION
~A    DEPT     SPR         SFL         ILD        ILM      GRD       CALD       RHOB       CORR       DPHI       NPHI   
# ...
  143.5000   -56.0710     8.2072     6.4564     6.9770    89.8358     8.3002     2.4453     0.0177     0.1393     0.3069
  144.0000   -56.2453     8.2974     6.6359     7.1273    88.7497     8.3036     2.4557     0.0200     0.1353     0.3018
  144.5000   -56.4289     8.4045     6.8204     7.2808    88.1347     8.3072     2.4662     0.0222     0.1291     0.2889
  145.0000   -56.6083     8.6043     7.0099     7.4376    87.4200     8.3104     2.4773     0.0244     0.1229     0.2849
  145.5000   -56.7874     8.8523     7.2062     7.5978    85.7303     8.3136     2.4869     0.0268     0.1168     0.2842
  146.0000   -56.9672     9.1074     7.4081     7.7615    83.9392     8.3185     2.4842     0.0285     0.1176     0.2837
  146.5000   -57.1503     9.3993     7.6154     7.9473    84.0050     8.3072     2.4767     0.0248     0.1207     0.2827
  147.0000   -57.3238     9.3993     7.8060     7.9102    84.2217     8.2839     2.4694     0.0180     0.1237     0.2817
  147.5000   -57.5097     9.3993     7.9530     7.8687    88.4284     8.2620     2.4675     0.0111     0.1273     0.2808
  148.0000   -57.5186     9.3993     7.9437     7.8274    91.4986     8.2404     2.4672     0.0089     0.1273     0.2799
  148.5000   -57.5231     9.3993     7.8716     7.7415    92.6162     8.2185     2.4735     0.0119     0.1254     0.2818
  149.0000   -57.5200     9.3993     7.6448     7.5735    89.6609     8.1964     2.4797     0.0144     0.1237     0.2851
  149.5000   -57.5210     9.2923     7.4247     7.4093    87.1242     8.1746     2.4854     0.0169     0.1186     0.2884
  150.0000   -57.5200     9.0169     7.2111     7.2487    86.5690     8.1578     2.4923     0.0196     0.1124     0.2884
  150.5000   -57.5224     8.7475     7.0040     7.0914    87.3170     8.1623     2.4870     0.0223     0.1144     0.2881
  151.0000   -57.5270     8.4863     6.8032     6.9829    88.0694     8.1658     2.4796     0.0226     0.1183     0.2878
  151.5000   -57.7431     8.2504     6.6084     7.0173    88.8094     8.1701     2.4714     0.0177     0.1223     0.2876
  152.0000   -57.9248     8.2181     6.4734     7.0518    92.1642     8.1742     2.4665     0.0126     0.1262     0.2886
  152.5000   -57.9268     8.1881     6.4738     7.0864    97.7173     8.1782     2.4666     0.0165     0.1281     0.2901
  153.0000   -57.8314     8.1581     6.4737     7.1213   103.2246     8.1823     2.4712     0.0211     0.1231     0.2915
  153.5000   -57.6867     8.1284     6.4737     7.1562   107.0581     8.1864     2.4838     0.0259     0.1165     0.2930
  154.0000   -57.5444     8.0983     6.5642     7.1914   105.1023     8.1905     2.4949     0.0306     0.1098     0.2945
  154.5000   -57.4034     8.2792     6.6430     7.2267   101.6856     8.1945     2.5063     0.0325     0.1048     0.2956
  155.0000   -57.2613     8.4653     6.7228     7.2621    98.1436     8.1986     2.5061     0.0296     0.1048     0.2956
  155.5000   -57.1207     8.6555     6.8035     7.2977    94.6315     8.2026     2.5060     0.0238     0.1048     0.2931
  156.0000   -56.9751     8.8499     6.8851     7.3336    91.8112     8.2067     2.5008     0.0184     0.1048     0.2845
  156.5000   -56.8383     9.0488     6.9679     7.3696    90.6284     8.2107     2.4924     0.0130     0.1085     0.2755
  157.0000   -56.7180     9.2252     7.0515     7.4057    91.5436     8.2148     2.4843     0.0072     0.1134     0.2774
  157.5000   -56.8276     9.2257     7.1362     7.4421    92.2200     8.2188     2.4767     0.0021     0.1248     0.2806
  158.0000   -56.9302     9.2257     7.2218     7.4786    91.8998     8.2229     2.4735    -0.0035     0.1248     0.2837
  158.5000   -57.0432     9.2257     7.3085     7.5150    91.6027     8.2269     2.4622     0.0015     0.1248     0.2869
  159.0000   -57.1521     9.2257     7.3763     7.5427    92.3259     8.2310     2.4557     0.0073     0.1353     0.2878
  159.5000   -57.2610     9.2257     7.3469     7.5879    93.5098     8.2351     2.4644     0.0135     0.1345     0.2833
  160.0000   -57.3702     9.2257     7.3119     7.6333    94.7444     8.2391     2.4802     0.0196     0.1223     0.2789
  160.5000   -57.4800     9.2257     7.2771     7.6790    95.1317     8.2432     2.4942     0.0254     0.1115     0.2744
  161.0000   -57.5425     9.2257     7.2424     7.7250    93.5662     8.2472     2.5106     0.0314     0.1008     0.2699
  161.5000   -57.5751     9.2257     7.2079     7.7711    92.9419     8.2513     2.5061     0.0383     0.1016     0.2716
  162.0000   -57.6084     9.2257     7.1736     7.8176    93.8051     8.2553     2.4954     0.0336     0.1084     0.2741
  162.5000   -57.6420     9.2257     7.1394     7.8643    92.0962     8.2594     2.4850     0.0196     0.1154     0.2767
  163.0000   -57.6752     9.2257     7.1054     7.9113    90.7049     8.2635     2.4741     0.0047     0.1222     0.2769
  163.5000   -57.7088     9.0177     7.0716     7.9471    89.1497     8.2675     2.4681    -0.0036     0.1270     0.2748
  164.0000   -57.7422     8.8191     7.0379     7.9470    88.5418     8.2715     2.4670    -0.0027     0.1280     0.2739
  164.5000   -57.7755     8.6248     7.0044     7.9471    89.4420     8.2759     2.4745    -0.0001     0.1220     0.2765
  165.0000   -57.8097     8.4348     6.9710     7.9471    91.0220     8.2785     2.4826     0.0024     0.1130     0.2830
  165.5000   -57.8424     8.2491     6.9378     7.9472    92.1326     8.2782     2.4916     0.0047     0.1119     0.2892
  166.0000   -57.8756     8.0969     6.9048     7.9473    90.1998     8.2782     2.4952     0.0071     0.1105     0.2885
  166.5000   -57.9136     8.2330     6.8719     7.9473    91.0670     8.2783     2.4919     0.0095     0.1124     0.2874
  167.0000   -57.8984     8.3517     6.8484     7.9474    93.3981     8.2782     2.4903     0.0119     0.1162     0.2864
  167.5000   -57.8248     8.4721     6.8591     7.9474    93.3932     8.2782     2.4746     0.0143     0.1208     0.2854
  168.0000   -57.7552     8.5718     6.8698     7.9473    91.6209     8.2782     2.4801     0.0167     0.1187     0.2844
  168.5000   -57.6874     8.6075     6.8807     7.9474    89.5239     8.2782     2.4910     0.0191     0.1104     0.2833
  169.0000   -57.6186     8.6433     6.8915     7.9466    87.3754     8.2782     2.4927     0.0215     0.1121     0.2820
  169.5000   -57.5433     8.6792     6.9023     7.9542    85.4001     8.2782     2.4867     0.0240     0.1159     0.2870
  170.0000   -57.5548     8.7153     6.9130     7.9696    83.1380     8.2782     2.4808     0.0263     0.1208     0.2944
  170.5000   -57.6303     8.7516     6.9238     7.9842    83.4087     8.2782     2.4845     0.0286     0.1182     0.2972
  171.0000   -57.7000     8.7880     6.9346     7.9992    84.3202     8.2782     2.4977     0.0314     0.1103     0.2956
  171.5000   -57.7684     8.8245     6.9455     8.0142    85.2042     8.2782     2.5127     0.0296     0.1029     0.2891
  172.0000   -57.8366     8.8796     6.9564     8.0283    87.6956     8.2782     2.5073     0.0240     0.1049     0.2835
  172.5000   -57.9077     8.8751     6.9673     8.0431    89.7707     8.2782     2.4914     0.0189     0.1122     0.2779
  173.0000   -57.8593     8.8286     6.9782     8.0578    91.8825     8.2782     2.4770     0.0137     0.1196     0.2715
  173.5000   -57.7553     8.7822     6.9891     8.0726    91.2560     8.2782     2.4762     0.0120     0.1233     0.2752
  174.0000   -57.6533     8.7360     7.0001     8.0969    90.1328     8.2782     2.4805     0.0124     0.1179     0.2793
  174.5000   -57.5531     8.8044     7.0110     7.9762    89.1121     8.2782     2.4854     0.0126     0.1131     0.2835
  175.0000   -57.4513     8.9102     7.0220     7.6564    88.4201     8.2782     2.4850     0.0128     0.1143     0.2993
  175.5000   -57.3501     9.0537     7.0331     7.2399    90.1137     8.2782     2.4808     0.0131     0.1173     0.3100
  176.0000   -57.2489     8.5610     7.0441     7.3762    91.5384     8.2782     2.4767     0.0133     0.1203     0.3148
  176.5000   -57.1475     8.6585     7.0551     7.4169    93.0656     8.2782     2.4746     0.0136     0.1226     0.3156
