~VERSION INFORMATION
 VERS.                2.0:   CWLS LOG ASCII STANDARD - VERSION 2.0
 WRAP.                 NO:   ONE LINE PER DEPTH STEP
~WELL INFORMATION
#MNEM.UNIT      DATA TYPE    INFORMATION
#----------   ------------   ------------------------------
 STRT.F           70.0000:   START DEPTH
 STOP.F         1072.0000:   STOP DEPTH
 STEP.F            0.5000:   STEP LENGTH
 NULL.          -999.2500:   NO VALUE
 COMP. LAWRENCE/ALLISON INC:   COMPANY
 WELL.    67-66 SX #11-11:   WELL
 FLD .             TEAPOT:   FIELD
 LOC .      S11 T38N R78W:   LOCATION
 CNTY.            NATRONA:   COUNTY
 STAT.            WYOMING:   STATE
 CTRY. UNITED STATES OF AMERICA:   COUNTRY
 SRVC.      Dresser Atlas:   SERVICE COMPANY
 DATE.        03-FEB-1986:   LOGDATE
 API .       490251105700:   API NUMBER
~CURVE INFORMATION
#MNEM.UNIT       API CODE    CURVE DESCRIPTION
#----------   ------------   ------------------------------
 DEPT.F                  :   
 RILD.OHMM   07 120 46 00:   RESISTIVITY INDUCTION LOG DEEP
 RILM.OHMM   07 120 44 00:   RESISTIVITY INDUCTION LOG MEDIUM
 GRD .GAPI   45 310 01 00:   GAMMA RAY FROM DENSITY LOG
 CALD.IN     45 280 60 00:   CALIPER FROM DENSITY LOG
 CORR.G/C3   45 356 01 00:   DENSITY CORRECTION
 PORD.DEC    45 890 12 00:   POROSITY DENSITY SANDSTONE
 DEN .G/C3   45 350 01 00:   COMPENSATED BULK DENSTIY
~PARAMETER INFORMATION
#MNEM.UNIT          VALUE    DESCRIPTION
#----------   ------------   ------------------------------
 PD  .                 GL:   PERMANENT DATUM
 EPD .F              5245:   ELEVATION PERMANENT DATUM
 LMF .                 GL:   LOG MEASURED FROM
 DMF .                 GL:   DRILLING MEASURED FROM
 EGL .F              5245:   GROUND LEVEL
 DATE.        03-FEB-1986:   RUN DATE
 RUN .                  1:   RUN NUMBER
 DD  .F              1120:   DEPTH DRILLER
 DL  .F              1074:   DEPTH LOGGER
 BLI .F              1068:   BOTTOM LOG INTERVAL
 TLI .F                86:   TOP LOG INTERVAL
 CS  .IN            8.625:   CASING SIZE
 CBD .F                86:   CASING BOTTOM DRILLER
 CBL .F                86:   CASING BOTTOM LOGGER
 BS  .IN             6.25:   BIT SIZE
 BSD .F              1120:   BIT SIZE AT DEPTH
 DFT .                AIR:   DRILLING FLUID TYPE
 TCS .HRS               2:   TIME CURCULATED STOPPED
 LUN .               6274:   LOGGING UNIT NUMBER
 LUL .           GILLETTE:   LOGGING UNIT LOCATION
 ENGI.             MILLER:   RECORDING ENGINEER
 WITN.           JENNINGS:   WITNESSED BY
 CLNT.            A2DTECH:   CLIENT CODE
 ORIG.           5" PRINT:   ORIGIN OF DATA
 UWI .       490251105700:   UNIQUE WELL ID
 DICO. A2D Technologies, Inc.:   DIGITIZING COMPANY
~OTHER INFORMATION
~A   DEPT     RILD       RILM        GRD       CALD       CORR       PORD        DEN   
# ...
  752.5000     7.0093     7.0802   149.3430     7.6833     0.0489     0.1233     2.4734
  753.0000     7.0661     7.0882   147.8813     7.6851     0.0446     0.1214     2.4713
  753.5000     7.1728     7.1453   147.0174     7.6869     0.0825     0.1175     2.4812
  754.0000     7.2812     7.3540   146.1536     7.6733     0.1052     0.1150     2.4881
  754.5000     7.4944     7.6212   144.0939     7.6602     0.1077     0.1159     2.4837
  755.0000     7.6695     7.7987   142.3332     7.6625     0.0875     0.1149     2.4823
  755.5000     7.9464     8.0152   139.6772     7.6643     0.0756     0.1099     2.4945
  756.0000     8.1763     8.0240   137.3106     7.6807     0.0743     0.1049     2.5036
  756.5000     8.3548     8.0887   141.8367     7.6675     0.0684     0.1037     2.5105
  757.0000     8.4187     8.1538   143.9628     7.6694     0.0566     0.1060     2.5016
  757.5000     8.4282     8.2766   145.1920     7.6712     0.0537     0.1084     2.4972
  758.0000     8.6150     8.5182   145.2254     7.6730     0.0765     0.1053     2.5078
  758.5000     8.8060     8.7065   143.4651     7.6599     0.0947     0.1038     2.5065
  759.0000     9.0013     8.8376   141.6402     7.6617     0.0843     0.1101     2.4960
  759.5000     9.2008     9.0957   141.4309     7.6784     0.0634     0.1161     2.4803
  760.0000     9.5362     9.4262   142.0628     7.6803     0.0527     0.1196     2.4765
  760.5000     9.8155     9.7687   142.0956     7.6821     0.0502     0.1203     2.4770
  761.0000    10.1029     9.9846   140.6338     7.6685     0.0581     0.1168     2.4830
  761.5000    10.3269    10.2053   140.5928     7.6708     0.0793     0.1117     2.4944
  762.0000    10.4105    10.4309   143.0927     7.6726     0.1079     0.1083     2.5027
  762.5000    10.4947    10.4426   140.1366     7.6744     0.1005     0.1068     2.5030
  763.0000    10.4310    10.4543   132.3972     7.6609     0.0781     0.1137     2.4894
  763.5000    10.4456    10.4660   131.2348     7.6777     0.0482     0.1169     2.4827
  764.0000    10.3851    10.2626   135.7525     7.6795     0.0589     0.1148     2.4881
  764.5000    10.3967    10.2005   137.5797     7.6813     0.0711     0.1126     2.4935
  765.0000    10.1941    10.1415   137.6131     7.6831     0.0607     0.1111     2.4921
  765.5000    10.0650    10.0829   133.7601     7.6849     0.0548     0.1110     2.4922
  766.0000     9.8660     9.9556   127.8061     7.6868     0.0616     0.1113     2.4923
  766.5000     9.8006     9.8216   130.2395     7.6735     0.0719     0.1122     2.4917
  767.0000     9.6126     9.7005   131.1614     7.6601     0.0812     0.1124     2.4926
  767.5000     9.4281     9.4515   129.3672     7.6623     0.0856     0.1121     2.4927
  768.0000     9.3755     9.3321   130.3956     7.6642     0.0918     0.1120     2.4920
  768.5000     9.2568     9.2141   135.1481     7.6959     0.0890     0.1129     2.4869
  769.0000     9.2028     9.1607   137.8721     7.7126     0.0801     0.1171     2.4808
  769.5000     9.1494     9.1713   139.4002     7.6991     0.0682     0.1185     2.4803
  770.0000     9.1600     9.1816   136.1452     7.6864     0.0653     0.1185     2.4812
  770.5000     9.1703     9.1918   133.4796     7.6882     0.0686     0.1184     2.4805
  771.0000     9.1806     9.2021   136.5110     7.6746     0.0687     0.1202     2.4776
  771.5000     9.1910     9.2124   138.9360     7.6615     0.0674     0.1232     2.4717
  772.0000     9.2013     9.2228   138.3715     7.6634     0.0630     0.1290     2.4598
  772.5000     9.2757     9.2331   136.3122     7.6652     0.0768     0.1340     2.4546
  773.0000     9.2861     9.2434   134.5519     7.6520     0.0905     0.1342     2.4510
  773.5000     9.2323     9.1874   134.8843     7.6389     0.0952     0.1308     2.4579
  774.0000     9.2427     9.0714   136.4125     7.6557     0.0773     0.1257     2.4663
  774.5000     9.0625     8.8338   138.8375     7.6575     0.0518     0.1208     2.4754
  775.0000     8.9477     8.6646   140.5083     7.6593     0.0582     0.1166     2.4823
  775.5000     8.8319     8.6121   141.2876     7.6462     0.0690     0.1150     2.4885
  776.0000     8.7807     8.4471   138.2961     7.6630     0.0704     0.1141     2.4938
  776.5000     8.6695     8.3959   134.4785     7.6947     0.0494     0.1152     2.4925
  777.0000     8.5597     8.2899   134.8109     7.7115     0.0433     0.1188     2.4783
  777.5000     8.4457     8.1852   136.0401     7.6834     0.0633     0.1200     2.4791
  778.0000     8.3442     8.1945   135.4756     7.6698     0.0846     0.1202     2.4800
  778.5000     8.2955     8.1470   135.2017     7.6717     0.1013     0.1234     2.4752
  779.0000     8.1908     8.0999   137.6351     7.6735     0.0909     0.1383     2.4581
  779.5000     8.1433     8.0529   139.7612     7.6604     0.0761     0.1415     2.4442
  780.0000     8.1524     8.0063   137.7020     7.6622     0.0597     0.1427     2.4383
  780.5000     8.1052     7.9603   132.0553     7.6640     0.0749     0.1390     2.4489
  781.0000     8.0582     7.9121   129.9960     7.6808     0.0871     0.1344     2.4566
  781.5000     8.0115     7.8122   130.9263     7.7125     0.0782     0.1305     2.4627
  782.0000     7.9628     7.8231   133.0524     7.6844     0.0528     0.1295     2.4643
  782.5000     7.9189     7.8319   136.3743     7.6863     0.0244     0.1313     2.4614
  783.0000     7.8708     7.7845   137.2962     7.6727     0.0169     0.1340     2.4563
  783.5000     7.8819     7.8495   131.4084     7.6595     0.0235     0.1381     2.4504
  784.0000     8.0009     7.9128   127.4975     7.6464     0.0375     0.1396     2.4452
  784.5000     8.1218     8.0877   129.6236     7.6333     0.0510     0.1365     2.4498
  785.0000     8.2445     8.2095   130.2549     7.6655     0.0675     0.1362     2.4514
  785.5000     8.3690     8.2757   129.9894     7.6972     0.0780     0.1378     2.4493
  786.0000     8.4344     8.2279   127.9301     7.7136     0.0827     0.1416     2.4441
  786.5000     8.3275     8.1240   124.3678     7.7453     0.0814     0.1298     2.4522
  787.0000     8.2793     8.0770   127.1001     7.7172     0.0662     0.1050     2.4752
  787.5000     8.1654     8.0842   131.3189     7.7040     0.0682     0.0977     2.5010
  788.0000     8.0708     8.0931   132.5481     7.7059     0.0743     0.0941     2.5063
  788.5000     7.9647     7.9868   131.0868     7.7077     0.0655     0.1181     2.4861
  789.0000     7.7565     7.7236   130.2233     7.7095     0.0581     0.1322     2.4561
  789.5000     7.4514     7.3201   130.8546     7.6814     0.0523     0.1346     2.4538
  790.0000     7.1063     7.1282   135.3723     7.4735     0.0600     0.1340     2.4563
  790.5000     7.0162     6.9415   139.2302     7.5954     0.0661     0.1345     2.4572
  791.0000     6.8792     6.7599   142.0926     7.6869     0.0588     0.1360     2.4513
  791.5000     6.6525     6.5828   143.5595     7.7032     0.0529     0.1387     2.4454
  792.0000     6.4777     6.4549   143.8683     7.6602     0.0561     0.1425     2.4372
  792.5000     6.3515     6.3295   141.8091     7.6321     0.0673     0.1458     2.4343
  793.0000     6.3586     6.2495   140.0478     7.6494     0.0807     0.1397     2.4480
  793.5000     6.3657     6.2565   139.4828     7.6658     0.0868     0.1337     2.4586
  794.0000     6.3729     6.2635   138.9198     7.6676     0.1005     0.1306     2.4618
  794.5000     6.4692     6.3141   136.8605     7.6694     0.1156     0.1321     2.4551
  795.0000     6.5669     6.4092   135.9971     7.6712     0.1068     0.1354     2.4492
  795.5000     6.5743     6.4609   136.9274     7.6730     0.0904     0.1389     2.4485
  796.0000     6.5817     6.5130   139.6514     7.6748     0.0770     0.1341     2.4542
  796.5000     6.5814     6.5655   140.5733     7.6916     0.0651     0.1312     2.4639
  797.0000     6.6463     6.6185   136.1307     7.7083     0.0532     0.1294     2.4654
  797.5000     6.7202     6.6719   135.5579     7.7102     0.0473     0.1291     2.4648
