~VERSION INFORMATION
 VERS.                2.0:   CWLS LOG ASCII STANDARD - VERSION 2.0
 WRAP.                 NO:   ONE LINE PER DEPTH STEP
~WELL INFORMATION
#MNEM.UNIT      DATA TYPE    INFORMATION
#----------   ------------   ------------------------------
 STRT.F          110.5000:   START DEPTH
 STOP.F         1944.0000:   STOP DEPTH
 STEP.F            0.5000:   STEP LENGTH
 NULL.          -999.2500:   NO VALUE
 COMP.    FENIX & SCISSON:   COMPANY
 WELL.   NPR 3 SHX #34-10:   WELL
 FLD .             TEAPOT:   FIELD
 LOC .      S10 T38N R78W:   LOCATION
 CNTY.            NATRONA:   COUNTY
 STAT.            WYOMING:   STATE
 CTRY. UNITED STATES OF AMERICA:   COUNTRY
 SRVC.            Unknown:   SERVICE COMPANY
 DATE.        14-APR-1978:   LOGDATE
 API .       490251061800:   API NUMBER
~CURVE INFORMATION
#MNEM.UNIT       API CODE    CURVE DESCRIPTION
#----------   ------------   ------------------------------
 DEPT.F                  :   
 ILD .OHMM   05 120 46 00:   INDUCTION LOG DEEP
 CILD.MMHO   05 110 00 00:   CONDUCTIVITY INDUCTION LOG
 NPHI.DEC    42 890 01 00:   NEUTRON POROSITY LIMESTONE
 GRD .GAPI   45 310 01 00:   GAMMA RAY FROM DENSITY LOG
~PARAMETER INFORMATION
#MNEM.UNIT          VALUE    DESCRIPTION
#----------   ------------   ------------------------------
 PD  .                 GL:   PERMANENT DATUM
 EPD .F              5244:   ELEVATION PERMANENT DATUM
 LMF .                 KB:   LOG MEASURED FROM
 DMF .                 KB:   DRILLING MEASURED FROM
 EKB .F              5252:   KELLING BUSHING
 EGL .F              5244:   GROUND LEVEL
 DATE.          4-14-1978:   RUN DATE
 RUN .                  1:   RUN NUMBER
 DD  .F              1953:   DEPTH DRILLER
 DL  .F              1950:   DEPTH LOGGER
 BLI .F              1944:   BOTTOM LOG INTERVAL
 TLI .F               715:   TOP LOG INTERVAL
 CS  .IN            9.625:   CASING SIZE
 CBD .F               708:   CASING BOTTOM DRILLER
 CBL .F               712:   CASING BOTTOM LOGGER
 BS  .IN             8.75:   BIT SIZE
 BSD .F              1953:   BIT SIZE AT DEPTH
 DFT .                OIL:   DRILLING FLUID TYPE
 TCS .HRS               5:   TIME CURCULATED STOPPED
 LUN .               2958:   LOGGING UNIT NUMBER
 LUL .               CASP:   LOGGING UNIT LOCATION
 ENGI.             MILLER:   RECORDING ENGINEER
 CLNT.            A2DTECH:   CLIENT CODE
 ORIG.           5" PRINT:   ORIGIN OF DATA
 UWI .       490251061800:   UNIQUE WELL ID
 DICO. A2D Technologies, Inc.:   DIGITIZING COMPANY
~OTHER INFORMATION
~A   DEPT      ILD       CILD       NPHI        GRD   
# ...
  402.5000  -999.2500  -999.2500     0.2339    54.3060
  403.0000  -999.2500  -999.2500     0.2325    52.0805
  403.5000  -999.2500  -999.2500     0.2309    51.9136
  404.0000  -999.2500  -999.2500     0.2732    54.0763
  404.5000  -999.2500  -999.2500     0.2525    57.3861
  405.0000  -999.2500  -999.2500     0.2295    60.8109
  405.5000  -999.2500  -999.2500     0.2344    61.4768
  406.0000  -999.2500  -999.2500     0.2438    61.3351
  406.5000  -999.2500  -999.2500     0.2551    61.1715
  407.0000  -999.2500  -999.2500     0.2447    61.0169
  407.5000  -999.2500  -999.2500     0.2471    60.8808
  408.0000  -999.2500  -999.2500     0.2448    61.5371
  408.5000  -999.2500  -999.2500     0.2240    63.2603
  409.0000  -999.2500  -999.2500     0.2038    64.7845
  409.5000  -999.2500  -999.2500     0.1933    64.6954
  410.0000  -999.2500  -999.2500     0.1937    64.5855
  410.5000  -999.2500  -999.2500     0.1949    64.4815
  411.0000  -999.2500  -999.2500     0.1949    64.3772
  411.5000  -999.2500  -999.2500     0.2050    64.2755
  412.0000  -999.2500  -999.2500     0.2136    64.3116
  412.5000  -999.2500  -999.2500     0.2122    64.9231
  413.0000  -999.2500  -999.2500     0.2154    65.5162
  413.5000  -999.2500  -999.2500     0.2130    66.1109
  414.0000  -999.2500  -999.2500     0.2189    66.3786
  414.5000  -999.2500  -999.2500     0.2197    66.3421
  415.0000  -999.2500  -999.2500     0.2165    66.2998
  415.5000  -999.2500  -999.2500     0.2132    66.2597
  416.0000  -999.2500  -999.2500     0.2226    66.2555
  416.5000  -999.2500  -999.2500     0.2162    64.5492
  417.0000  -999.2500  -999.2500     0.2253    62.4943
  417.5000  -999.2500  -999.2500     0.2311    61.0517
  418.0000  -999.2500  -999.2500     0.2262    61.4305
  418.5000  -999.2500  -999.2500     0.2254    61.9674
  419.0000  -999.2500  -999.2500     0.2202    61.6210
  419.5000  -999.2500  -999.2500     0.2129    61.0978
  420.0000  -999.2500  -999.2500     0.2116    60.6198
  420.5000  -999.2500  -999.2500     0.2142    61.4852
  421.0000  -999.2500  -999.2500     0.2146    62.3953
  421.5000  -999.2500  -999.2500     0.2105    64.2923
  422.0000  -999.2500  -999.2500     0.2182    66.3426
  422.5000  -999.2500  -999.2500     0.2160    66.7263
  423.0000  -999.2500  -999.2500     0.2144    66.8530
  423.5000  -999.2500  -999.2500     0.2177    67.0189
  424.0000  -999.2500  -999.2500     0.2315    64.9123
  424.5000  -999.2500  -999.2500     0.2360    62.4865
  425.0000  -999.2500  -999.2500     0.2459    62.2410
  425.5000  -999.2500  -999.2500     0.2583    62.1922
  426.0000  -999.2500  -999.2500     0.2713    61.3473
  426.5000  -999.2500  -999.2500     0.2504    59.8289
  427.0000  -999.2500  -999.2500     0.2322    58.3399
  427.5000  -999.2500  -999.2500     0.2304    58.2891
  428.0000  -999.2500  -999.2500     0.2265    58.7211
  428.5000  -999.2500  -999.2500     0.2158    59.1507
  429.0000  -999.2500  -999.2500     0.2126    59.5902
  429.5000  -999.2500  -999.2500     0.2092    58.5317
  430.0000  -999.2500  -999.2500     0.2074    57.1892
  430.5000  -999.2500  -999.2500     0.2242    56.1400
  431.0000  -999.2500  -999.2500     0.2306    56.3524
  431.5000  -999.2500  -999.2500     0.2308    57.2322
  432.0000  -999.2500  -999.2500     0.2202    58.0823
  432.5000  -999.2500  -999.2500     0.2085    58.9323
  433.0000  -999.2500  -999.2500     0.2019    59.7802
  433.5000  -999.2500  -999.2500     0.2047    60.6361
  434.0000  -999.2500  -999.2500     0.2076    60.9799
  434.5000  -999.2500  -999.2500     0.2081    60.8488
  435.0000  -999.2500  -999.2500     0.2087    60.1096
  435.5000  -999.2500  -999.2500     0.2097    59.3860
  436.0000  -999.2500  -999.2500     0.2102    58.6634
  436.5000  -999.2500  -999.2500     0.2064    57.9358
  437.0000  -999.2500  -999.2500     0.2016    57.2002
  437.5000  -999.2500  -999.2500     0.1995    57.1275
  438.0000  -999.2500  -999.2500     0.2000    57.0945
  438.5000  -999.2500  -999.2500     0.2004    57.0570
  439.0000  -999.2500  -999.2500     0.2008    57.0194
  439.5000  -999.2500  -999.2500     0.2025    56.9687
  440.0000  -999.2500  -999.2500     0.2050    57.3520
  440.5000  -999.2500  -999.2500     0.2073    58.1421
  441.0000  -999.2500  -999.2500     0.2203    58.9235
  441.5000  -999.2500  -999.2500     0.2154    59.7021
  442.0000  -999.2500  -999.2500     0.2089    60.4852
  442.5000  -999.2500  -999.2500     0.2085    61.2565
  443.0000  -999.2500  -999.2500     0.2095    62.0257
  443.5000  -999.2500  -999.2500     0.2146    60.3991
  444.0000  -999.2500  -999.2500     0.2214    57.7889
  444.5000  -999.2500  -999.2500     0.2142    55.1542
  445.0000  -999.2500  -999.2500     0.2219    52.7920
  445.5000  -999.2500  -999.2500     0.2309    52.8652
  446.0000  -999.2500  -999.2500     0.2373    55.9356
  446.5000  -999.2500  -999.2500     0.2358    58.1430
  447.0000  -999.2500  -999.2500     0.2235    57.9142
  447.5000  -999.2500  -999.2500     0.2067    57.0361
  448.0000  -999.2500  -999.2500     0.2132    56.1460
  448.5000  -999.2500  -999.2500     0.2177    56.0768
  449.0000  -999.2500  -999.2500     0.2042    56.2638
  449.5000  -999.2500  -999.2500     0.2063    56.4372
  450.0000  -999.2500  -999.2500     0.2084    55.9069
  450.5000  -999.2500  -999.2500     0.2041    53.1408
  451.0000  -999.2500  -999.2500     0.2053    50.5125
  451.5000  -999.2500  -999.2500     0.2066    46.6156
  452.0000  -999.2500  -999.2500     0.2013    42.4485
  452.5000  -999.2500  -999.2500     0.1882    39.4290
  453.0000  -999.2500  -999.2500     0.1845    39.4399
  453.5000  -999.2500  -999.2500     0.1840    39.3975
  454.0000  -999.2500  -999.2500     0.1836    39.3572
  454.5000  -999.2500  -999.2500     0.1881    39.3145
  455.0000  -999.2500  -999.2500     0.1943    39.2718
  455.5000  -999.2500  -999.2500     0.2022    39.2291
  456.0000  -999.2500  -999.2500     0.2066    39.1859
  456.5000  -999.2500  -999.2500     0.2105    39.1371
  457.0000  -999.2500  -999.2500     0.2451    39.0893
  457.5000  -999.2500  -999.2500     0.2339    39.4820
  458.0000  -999.2500  -999.2500     0.2190    42.6324
  458.5000  -999.2500  -999.2500     0.2102    45.6563
  459.0000  -999.2500  -999.2500     0.2226    46.0947
  459.5000  -999.2500  -999.2500     0.2327    46.4272
  460.0000  -999.2500  -999.2500     0.2331    46.7776
  460.5000  -999.2500  -999.2500     0.1994    46.4959
  461.0000  -999.2500  -999.2500     0.2003    45.7293
  461.5000  -999.2500  -999.2500     0.2009    44.9813
  462.0000  -999.2500  -999.2500     0.1991    43.0314
  462.5000  -999.2500  -999.2500     0.1976    40.6323
  463.0000  -999.2500  -999.2500     0.1983    38.8614
  463.5000  -999.2500  -999.2500     0.1983    38.9072
  464.0000  -999.2500  -999.2500     0.1981    39.5942
  464.5000  -999.2500  -999.2500     0.1979    41.1415
  465.0000  -999.2500  -999.2500     0.1977    42.6758
  465.5000  -999.2500  -999.2500     0.1959    44.0548
  466.0000  -999.2500  -999.2500     0.1925    44.6685
  466.5000  -999.2500  -999.2500     0.1921    45.4723
  467.0000  -999.2500  -999.2500     0.1949    46.9148
  467.5000  -999.2500  -999.2500     0.2004    46.8026
  468.0000  -999.2500  -999.2500     0.2041    45.9471
  468.5000  -999.2500  -999.2500     0.2078    44.7416
  469.0000  -999.2500  -999.2500     0.2053    44.7517
  469.5000  -999.2500  -999.2500     0.2017    44.7944
  470.0000  -999.2500  -999.2500     0.2017    44.8332
  470.5000  -999.2500  -999.2500     0.2017    44.8692
  471.0000  -999.2500  -999.2500     0.1997    44.9054
  471.5000  -999.2500  -999.2500     0.1917    44.7329
  472.0000  -999.2500  -999.2500     0.1917    45.5326
  472.5000  -999.2500  -999.2500     0.2057    45.8768
  473.0000  -999.2500  -999.2500     0.2170    45.8144
  473.5000  -999.2500  -999.2500     0.2228    45.7532
  474.0000  -999.2500  -999.2500     0.2258    45.1267
  474.5000  -999.2500  -999.2500     0.2256    44.2749
  475.0000  -999.2500  -999.2500     0.2267    44.0636
