~VERSION INFORMATION
 VERS.                2.0:   CWLS LOG ASCII STANDARD - VERSION 2.0
 WRAP.                 NO:   ONE LINE PER DEPTH STEP
~WELL INFORMATION
#MNEM.UNIT      DATA TYPE    INFORMATION
#----------   ------------   ------------------------------
 STRT.F           34.0000:   START DEPTH
 STOP.F          576.0000:   STOP DEPTH
 STEP.F            0.5000:   STEP LENGTH
 NULL.          -999.2500:   NO VALUE
 COMP. FENIX & SCISSON INC:   COMPANY
 WELL.   NPR-3 #22 SX 3-3:   WELL
 FLD .             TEAPOT:   FIELD
 LOC .       S3 T38N R78W:   LOCATION
 CNTY.            NATRONA:   COUNTY
 STAT.            WYOMING:   STATE
 CTRY. UNITED STATES OF AMERICA:   COUNTRY
 SRVC.            Unknown:   SERVICE COMPANY
 DATE.        17-JUL-1978:   LOGDATE
 API .       490251066700:   API NUMBER
~CURVE INFORMATION
#MNEM.UNIT       API CODE    CURVE DESCRIPTION
#----------   ------------   ------------------------------
 DEPT.F                  :   
 SN  .OHMM   05 040 16 00:   SHORT NORMAL 16"
 ILD .OHMM   05 120 46 00:   INDUCTION LOG DEEP
 SPR .MV     05 010 01 00:   SPONTANEOUS POTENTIAL FROM RES.
 CALD.IN     45 280 60 00:   CALIPER FROM DENSITY LOG
 GRD .GAPI   45 310 01 00:   GAMMA RAY FROM DENSITY LOG
 CORR.G/C3   45 356 01 00:   DENSITY CORRECTION
 DPHI.DEC    45 890 12 00:   DENSITY POROSITY SANDSTONE
 DEN .G/C3   45 350 01 00:   COMPENSATED BULK DENSITY
~PARAMETER INFORMATION
#MNEM.UNIT          VALUE    DESCRIPTION
#----------   ------------   ------------------------------
 PD  .                 GL:   PERMANENT DATUM
 EPD .F              5193:   ELEVATION PERMANENT DATUM
 LMF .                 KB:   LOG MEASURED FROM
 DAPD.F                 4:   FEET ABOVE PERMANENT DATUM
 DMF .                 KB:   DRILLING MEASURED FROM
 EKB .F              5197:   KELLING BUSHING
 EGL .F              5193:   GROUND LEVEL
 DATE.        17-JUL-1978:   RUN DATE
 RUN .                  1:   RUN NUMBER
 DD  .F               570:   DEPTH DRILLER
 DL  .F               576:   DEPTH LOGGER
 BLI .F               576:   BOTTOM LOG INTERVAL
 CS  .IN            8.625:   CASING SIZE
 CBD .F                30:   CASING BOTTOM DRILLER
 BS  .IN            7.875:   BIT SIZE
 BSD .F               570:   BIT SIZE AT DEPTH
 DFT .            MUD KCL:   DRILLING FLUID TYPE
 DFD .                8.6:   DRILLING FLUID DENSITY
 DFV .                 32:   DRILLING FLUID VISCOSITY
 DFL .                 15:   DRILLING FLUID LOSS
 MSS .           FLOWLINE:   MUD SAMPLE SOURCE
 RMS .OHMM            .18:   RESISTIVITY MUD SAMPLE
 MST .F                86:   MUD SAMPLE TEMPERATURE
 RMF .OHMM            .17:   RESISTIVITY MUD FILTRATE SAMPLE
 MFST.F                94:   MUD FILTRATE SAMPLE TEMPERATURE
 RMC .OHMM            .34:   RESISTIVITY MUD CAKE
 MCST.F                94:   MUD CAKE SAMPLE TEMPERATURE
 MFSS.               MEAS:   MUD FILTRATE SAMPLE SOURCE
 TCS .HRS            0300:   TIME CURCULATED STOPPED
 LUN .               2958:   LOGGING UNIT NUMBER
 LUL .               CASP:   LOGGING UNIT LOCATION
 ENGI.             MILLER:   RECORDING ENGINEER
 WITN.           MCGINLEY:   WITNESSED BY
 CLNT.            A2DTECH:   CLIENT CODE
 ORIG.           5" PRINT:   ORIGIN OF DATA
 UWI .       490251066700:   UNIQUE WELL ID
 DICO. A2D Technologies, Inc.:   DIGITIZING COMPANY
~OTHER INFORMATION
~A   DEPT       SN        ILD        SPR       CALD         GRD      CORR       DPHI        DEN   
# ...
  236.5000     6.3722     6.5503   -43.3252     8.0909    78.7625    -0.0067     0.1565     2.4255
  237.0000     6.3764     6.5538   -43.7599     8.1197    77.6059    -0.0186     0.1571     2.4209
  237.5000     6.3798     6.5574   -43.9000     8.1630    78.3334    -0.0231     0.1630     2.4165
  238.0000     6.3832     6.5159   -44.0372     8.1194    84.5838    -0.0201     0.1767     2.4084
  238.5000     6.3867     6.4747   -43.8738     8.0758    85.5855    -0.0141     0.1790     2.3942
  239.0000     6.3901     6.4783   -43.7134     8.0611    85.0092    -0.0062     0.1767     2.3823
  239.5000     6.3935     6.4826   -43.7017     8.0465    84.7215     0.0037     0.1793     2.3764
  240.0000     6.4412     6.4861   -43.5413     8.0754    85.1598    -0.0156     0.1808     2.3749
  240.5000     6.4004     6.4896   -43.6786     8.0722    85.8873    -0.0007     0.1746     2.3778
  241.0000     6.4039     6.4931   -44.2620     7.9736    86.0343     0.0052     0.1663     2.3885
  241.5000     6.4516     6.4966   -44.2500     7.9590    84.7335     0.0037     0.1558     2.4031
  242.0000     6.4108     6.5001   -44.8311     7.9588    84.5913    -0.0052     0.1514     2.4224
  242.5000     6.4151     6.4147   -45.4147     7.9587    89.3768    -0.0007     0.1621     2.4261
  243.0000     6.3736     6.4181   -45.4030     7.9730    89.3797    -0.0007     0.1577     2.4127
  243.5000     6.2476     6.2472   -45.3914     7.9892    87.3542    -0.0052     0.1520     2.4038
  244.0000     6.1655     6.1228   -44.4869     8.0017    81.7048    -0.0112     0.1752     2.4254
  244.5000     5.9192     5.9564   -44.1805     8.0161    75.3308    -0.0127     0.1838     2.4202
  245.0000     5.6050     5.7217   -45.2077     8.0014    74.8981    -0.0067     0.1886     2.3768
  245.5000     5.4933     5.6855   -45.6424     7.9868    78.3799     0.0007     0.1900     2.3726
  246.0000     5.4964     5.6495   -45.4820     7.9867    84.9045     0.0142     0.1921     2.3584
  246.5000     5.5374     5.6924   -45.3214     7.9699    87.6609     0.0291     0.1900     2.3532
  247.0000     5.5787     5.6955   -44.9930     7.9574    86.2069     0.0335     0.1728     2.3510
  247.5000     5.6209     5.7379   -44.7001     7.9427    76.0409     0.0212     0.1556     2.3852
  248.0000     5.7413     5.8206   -44.6885     7.9426    71.2926     0.0097     0.1621     2.4283
  248.5000     6.0696     6.1534   -44.6768     7.9570    75.4990     0.0037     0.1591     2.4216
  249.0000     6.4167     6.4607   -44.6652     7.9713    75.6468     0.0007     0.1577     2.4058
  249.5000     6.6908     6.7367   -44.6535     7.9857    77.2438     0.0052     0.1562     2.4000
  250.0000     6.8126     6.8810   -44.6426     7.9565    85.3633     0.0097     0.1550     2.4216
  250.5000     6.9846     7.0332   -44.6293     7.9563    85.9486     0.0082     0.1543     2.4171
  251.0000     7.0806     7.1787   -44.6160     7.9562    82.3310     0.0097     0.1535     2.4156
  251.5000     7.0839     7.1821   -44.6015     7.9561    74.8004     0.0216     0.1516     2.4180
  252.0000     7.1362     7.1855   -44.5884     7.9559    72.3422     0.0095     0.1437     2.4416
  252.5000     7.1889     7.1889   -44.4265     7.9993    74.2535     0.0007     0.1505     2.4401
  253.0000     7.1923     7.1923   -44.5625     8.0281    81.0937     0.0022     0.1505     2.4335
  253.5000     7.1956     7.2453   -44.5491     8.0280    79.8966     0.0156     0.1493     2.4164
  254.0000     7.1990     7.2487   -44.6850     8.0278    76.2791     0.0082     0.1451     2.4201
  254.5000     7.2024     7.3022   -44.8207     8.0889    77.2992    -0.0067     0.1419     2.4394
  255.0000     7.2058     7.3057   -44.9564     8.1870    80.7830    -0.0156     0.1404     2.4528
  255.5000     7.2093     7.3597   -44.9401     8.0998    87.6002    -0.0081     0.1465     2.4352
  256.0000     7.2632     7.3134   -44.7782     8.0707    86.5913     0.0007     0.1493     2.4238
  256.5000     7.2160     7.3169   -44.6164     8.0561    82.9913     0.0022     0.1445     2.4260
  257.0000     7.2202     7.3203   -44.7554     8.0850    79.0677     0.0022     0.1454     2.4297
  257.5000     7.2236     7.3237   -44.7390     8.1283    75.4501     0.0112     0.1353     2.4424
  258.0000     7.2270     7.2761   -44.4284     8.1426    78.9340     0.0127     0.1332     2.4535
  258.5000     7.2304     7.2803   -43.9638     8.1280    81.8382     0.0052     0.1320     2.4565
  259.0000     7.2338     7.2838   -43.6577     8.0988    82.2771     0.0037     0.1267     2.4611
  259.5000     7.2372     7.2872   -43.6418     8.0842    78.3711     0.0052     0.1339     2.4691
  260.0000     7.2406     7.2406   -44.2240     8.0840    75.1883     0.0082     0.1395     2.4662
  260.5000     7.2441     7.2441   -44.8095     8.0839    79.8330     0.0142     0.1323     2.4461
  261.0000     7.2483     7.2483   -44.7931     8.0983    80.4169     0.0201     0.1252     2.4431
  261.5000     7.2011     7.1525   -44.7801     8.1271    73.3225     0.0261     0.1181     2.4833
  262.0000     7.1550     7.1060   -45.0646     8.1270    68.9788    -0.0112     0.1112     2.5190
  262.5000     7.1592     7.0605   -45.6473     8.1268    74.2032    -0.0246     0.1118     2.5182
  263.0000     7.0647     6.9681   -45.7827     8.0977    77.3343    -0.0231     0.1308     2.4900
  263.5000     7.0187     6.9227   -45.9231     8.0830    72.1822    -0.0216     0.1531     2.4268
  264.0000     6.9268     6.8785   -46.5004     8.0829    73.4835    -0.0201     0.1591     2.4223
  264.5000     6.8352     6.7884   -47.0793     8.0827    79.5894    -0.0171     0.1588     2.4193
  265.0000     6.7450     6.6528   -47.0663     8.0826    78.0008    -0.0112     0.1632     2.4201
  265.5000     6.6102     6.5605   -47.0532     8.0825    78.7310    -0.0037     0.1686     2.3985
  266.0000     6.4345     6.3465   -47.0401     8.1403    81.0555    -0.0007     0.1793     2.3932
  266.5000     6.2627     6.1347   -46.8783     8.2416    80.3364    -0.0112     0.1807     2.3941
  267.0000     6.0536     5.8892   -46.5676     8.2559    81.6464    -0.0201     0.1839     2.3710
  267.5000     5.7320     5.5763   -46.4057     8.2413    80.8431    -0.0171     0.1968     2.3665
  268.0000     5.3902     5.2800   -46.6903     8.2411    79.6286    -0.0156     0.2116     2.3509
  268.5000     5.0688     4.8637   -47.2773     8.2555    80.3603    -0.0097     0.2214     2.3219
  269.0000     4.6371     4.4802   -47.7252     8.4003    84.2789     0.0007     0.2363     2.3071
  269.5000     4.1269     4.1269   -48.1392     8.2407    85.5889     0.0276     0.2541     2.2833
  270.0000     3.6477     3.7495   -48.1228     8.1246    85.3046     0.0440     0.2746     2.2216
  270.5000     3.2847     3.2578   -48.2618     8.1841    76.7595     0.0559     0.2963     2.1869
  271.0000     2.9702     2.9296   -48.2455     8.2838    77.0765     0.0708     0.3173     2.1509
  271.5000     2.9105     2.8906   -48.0836     8.3271    85.0330     0.1051     0.3418     2.1093
  272.0000     2.9936     3.0351   -47.9217     8.4139    83.1545     0.2132     0.3346     2.1026
  272.5000     3.0786     3.2084   -47.4623     8.1674    78.3775     0.2213     0.2889     2.1368
  273.0000     3.2769     3.3916   -47.3004     8.6020    74.9049     0.1244     0.2455     2.2424
  273.5000     3.5363     3.4879   -47.1384     9.8627    75.0554     0.0380     0.1819     2.4089
  274.0000     3.5870     3.5380   -47.1250    10.5148    76.6552     0.0082     0.1545     2.4119
  274.5000     3.6889     3.6889   -47.4100     8.0358    78.7071    -0.0097     0.1468     2.4283
  275.0000     4.1774     4.0361   -47.6913     8.2392    83.2604    -0.0156     0.1580     2.4327
  275.5000     4.9066     4.5900   -47.6782     9.2245    90.1517    -0.0186     0.1652     2.4134
  276.0000     5.3211     5.3211   -47.8172     8.0504    90.5907    -0.0156     0.1608     2.4059
  276.5000     5.5100     5.6639   -47.8009     7.9343    89.1470    -0.0127     0.1581     2.4089
