~VERSION INFORMATION
 VERS.                2.0:   CWLS LOG ASCII STANDARD - VERSION 2.0
 WRAP.                 NO:   ONE LINE PER DEPTH STEP
~WELL INFORMATION
#MNEM.UNIT      DATA TYPE    INFORMATION
#----------   ------------   ------------------------------
 STRT.F            0.0000:   START DEPTH
 STOP.F          484.0000:   STOP DEPTH
 STEP.F            0.5000:   STEP LENGTH
 NULL.          -999.2500:   NO VALUE
 COMP. LAWRENCE/ALLISON INC:   COMPANY
 WELL.  NPR 3 #68-63-SX-3:   WELL
 FLD .             TEAPOT:   FIELD
 LOC .       S3 T38N R78W:   LOCATION
 CNTY.            NATRONA:   COUNTY
 STAT.            WYOMING:   STATE
 CTRY. UNITED STATES OF AMERICA:   COUNTRY
 SRVC.           Gearhart:   SERVICE COMPANY
 DATE.        29-JUN-1988:   LOGDATE
 API .       490251122900:   API NUMBER
~CURVE INFORMATION
#MNEM.UNIT       API CODE    CURVE DESCRIPTION
#----------   ------------   ------------------------------
 DEPT.F                  :   
 GRR .GAPI   07 310 01 00:   GAMMA RAY FROM RES. LOG.
 ILD .OHMM   07 120 46 00:   INDUCTION LOG DEEP
 ILM .OHMM   07 120 44 00:   INDUCTION LOG MEDIUM
 CALI.IN     70 280 01 00:   CALIPER
~PARAMETER INFORMATION
#MNEM.UNIT          VALUE    DESCRIPTION
#----------   ------------   ------------------------------
 PD  .                 GL:   PERMANENT DATUM
 EPD .F              5158:   ELEVATION PERMANENT DATUM
 LMF .                 KB:   LOG MEASURED FROM
 DAPD.F                10:   FEET ABOVE PERMANENT DATUM
 DMF .                 KB:   DRILLING MEASURED FROM
 EKB .F              5168:   KELLING BUSHING
 EGL .F              5158:   GROUND LEVEL
 DATE.            6-29-88:   RUN DATE
 RUN .                  1:   RUN NUMBER
 DD  .F               490:   DEPTH DRILLER
 DL  .F             492.5:   DEPTH LOGGER
 BLI .F               484:   BOTTOM LOG INTERVAL
 TLI .F                49:   TOP LOG INTERVAL
 CS  .IN            9.625:   CASING SIZE
 CBD .F                49:   CASING BOTTOM DRILLER
 CBL .F                49:   CASING BOTTOM LOGGER
 BS  .IN             8.75:   BIT SIZE
 BSD .F               490:   BIT SIZE AT DEPTH
 DFT .                AIR:   DRILLING FLUID TYPE
 TLAB.HRS            1000:   TIME LOGGER AT BOTTOM
 MRT .F                70:   MAXIMUM RECORDED TEMPERATURE
 LUN .               7597:   LOGGING UNIT NUMBER
 LUL .           GILLETTE:   LOGGING UNIT LOCATION
 ENGI.          HUCKFELDT:   RECORDING ENGINEER
 WITN.              FIVAS:   WITNESSED BY
 CLNT.            A2DTECH:   CLIENT CODE
 ORIG.  2", 5", 10" PRINT:   ORIGIN OF DATA
 UWI .       490251122900:   UNIQUE WELL ID
 DICO. A2D Technologies, Inc.:   DIGITIZING COMPANY
~OTHER INFORMATION
~A    DEPT      GRR       ILD        ILM       CALI   
# ...
  365.0000    76.9377    30.1346    29.1543  -999.2500
  365.5000    76.3235    29.9770    28.8516  -999.2500
  366.0000    76.0665    30.0233    28.3075  -999.2500
  366.5000    76.4827    30.1057    27.8169  -999.2500
  367.0000    79.2216    30.1883    28.0165  -999.2500
  367.5000    81.9988    30.2572    28.1802  -999.2500
  368.0000    82.0201    30.0300    28.3449  -999.2500
  368.5000    80.5952    29.7983    28.5105  -999.2500
  369.0000    79.7134    29.5673    28.6145  -999.2500
  369.5000    80.7422    29.3317    28.3913  -999.2500
  370.0000    82.4538    28.8719    27.4387  -999.2500
  370.5000    84.1533    28.8877    26.3115  -999.2500
  371.0000    85.8980    28.3964    25.9538  -999.2500
  371.5000    85.6085    27.9923    25.8031  -999.2500
  372.0000    84.8066    27.4940    25.6532  -999.2500
  372.5000    83.7833    26.9359    25.4375  -999.2500
  373.0000    82.7605    26.3891    25.0453  -999.2500
  373.5000    81.7777    25.8534    24.6592  -999.2500
  374.0000    81.6645    25.3286    24.2791  -999.2500
  374.5000    81.5768    24.9616    23.6108  -999.2500
  375.0000    81.4849    24.7161    22.8884  -999.2500
  375.5000    81.3966    24.1900    22.2584  -999.2500
  376.0000    81.7414    23.8135    21.8174  -999.2500
  376.5000    83.0667    23.4363    21.6458  -999.2500
  377.0000    85.7370    23.0655    21.6458  -999.2500
  377.5000    88.0748    22.7006    21.6458  -999.2500
  378.0000    89.0628    22.3415    21.0595  -999.2500
  378.5000    89.7928    21.9881    20.4946  -999.2500
  379.0000    89.3088    21.6451    20.2037  -999.2500
  379.5000    88.6263    21.2402    20.0786  -999.2500
  380.0000    87.6055    20.8474    19.9542  -999.2500
  380.5000    86.5913    20.4622    19.9072  -999.2500
  381.0000    85.5790    20.0843    19.3784  -999.2500
  381.5000    84.5506    19.7133    18.8745  -999.2500
  382.0000    82.9848    19.3492    18.3837  -999.2500
  382.5000    81.4210    18.9918    17.8988  -999.2500
  383.0000    80.3577    18.6410    17.4867  -999.2500
  383.5000    79.9870    18.2966    17.2710  -999.2500
  384.0000    79.5942    17.9707    17.0277  -999.2500
  384.5000    78.8758    17.7107    16.7878  -999.2500
  385.0000    76.8844    17.4632    16.5514  -999.2500
  385.5000    79.2062    17.2192    16.3098  -999.2500
  386.0000    82.7863    16.9786    16.0387  -999.2500
  386.5000    86.1450    16.7414    15.7747  -999.2500
  387.0000    85.7155    16.5075    15.5609  -999.2500
  387.5000    84.9952    16.2768    15.4073  -999.2500
  388.0000    86.0167    16.0494    15.2553  -999.2500
  388.5000    87.2840    15.8251    15.1047  -999.2500
  389.0000    86.7511    15.6040    14.9557  -999.2500
  389.5000    85.7270    15.4750    14.8081  -999.2500
  390.0000    85.8952    15.4521    14.6620  -999.2500
  390.5000    86.6152    15.4298    14.5171  -999.2500
  391.0000    86.8715    15.4075    14.3737  -999.2500
  391.5000    86.5475    15.3851    14.2415  -999.2500
  392.0000    86.2279    15.3627    14.2415  -999.2500
  392.5000    85.8936    15.3403    14.2415  -999.2500
  393.0000    86.0059    15.3180    14.2415  -999.2500
  393.5000    86.7630    15.2957    14.2415  -999.2500
  394.0000    89.1410    15.2734    14.2415  -999.2500
  394.5000    90.2467    15.2512    14.2416  -999.2500
  395.0000    90.3382    15.2290    14.2420  -999.2500
  395.5000    91.7133    15.2050    14.2433  -999.2500
  396.0000    93.1118    15.1047    14.1655  -999.2500
  396.5000    92.3695    14.9632    14.0956  -999.2500
  397.0000    90.9500    14.8245    14.0260  -999.2500
  397.5000    89.4686    14.6862    13.9568  -999.2500
  398.0000    89.6068    14.5978    13.8879  -999.2500
  398.5000    90.3809    14.5305    13.8194  -999.2500
  399.0000    91.1741    14.4634    13.7512  -999.2500
  399.5000    91.8782    14.3967    13.6834  -999.2500
  400.0000    91.8830    14.3302    13.6159  -999.2500
  400.5000    92.1226    14.2641    13.5487  -999.2500
  401.0000    94.3151    14.1982    13.4818  -999.2500
  401.5000    96.6225    14.1327    13.4149  -999.2500
  402.0000    97.9095    14.0675    13.3441  -999.2500
  402.5000    95.8870    14.0025    13.3164  -999.2500
  403.0000    93.0584    13.9379    13.2868  -999.2500
  403.5000    93.0247    13.8736    13.2573  -999.2500
  404.0000    94.5054    13.8095    13.2279  -999.2500
  404.5000    95.6709    13.7458    13.1985  -999.2500
  405.0000    95.9238    13.6824    13.1691  -999.2500
  405.5000    94.6727    13.6192    13.1400  -999.2500
  406.0000    93.4708    13.5563    13.1108  -999.2500
  406.5000    94.7872    13.4938    13.0581  -999.2500
  407.0000    97.6064    13.4315    12.9865  -999.2500
  407.5000   100.0510    13.3695    12.9154  -999.2500
  408.0000    99.1068    13.3079    12.8446  -999.2500
  408.5000    96.4739    13.2464    12.7742  -999.2500
  409.0000    95.2823    13.1421    12.7042  -999.2500
  409.5000    94.7066    13.0064    12.6346  -999.2500
  410.0000    95.5201    12.8721    12.5322  -999.2500
  410.5000    96.8676    12.7392    12.4213  -999.2500
  411.0000    98.0375    12.6077    12.3112  -999.2500
  411.5000    98.2410    12.4775    12.2035  -999.2500
  412.0000    98.5118    12.3487    12.0866  -999.2500
  412.5000    99.0751    12.1743    11.9112  -999.2500
  413.0000   100.6659    11.9331    11.7363  -999.2500
  413.5000   101.3611    11.6966    11.5645  -999.2500
  414.0000   100.6644    11.4648    11.2819  -999.2500
  414.5000    99.9889    11.2376    10.9359  -999.2500
  415.0000    99.6091    11.0149    10.6153  -999.2500
  415.5000   100.2440    10.8014    10.3538  -999.2500
  416.0000   102.2352    10.5689    10.0994  -999.2500
  416.5000   104.4704    10.1274     9.9073  -999.2500
  417.0000   105.6927     9.7252     9.8217  -999.2500
  417.5000   106.3654     8.8551     9.7310  -999.2500
  418.0000   106.8071     8.0890     9.5459  -999.2500
  418.5000   106.6908     7.3892     8.8189  -999.2500
  419.0000   106.5675     6.9913     7.9030  -999.2500
  419.5000   106.8963     6.6515     6.7961  -999.2500
  420.0000   110.2809     6.3283     5.8443  -999.2500
  420.5000   118.6786     6.1648     5.3300  -999.2500
  421.0000   127.5105     6.2567     5.1181  -999.2500
  421.5000   132.1558     6.3379     5.2143  -999.2500
  422.0000   128.1309     6.6676     5.7190  -999.2500
  422.5000   116.6848     7.1509     6.2340  -999.2500
  423.0000   106.2448     7.7599     6.8740  -999.2500
  423.5000    99.9603     8.4182     7.6739  -999.2500
  424.0000    99.3127     9.1255     8.5670  -999.2500
  424.5000   101.9439     9.8161     9.1528  -999.2500
  425.0000   104.5927    10.1444     9.5904  -999.2500
  425.5000   105.3318    10.4536     9.8839  -999.2500
  426.0000   104.1036    10.7299    10.1214  -999.2500
  426.5000   103.3644    10.9161    10.3780  -999.2500
  427.0000   104.5865    11.1057    10.3457  -999.2500
  427.5000   104.7421    11.2983    10.3086  -999.2500
  428.0000   104.5804    11.4944    10.2835  -999.2500
  428.5000   104.4072    11.6939    10.8166  -999.2500
  429.0000   104.2342    11.8968    11.2122  -999.2500
  429.5000   104.0692    12.1033    11.4473  -999.2500
  430.0000   104.3712    12.2832    11.6874  -999.2500
  430.5000   104.7139    12.4550    11.9326  -999.2500
  431.0000   104.9362    12.6291    12.1828  -999.2500
  431.5000   105.0671    12.8057    12.4383  -999.2500
  432.0000   105.1857    12.9847    12.6992  -999.2500
  432.5000   104.7913    13.1663    12.9763  -999.2500
  433.0000   103.0982    13.3504    13.0059  -999.2500
  433.5000   101.2642    13.4900    13.0368  -999.2500
  434.0000    99.6993    13.5521    13.0679  -999.2500
  434.5000   100.6871    13.6132    13.0989  -999.2500
  435.0000   101.6400    13.6748    13.1301  -999.2500
  435.5000   101.8953    13.7369    13.1613  -999.2500
  436.0000   101.1240    13.7988    13.1926  -999.2500
  436.5000   100.9089    13.8492    13.2239  -999.2500
  437.0000   101.1452    13.7955    13.2554  -999.2500
  437.5000   101.3878    13.7505    13.2869  -999.2500
