~VERSION INFORMATION
 VERS.                2.0:   CWLS LOG ASCII STANDARD - VERSION 2.0
 WRAP.                 NO:   ONE LINE PER DEPTH STEP
~WELL INFORMATION
#MNEM.UNIT      DATA TYPE    INFORMATION
#----------   ------------   ------------------------------
 STRT.F           36.0000:   START DEPTH
 STOP.F         2324.5000:   STOP DEPTH
 STEP.F            0.5000:   STEP LENGTH
 NULL.          -999.2500:   NO VALUE
 COMP. FENIX & SCISSON INC:   COMPANY
 WELL.           SX #57-3:   WELL
 FLD .             TEAPOT:   FIELD
 LOC .       S3 T38N R78W:   LOCATION
 CNTY.            NATRONA:   COUNTY
 STAT.            WYOMING:   STATE
 CTRY. UNITED STATES OF AMERICA:   COUNTRY
 SRVC.           BIRDWELL:   SERVICE COMPANY
 DATE.        15-JUN-1978:   LOGDATE
 API .       490251028800:   API NUMBER
~CURVE INFORMATION
#MNEM.UNIT       API CODE    CURVE DESCRIPTION
#----------   ------------   ------------------------------
 DEPT.F                  :   
 CALD.IN     45 280 60 00:   CALIPER FROM DENSITY LOG
 GRD .GAPI   45 310 01 00:   GAMMA RAY FROM DENSITY LOG
 CORR.G/C3   45 356 01 00:   DENSITY CORRECTION
 RHOB.G/C3   45 350 01 00:   BULK DENSITY
 DPHI.DEC    45 890 12 00:   DENSITY POROSITY SANDSTONE
 SPR .MV     07 010 01 00:   SPONTANEOUS POTENTIAL
 ILD .OHMM   07 120 46 00:   INDUCTION LOG DEEP
 ILM .OHMM   07 120 44 00:   INDUCTION LOG MEDIUM
 SGRD.OHMM   07 220 05 00:   SHALLOW GUARD RESISTIVITY
~PARAMETER INFORMATION
#MNEM.UNIT          VALUE    DESCRIPTION
#----------   ------------   ------------------------------
 PD  .                 GL:   PERMANENT DATUM
 EPD .F              5184:   ELEVATION PERMANENT DATUM
 LMF .                 KB:   LOG MEASURED FROM
 DAPD.F                10:   FEET ABOVE PERMANENT DATUM
 DMF .                 KB:   DRILLING MEASURED FROM
 EKB .F              5184:   KELLING BUSHING
 EGL .F              5184:   GROUND LEVEL
 DATE.            6-15-78:   RUN DATE
 RUN .                  1:   RUN NUMBER
 DD  .F              2340:   DEPTH DRILLER
 DL  .F              2324:   DEPTH LOGGER
 BLI .F              2324:   BOTTOM LOG INTERVAL
 TLI .F                50:   TOP LOG INTERVAL
 CS  .IN            9.625:   CASING SIZE
 CBD .F               600:   CASING BOTTOM DRILLER
 CBL .F               601:   CASING BOTTOM LOGGER
 BS  .IN             8.75:   BIT SIZE
 BSD .F              2340:   BIT SIZE AT DEPTH
 DFT .           AIR MIST:   DRILLING FLUID TYPE
 BHT .F                68:   BOTTOM HOLE TEMPERATURE
 MRT .F                68:   MAXIMUM RECORDED TEMPERATURE
 LUN .               2958:   LOGGING UNIT NUMBER
 LUL .               CASP:   LOGGING UNIT LOCATION
 ENGI.           REYNOLDS:   RECORDING ENGINEER
 WITN.           MCGINLEY:   WITNESSED BY
 CLNT.            A2DTECH:   CLIENT CODE
 ORIG.   2" 2.5" 5" PRINT:   ORIGIN OF DATA
 UWI .       490251028800:   UNIQUE WELL ID
 DICO. A2D Technologies, Inc.:   DIGITIZING COMPANY
~OTHER INFORMATION
~A   DEPT       CALD      GRD        CORR      RHOB         DPHI      SPR        ILD        ILM       SGRD   
# ...
  875.5000     8.8520   139.7843     0.0711     2.5117     0.0246  -999.2500  -999.2500  -999.2500  -999.2500
  876.0000     8.8570   139.7215     0.0711     2.5096     0.0239  -999.2500  -999.2500  -999.2500  -999.2500
  876.5000     8.8586   138.8195     0.0711     2.5095     0.0228  -999.2500  -999.2500  -999.2500  -999.2500
  877.0000     8.8893   138.2479     0.0702     2.5112     0.0203  -999.2500  -999.2500  -999.2500  -999.2500
  877.5000     8.9412   138.4749     0.0693     2.5127     0.0200  -999.2500  -999.2500  -999.2500  -999.2500
  878.0000     8.9915   138.5787     0.0684     2.5145     0.0205  -999.2500  -999.2500  -999.2500  -999.2500
  878.5000     9.0373   138.2843     0.0674     2.5161     0.0251  -999.2500  -999.2500  -999.2500  -999.2500
  879.0000     9.0934   137.9404     0.0665     2.5163     0.0291  -999.2500  -999.2500  -999.2500  -999.2500
  879.5000     9.0803   137.7672     0.0656     2.5092     0.0331  -999.2500  -999.2500  -999.2500  -999.2500
  880.0000     9.0597   137.4875     0.0646     2.5029     0.0371  -999.2500  -999.2500  -999.2500  -999.2500
  880.5000     9.0367   141.2155     0.0637     2.4962     0.0412  -999.2500  -999.2500  -999.2500  -999.2500
  881.0000     9.0154   146.1361     0.0632     2.4898     0.0452  -999.2500  -999.2500  -999.2500  -999.2500
  881.5000     8.9935   151.0770     0.0633     2.4831     0.0493  -999.2500  -999.2500  -999.2500  -999.2500
  882.0000     8.9721   152.5171     0.0632     2.4773     0.0530  -999.2500  -999.2500  -999.2500  -999.2500
  882.5000     8.9487   147.3154     0.0631     2.4717     0.0516  -999.2500  -999.2500  -999.2500  -999.2500
  883.0000     8.9485   141.8618     0.0604     2.4722     0.0498  -999.2500  -999.2500  -999.2500  -999.2500
  883.5000     8.9659   142.9912     0.0571     2.4732     0.0513  -999.2500  -999.2500  -999.2500  -999.2500
  884.0000     8.9804   143.9823     0.0538     2.4734     0.0545  -999.2500  -999.2500  -999.2500  -999.2500
  884.5000     8.9947   142.7697     0.0506     2.4706     0.0481  -999.2500  -999.2500  -999.2500  -999.2500
  885.0000     9.0138   140.3484     0.0477     2.4663     0.0383  -999.2500  -999.2500  -999.2500  -999.2500
  885.5000     8.9977   142.0081     0.0495     2.4780     0.0320  -999.2500  -999.2500  -999.2500  -999.2500
  886.0000     8.9358   147.1505     0.0514     2.4897     0.0277  -999.2500  -999.2500  -999.2500  -999.2500
  886.5000     8.8702   149.6782     0.0534     2.5004     0.0286  -999.2500  -999.2500  -999.2500  -999.2500
  887.0000     8.7867   145.0786     0.0553     2.5064     0.0277  -999.2500  -999.2500  -999.2500  -999.2500
  887.5000     8.7570   140.9081     0.0573     2.5054     0.0277  -999.2500  -999.2500  -999.2500  -999.2500
  888.0000     8.8041   140.6329     0.0593     2.5042     0.0284  -999.2500  -999.2500  -999.2500  -999.2500
  888.5000     8.8498   140.5314     0.0612     2.5029     0.0290  -999.2500  -999.2500  -999.2500  -999.2500
  889.0000     8.8364   140.8144     0.0630     2.5032     0.0295  -999.2500  -999.2500  -999.2500  -999.2500
  889.5000     8.7839   140.9175     0.0612     2.5038     0.0300  -999.2500  -999.2500  -999.2500  -999.2500
  890.0000     8.7479   139.3869     0.0591     2.5042     0.0326  -999.2500  -999.2500  -999.2500  -999.2500
  890.5000     8.7801   137.8900     0.0570     2.5048     0.0347  -999.2500  -999.2500  -999.2500  -999.2500
  891.0000     8.8081   136.2264     0.0549     2.5019     0.0369  -999.2500  -999.2500  -999.2500  -999.2500
  891.5000     8.8161   134.7172     0.0526     2.4975     0.0387  -999.2500  -999.2500  -999.2500  -999.2500
  892.0000     8.7887   133.6464     0.0516     2.4931     0.0323  -999.2500  -999.2500  -999.2500  -999.2500
  892.5000     8.7643   135.7018     0.0531     2.4916     0.0266  -999.2500  -999.2500  -999.2500  -999.2500
  893.0000     8.7446   137.5688     0.0542     2.5018     0.0210  -999.2500  -999.2500  -999.2500  -999.2500
  893.5000     8.7317   138.7915     0.0551     2.5102     0.0195  -999.2500  -999.2500  -999.2500  -999.2500
  894.0000     8.7216   139.1600     0.0525     2.5200     0.0221  -999.2500  -999.2500  -999.2500  -999.2500
  894.5000     8.7090   140.0743     0.0503     2.5173     0.0245  -999.2500  -999.2500  -999.2500  -999.2500
  895.0000     8.7147   142.0146     0.0478     2.5140     0.0242  -999.2500  -999.2500  -999.2500  -999.2500
  895.5000     8.7333   143.1118     0.0508     2.5098     0.0233  -999.2500  -999.2500  -999.2500  -999.2500
  896.0000     8.7503   142.9908     0.0549     2.5105     0.0229  -999.2500  -999.2500  -999.2500  -999.2500
  896.5000     8.7672   144.3739     0.0544     2.5131     0.0233  -999.2500  -999.2500  -999.2500  -999.2500
  897.0000     8.7843   144.9581     0.0534     2.5141     0.0237  -999.2500  -999.2500  -999.2500  -999.2500
  897.5000     8.8016   144.6101     0.0521     2.5118     0.0237  -999.2500  -999.2500  -999.2500  -999.2500
  898.0000     8.8182   143.8920     0.0522     2.5093     0.0199  -999.2500  -999.2500  -999.2500  -999.2500
  898.5000     8.8353   135.9774     0.0555     2.5153     0.0151  -999.2500  -999.2500  -999.2500  -999.2500
  899.0000     8.8545   130.2424     0.0587     2.5230     0.0103  -999.2500  -999.2500  -999.2500  -999.2500
  899.5000     8.8479   131.6355     0.0620     2.5311     0.0055  -999.2500  -999.2500  -999.2500  -999.2500
  900.0000     8.8045   135.3336     0.0652     2.5384     0.0198  -999.2500  -999.2500  -999.2500  -999.2500
  900.5000     8.7591   138.9367     0.0686     2.5462     0.0220  -999.2500  -999.2500  -999.2500  -999.2500
  901.0000     8.7753   142.5430     0.0717     2.5377     0.0249  -999.2500  -999.2500  -999.2500  -999.2500
  901.5000     8.8408   144.1635     0.0743     2.5248     0.0277  -999.2500  -999.2500  -999.2500  -999.2500
  902.0000     8.9082   144.0855     0.0696     2.5139     0.0300  -999.2500  -999.2500  -999.2500  -999.2500
  902.5000     8.9128   141.3168     0.0680     2.5075     0.0326  -999.2500  -999.2500  -999.2500  -999.2500
  903.0000     8.8092   138.7476     0.0656     2.5050     0.0347  -999.2500  -999.2500  -999.2500  -999.2500
  903.5000     8.7914   140.4177     0.0636     2.5024     0.0369  -999.2500  -999.2500  -999.2500  -999.2500
  904.0000     8.8207   143.1945     0.0615     2.4973     0.0390  -999.2500  -999.2500  -999.2500  -999.2500
  904.5000     8.8523   146.3169     0.0593     2.4899     0.0395  -999.2500  -999.2500  -999.2500  -999.2500
  905.0000     8.8326   146.6017     0.0599     2.4870     0.0382  -999.2500  -999.2500  -999.2500  -999.2500
  905.5000     8.7597   145.8999     0.0610     2.4888     0.0368  -999.2500  -999.2500  -999.2500  -999.2500
  906.0000     8.6899   144.8476     0.0621     2.4901     0.0354  -999.2500  -999.2500  -999.2500  -999.2500
  906.5000     8.6645   142.7178     0.0632     2.4915     0.0340  -999.2500  -999.2500  -999.2500  -999.2500
  907.0000     8.6676   140.6490     0.0643     2.4929     0.0351  -999.2500  -999.2500  -999.2500  -999.2500
  907.5000     8.6678   138.9126     0.0654     2.4942     0.0372  -999.2500  -999.2500  -999.2500  -999.2500
  908.0000     8.7180   139.0810     0.0664     2.4956     0.0327  -999.2500  -999.2500  -999.2500  -999.2500
  908.5000     8.7878   140.3867     0.0686     2.4971     0.0269  -999.2500  -999.2500  -999.2500  -999.2500
  909.0000     8.8266   141.7413     0.0726     2.5016     0.0242  -999.2500  -999.2500  -999.2500  -999.2500
  909.5000     8.8096   141.6555     0.0766     2.5066     0.0214  -999.2500  -999.2500  -999.2500  -999.2500
  910.0000     8.8013   141.1070     0.0807     2.5115     0.0185  -999.2500  -999.2500  -999.2500  -999.2500
  910.5000     8.7877   142.0565     0.0848     2.5163     0.0158  -999.2500  -999.2500  -999.2500  -999.2500
  911.0000     8.8419   140.3326     0.0888     2.5217     0.0150  -999.2500  -999.2500  -999.2500  -999.2500
  911.5000     8.9318   138.9504     0.0930     2.5257     0.0136  -999.2500  -999.2500  -999.2500  -999.2500
