~VERSION INFORMATION
 VERS.                2.0:   CWLS LOG ASCII STANDARD - VERSION 2.0
 WRAP.                 NO:   ONE LINE PER DEPTH STEP
~WELL INFORMATION
#MNEM.UNIT      DATA TYPE    INFORMATION
#----------   ------------   ------------------------------
 STRT.F          600.0000:   START DEPTH
 STOP.F         2218.0000:   STOP DEPTH
 STEP.F            0.5000:   STEP LENGTH
 NULL.          -999.2500:   NO VALUE
 COMP. US DEPTMNT OF ENRGY:   COMPANY
 WELL.   37 STX 10 #37-10:   WELL
 FLD .             TEAPOT:   FIELD
 LOC .      S10 T38N R78W:   LOCATION
 CNTY.            NATRONA:   COUNTY
 STAT.            WYOMING:   STATE
 CTRY. UNITED STATES OF AMERICA:   COUNTRY
 SRVC.            Unknown:   SERVICE COMPANY
 DATE.        15-MAY-1991:   LOGDATE
 API .       490251094200:   API NUMBER
~CURVE INFORMATION
#MNEM.UNIT       API CODE    CURVE DESCRIPTION
#----------   ------------   ------------------------------
 DEPT.F                  :   
 TGAS.UNITS  91 830 01 00:   TOTAL GAS FROM HOTWIRE
 ROP .MIN/FT 91 810 01 00:   RATE OF DRILLING PENETRATION
~PARAMETER INFORMATION
#MNEM.UNIT          VALUE    DESCRIPTION
#----------   ------------   ------------------------------
 EKB .F              5231:   KELLING BUSHING
 EGL .F              5221:   GROUND LEVEL
 DATE.            5-15-91:   RUN DATE
 DD  .F              2218:   DEPTH DRILLER
 BLI .F              2218:   BOTTOM LOG INTERVAL
 TLI .F               960:   TOP LOG INTERVAL
 ENGI.              TOWER:   RECORDING ENGINEER
 WITN.               HUSK:   WITNESSED BY
 CLNT.            A2DTECH:   CLIENT CODE
 ORIG.           5" PRINT:   ORIGIN OF DATA
 UWI .       490251094200:   UNIQUE WELL ID
 DICO. A2D Technologies, Inc.:   DIGITIZING COMPANY
~OTHER INFORMATION
~A   DEPT     TGAS          ROP 
  600.0000  -999.2500     0.0144
  600.5000  -999.2500     0.0148
  601.0000  -999.2500     0.0153
  601.5000  -999.2500     0.0157
  602.0000  -999.2500     0.0161
  602.5000  -999.2500     0.0166
  603.0000  -999.2500     0.0170
  603.5000  -999.2500     0.0174
  604.0000  -999.2500     0.0179
  604.5000  -999.2500     0.0183
  605.0000  -999.2500     0.0187
  605.5000  -999.2500     0.0192
  606.0000  -999.2500     0.0196
  606.5000  -999.2500     0.0214
  607.0000  -999.2500     0.0269
  607.5000  -999.2500     0.0240
  608.0000  -999.2500     0.0212
  608.5000  -999.2500     0.0184
  609.0000  -999.2500     0.0155
  609.5000  -999.2500     0.0127
  610.0000  -999.2500     0.0099
  610.5000  -999.2500     0.0071
  611.0000  -999.2500     0.0042
  611.5000  -999.2500     0.0027
  612.0000  -999.2500     0.0032
  612.5000  -999.2500     0.0036
  613.0000  -999.2500     0.0040
  613.5000  -999.2500     0.0045
  614.0000  -999.2500     0.0049
  614.5000  -999.2500     0.0053
  615.0000  -999.2500     0.0058
  615.5000  -999.2500     0.0062
  616.0000  -999.2500     0.0066
  616.5000  -999.2500     0.0071
  617.0000  -999.2500     0.0075
  617.5000  -999.2500     0.0079
  618.0000  -999.2500     0.0084
  618.5000  -999.2500     0.0088
  619.0000  -999.2500     0.0092
  619.5000  -999.2500     0.0096
  620.0000  -999.2500     0.0084
  620.5000  -999.2500     0.0073
  621.0000  -999.2500     0.0062
  621.5000  -999.2500     0.0051
  622.0000  -999.2500     0.0046
  622.5000  -999.2500     0.0050
  623.0000  -999.2500     0.0055
  623.5000  -999.2500     0.0057
  624.0000  -999.2500     0.0057
  624.5000  -999.2500     0.0057
  625.0000  -999.2500     0.0057
  625.5000  -999.2500     0.0058
  626.0000  -999.2500     0.0058
  626.5000  -999.2500     0.0058
  627.0000  -999.2500     0.0058
  627.5000  -999.2500     0.0059
  628.0000  -999.2500     0.0059
  628.5000  -999.2500     0.0059
  629.0000  -999.2500     0.0059
  629.5000  -999.2500     0.0059
  630.0000  -999.2500     0.0060
  630.5000  -999.2500     0.0060
  631.0000  -999.2500     0.0060
  631.5000  -999.2500     0.0060
  632.0000  -999.2500     0.0061
  632.5000  -999.2500     0.0065
  633.0000  -999.2500     0.0069
  633.5000  -999.2500     0.0060
  634.0000  -999.2500     0.0053
  634.5000  -999.2500     0.0045
  635.0000  -999.2500     0.0038
  635.5000  -999.2500     0.0030
  636.0000  -999.2500     0.0022
  636.5000  -999.2500     0.0015
  637.0000  -999.2500     0.0007
  637.5000  -999.2500     0.0000
  638.0000  -999.2500    -0.0008
  638.5000  -999.2500    -0.0015
  639.0000  -999.2500    -0.0023
  639.5000  -999.2500    -0.0019
  640.0000  -999.2500    -0.0014
  640.5000  -999.2500    -0.0011
  641.0000  -999.2500    -0.0013
  641.5000  -999.2500    -0.0016
  642.0000  -999.2500    -0.0018
  642.5000  -999.2500    -0.0020
  643.0000  -999.2500    -0.0022
  643.5000  -999.2500    -0.0024
  644.0000  -999.2500    -0.0026
  644.5000  -999.2500    -0.0028
  645.0000  -999.2500    -0.0030
  645.5000  -999.2500    -0.0033
  646.0000  -999.2500    -0.0035
  646.5000  -999.2500    -0.0030
  647.0000  -999.2500    -0.0026
  647.5000  -999.2500    -0.0022
  648.0000  -999.2500    -0.0017
  648.5000  -999.2500    -0.0013
  649.0000  -999.2500    -0.0009
  649.5000  -999.2500    -0.0004
  650.0000  -999.2500     0.0000
  650.5000  -999.2500     0.0004
  651.0000  -999.2500     0.0009
  651.5000  -999.2500     0.0013
  652.0000  -999.2500     0.0017
  652.5000  -999.2500     0.0022
  653.0000  -999.2500     0.0026
  653.5000  -999.2500     0.0030
  654.0000  -999.2500     0.0035
  654.5000  -999.2500     0.0039
  655.0000  -999.2500     0.0043
  655.5000  -999.2500     0.0048
  656.0000  -999.2500     0.0052
  656.5000  -999.2500     0.0056
  657.0000  -999.2500     0.0061
  657.5000  -999.2500     0.0065
  658.0000  -999.2500     0.0069
  658.5000  -999.2500     0.0074
  659.0000  -999.2500     0.0078
  659.5000  -999.2500     0.0082
  660.0000  -999.2500     0.0086
  660.5000  -999.2500     0.0091
  661.0000  -999.2500     0.0095
  661.5000  -999.2500     0.0099
  662.0000  -999.2500     0.0104
  662.5000  -999.2500     0.0108
  663.0000  -999.2500     0.0113
  663.5000  -999.2500     0.0117
  664.0000  -999.2500     0.0121
  664.5000  -999.2500     0.0125
  665.0000  -999.2500     0.0130
  665.5000  -999.2500     0.0134
  666.0000  -999.2500     0.0138
  666.5000  -999.2500     0.0143
  667.0000  -999.2500     0.0147
  667.5000  -999.2500     0.0151
  668.0000  -999.2500     0.0156
  668.5000  -999.2500     0.0160
  669.0000  -999.2500     0.0164
  669.5000  -999.2500     0.0169
  670.0000  -999.2500     0.0173
  670.5000  -999.2500     0.0177
  671.0000  -999.2500     0.0110
  671.5000  -999.2500     0.0110
  672.0000  -999.2500     0.0111
  672.5000  -999.2500     0.0111
  673.0000  -999.2500     0.0111
  673.5000  -999.2500     0.0111
  674.0000  -999.2500     0.0111
  674.5000  -999.2500     0.0112
  675.0000  -999.2500     0.0112
  675.5000  -999.2500     0.0112
  676.0000  -999.2500     0.0112
  676.5000  -999.2500     0.0113
  677.0000  -999.2500     0.0113
  677.5000  -999.2500     0.0113
  678.0000  -999.2500     0.0113
  678.5000  -999.2500     0.0113
  679.0000  -999.2500     0.0114
  679.5000  -999.2500     0.0114
  680.0000  -999.2500     0.0115
  680.5000  -999.2500     0.0120
  681.0000  -999.2500     0.0124
  681.5000  -999.2500     0.0123
  682.0000  -999.2500     0.0118
  682.5000  -999.2500     0.0112
  683.0000  -999.2500     0.0107
  683.5000  -999.2500     0.0101
  684.0000  -999.2500     0.0095
  684.5000  -999.2500     0.0090
  685.0000  -999.2500     0.0084
  685.5000  -999.2500     0.0079
  686.0000  -999.2500     0.0073
  686.5000  -999.2500     0.0068
  687.0000  -999.2500     0.0062
  687.5000  -999.2500     0.0057
  688.0000  -999.2500     0.0051
  688.5000  -999.2500     0.0045
  689.0000  -999.2500     0.0040
  689.5000  -999.2500     0.0034
  690.0000  -999.2500     0.0029
  690.5000  -999.2500     0.0023
  691.0000  -999.2500     0.0018
  691.5000  -999.2500     0.0012
  692.0000  -999.2500     0.0007
  692.5000  -999.2500    -0.0041
  693.0000  -999.2500    -0.0061
  693.5000  -999.2500    -0.0055
  694.0000  -999.2500    -0.0052
  694.5000  -999.2500    -0.0048
  695.0000  -999.2500    -0.0043
  695.5000  -999.2500    -0.0039
  696.0000  -999.2500    -0.0035
  696.5000  -999.2500    -0.0030
  697.0000  -999.2500    -0.0026
  697.5000  -999.2500    -0.0022
  698.0000  -999.2500    -0.0017
  698.5000  -999.2500    -0.0013
  699.0000  -999.2500    -0.0009
  699.5000  -999.2500    -0.0004
  700.0000  -999.2500     0.0000
  700.5000  -999.2500     0.0005
  701.0000  -999.2500     0.0009
  701.5000  -999.2500     0.0014
  702.0000  -999.2500     0.0019
  702.5000  -999.2500     0.0023
  703.0000  -999.2500     0.0028
  703.5000  -999.2500     0.0033
  704.0000  -999.2500     0.0037
  704.5000  -999.2500     0.0042
  705.0000  -999.2500     0.0047
  705.5000  -999.2500     0.0052
  706.0000  -999.2500     0.0056
  706.5000  -999.2500     0.0061
  707.0000  -999.2500     0.0066
  707.5000  -999.2500     0.0070
  708.0000  -999.2500     0.0075
  708.5000  -999.2500     0.0081
  709.0000  -999.2500     0.0084
  709.5000  -999.2500     0.0089
  710.0000  -999.2500     0.0094
  710.5000  -999.2500     0.0098
  711.0000  -999.2500     0.0103
  711.5000  -999.2500     0.0108
  712.0000  -999.2500     0.0112
  712.5000  -999.2500     0.0117
  713.0000  -999.2500     0.0122
  713.5000  -999.2500     0.0126
  714.0000  -999.2500     0.0131
  714.5000  -999.2500     0.0136
  715.0000  -999.2500     0.0141
  715.5000  -999.2500     0.0145
  716.0000  -999.2500     0.0133
  716.5000  -999.2500     0.0114
  717.0000  -999.2500     0.0095
  717.5000  -999.2500     0.0077
  718.0000  -999.2500     0.0058
  718.5000  -999.2500     0.0039
  719.0000  -999.2500     0.0020
  719.5000  -999.2500     0.0001
  720.0000  -999.2500    -0.0018
  720.5000  -999.2500    -0.0037
  721.0000  -999.2500    -0.0056
