~VERSION INFORMATION
 VERS.                2.0:   CWLS LOG ASCII STANDARD - VERSION 2.0
 WRAP.                 NO:   ONE LINE PER DEPTH STEP
~WELL INFORMATION
#MNEM.UNIT      DATA TYPE    INFORMATION
#----------   ------------   ------------------------------
 STRT.F           30.0000:   START DEPTH
 STOP.F         2432.5000:   STOP DEPTH
 STEP.F            0.5000:   STEP LENGTH
 NULL.          -999.2500:   NO VALUE
 COMP. FENIX & SCISSON INC:   COMPANY
 WELL.     72 SHX 4 #72-4:   WELL
 FLD .             TEAPOT:   FIELD
 LOC .       S4 T38N R78W:   LOCATION
 CNTY.            NATRONA:   COUNTY
 STAT.            WYOMING:   STATE
 CTRY. UNITED STATES OF AMERICA:   COUNTRY
 SRVC.           BIRDWELL:   SERVICE COMPANY
 DATE.        05-MAR-1979:   LOGDATE
 API .       490251074300:   API NUMBER
~CURVE INFORMATION
#MNEM.UNIT       API CODE    CURVE DESCRIPTION
#----------   ------------   ------------------------------
 DEPT.F                  :   
 SPR .MV     05 010 01 00:   SPONTANEOUS POTENTIAL FROM RES.
 SN  .OHMM   05 040 16 00:   SHORT NORMAL 16"
 ILD .OHMM   05 120 46 00:   INDUCTION LOG DEEP
 CALD.IN     45 280 60 00:   CALIPER
 GRD .GAPI   45 310 01 00:   GAMMA RAY FROM DENSITY LOG
 RHOB.G/C3   45 350 01 00:   BULK DENSITY
 CORR.G/C3   45 356 01 00:   DENSITY CORRECTION
 DPHI.DEC    45 890 12 00:   DENSITY POROSITY SANDSTONE
~PARAMETER INFORMATION
#MNEM.UNIT          VALUE    DESCRIPTION
#----------   ------------   ------------------------------
 PD  .                 GL:   PERMANENT DATUM
 EPD .F              5194:   ELEVATION PERMANENT DATUM
 LMF .                 KB:   LOG MEASURED FROM
 DAPD.F                10:   FEET ABOVE PERMANENT DATUM
 DMF .                 KB:   DRILLING MEASURED FROM
 EKB .F              5204:   KELLING BUSHING
 EGL .F              5194:   GROUND LEVEL
 DATE.             3-5-79:   RUN DATE
 RUN .                  1:   RUN NUMBER
 DD  .F              2560:   DEPTH DRILLER
 DL  .F              2432:   DEPTH LOGGER
 BLI .F              2432:   BOTTOM LOG INTERVAL
 TLI .F               400:   TOP LOG INTERVAL
 CS  .IN            9.625:   CASING SIZE
 CBD .F               685:   CASING BOTTOM DRILLER
 CBL .F               685:   CASING BOTTOM LOGGER
 BS  .IN             8.75:   BIT SIZE
 BSD .F              2560:   BIT SIZE AT DEPTH
 DFT .                AIR:   DRILLING FLUID TYPE
 TCS .HRS               5:   TIME CURCULATED STOPPED
 LUN .               3006:   LOGGING UNIT NUMBER
 LUL .             CASPER:   LOGGING UNIT LOCATION
 ENGI.         B. ROLLINS:   RECORDING ENGINEER
 WITN.           DINSMORE:   WITNESSED BY
 CLNT.            A2DTECH:   CLIENT CODE
 ORIG.           5" PRINT:   ORIGIN OF DATA
 UWI .       490251074300:   UNIQUE WELL ID
 DICO. A2D Technologies, Inc.:   DIGITIZING COMPANY
~OTHER INFORMATION
~A   DEPT      SPR         SN        ILD        CALD       GRD       RHOB         CORR      DPHI  
# ...
 1771.5000  -999.2500  -999.2500  -999.2500     9.1083    83.9833     2.5791     0.0406    -0.0279
 1772.0000  -999.2500  -999.2500  -999.2500     9.1024    83.2756     2.5900     0.0538    -0.0251
 1772.5000  -999.2500  -999.2500  -999.2500     9.0965    82.9714     2.5902     0.0626    -0.0248
 1773.0000  -999.2500  -999.2500  -999.2500     9.0907    82.5204     2.5906     0.0636    -0.0294
 1773.5000  -999.2500  -999.2500  -999.2500     9.0848    82.0726     2.5929     0.0631    -0.0304
 1774.0000  -999.2500  -999.2500  -999.2500     9.0789    81.6199     2.5939     0.0585    -0.0290
 1774.5000  -999.2500  -999.2500  -999.2500     9.0731    81.1812     2.5900     0.0502    -0.0275
 1775.0000  -999.2500  -999.2500  -999.2500     9.0672    81.3128     2.5860     0.0391    -0.0260
 1775.5000  -999.2500  -999.2500  -999.2500     9.0614    81.4720     2.5814     0.0279    -0.0180
 1776.0000  -999.2500  -999.2500  -999.2500     9.0614    81.4663     2.5758     0.0265    -0.0120
 1776.5000  -999.2500  -999.2500  -999.2500     9.0690    81.2522     2.5702     0.0376    -0.0120
 1777.0000  -999.2500  -999.2500  -999.2500     9.0765    81.5226     2.5683     0.0577    -0.0293
 1777.5000  -999.2500  -999.2500  -999.2500     9.0840    84.6123     2.5861     0.0777    -0.0393
 1778.0000  -999.2500  -999.2500  -999.2500     9.0915    87.7208     2.6063     0.0946    -0.0365
 1778.5000  -999.2500  -999.2500  -999.2500     9.0990    90.8000     2.6027     0.0920    -0.0316
 1779.0000  -999.2500  -999.2500  -999.2500     9.1065    92.0749     2.5988     0.0898    -0.0269
 1779.5000  -999.2500  -999.2500  -999.2500     9.1140    87.1362     2.5986     0.0909    -0.0316
 1780.0000  -999.2500  -999.2500  -999.2500     9.1215    83.8863     2.6072     0.1038    -0.0390
 1780.5000  -999.2500  -999.2500  -999.2500     9.1290    83.8876     2.6158     0.1162    -0.0469
 1781.0000  -999.2500  -999.2500  -999.2500     9.1368    84.1665     2.6186     0.1285    -0.0471
 1781.5000  -999.2500  -999.2500  -999.2500     9.1347    84.3206     2.6199     0.1375    -0.0472
 1782.0000  -999.2500  -999.2500  -999.2500     9.1300    82.5387     2.6206     0.1404    -0.0446
 1782.5000  -999.2500  -999.2500  -999.2500     9.1253    81.2527     2.6163     0.1434    -0.0353
 1783.0000  -999.2500  -999.2500  -999.2500     9.1206    84.4086     2.6119     0.1470    -0.0379
 1783.5000  -999.2500  -999.2500  -999.2500     9.1159    87.6217     2.6111     0.1642    -0.0443
 1784.0000  -999.2500  -999.2500  -999.2500     9.1112    87.8072     2.6232     0.1811    -0.0577
 1784.5000  -999.2500  -999.2500  -999.2500     9.1065    88.1638     2.6358     0.1861    -0.0487
 1785.0000  -999.2500  -999.2500  -999.2500     9.1018    89.2698     2.6257     0.1564    -0.0392
 1785.5000  -999.2500  -999.2500  -999.2500     9.0971    90.3602     2.6083     0.1252    -0.0297
 1786.0000  -999.2500  -999.2500  -999.2500     9.0925    91.2119     2.5956     0.0966    -0.0245
 1786.5000  -999.2500  -999.2500  -999.2500     9.0878    90.4432     2.5906     0.0975    -0.0245
 1787.0000  -999.2500  -999.2500  -999.2500     9.0831    89.3637     2.5936     0.1039    -0.0290
 1787.5000  -999.2500  -999.2500  -999.2500     9.0784    88.2702     2.6034     0.1100    -0.0381
 1788.0000  -999.2500  -999.2500  -999.2500     9.0737    87.3429     2.6132     0.1123    -0.0473
 1788.5000  -999.2500  -999.2500  -999.2500     9.0690    87.4017     2.6226     0.1141    -0.0474
 1789.0000  -999.2500  -999.2500  -999.2500     9.0643    88.3959     2.6224     0.1095    -0.0407
 1789.5000  -999.2500  -999.2500  -999.2500     9.0596    89.4807     2.6108     0.0962    -0.0326
 1790.0000  -999.2500  -999.2500  -999.2500     9.0559    91.9178     2.5990     0.0831    -0.0243
 1790.5000  -999.2500  -999.2500  -999.2500     9.0528    93.8287     2.5872     0.0701    -0.0221
 1791.0000  -999.2500  -999.2500  -999.2500     9.0496    92.6708     2.5876     0.0634    -0.0226
 1791.5000  -999.2500  -999.2500  -999.2500     9.0464    91.3821     2.5898     0.0619    -0.0277
 1792.0000  -999.2500  -999.2500  -999.2500     9.0433    91.7569     2.5967     0.0604    -0.0362
 1792.5000  -999.2500  -999.2500  -999.2500     9.0401    92.1151     2.6035     0.0590    -0.0386
 1793.0000  -999.2500  -999.2500  -999.2500     9.0369    92.1801     2.6057     0.0576    -0.0358
 1793.5000  -999.2500  -999.2500  -999.2500     9.0337    91.3385     2.6052     0.0561    -0.0330
 1794.0000  -999.2500  -999.2500  -999.2500     9.0306    90.9730     2.6042     0.0547    -0.0324
 1794.5000  -999.2500  -999.2500  -999.2500     9.0274    92.4629     2.6033     0.0533    -0.0347
 1795.0000  -999.2500  -999.2500  -999.2500     9.0242    93.3947     2.6022     0.0521    -0.0325
 1795.5000  -999.2500  -999.2500  -999.2500     9.0210    92.3796     2.5966     0.0521    -0.0233
 1796.0000  -999.2500  -999.2500  -999.2500     9.0184    90.4621     2.5842     0.0521    -0.0141
 1796.5000  -999.2500  -999.2500  -999.2500     9.0264    88.5357     2.5720     0.0518    -0.0128
 1797.0000  -999.2500  -999.2500  -999.2500     9.0344    86.6097     2.5708     0.0628    -0.0339
 1797.5000  -999.2500  -999.2500  -999.2500     9.0423    84.7347     2.5967     0.0750    -0.0489
 1798.0000  -999.2500  -999.2500  -999.2500     9.0503    83.4230     2.6170     0.0806    -0.0489
 1798.5000  -999.2500  -999.2500  -999.2500     9.0582    82.0605     2.6215     0.0589    -0.0260
 1799.0000  -999.2500  -999.2500  -999.2500     9.0662    81.6820     2.5938     0.0320    -0.0072
 1799.5000  -999.2500  -999.2500  -999.2500     9.0741    82.7170     2.5607     0.0099    -0.0072
 1800.0000  -999.2500  -999.2500  -999.2500     9.0768    85.9518     2.5574     0.0214    -0.0134
 1800.5000  -999.2500  -999.2500  -999.2500     9.0710    91.3971     2.5659     0.0384    -0.0177
 1801.0000  -999.2500  -999.2500  -999.2500     9.0655    92.7548     2.5744     0.0391    -0.0196
 1801.5000  -999.2500  -999.2500  -999.2500     9.0599    85.9145     2.5746     0.0336    -0.0182
 1802.0000  -999.2500  -999.2500  -999.2500     9.0544    80.8073     2.5744     0.0281    -0.0158
 1802.5000  -999.2500  -999.2500  -999.2500     9.0488    78.9522     2.5743     0.0226    -0.0140
 1803.0000  -999.2500  -999.2500  -999.2500     9.0433    79.8213     2.5742     0.0261    -0.0136
 1803.5000  -999.2500  -999.2500  -999.2500     9.0377    82.0883     2.5740     0.0318    -0.0139
 1804.0000  -999.2500  -999.2500  -999.2500     9.0322    84.3333     2.5739     0.0375    -0.0143
 1804.5000  -999.2500  -999.2500  -999.2500     9.0266    85.2059     2.5737     0.0430    -0.0146
 1805.0000  -999.2500  -999.2500  -999.2500     9.0211    82.6273     2.5738     0.0467    -0.0175
 1805.5000  -999.2500  -999.2500  -999.2500     9.0155    78.9865     2.5775     0.0578    -0.0283
 1806.0000  -999.2500  -999.2500  -999.2500     9.0099    78.5975     2.5882     0.0719    -0.0361
 1806.5000  -999.2500  -999.2500  -999.2500     9.0047    81.7395     2.6012     0.0863    -0.0361
 1807.0000  -999.2500  -999.2500  -999.2500     9.0002    82.6030     2.6018     0.0956    -0.0338
 1807.5000  -999.2500  -999.2500  -999.2500     8.9854    81.7904     2.6008     0.1017    -0.0310
 1808.0000  -999.2500  -999.2500  -999.2500     8.9948    81.4310     2.5959     0.1078    -0.0276
 1808.5000  -999.2500  -999.2500  -999.2500     9.0049    82.0453     2.5912     0.1139    -0.0227
 1809.0000  -999.2500  -999.2500  -999.2500     9.0151    82.6725     2.5865     0.1123    -0.0204
 1809.5000  -999.2500  -999.2500  -999.2500     9.0253    83.5239     2.5825     0.1064    -0.0298
 1810.0000  -999.2500  -999.2500  -999.2500     9.0355    85.3801     2.5929     0.1062    -0.0396
 1810.5000  -999.2500  -999.2500  -999.2500     9.0457    87.2041     2.6096     0.1063    -0.0489
 1811.0000  -999.2500  -999.2500  -999.2500     9.0559    88.8276     2.6227     0.0979    -0.0489
 1811.5000  -999.2500  -999.2500  -999.2500     9.0661    88.3350     2.6226     0.0803    -0.0342
