~VERSION INFORMATION
 VERS.                2.0:   CWLS LOG ASCII STANDARD - VERSION 2.0
 WRAP.                 NO:   ONE LINE PER DEPTH STEP
~WELL INFORMATION
#MNEM.UNIT      DATA TYPE    INFORMATION
#----------   ------------   ------------------------------
 STRT.F           28.0000:   START DEPTH
 STOP.F          630.0000:   STOP DEPTH
 STEP.F            0.5000:   STEP LENGTH
 NULL.          -999.2500:   NO VALUE
 COMP. FENIX & SCISSON INC:   COMPANY
 WELL. NAVAL PETROLEUM RESERVE 3 SX-1 #81-15:   WELL
 FLD .             TEAPOT:   FIELD
 LOC .      S15 T38N R78W:   LOCATION
 CNTY.            NATRONA:   COUNTY
 STAT.            WYOMING:   STATE
 CTRY. UNITED STATES OF AMERICA:   COUNTRY
 SRVC.           BIRDWELL:   SERVICE COMPANY
 DATE.        03-JUN-1978:   LOGDATE
 API .       490251063900:   API NUMBER
~CURVE INFORMATION
#MNEM.UNIT       API CODE    CURVE DESCRIPTION
#----------   ------------   ------------------------------
 DEPT.F                  :   
 SPR .MV     05 010 01 00:   SPONTANEOUS POTENTIAL FROM RES.
 SN  .OHMM   05 040 16 00:   SHORT NORMAL 16"
 ILD .OHMM   05 120 46 00:   INDUCTION LOG DEEP
 CALD.IN     45 280 60 00:   CALIPER FROM DENSITY LOG
 GRD .GAPI   45 310 01 00:   GAMMA RAY FROM DENSITY LOG
 CORR.G/C3   45 356 01 00:   DENSITY CORRECTION
 DPHI.DEC    45 890 12 00:   DENSITY POROSITY SANDSTONE
 DEN .G/C3   45 350 01 00:   COMPENSATED BULK DENSITY
~PARAMETER INFORMATION
#MNEM.UNIT          VALUE    DESCRIPTION
#----------   ------------   ------------------------------
 PD  .                 GL:   PERMANENT DATUM
 EPD .F              5263:   ELEVATION PERMANENT DATUM
 LMF .                 KB:   LOG MEASURED FROM
 DAPD.F                 4:   FEET ABOVE PERMANENT DATUM
 DMF .                 KB:   DRILLING MEASURED FROM
 EKB .F              5267:   KELLING BUSHING
 EGL .F              5263:   GROUND LEVEL
 DATE.        03-JUN-1978:   RUN DATE
 RUN .                  1:   RUN NUMBER
 DD  .F               632:   DEPTH DRILLER
 DL  .F               636:   DEPTH LOGGER
 BLI .F               630:   BOTTOM LOG INTERVAL
 TLI .F                40:   TOP LOG INTERVAL
 CS  .IN            8.625:   CASING SIZE
 CBD .F                40:   CASING BOTTOM DRILLER
 CBL .F                40:   CASING BOTTOM LOGGER
 BS  .IN            7.875:   BIT SIZE
 BSD .F               632:   BIT SIZE AT DEPTH
 DFT .                KCL:   DRILLING FLUID TYPE
 DFD .                8.7:   DRILLING FLUID DENSITY
 DFV .                 31:   DRILLING FLUID VISCOSITY
 DFPH.                 10:   DRILLING FLUID PH
 DFL .                9.2:   DRILLING FLUID LOSS
 MSS .           FLOWLINE:   MUD SAMPLE SOURCE
 RMS .OHMM            .26:   RESISTIVITY MUD SAMPLE
 MST .F                66:   MUD SAMPLE TEMPERATURE
 RMF .OHMM            .24:   RESISTIVITY MUD FILTRATE SAMPLE
 MFST.F                74:   MUD FILTRATE SAMPLE TEMPERATURE
 RMC .OHMM            .34:   RESISTIVITY MUD CAKE
 MCST.F                75:   MUD CAKE SAMPLE TEMPERATURE
 MFSS.               MEAS:   MUD FILTRATE SAMPLE SOURCE
 MCSS.               MEAS:   MUD CAKE SAMPLE SOURCE
 RMB .OHMM            .23:   RESISTIVITY MUD AT BHT
 BHT .F                74:   BOTTOM HOLE TEMPERATURE
 TCS .HRS            0100:   TIME CURCULATED STOPPED
 MRT .F                74:   MAXIMUM RECORDED TEMPERATURE
 LUN .               2958:   LOGGING UNIT NUMBER
 LUL .               CASP:   LOGGING UNIT LOCATION
 ENGI.             MILLER:   RECORDING ENGINEER
 WITN.           MCGINLEY:   WITNESSED BY
 CLNT.            A2DTECH:   CLIENT CODE
 ORIG.           5" PRINT:   ORIGIN OF DATA
 UWI .       490251063900:   UNIQUE WELL ID
 DICO. A2D Technologies, Inc.:   DIGITIZING COMPANY
~OTHER INFORMATION
~A   DEPT      SPR         SN        ILD       CALD         GRD      CORR       DPHI        DEN   
# ...
  190.0000   -25.0155     9.7871     8.8212     8.4394    74.5340     0.0435     0.1201     2.4798
  190.5000   -25.0180     9.7164     8.8189     8.4379    74.2197     0.0449     0.1186     2.4820
  191.0000   -25.0213     9.5802     8.7557     8.4364    74.5160     0.0508     0.1183     2.4819
  191.5000   -25.0241     9.4460     8.6329     8.4348    77.1024     0.0552     0.1171     2.4863
  192.0000   -25.0270     9.2493     8.5706     8.4333    79.3834     0.0550     0.1153     2.4916
  192.5000   -25.0300     9.0536     8.5092     8.4318    79.2217     0.0457     0.1148     2.4931
  193.0000   -25.0335     8.8676     8.3899     8.4454    78.6020     0.0380     0.1173     2.4876
  193.5000   -24.8855     8.7433     8.3877     8.4439    78.1349     0.0363     0.1185     2.4837
  194.0000   -24.8891     8.6208     8.3222     8.4424    77.5152     0.0316     0.1201     2.4783
  194.5000   -24.8919     8.5590     8.2104     8.4409    75.6741     0.0314     0.1207     2.4759
  195.0000   -24.7446     8.4977     8.1516     8.4394    74.9769     0.0297     0.1226     2.4749
  195.5000   -24.7482     8.4949     8.0932     8.4351    74.4335     0.0278     0.1250     2.4712
  196.0000   -24.7511     8.4340     8.0910     8.4209    74.4245     0.0263     0.1260     2.4658
  196.5000   -24.6031     8.4318     8.0889     8.4194    74.5670     0.0247     0.1278     2.4626
  197.0000   -24.6067     8.4296     8.0862     8.4179    75.5051     0.0245     0.1324     2.4618
  197.5000   -24.6096     8.5459     8.0841     8.4164    77.9078     0.0243     0.1300     2.4655
  198.0000   -24.6131     8.7820     8.1381     8.4149    80.0361     0.0242     0.1295     2.4685
  198.5000   -24.6160     9.0263     8.1925     8.4135    82.6225     0.0240     0.1311     2.4615
  199.0000   -24.6189     9.1498     8.3045     8.4120    86.2776     0.0238     0.1268     2.4629
  199.5000   -24.7719     9.1473     8.3685     8.4105    88.4060     0.0283     0.1241     2.4742
  200.0000   -24.7748     9.2085     8.5461     8.4091    87.7863     0.0355     0.1181     2.4863
  200.5000   -24.7341     9.0720     8.7076     8.4074    81.2144     0.0434     0.1166     2.4862
  201.0000   -24.6934     8.8924     8.8690     8.4057    79.0694     0.0459     0.1139     2.4922
  201.5000   -24.6527     8.8299     9.0137     8.4041    77.2297     0.0396     0.1152     2.4867
  202.0000   -24.6197     8.7677     8.9493     8.4024    73.7106     0.0349     0.1192     2.4776
  202.5000   -24.5889     8.7666     8.8857     8.4007    70.3442     0.0347     0.1183     2.4829
  203.0000   -24.5580     8.7654     8.7618     8.3991    70.1839     0.0329     0.1183     2.4827
  203.5000   -24.5271     8.8251     8.6395     8.3974    70.7870     0.0328     0.1187     2.4804
  204.0000   -24.4963     8.9470     8.5781     8.3958    72.7641     0.0326     0.1168     2.4879
  204.5000   -24.4654     9.0703     8.5760     8.3941    74.2832     0.0324     0.1157     2.4824
  205.0000   -24.4346     9.1324     8.5151     8.3924    74.4282     0.0352     0.1169     2.4825
  205.5000   -24.4037     9.2585     8.5134     8.3908    74.0380     0.0396     0.1133     2.4917
  206.0000   -24.3728     9.3861     8.5713     8.3891    71.5113     0.0409     0.1146     2.4974
  206.5000   -24.3420     9.5160     8.6287     8.3874    70.1297     0.0392     0.1125     2.4973
  207.0000   -24.3111     9.6471     8.7477     8.3858    70.8090     0.0390     0.1113     2.4972
  207.5000   -24.2803     9.7837     8.8767     8.3841    71.9465     0.0372     0.1111     2.4962
  208.0000   -24.4214     9.8470     8.9893     8.3824    72.5495     0.0340     0.1120     2.4909
  208.5000   -24.4272     9.8453     8.9871     8.3808    70.6335     0.0323     0.1148     2.4901
  209.0000   -24.2814     9.8440     8.9233     8.3791    69.7099     0.0336     0.1151     2.4900
  209.5000   -24.4387     9.7748     8.8599     8.3774    70.3129     0.0365     0.1149     2.4874
  210.0000   -24.4445     9.7735     8.7970     8.3758    71.9084     0.0378     0.1186     2.4792
  210.5000   -24.3002     9.7047     8.7345     8.3741    71.5954     0.0376     0.1150     2.4868
  211.0000   -24.3074     9.6363     8.7327     8.3724    67.9236     0.0359     0.1126     2.4874
  211.5000   -24.3132     9.5686     8.7917     8.3708    66.3130     0.0311     0.1202     2.4811
  212.0000   -24.3190     9.5010     8.8510     8.3691    68.8244     0.0293     0.1239     2.4749
  212.5000   -24.1747     9.3691     8.9108     8.3674    70.1145     0.0247     0.1273     2.4688
  213.0000   -24.1805     9.3032     8.9085     8.3658    70.4886     0.0245     0.1297     2.4656
  213.5000   -24.1862     9.1740     8.9067     8.3641    69.9466     0.0275     0.1301     2.4618
  214.0000   -24.1922     9.0466     8.8427     8.3624    68.8703     0.0303     0.1237     2.4680
  214.5000   -24.1993     8.9830     8.7200     8.3608    68.6337     0.0360     0.1201     2.4780
  215.0000   -24.3552     8.9817     8.5980     8.3591    68.7787     0.0358     0.1187     2.4858
  215.5000   -24.3610     8.9803     8.5370     8.3574    74.8016     0.0356     0.1166     2.4804
  216.0000   -24.3668     8.9791     8.4179     8.3558    77.8474     0.0354     0.1199     2.4773
  216.5000   -24.3726     8.9779     8.3581     8.3541    74.7101     0.0352     0.1203     2.4780
  217.0000   -24.3784     8.9767     8.3564     8.3524    72.8703     0.0350     0.1167     2.4832
  217.5000   -24.5345     8.9755     8.2971     8.3508    73.6261     0.0348     0.1146     2.4892
  218.0000   -24.5416     8.9743     8.2953     8.3491    76.9009     0.0376     0.1165     2.4861
  218.5000   -24.5474     8.9730     8.2933     8.3474    79.1071     0.0405     0.1168     2.4830
  219.0000   -24.5532     8.9716     8.2917     8.3458    77.8781     0.0448     0.1144     2.4889
  219.5000   -24.5594     8.9704     8.3476     8.3441    75.8093     0.0462     0.1023     2.4979
  220.0000   -24.5648     8.9692     8.3459     8.3424    75.1137     0.0459     0.0938     2.5131
  220.5000   -24.5710     8.9680     8.4023     8.3408    76.6328     0.0336     0.0987     2.5122
  221.0000   -24.5766     8.9049     8.4006     8.3543    79.0680     0.0152     0.1179     2.4848
  221.5000   -24.5826     8.8422     8.4572     8.3678    77.5336     0.0271     0.1210     2.4740
  222.0000   -24.5894     8.8410     8.5143     8.3661    76.6100     0.0436     0.1137     2.4884
  222.5000   -24.5957     8.8398     8.5718     8.3796    77.2130     0.0450     0.1122     2.4906
  223.0000   -24.6010     8.8384     8.5696     8.3779    79.4955     0.0463     0.1111     2.4935
  223.5000   -24.6068     8.8374     8.6279     8.3914    76.7398     0.0506     0.1099     2.5003
  224.0000   -24.6126     8.8360     8.6257     8.4049    73.8320     0.0520     0.1075     2.5085
  224.5000   -24.6198     8.8347     8.5644     8.4032    73.5191     0.0548     0.1051     2.5039
  225.0000   -24.6256     8.8337     8.6222     8.4015    73.5115     0.0562     0.1061     2.5023
  225.5000   -24.6314     8.8324     8.5606     8.4151    74.2672     0.0544     0.1055     2.5090
  226.0000   -24.6372     8.8313     8.5591     8.4133    74.5649     0.0497     0.1019     2.5135
  226.5000   -24.6430     8.9530     8.4980     8.4269    74.2519     0.0479     0.1006     2.5149
  227.0000   -24.6488     9.0140     8.4963     8.4248    74.5497     0.0432     0.1078     2.5049
  227.5000   -24.6547     9.1388     8.4359     8.4080    74.6947     0.0430     0.1102     2.4995
  228.0000   -24.6618     9.2650     8.4342     8.4063    75.2978     0.0413     0.1106     2.4987
  228.5000   -24.6676     9.3281     8.4326     8.3895    75.9008     0.0396     0.1082     2.4986
  229.0000   -24.6734     9.4566     8.4307     8.3576    77.0004     0.0379     0.1058     2.5000
  229.5000   -24.5276     9.4595     8.4363     8.3256    78.3277     0.0377     0.1058     2.5022
  230.0000   -24.5348     9.5198     8.4860     8.3088    79.6941     0.0359     0.1053     2.5082
