~VERSION INFORMATION
 VERS.                2.0:   CWLS LOG ASCII STANDARD - VERSION 2.0
 WRAP.                 NO:   ONE LINE PER DEPTH STEP
~WELL INFORMATION
#MNEM.UNIT      DATA TYPE    INFORMATION
#----------   ------------   ------------------------------
 STRT.F           32.0000:   START DEPTH
 STOP.F          757.0000:   STOP DEPTH
 STEP.F            0.5000:   STEP LENGTH
 NULL.          -999.2500:   NO VALUE
 COMP. FENIX & SCISSON INC:   COMPANY
 WELL.     88 S 34 #88-34:   WELL
 FLD .             NPR #3:   FIELD
 LOC .      S34 T39N R78W:   LOCATION
 CNTY.            NATRONA:   COUNTY
 STAT.            WYOMING:   STATE
 CTRY. UNITED STATES OF AMERICA:   COUNTRY
 SRVC.              Welex:   SERVICE COMPANY
 DATE.        10-MAY-1977:   LOGDATE
 API .       490251035800:   API NUMBER
~CURVE INFORMATION
#MNEM.UNIT       API CODE    CURVE DESCRIPTION
#----------   ------------   ------------------------------
 DEPT.F                  :   
 GURD.OHMM   07 220 05 00:   SHALLOW GUARD RESISTIVITY
 ILD .OHMM   07 120 46 00:   INDUCTION LOG DEEP
 ILM .OHMM   07 120 44 00:   INDUCTION LOG MEDIUM
 SPR .MV     07 010 01 00:   SPONTANEOUS POTENTIAL FROM RES.
 CALD.IN     45 280 60 00:   CALIPER FROM DENSITY LOG
 CORR.G/C3   45 356 01 00:   DENSITY CORRECTION
 DPHI.DEC    45 890 12 00:   DENSITY POROSITY SANDSTONE
 GRD .GAPI   45 310 01 00:   GAMMA RAY FROM DENSITY LOG
 RHOB.G/C3   45 350 01 00:   BULK DENSITY
~PARAMETER INFORMATION
#MNEM.UNIT          VALUE    DESCRIPTION
#----------   ------------   ------------------------------
 PD  .                 GL:   PERMANENT DATUM
 EPD .F              5094:   ELEVATION PERMANENT DATUM
 LMF .                 GL:   LOG MEASURED FROM
 DMF .                 GL:   DRILLING MEASURED FROM
 EGL .F              5094:   GROUND LEVEL
 DATE.        10-MAY-1977:   RUN DATE
 RUN .                  1:   RUN NUMBER
 DD  .F               760:   DEPTH DRILLER
 DL  .F               759:   DEPTH LOGGER
 BLI .F               757:   BOTTOM LOG INTERVAL
 TLI .F                30:   TOP LOG INTERVAL
 CS  .IN            8.625:   CASING SIZE
 CBD .F                40:   CASING BOTTOM DRILLER
 CBL .F                45:   CASING BOTTOM LOGGER
 BS  .IN            7.875:   BIT SIZE
 BSD .F               760:   BIT SIZE AT DEPTH
 DFT .            KCL MUD:   DRILLING FLUID TYPE
 DFD .                9.0:   DRILLING FLUID DENSITY
 DFV .                 33:   DRILLING FLUID VISCOSITY
 DFPH.                7.5:   DRILLING FLUID PH
 DFL .                7.4:   DRILLING FLUID LOSS
 MSS .           FLOWLINE:   MUD SAMPLE SOURCE
 RMS .OHMM           0.33:   RESISTIVITY MUD SAMPLE
 MST .F                70:   MUD SAMPLE TEMPERATURE
 RMF .OHMM           0.28:   RESISTIVITY MUD FILTRATE SAMPLE
 MFST.F                70:   MUD FILTRATE SAMPLE TEMPERATURE
 RMC .OHMM           0.40:   RESISTIVITY MUD CAKE
 MCST.F                70:   MUD CAKE SAMPLE TEMPERATURE
 MFSS.           FANN KIT:   MUD FILTRATE SAMPLE SOURCE
 MCSS.           FANN KIT:   MUD CAKE SAMPLE SOURCE
 RMB .OHMM           0.26:   RESISTIVITY MUD AT BHT
 BHT .F                86:   BOTTOM HOLE TEMPERATURE
 TCS .HRS             1.5:   TIME CURCULATED STOPPED
 MRT .F                86:   MAXIMUM RECORDED TEMPERATURE
 LUN .               8611:   LOGGING UNIT NUMBER
 LUL .             CASPER:   LOGGING UNIT LOCATION
 ENGI.            C. DOAK:   RECORDING ENGINEER
 WITN.         D. RHOADES:   WITNESSED BY
 CLNT.            A2DTECH:   CLIENT CODE
 ORIG.           5" PRINT:   ORIGIN OF DATA
 UWI .       490251035800:   UNIQUE WELL ID
 DICO. A2D Technologies, Inc.:   DIGITIZING COMPANY
~OTHER INFORMATION
~A   DEPT     GURD        ILD        ILM        SPR         CALD      CORR      DPHI         GRD        RHOB 
# ...
  251.0000     8.9445     7.1019     8.2902   -32.3366     7.9184     0.0151     0.1398   119.6665     2.4505
  251.5000     9.1967     7.1523     8.2913   -31.8881     7.8881     0.0190     0.1315   115.1606     2.4670
  252.0000     9.5872     7.1532     8.3499   -31.8867     7.8878     0.0279     0.1118   116.5105     2.4835
  252.5000    10.0637     7.1049     8.4672   -31.7362     7.8875     0.0340     0.1079   117.8603     2.4993
  253.0000     9.5003     7.0568     8.5270   -31.5618     7.8872     0.0430     0.1067   118.7598     2.5038
  253.5000     8.8282     6.9611     8.5875   -31.2859     7.8869     0.0505     0.1082   115.1544     2.4895
  254.0000     8.8293     6.8131     8.4708   -31.2845     7.8867     0.0596     0.1181   108.3965     2.4700
  254.5000     8.9534     6.6347     8.2410   -31.2831     7.8714     0.0641     0.1301   109.7461     2.4535
  255.0000     8.9546     6.6355     7.6918   -31.5797     7.8260     0.0609     0.1421   111.0960     2.4235
  255.5000     9.0179     6.5905     7.0791   -31.8952     7.7658     0.0477     0.1589   113.0464     2.4070
  256.0000     8.9569     6.5462     6.7475   -32.3220     7.6905     0.0373     0.1694   112.7447     2.3912
  256.5000     8.9584     6.5925     6.7952   -32.7677     7.6752     0.0268     0.1727   111.8423     2.3905
  257.0000     8.8366     6.5936     7.0838   -32.7659     7.6899     0.0149     0.1703   113.8568     2.4038
  257.5000     8.5969     6.6401     7.3846   -32.7645     7.7346     0.0149     0.1541   114.5421     2.4250
  258.0000     8.3636     6.6870     7.6452   -32.9121     7.7943     0.0165     0.1451   111.5373     2.4378
  258.5000     8.4814     6.7809     7.9214   -32.9103     7.8413     0.0165     0.1433   108.6830     2.4416
  259.0000     8.8416     6.8761     8.1945   -32.9089     7.9136     0.0136     0.1512   107.4807     2.4251
  259.5000     9.3453     6.9727     8.3673   -33.0569     7.9583     0.0106     0.1562   109.1305     2.4176
  260.0000    10.0846     7.0707     8.5436   -33.0551     7.9880     0.0076     0.1577   109.7297     2.4161
  260.5000    10.5858     7.1700     8.7237   -33.3517     7.9427     0.0047     0.1565   109.8784     2.4184
  261.0000    10.6606     7.2707     8.8483   -33.3502     7.9274     0.0032     0.1553   110.0631     2.4243
  261.5000    10.3713     7.3220     8.9709   -33.4976     7.9121     0.0048     0.1517   111.2265     2.4296
  262.0000    10.4450     7.3737     8.8486   -33.4961     7.8819     0.0048     0.1469   113.6274     2.4341
  262.5000    10.4463     7.3749     8.7283   -33.4947     7.8666     0.0049     0.1460   116.3286     2.4356
  263.0000    10.3758     7.3759     8.4915   -33.3443     7.8512     0.0034     0.1470   117.3782     2.4341
  263.5000    10.1587     7.2755     8.2614   -33.0444     7.8209     0.0020     0.1505   117.8276     2.4274
  264.0000     9.7531     7.1275     8.0226   -33.0430     7.8207    -0.0010     0.1556   116.6246     2.4116
  264.5000     9.3583     6.9823     7.8192   -33.0416     7.8204     0.0021     0.1619   117.0746     2.4071
  265.0000     8.9794     6.7001     7.7129   -33.0402     7.8201     0.0021     0.1625   117.9028     2.4101
  265.5000     8.6159     6.5184     7.7142   -33.1878     7.8498     0.0051     0.1607   120.9742     2.4131
  266.0000     8.3822     6.4297     7.7152   -33.3354     7.8495     0.0097     0.1565   122.3241     2.4177
  266.5000     8.1547     6.3423     7.7189   -33.3336     7.8642     0.0142     0.1525   120.6710     2.4252
  267.0000     8.0997     6.3434     7.8249   -33.2896     7.8789     0.0203     0.1475   118.8677     2.4349
  267.5000     8.2137     6.3919     7.9899   -33.1817     7.8936     0.0248     0.1361   119.1666     2.4447
  268.0000     8.3869     6.4781     8.1583   -33.3293     7.8783     0.0309     0.1297   120.3663     2.4635
  268.5000     8.5637     6.5690     8.3302   -33.3279     7.9080     0.0294     0.1279   121.2688     2.4634
  269.0000     8.8105     6.6154     8.5058   -33.3261     7.9076     0.0218     0.1294   121.7148     2.4522
  269.5000     9.0530     6.7083     8.6344   -33.4741     7.9144     0.0130     0.1342   118.1093     2.4297
  270.0000     9.3080     6.8024     8.8685   -33.4723     7.9220     0.0085     0.1441   114.2040     2.4170
  270.5000     9.6364     6.8982     8.8697   -33.4709     7.9217     0.0116     0.1510   112.4007     2.4297
  271.0000     9.7718     6.9950     8.8709   -33.4695     7.9365     0.0146     0.1441   112.0993     2.4365
  271.5000     9.5726     7.0444     8.7503   -33.4680     7.9361     0.0162     0.1414   113.4489     2.4433
  272.0000     9.3774     7.0941     8.6313   -33.4663     7.9358     0.0162     0.1405   114.2943     2.4486
  272.5000     9.3790     7.0951     8.5730   -33.3158     7.9656     0.0148     0.1423   113.2908     2.4418
  273.0000     9.3802     7.0960     8.8758   -33.3144     7.9652     0.0148     0.1438   112.9941     2.4403
  273.5000     9.5120     7.0970     8.8769   -33.3130     7.9649     0.0149     0.1447   114.6439     2.4373
  274.0000     9.7799     7.0981     8.8781   -33.3112     7.9658     0.0164     0.1453   115.8436     2.4343
  274.5000    10.1353     7.0990     8.8796   -33.3098     7.9793     0.0179     0.1435   115.5419     2.4381
  275.0000    10.4104     7.1000     8.8807   -33.1593     7.9940     0.0210     0.1402   113.2882     2.4426
  275.5000    10.4836     7.1009     8.8819   -33.0089     7.9937     0.0240     0.1372   110.4339     2.4478
  276.0000     9.8532     7.1021     8.7611   -33.0075     7.9934     0.0288     0.1354   109.2192     2.4517
  276.5000     9.5859     7.1030     8.5235   -32.8567     7.9931     0.0331     0.1384   111.5100     2.4486
  277.0000     9.7934     7.1040     8.4659   -32.7062     7.9928     0.0362     0.1396   113.6867     2.4456
  277.5000    10.1337     7.1541     8.7046   -32.4067     7.9925     0.0422     0.1354   116.8841     2.4606
  278.0000    10.0652     7.2046     9.0118   -31.9582     7.9922     0.0512     0.1277   118.8346     2.4711
  278.5000     9.7921     7.2555     9.2017   -31.6557     7.9769     0.0588     0.1252   119.8842     2.4696
  279.0000     9.4609     7.3070     9.1396   -31.5079     7.9616     0.0648     0.1300   120.3332     2.4621
  279.5000     9.2672     7.3586     9.0153   -31.3578     7.9613     0.0696     0.1336   120.4823     2.4501
  280.0000     9.0794     7.4619     8.7710   -31.5054     7.8710     0.0724     0.1393   119.8799     2.4424
  280.5000     9.3998     7.5146     8.4743   -31.5037     7.7808     0.0650     0.1435   119.5781     2.4359
  281.0000    10.1434     7.6201     8.1876   -31.8003     7.6606     0.0605     0.1450   120.6273     2.4404
  281.5000    10.6474     7.7273     8.0207   -32.3946     7.5853     0.0666     0.1407   122.1274     2.4502
  282.0000    10.7266     7.7819     8.1372   -32.6916     7.5234     0.0681     0.1366   124.6785     2.4539
  282.5000    10.1381     7.8368     8.4791   -32.8392     7.5097     0.0666     0.1381   122.8752     2.4449
  283.0000     9.8041     7.8378     8.7783   -32.9869     7.5394     0.0573     0.1465   121.2225     2.4284
  283.5000    10.3630     7.7849     9.0255   -33.2832     7.5691     0.0278     0.1504   123.1726     2.4269
  284.0000    11.0293     7.7860     9.0892   -33.4308     7.6438     0.0158     0.1465   124.2222     2.4348
  284.5000    11.2618     7.7334     9.0904   -33.2803     7.7184     0.0113     0.1387   125.5941     2.4495
  285.0000    11.2582     7.7347     9.0919   -33.4279     7.7781     0.0159     0.1287   126.1712     2.4630
  285.5000    11.1102     7.7893     9.1562   -33.4262     7.8228     0.0174     0.1269   126.0193     2.4690
  286.0000    11.1121     7.8443     9.2209   -33.4247     7.8525     0.0190     0.1341   126.4683     2.4592
  286.5000    10.8106     7.8454     9.2860   -33.2742     7.8521     0.0175     0.1395   126.7671     2.4472
  287.0000    10.3015     7.9010     9.2873   -33.2499     7.8518     0.0161     0.1371   127.6666     2.4488
