~VERSION INFORMATION
 VERS.                2.0:   CWLS LOG ASCII STANDARD - VERSION 2.0
 WRAP.                 NO:   ONE LINE PER DEPTH STEP
~WELL INFORMATION
#MNEM.UNIT      DATA TYPE    INFORMATION
#----------   ------------   ------------------------------
 STRT.F           34.0000:   START DEPTH
 STOP.F          517.0000:   STOP DEPTH
 STEP.F            0.5000:   STEP LENGTH
 NULL.          -999.2500:   NO VALUE
 COMP.    FENIX & SCISSON:   COMPANY
 WELL.       NPR #77-S-10:   WELL
 FLD .             TEAPOT:   FIELD
 LOC .      S10 T38N R78W:   LOCATION
 CNTY.            NATRONA:   COUNTY
 STAT.            WYOMING:   STATE
 CTRY. UNITED STATES OF AMERICA:   COUNTRY
 SRVC.              Welex:   SERVICE COMPANY
 DATE.        16-APR-1977:   LOGDATE
 API .       490251033600:   API NUMBER
~CURVE INFORMATION
#MNEM.UNIT       API CODE    CURVE DESCRIPTION
#----------   ------------   ------------------------------
 DEPT.F                  :   
 SPR .MV     07 010 01 00:   SPONTANEOUS POTENTIAL
 ILD .OHMM   07 120 46 00:   INDUCTION LOG DEEP
 ILM .OHMM   07 120 44 00:   INDUCTION LOG MEDIUM
 SGRD.OHMM   07 221 05 00:   SHALLOW SHORT GUARD RESISTIVITY
 CALD.IN     45 280 60 00:   CALIPER FROM DENSITY LOG
 GRD .GAPI   45 310 01 00:   GAMMA RAY FROM DENSITY LOG
 CORR.G/C3   45 356 01 00:   DENSITY CORRECTION
 RHOB.G/C3   45 350 01 00:   BULK DENSITY
 DPHI.DEC    45 890 12 00:   DENSITY POROSITY SANDSTONE
~PARAMETER INFORMATION
#MNEM.UNIT          VALUE    DESCRIPTION
#----------   ------------   ------------------------------
 PD  .                 GL:   PERMANENT DATUM
 EPD .F              5210:   ELEVATION PERMANENT DATUM
 LMF .                 GL:   LOG MEASURED FROM
 DMF .                 GL:   DRILLING MEASURED FROM
 EGL .F              5210:   GROUND LEVEL
 DATE.        16-APR-1977:   RUN DATE
 RUN .                  1:   RUN NUMBER
 DD  .F               525:   DEPTH DRILLER
 DL  .F               519:   DEPTH LOGGER
 BLI .F               517:   BOTTOM LOG INTERVAL
 TLI .F                30:   TOP LOG INTERVAL
 CS  .IN            8.625:   CASING SIZE
 BS  .IN            7.875:   BIT SIZE
 BSD .F               525:   BIT SIZE AT DEPTH
 DFT .            KCL MUD:   DRILLING FLUID TYPE
 DFD .                8.9:   DRILLING FLUID DENSITY
 BHT .F                61:   BOTTOM HOLE TEMPERATURE
 TCS .HRS            0300:   TIME CURCULATED STOPPED
 MRT .F                61:   MAXIMUM RECORDED TEMPERATURE
 ENGI.               DOAK:   RECORDING ENGINEER
 WITN.      B. HARRINGTON:   WITNESSED BY
 CLNT.            A2DTECH:   CLIENT CODE
 ORIG.           5" PRINT:   ORIGIN OF DATA
 UWI .       490251033600:   UNIQUE WELL ID
 DICO. A2D Technologies, Inc.:   DIGITIZING COMPANY
~OTHER INFORMATION
~A   DEPT      SPR        ILD        ILM       SGRD       CALD        GRD       CORR       RHOB       DPHI   
   34.0000  -999.2500  -999.2500  -999.2500  -999.2500  -999.2500  -999.2500  -999.2500  -999.2500  -999.2500
   34.5000  -999.2500  -999.2500  -999.2500  -999.2500     7.9496   112.7129    -0.4219     2.1173  -999.2500
   35.0000  -999.2500  -999.2500  -999.2500  -999.2500     7.9492   114.5292    -0.4039     2.1271  -999.2500
   35.5000  -999.2500  -999.2500  -999.2500  -999.2500     7.9489   116.2841    -0.3844     2.1346  -999.2500
   36.0000  -999.2500  -999.2500  -999.2500  -999.2500     7.9636   116.7271    -0.3694     2.1301  -999.2500
   36.5000  -999.2500  -999.2500  -999.2500  -999.2500     8.0230   115.3728    -0.3468     2.1184  -999.2500
   37.0000  -999.2500  -999.2500  -999.2500  -999.2500     8.0376   114.9172    -0.3258     2.1083  -999.2500
   37.5000  -999.2500  -999.2500  -999.2500  -999.2500     7.9776   113.4152    -0.2973     2.1023  -999.2500
   38.0000  -999.2500  -999.2500  -999.2500  -999.2500     7.9475   112.8082    -0.2432     2.0985  -999.2500
   38.5000  -999.2500  -999.2500  -999.2500  -999.2500     7.9621   113.8909    -0.2102     2.0948  -999.2500
   39.0000  -999.2500  -999.2500  -999.2500  -999.2500     7.9767   115.3351    -0.1652     2.0933  -999.2500
   39.5000  -999.2500  -999.2500  -999.2500  -999.2500     7.9615   120.4101    -0.1111     2.1083  -999.2500
   40.0000  -999.2500  -999.2500  -999.2500  -999.2500     7.9164   129.8199    -0.0360     2.1601     0.3000
   40.5000  -999.2500  -999.2500  -999.2500  -999.2500     7.8564   135.6423     0.0105     2.2629     0.1901
   41.0000  -999.2500  -999.2500  -999.2500  -999.2500     7.8412   138.7741     0.0315     2.3230     0.1323
   41.5000  -999.2500  -999.2500  -999.2500  -999.2500     7.8558   140.1211     0.0375     2.3875     0.1243
   42.0000  -999.2500  -999.2500  -999.2500     7.0834     7.8705   141.1496     0.0360     2.4330     0.1210
   42.5000  -999.2500     0.2473    27.4684     7.2345     7.9000   142.1887     0.0330     2.4468     0.1180
   43.0000  -999.2500     0.2783    27.4817     7.4400     7.9445   143.2278     0.0285     2.4528     0.1150
   43.5000  -999.2500     0.3355    27.3025     8.0855     7.9741   144.4165     0.0255     2.4573     0.1144
   44.0000  -999.2500     0.8578    23.1473  1949.4386     7.9588   146.2048     0.0240     2.4558     0.1162
   44.5000  -999.2500     1.7711    13.5153  1950.2417     7.9585   144.2526     0.0240     2.4483     0.1192
   45.0000  -999.2500     3.7075    10.3299  1951.0452     7.9731   139.4918     0.0240     2.4430     0.1180
   45.5000  -999.2500     6.4421    10.4064  1951.8490     7.9728   138.7075     0.0270     2.4505     0.1135
   46.0000  -999.2500     6.8114    11.0027  1952.6531     7.9725   139.7449     0.0285     2.4595     0.1099
   46.5000  -999.2500     6.7673    11.4736  1953.4575     7.9573   140.3374     0.0315     2.4633     0.1081
   47.0000  -999.2500     6.8189    11.8006  1954.2623     7.9271   139.5810     0.0315     2.4625     0.1078
   47.5000   -20.3302     7.8321    12.0534  1955.0674     7.9119   136.7337     0.0300     2.4610     0.1105
   48.0000   -33.8496    11.1411    12.3116  1955.8728     7.9116   135.5307     0.0315     2.4595     0.1108
   48.5000   -32.3437    12.1932    12.5753  1956.6786     7.9263   136.7176     0.0345     2.4602     0.1090
   49.0000   -26.5223    12.6281    12.6686  1957.4847     7.9409   137.1606     0.0375     2.4640     0.1060
   49.5000   -21.2961    11.6312    12.8509  1958.2911     7.9556   136.5537     0.0435     2.4685     0.1036
   50.0000   -17.4092    11.0112    12.9462  1406.8115     7.9552   135.3507     0.0480     2.4715     0.1039
   50.5000    -5.6354    13.2749    13.0422  1731.0214     7.9400   133.9982     0.0556     2.4730     0.1024
   51.0000    -2.1950    13.6539    13.3216  1947.2317     7.9397   133.0941     0.0601     2.4715     0.1036
   51.5000    -7.8319    12.6630    13.6069  1948.0339     7.9394   132.4699     0.0646     2.4669     0.1069
   52.0000    -9.6043    10.0902    13.8028  1948.8364     7.9391   133.3769     0.0676     2.4602     0.1111
   52.5000    -5.4153     9.4880    14.0985  1949.6393     7.9238   135.0139     0.0676     2.4527     0.1150
   53.0000    -5.2487     9.1713    14.1053  1950.4425     7.9235   136.2025     0.0631     2.4458     0.1189
   53.5000    -5.8261     9.2399    13.7277  1951.4470     7.9083   137.0922     0.0586     2.4399     0.1222
   54.0000    -7.1476     9.5037    13.5459  1952.2510     7.8782   138.2808     0.0526     2.4354     0.1243
   54.5000    -8.1714     8.7534    13.4576  1953.0552     7.8630   138.8715     0.0480     2.4331     0.1257
   55.0000    -8.8976     8.5777    13.3643  1953.8599     7.8478   137.0688     0.0420     2.4309     0.1275
   55.5000    -9.1819     8.5234    13.1960  1954.6648     7.8474   137.6595     0.0360     2.4278     0.1287
   56.0000    -9.1596     8.5293    13.1116  1955.4701     7.8471   136.7555     0.0330     2.4396     0.1204
   56.5000    -9.1418     8.5931    13.1179  1956.2756     7.8618   134.9545     0.0360     2.4534     0.1123
   57.0000    -9.1239     8.5375    13.0339  1957.0815     7.8764   135.2463     0.0405     2.4594     0.1096
   57.5000    -8.8085     8.5434    13.0402  1957.8878     7.9209   135.9865     0.0435     2.4623     0.1084
   58.0000    -7.8978     8.5481    12.7775  1958.6945     7.9355   137.0256     0.0435     2.4638     0.1078
   58.5000    -8.6240     8.5529    12.7852  1959.5013     7.9179   136.1198     0.0405     2.4661     0.1063
   59.0000    -9.0571     8.5576    13.0591  1960.3086     7.8901   135.0662     0.0390     2.4676     0.1051
   59.5000    -8.7372     8.5623    12.9755  1960.9143     7.8898   135.6569     0.0375     2.4653     0.1105
   60.0000    -6.9336     8.5081    12.5413  1961.9242     7.9045   139.8351     0.0360     2.4578     0.1159
   60.5000    -6.7670     8.5128    12.4441  1962.5303     7.9192   141.3227     0.0330     2.4518     0.1180
   61.0000    -9.8742     8.4578    12.7279  1963.5410     7.8889   139.1869     0.0300     2.4488     0.1186
   61.5000   -12.2373     8.4043    12.5594  1964.3500     7.9036   135.4769     0.0255     2.4526     0.1165
   62.0000   -12.6659     8.4101    12.3932  1965.1592     7.9480   136.2171     0.0225     2.4765     0.1015
   62.5000   -12.9457     8.4147    12.1450  1965.9688     7.9776   138.3025     0.0225     2.4750     0.1042
   63.0000   -13.5231     8.4194    12.0670  1966.7787     7.9474   140.3880     0.0240     2.4660     0.1087
   63.5000   -14.6957     8.4240    11.9898  1967.5890     7.9322   141.2795     0.0240     2.4608     0.1102
   64.0000   -17.8029     8.4287    12.4171  1968.3995     7.9170   139.3273     0.0240     2.4585     0.1111
   64.5000   -21.2077     8.4333    13.2196  1969.2104     7.9018   139.4863     0.0255     2.4570     0.1114
   65.0000   -24.4637     8.4380    13.3176  1970.0217     7.8866   140.8058     0.0255     2.4577     0.1108
   65.5000   -25.6363     8.4426    13.2323  1970.7657     7.8862   143.9377     0.0255     2.4607     0.1093
   66.0000   -26.2321     8.5058    12.7015  1971.6453     7.8859   146.7705     0.0255     2.4630     0.1084
   66.5000   -25.7495     8.5694    12.5332  1972.3221     7.8707   149.7529     0.0270     2.4607     0.1096
   67.0000   -25.7317     8.6335    12.2822  1973.3379     7.8853   149.7638     0.0285     2.4577     0.1105
   67.5000   -25.7138     8.6382    12.4591  1974.1509     7.8851   149.7385     0.0300     2.4562     0.1114
   68.0000   -24.0591     8.6430    11.9593  1974.9641     7.8997   151.1341     0.0315     2.4547     0.1123
   68.5000   -22.6895     8.5883    11.8009  1975.5969     7.8994   152.5665     0.0330     2.4592     0.1096
   69.0000   -25.0651     8.4742    11.8885  1976.4561     7.9140   152.8553     0.0360     2.4667     0.1072
   69.5000   -27.4282     8.2492    11.8942  1977.3381     7.9287   150.3064     0.0375     2.4704     0.1042
   70.0000   -30.8330     7.9190    11.9000  1978.2207     7.9433   145.9442     0.0405     2.4742     0.1015
