~VERSION INFORMATION
 VERS.                2.0:   CWLS LOG ASCII STANDARD - VERSION 2.0
 WRAP.                 NO:   ONE LINE PER DEPTH STEP
~WELL INFORMATION
#MNEM.UNIT      DATA TYPE    INFORMATION
#----------   ------------   ------------------------------
 STRT.F           34.5000:   START DEPTH
 STOP.F          880.5000:   STOP DEPTH
 STEP.F            0.5000:   STEP LENGTH
 NULL.          -999.2500:   NO VALUE
 COMP. FENIX & SCISSON INC:   COMPANY
 WELL. NAVAL PETROLEUM RESERVE 3 S-14 #35-14:   WELL
 FLD .             TEAPOT:   FIELD
 LOC .      S14 T38N R78W:   LOCATION
 CNTY.            NATRONA:   COUNTY
 STAT.            WYOMING:   STATE
 CTRY. UNITED STATES OF AMERICA:   COUNTRY
 SRVC.            Unknown:   SERVICE COMPANY
 DATE.        24-APR-1978:   LOGDATE
 API .       490251062000:   API NUMBER
~CURVE INFORMATION
#MNEM.UNIT       API CODE    CURVE DESCRIPTION
#----------   ------------   ------------------------------
 DEPT.F                  :   
 RHOB.G/C3   45 350 01 00:   BULK DENSITY
 DPHI.DEC    45 890 12 00:   DENSITY POROSITY SANDSTONE
 CORR.G/C3   45 356 01 00:   DENSITY CORRECTION
 GRD .GAPI   45 310 01 00:   GAMMA RAY FROM DENSITY LOG
 CALD.IN     45 280 60 00:   CALIPER FROM DENSITY LOG
 SPR .MV     05 010 01 00:   SPONTANEOUS POTENTIAL FROM RES.
 SN  .OHMM   05 040 16 00:   SHORT NORMAL 16"
 ILD .OHMM   05 120 46 00:   INDUCTION LOG DEEP
~PARAMETER INFORMATION
#MNEM.UNIT          VALUE    DESCRIPTION
#----------   ------------   ------------------------------
 PD  .                 GL:   PERMANENT DATUM
 EPD .F              5246:   ELEVATION PERMANENT DATUM
 LMF .                 KB:   LOG MEASURED FROM
 DMF .                 KB:   DRILLING MEASURED FROM
 EKB .F              5250:   KELLING BUSHING
 EGL .F              5246:   GROUND LEVEL
 DATE.          4-24-1978:   RUN DATE
 RUN .                  1:   RUN NUMBER
 DD  .F               880:   DEPTH DRILLER
 DL  .F               880:   DEPTH LOGGER
 BLI .F               884:   BOTTOM LOG INTERVAL
 TLI .F                50:   TOP LOG INTERVAL
 CS  .IN            8.625:   CASING SIZE
 CBD .F                40:   CASING BOTTOM DRILLER
 CBL .F                50:   CASING BOTTOM LOGGER
 BS  .IN            7.875:   BIT SIZE
 BSD .F               880:   BIT SIZE AT DEPTH
 DFT .                KCL:   DRILLING FLUID TYPE
 DFD .                8.6:   DRILLING FLUID DENSITY
 DFV .                 32:   DRILLING FLUID VISCOSITY
 DFPH.                 10:   DRILLING FLUID PH
 DFL .               12.8:   DRILLING FLUID LOSS
 MSS .            MUD PIT:   MUD SAMPLE SOURCE
 RMS .OHMM            .34:   RESISTIVITY MUD SAMPLE
 MST .F                62:   MUD SAMPLE TEMPERATURE
 RMF .OHMM             .3:   RESISTIVITY MUD FILTRATE SAMPLE
 MFST.F                70:   MUD FILTRATE SAMPLE TEMPERATURE
 RMC .OHMM            .58:   RESISTIVITY MUD CAKE
 MCST.F                70:   MUD CAKE SAMPLE TEMPERATURE
 MFSS.           MEASURED:   MUD FILTRATE SAMPLE SOURCE
 RMB .OHMM            .28:   RESISTIVITY MUD AT BHT
 BHT .F                74:   BOTTOM HOLE TEMPERATURE
 TCS .HRS               4:   TIME CURCULATED STOPPED
 MRT .F                74:   MAXIMUM RECORDED TEMPERATURE
 LUN .               2958:   LOGGING UNIT NUMBER
 LUL .              CASP.:   LOGGING UNIT LOCATION
 ENGI.             MILLER:   RECORDING ENGINEER
 WITN.           MCGINLEY:   WITNESSED BY
 CLNT.            A2DTECH:   CLIENT CODE
 ORIG.       2", 5" PRINT:   ORIGIN OF DATA
 UWI .       490251062000:   UNIQUE WELL ID
 DICO. A2D Technologies, Inc.:   DIGITIZING COMPANY
~OTHER INFORMATION
~A   DEPT     RHOB       DPHI       CORR         GRD      CALD        SPR         SN        ILD   
# ...
  561.0000     2.4689     0.1030     0.0358    89.7346     8.3126   -34.8529     5.1404     4.7764
  561.5000     2.4671     0.1020     0.0380    89.3062     8.2558   -35.1225     4.9213     4.4945
  562.0000     2.4619     0.1078     0.0394    91.0901     8.1731   -35.1601     4.7115     4.2274
  562.5000     2.4561     0.1156     0.0403    93.3153     8.0349   -35.1602     4.5107     3.9577
  563.0000     2.4467     0.1192     0.0411    93.3882     7.8955   -35.1599     4.3184     3.9955
  563.5000     2.4370     0.1229     0.0420    91.8405     7.8955   -35.1582     4.1343     4.0430
  564.0000     2.4295     0.1260     0.0428    90.3791     8.1267   -35.0644     3.9199     4.0894
  564.5000     2.4258     0.1270     0.0468    91.3001     8.3941   -34.7933     3.9611     4.1363
  565.0000     2.4219     0.1338     0.0516    91.8805     8.3860   -34.5252     4.0123     4.1838
  565.5000     2.4151     0.1455     0.0550    90.7414     8.3061   -34.2542     4.0690     4.2319
  566.0000     2.3966     0.1601     0.0492    89.6455     8.3666   -34.1439     4.5711     4.4001
  566.5000     2.3790     0.1482     0.0241    89.8834     8.4473   -34.1119     5.1155     4.7275
  567.0000     2.3789     0.1302     0.0076    91.4079     8.4514   -34.0812     5.5385     5.0792
  567.5000     2.4141     0.1124     0.0339    92.9602     8.4457   -34.0505     5.8055     5.4571
  568.0000     2.4460     0.1042     0.0413    93.8549     8.4399   -34.0197     6.0031     5.7378
  568.5000     2.4618     0.1042     0.0410    93.4146     8.4343   -33.9902     6.0558     5.8085
  569.0000     2.4653     0.1008     0.0410    92.8593     8.4288   -33.9638     6.1090     5.8764
  569.5000     2.4711     0.0964     0.0410    91.0366     8.4233   -33.8528     6.1627     5.9458
  570.0000     2.4773     0.0919     0.0412    89.1554     8.4178   -33.2890     6.2168     6.0162
  570.5000     2.4835     0.0875     0.0474    87.7308     8.4124   -32.7316     6.2714     6.0874
  571.0000     2.4896     0.0838     0.0511    89.1078     8.4069   -32.5958     6.3265     6.1595
  571.5000     2.4905     0.0899     0.0469    90.9424     8.4014   -32.6280     6.3821     6.2325
  572.0000     2.4850     0.0958     0.0409    91.9445     8.3959   -32.6640     6.4381     6.2867
  572.5000     2.4796     0.0997     0.0345    89.9976     8.3904   -32.6999     6.4947     6.3247
  573.0000     2.4770     0.0974     0.0330    89.7823     8.3850   -32.7365     6.5517     6.3630
  573.5000     2.4798     0.0925     0.0332    91.9649     8.3795   -32.7609     6.6093     6.4016
  574.0000     2.4848     0.0876     0.0407    94.2411     8.3740   -32.5558     6.6673     6.4403
  574.5000     2.4968     0.0826     0.0430    94.6502     8.3685   -32.3450     6.7259     6.4793
  575.0000     2.5088     0.0777     0.0450    93.3921     8.3630   -32.1356     6.7542     6.5186
  575.5000     2.5142     0.0728     0.0472    92.0586     8.3577   -31.9263     6.7683     6.5616
  576.0000     2.5183     0.0686     0.0527    91.2338     8.3481   -31.7170     6.7825     6.5605
  576.5000     2.5150     0.0879     0.0555    91.0785     8.3377   -31.5076     6.7967     6.5610
  577.0000     2.4831     0.0898     0.0478    92.5985     8.3274   -31.2999     6.8110     6.5610
  577.5000     2.4834     0.0890     0.0492    94.5615     8.3170   -31.1748     6.8253     6.5610
  578.0000     2.4925     0.0843     0.0517    96.5141     8.3067   -31.1713     6.8396     6.5610
  578.5000     2.4987     0.0855     0.0524    94.7598     8.2963   -31.0691     6.8539     6.5613
  579.0000     2.4976     0.0867     0.0514    92.4503     8.2860   -30.9768     6.8698     6.5610
  579.5000     2.4979     0.0829     0.0521    90.8982     8.2757   -30.9758     6.7947     6.4877
  580.0000     2.5004     0.0802     0.0592    90.9910     8.2655   -30.9774     6.7119     6.4067
  580.5000     2.5019     0.0822     0.0651    91.0426     8.2490   -30.9717     6.6298     6.3268
  581.0000     2.5016     0.0816     0.0666    90.7114     8.2023   -30.7586     6.5488     6.2478
  581.5000     2.5013     0.0798     0.0753    88.6705     8.1091   -30.5309     6.4689     6.1698
  582.0000     2.5009     0.0854     0.0911    87.9918     7.9473   -30.3047     6.3899     6.0928
  582.5000     2.5044     0.0804     0.1078    90.2954     7.8009   -30.1785     6.3118     6.0168
  583.0000     2.5084     0.0750     0.1318    90.0563     7.8020   -30.1793     6.2348     5.9417
  583.5000     2.5106     0.0818     0.1558    89.9801     7.8064   -30.1790     6.1519     5.8638
  584.0000     2.4963     0.0886     0.1587    91.6143     7.8103   -30.1788     6.0495     5.7621
  584.5000     2.4944     0.0873     0.1603    95.2473     7.8141   -30.1740     5.9391     5.6610
  585.0000     2.4968     0.0854     0.1600    98.2641     7.8178   -30.4012     5.8306     5.5618
  585.5000     2.4968     0.0853     0.1583    97.4293     7.8216   -30.6919     5.7242     5.4645
  586.0000     2.4953     0.0858     0.1565    95.9202     7.8254   -30.9841     5.5527     5.3032
  586.5000     2.5037     0.0768     0.1547    94.4353     7.8290   -31.2758     5.3567     5.1182
  587.0000     2.5126     0.0712     0.1530    93.4067     7.8328   -31.5664     5.0366     4.8086
  587.5000     2.5216     0.0677     0.1616    94.1534     7.8372   -31.7952     4.7448     4.5314
  588.0000     2.5289     0.0745     0.1745    94.3812     7.8738   -31.8673     4.4711     4.2701
  588.5000     2.4881     0.1094     0.1641    92.9496     7.9497   -31.9401     4.2134     4.0240
  589.0000     2.4469     0.1250     0.1325    91.5645     7.9583   -32.0129     3.8838     3.6105
  589.5000     2.4473     0.1253     0.1300    90.1641     7.9582   -32.0863     3.5181     3.1164
  590.0000     2.4452     0.1264     0.1293    90.1699     7.9585   -32.1629     3.1868     2.6900
  590.5000     2.4318     0.1335     0.1285    90.2539     7.9875   -32.0517     2.8867     2.4394
  591.0000     2.4184     0.1406     0.1277    91.0303     8.0742   -31.9061     2.6147     2.3597
  591.5000     2.4050     0.1478     0.1268    94.4933     8.1609   -31.7598     2.3675     2.2826
  592.0000     2.3917     0.1548     0.1260    96.7389     8.2099   -31.6138     2.2143     2.2168
  592.5000     2.3782     0.1682     0.1254    95.2451     8.2512   -31.4696     2.2164     2.2140
  593.0000     2.3610     0.1829     0.1172    92.5085     8.2436   -31.3730     2.3636     2.2162
  593.5000     2.3286     0.1976     0.1078    88.4336     8.2274   -31.3734     2.5773     2.4632
  594.0000     2.2968     0.2086     0.0965    84.3896     8.2111   -31.3741     2.8191     2.6937
  594.5000     2.2936     0.2082     0.0815    81.0209     8.1952   -31.4661     3.0837     2.9458
  595.0000     2.3226     0.1648     0.0931    83.9908     8.1769   -31.9315     3.3731     3.2216
  595.5000     2.3583     0.1428     0.1106    88.9620     8.0688   -32.3855     3.7291     3.5615
  596.0000     2.3816     0.1344     0.1286    91.8023     7.9497   -32.8392     4.1297     3.9416
  596.5000     2.3799     0.1235     0.1188    93.6073     7.8991   -33.2951     4.4292     4.2329
  597.0000     2.4073     0.1126     0.1293    94.7008     7.9170   -33.7495     4.5833     4.3770
  597.5000     2.4428     0.1082     0.1669    97.6371     7.9489   -33.8762     4.5887     4.3793
  598.0000     2.4558     0.1124     0.1689   100.8302     7.9810   -33.9870     4.6031     4.3022
  598.5000     2.4479     0.1176     0.1645   102.1429     8.0119   -34.0998     4.6176     4.2482
  599.0000     2.4392     0.1195     0.1370   100.0605     8.0609   -34.2131     4.6257     4.1949
  599.5000     2.4382     0.1160     0.1116    98.9089     8.1249   -34.3263     4.4973     4.1423
  600.0000     2.4519     0.1024     0.1055   101.8230     8.2395   -34.4396     4.3969     4.0903
  600.5000     2.4668     0.0930     0.1063   106.6617     8.3448   -34.5535     4.2987     4.0390
  601.0000     2.4791     0.1009     0.1022   109.4881     8.3850   -34.6667     4.2028     3.9883
