~VERSION INFORMATION
 VERS.                2.0:   CWLS LOG ASCII STANDARD - VERSION 2.0
 WRAP.                 NO:   ONE LINE PER DEPTH STEP
~WELL INFORMATION
#MNEM.UNIT      DATA TYPE    INFORMATION
#----------   ------------   ------------------------------
 STRT.F           36.0000:   START DEPTH
 STOP.F          592.0000:   STOP DEPTH
 STEP.F            0.5000:   STEP LENGTH
 NULL.          -999.2500:   NO VALUE
 COMP. FENIX & SCISSON INC:   COMPANY
 WELL.           S #35-10:   WELL
 FLD .              NPR-3:   FIELD
 LOC .      S10 T38N R78W:   LOCATION
 CNTY.            NATRONA:   COUNTY
 STAT.            WYOMING:   STATE
 CTRY. UNITED STATES OF AMERICA:   COUNTRY
 SRVC.              Welex:   SERVICE COMPANY
 DATE.        07-MAR-1977:   LOGDATE
 API .       490251029000:   API NUMBER
~CURVE INFORMATION
#MNEM.UNIT       API CODE    CURVE DESCRIPTION
#----------   ------------   ------------------------------
 DEPT.F                  :   
 SPR .MV     07 010 01 00:   SPONTANEOUS POTENTIAL
 ILM .OHMM   07 120 44 00:   INDUCTION LOG MEDIUM
 ILD .OHMM   07 120 46 00:   INDUCTION LOG DEEP
 SGRD.OHMM   07 220 05 00:   SHALLOW GUARD RESISTIVITY
 CALD.IN     45 280 60 00:   CALIPER FROM DENSITY LOG
 RHOB.G/C3   45 350 01 00:   BULK DENSITY
 CORR.G/C3   45 356 01 00:   DENSITY CORRECTION
 DPHI.DEC    45 890 12 00:   DENSITY POROSITY SANDSTONE
 GRD .GAPI   45 310 01 00:   GAMMA RAY FROM DENSITY LOG
~PARAMETER INFORMATION
#MNEM.UNIT          VALUE    DESCRIPTION
#----------   ------------   ------------------------------
 PD  .                 GL:   PERMANENT DATUM
 EPD .F              5234:   ELEVATION PERMANENT DATUM
 LMF .                 GL:   LOG MEASURED FROM
 DMF .                 GL:   DRILLING MEASURED FROM
 EGL .F              5234:   GROUND LEVEL
 DATE.             3-7-77:   RUN DATE
 RUN .                  1:   RUN NUMBER
 DD  .F               600:   DEPTH DRILLER
 DL  .F               593:   DEPTH LOGGER
 BLI .F               591:   BOTTOM LOG INTERVAL
 TLI .F                35:   TOP LOG INTERVAL
 CS  .IN            8.625:   CASING SIZE
 CBD .F                42:   CASING BOTTOM DRILLER
 CBL .F                42:   CASING BOTTOM LOGGER
 BS  .IN            7.875:   BIT SIZE
 BSD .F               600:   BIT SIZE AT DEPTH
 DFT .            KCL MUD:   DRILLING FLUID TYPE
 MSS .          FLOW LINE:   MUD SAMPLE SOURCE
 RMS .OHMM            .40:   RESISTIVITY MUD SAMPLE
 MST .F                58:   MUD SAMPLE TEMPERATURE
 RMF .OHMM            .33:   RESISTIVITY MUD FILTRATE SAMPLE
 MFST.F                58:   MUD FILTRATE SAMPLE TEMPERATURE
 RMC .OHMM            .44:   RESISTIVITY MUD CAKE
 MCST.F                58:   MUD CAKE SAMPLE TEMPERATURE
 MFSS.           FANN KIT:   MUD FILTRATE SAMPLE SOURCE
 MCSS.           FANN KIT:   MUD CAKE SAMPLE SOURCE
 RMB .OHMM            .31:   RESISTIVITY MUD AT BHT
 BHT .F                62:   BOTTOM HOLE TEMPERATURE
 TCS .HRS               3:   TIME CURCULATED STOPPED
 MRT .F                62:   MAXIMUM RECORDED TEMPERATURE
 LUN .               8611:   LOGGING UNIT NUMBER
 LUL .           GILLETTE:   LOGGING UNIT LOCATION
 ENGI.            C. DOAK:   RECORDING ENGINEER
 WITN.      L. STUEBINGER:   WITNESSED BY
 CLNT.            A2DTECH:   CLIENT CODE
 ORIG.        2" 5" PRINT:   ORIGIN OF DATA
 UWI .       490251029000:   UNIQUE WELL ID
 DICO. A2D Technologies, Inc.:   DIGITIZING COMPANY
~OTHER INFORMATION
~A   DEPT      SPR        ILM        ILD       SGRD         CALD       RHOB      CORR        DPHI       GRD  
# ...
  401.0000   -35.3543    15.7619    25.0097    21.2288     7.5599     2.3349     0.0930     0.1802    93.2001
  401.5000   -34.7368    16.4451    24.1468    19.9042     7.5608     2.3297     0.0880     0.1902    95.8953
  402.0000   -34.3451    17.1580    23.3094    18.4997     7.5394     2.3242     0.0827     0.1940    97.7280
  402.5000   -33.9604    17.9018    22.5010    19.7194     7.5073     2.3248     0.0795     0.1913    94.2911
  403.0000   -33.4705    17.9975    21.7207    21.4245     7.4745     2.3261     0.0834     0.1936    94.6467
  403.5000   -32.9764    17.9975    20.9672    21.1364     7.4526     2.3318     0.0904     0.1897    92.4134
  404.0000   -32.4816    18.1163    20.2396    20.6526     7.4519     2.3389     0.0935     0.1856    88.4725
  404.5000   -31.9879    18.8466    19.5383    21.4245     7.5068     2.3460     0.0842     0.1813    84.5565
  405.0000   -31.4914    19.6116    19.0159    20.4640     7.5749     2.3485     0.0753     0.1791    81.4810
  405.5000   -31.1909    20.0101    18.8263    19.2860     7.6511     2.3502     0.0666     0.1760    81.3157
  406.0000   -30.9979    20.4618    18.6044    18.6121     7.7277     2.3575     0.0611     0.1716    81.3345
  406.5000   -30.8050    20.9191    18.4997    24.1381     7.7610     2.3663     0.0582     0.1670    79.6356
  407.0000   -30.8538    21.0350    18.7279    16.8782     7.6988     2.3680     0.0591     0.1662    81.1414
  407.5000   -31.1113    20.8799    18.9309    19.4125     7.6372     2.3658     0.0607     0.1676    83.5282
  408.0000   -31.4050    20.7483    19.1360    24.6076     7.6650     2.3634     0.0610     0.1690    85.9617
  408.5000   -31.7031    20.6526    19.3434    28.2119     7.6758     2.3690     0.0582     0.1652    88.3556
  409.0000   -32.0010    22.5187    19.3680    22.4301     7.6860     2.3755     0.0553     0.1591    89.8967
  409.5000   -32.2989    24.1075    18.0422    24.1123     7.6960     2.3765     0.0504     0.1627    88.4695
  410.0000   -32.5967    25.5040    17.2573    24.5851     7.7060     2.3672     0.0437     0.1698    87.2806
  410.5000   -32.8945    24.6659    16.7390    18.4997     7.7163     2.3633     0.0402     0.1671    89.6833
  411.0000   -33.1923    23.9739    16.2364    21.4189     7.7025     2.3736     0.0440     0.1630    92.2333
  411.5000   -33.4902    23.3013    15.8284    23.0560     7.6795     2.3813     0.0500     0.1549    92.8253
  412.0000   -33.7880    22.6476    19.5465    23.4829     7.7090     2.4009     0.0558     0.1448    89.6616
  412.5000   -34.0859    22.0122    19.6454    22.3744     7.7411     2.4235     0.0617     0.1348    88.0219
  413.0000   -34.3851    21.6219    19.8326    21.8085     7.7742     2.4318     0.0674     0.1272    86.7607
  413.5000   -34.6837    21.9764    20.0217    23.9565     7.8088     2.4358     0.0731     0.1247    88.4312
  414.0000   -34.8171    22.2385    20.2125    22.1057     7.8439     2.4397     0.0775     0.1222    91.4008
  414.5000   -34.9440    22.6890    20.5501    20.0919     7.8765     2.4437     0.0820     0.1197    94.5979
  415.0000   -35.0721    23.9177    21.4245    36.8104     7.8310     2.4476     0.0877     0.1181    98.0883
  415.5000   -35.2004    23.4124    21.1412    29.7436     7.7810     2.4438     0.0894     0.1185   101.5879
  416.0000   -35.3288    22.5943    20.6225    23.6993     7.7315     2.4383     0.0873     0.1264   103.2499
  416.5000   -35.4621    21.8047    20.1164    25.5040     7.6832     2.4155     0.0835     0.1403   100.5649
  417.0000   -35.4246    21.1332    19.6260    22.9317     7.6780     2.3928     0.0723     0.1543    97.0621
  417.5000   -35.3429    20.7512    19.1172    21.8485     7.7080     2.3751     0.0619     0.1629    94.8669
  418.0000   -35.2602    20.3761    18.6111    23.5025     7.7384     2.3709     0.0542     0.1650    94.2490
  418.5000   -35.1768    20.2771    18.1066    22.5584     7.7690     2.3696     0.0508     0.1642    96.7372
  419.0000   -35.0944    20.4723    17.9975    22.0164     7.7996     2.3779     0.0473     0.1596    99.2493
  419.5000   -35.2196    20.4707    18.1634    22.8804     7.8303     2.3861     0.0439     0.1535    98.9130
  420.0000   -35.3638    20.4624    18.0104    23.4829     7.8584     2.3951     0.0417     0.1483    99.8563
  420.5000   -35.5072    20.4680    17.9162    22.3446     7.8566     2.3998     0.0428     0.1495   102.8950
  421.0000   -35.6504    19.9186    17.8323    20.4640     7.8461     2.4044     0.0441     0.1461   102.1100
  421.5000   -35.7935    19.5559    17.8336    20.9984     7.8362     2.4089     0.0454     0.1427   102.9950
  422.0000   -35.9368    19.2006    17.8332    22.0208     7.8264     2.4077     0.0467     0.1415   101.1210
  422.5000   -36.0797    18.8519    17.7898    22.4325     7.8190     2.4131     0.0480     0.1393    99.0994
  423.0000   -36.2236    18.5096    17.5962    21.3495     7.8198     2.4204     0.0494     0.1371    98.7739
  423.5000   -36.2814    18.1735    17.4046    20.2771     7.7711     2.4275     0.0487     0.1349    99.6447
  424.0000   -36.2826    17.8435    17.2152    20.5606     7.7279     2.4172     0.0455     0.1367   100.4855
  424.5000   -36.2824    17.5090    17.0278    21.3332     7.7820     2.4057     0.0424     0.1413   100.0399
  425.0000   -36.2823    17.7338    16.8766    21.8254     7.8341     2.4032     0.0393     0.1460    99.4454
  425.5000   -36.2823    18.1376    16.7986    20.9007     7.8855     2.4047     0.0386     0.1487    99.7321
  426.0000   -36.2823    18.5480    16.7185    20.2038     7.9189     2.4013     0.0413     0.1395   100.5411
  426.5000   -36.2823    18.8423    16.6397    19.7246     7.9184     2.3947     0.0437     0.1348   101.3772
  427.0000   -36.2823    18.5764    16.5713    20.7865     7.9185     2.3878     0.0423     0.1480   100.5383
  427.5000   -36.2822    18.3308    16.6756    21.4299     7.9185     2.3884     0.0405     0.1579    99.0272
  428.0000   -36.2822    18.9999    16.8665    21.0358     7.9185     2.3926     0.0388     0.1536    99.8017
  428.5000   -36.2799    20.2026    17.0596    20.6535     7.9174     2.3930     0.0370     0.1529   101.2818
  429.0000   -36.3915    21.4814    17.2549    20.6066     7.9163     2.3878     0.0353     0.1559   102.7943
  429.5000   -36.5400    24.1381    17.4524    20.5525     7.9151     2.3887     0.0338     0.1538   103.4423
  430.0000   -36.6892    23.3326    17.6703    20.4984     7.9140     2.3920     0.0359     0.1515   102.8353
  430.5000   -36.8381    22.5002    17.6703    20.4640     7.9129     2.3895     0.0363     0.1538   102.0834
  431.0000   -36.9870    22.1266    17.6703    20.4642     7.9117     2.3867     0.0369     0.1561   100.1814
  431.5000   -37.1360    21.7593    17.6703    20.4661     7.9106     2.3840     0.0375     0.1586    95.5245
  432.0000   -37.2849    21.4245    17.5090    20.4666     7.9095     2.3831     0.0370     0.1573    93.5134
  432.5000   -37.4338    21.3808    17.3805    20.1430     7.9083     2.3857     0.0346     0.1559    95.8592
  433.0000   -37.5827    21.3340    17.2327    19.8945     7.9072     2.3862     0.0323     0.1577    97.9636
  433.5000   -37.7316    21.2877    17.0871    19.6339     7.9061     2.3832     0.0299     0.1574    98.5929
  434.0000   -37.8805    21.2345    16.9429    19.2057     7.9049     2.3892     0.0333     0.1532    99.7161
  434.5000   -38.0350    20.7505    16.7994    19.3924     7.9038     2.3957     0.0381     0.1491   101.3865
  435.0000   -38.0954    20.0071    16.7260    19.5934     7.9026     2.4023     0.0416     0.1449   102.0538
  435.5000   -38.1288    19.3680    16.5602    19.7964     7.9015     2.4073     0.0406     0.1410   100.8081
  436.0000   -38.1615    18.4864    16.3790    20.0919     7.9004     2.4002     0.0397     0.1457    99.8540
  436.5000   -38.1946    17.5705    16.1987    19.9210     7.8993     2.3928     0.0388     0.1516   100.8803
  437.0000   -38.2277    16.5713    16.0204    19.6210     7.8981     2.3927     0.0379     0.1522   102.0901
