~VERSION INFORMATION
 VERS.                2.0:   CWLS LOG ASCII STANDARD - VERSION 2.0
 WRAP.                 NO:   ONE LINE PER DEPTH STEP
~WELL INFORMATION
#MNEM.UNIT      DATA TYPE    INFORMATION
#----------   ------------   ------------------------------
 STRT.F            8.5000:   START DEPTH
 STOP.F          509.0000:   STOP DEPTH
 STEP.F            0.5000:   STEP LENGTH
 NULL.          -999.2500:   NO VALUE
 COMP. LAWRENCE-ALLISON &AS:   COMPANY
 WELL. NPR 3 #68-26SX3LP2:   WELL
 FLD .             TEAPOT:   FIELD
 LOC .       S3 T38N R78W:   LOCATION
 CNTY.            NATRONA:   COUNTY
 STAT.            WYOMING:   STATE
 CTRY. UNITED STATES OF AMERICA:   COUNTRY
 SRVC.      Dresser Atlas:   SERVICE COMPANY
 DATE.        12-DEC-1984:   LOGDATE
 API .       490251099600:   API NUMBER
~CURVE INFORMATION
#MNEM.UNIT       API CODE    CURVE DESCRIPTION
#----------   ------------   ------------------------------
 DEPT.F                  :   
 CNC .DEC    42 890 03 00:   NEUTRON POROSITY SANDSTONE
 CALD.IN     45 280 60 00:   CALIPER FROM DENSITY LOG
 CORR.G/C3   45 356 01 00:   DENSITY CORRECTION
 GRD .GAPI   45 310 01 00:   GAMMA RAY FROM DENSITY LOG
 PORD.DEC    45 890 12 00:   POROSITY DENSITY SANDSTONE
 RHOB.G/C3   45 350 01 00:   BULK DENSITY
 DT  .US/F   60 520 00 00:   INTERVAL TRANSIT TIME
 SPR .MV     11 010 01 00:   SPONTANEOUS POTENTIAL FROM RES.
 RS  .OHMM   11 220 09 00:   RESISTIVITY SHALLOW
 RD  .OHMM   11 220 10 00:   RESISTIVITY DEEP
~PARAMETER INFORMATION
#MNEM.UNIT          VALUE    DESCRIPTION
#----------   ------------   ------------------------------
 PD  .                 GL:   PERMANENT DATUM
 EPD .F              5158:   ELEVATION PERMANENT DATUM
 LMF .                 GL:   LOG MEASURED FROM
 DMF .                 GL:   DRILLING MEASURED FROM
 EGL .F              5158:   GROUND LEVEL
 DATE.        12-DEC-1984:   RUN DATE
 RUN .                  1:   RUN NUMBER
 DD  .F               510:   DEPTH DRILLER
 DL  .F               510:   DEPTH LOGGER
 BLI .F               501:   BOTTOM LOG INTERVAL
 TLI .F                20:   TOP LOG INTERVAL
 CS  .IN            8.625:   CASING SIZE
 CBD .F                20:   CASING BOTTOM DRILLER
 CBL .F                20:   CASING BOTTOM LOGGER
 BS  .IN            7.875:   BIT SIZE
 BSD .F               510:   BIT SIZE AT DEPTH
 DFT .          KCL/WATER:   DRILLING FLUID TYPE
 MSS .            MUDTANK:   MUD SAMPLE SOURCE
 RMS .OHMM           0.21:   RESISTIVITY MUD SAMPLE
 MST .F                70:   MUD SAMPLE TEMPERATURE
 RMF .OHMM           0.16:   RESISTIVITY MUD FILTRATE SAMPLE
 MFST.F                70:   MUD FILTRATE SAMPLE TEMPERATURE
 RMC .OHMM           0.26:   RESISTIVITY MUD CAKE
 MCST.F                70:   MUD CAKE SAMPLE TEMPERATURE
 MFSS.               CALC:   MUD FILTRATE SAMPLE SOURCE
 MCSS.               CALC:   MUD CAKE SAMPLE SOURCE
 RMB .OHMM           0.17:   RESISTIVITY MUD AT BHT
 BHT .F                85:   BOTTOM HOLE TEMPERATURE
 TCS .HRS               6:   TIME CURCULATED STOPPED
 MRT .F               100:   MAXIMUM RECORDED TEMPERATURE
 LUN .               6270:   LOGGING UNIT NUMBER
 LUL .                 FM:   LOGGING UNIT LOCATION
 ENGI.           E.GOVETT:   RECORDING ENGINEER
 WITN.              LUERS:   WITNESSED BY
 CLNT.            A2DTECH:   CLIENT CODE
 ORIG.           5" PRINT:   ORIGIN OF DATA
 UWI .       490251099600:   UNIQUE WELL ID
 DICO. A2D Technologies, Inc.:   DIGITIZING COMPANY
~OTHER INFORMATION
~A    DEPT     CNC       CALD       CORR        GRD       PORD       RHOB          DT       SPR         RS         RD   
# ...
  477.5000     0.2791     7.7205     0.0399    96.3074     0.1270     2.4669   102.9754   -35.6001    10.2211    10.9042
  478.0000     0.2764     7.7366     0.0461    96.1700     0.1256     2.4701   102.8770   -35.5883    10.2974    10.9859
  478.5000     0.2931     7.7228     0.0523    96.7817     0.1118     2.4809   102.4981   -35.5766    10.5191    10.9919
  479.0000     0.2978     7.7092     0.0600    97.8348     0.1000     2.5009   102.0355   -35.4163    10.6714    10.9220
  479.5000     0.2875     7.7109     0.0632    99.6298     0.0943     2.5214   101.8764   -35.2559    10.6768    10.8524
  480.0000     0.2805     7.7122     0.0528   100.3862     0.1072     2.5177   102.8384   -35.2442    10.6071    10.7091
  480.5000     0.2919     7.6838     0.0424   101.2910     0.1144     2.4953   104.4044   -35.3840    10.3237    10.4946
  481.0000     0.2934     7.6852     0.0351   102.9407     0.1186     2.4841   105.1439   -35.6665    10.4731    10.6470
  481.5000     0.2931     7.6716     0.0307   103.5457     0.1246     2.4752   105.4356   -35.6547    10.8479    10.8026
  482.0000     0.2951     7.6732     0.0341   102.5005     0.1288     2.4670   105.1955   -35.6430    10.9289    10.8084
  482.5000     0.3117     7.6894     0.0371   102.2396     0.1284     2.4641   105.0334   -35.4827    10.9350    10.8143
  483.0000     0.3111     7.7055     0.0328   102.4062     0.1260     2.4664   104.7962   -35.4709    10.8650    10.8202
  483.5000     0.2887     7.7069     0.0284   101.9756     0.1229     2.4710   104.5570   -35.4591    10.7955    10.8261
  484.0000     0.2772     7.7082     0.0255   102.2870     0.1211     2.4771   104.2464   -35.4473    10.5788    10.6815
  484.5000     0.2862     7.6946     0.0212   104.3787     0.1172     2.4824   104.3071   -35.4357    10.2942    10.4676
  485.0000     0.2986     7.6959     0.0244   104.8384     0.1102     2.4878   104.8213   -35.5726    10.0881    10.2580
  485.5000     0.3058     7.6824     0.0441   104.8530     0.1080     2.4956   105.1100   -35.5579    10.0235    10.1939
  486.0000     0.2943     7.6837     0.0532   106.3512     0.1180     2.4917   105.3988   -35.5461    10.0997    10.1996
  486.5000     0.2955     7.6850     0.0414   107.4044     0.1221     2.4798   105.6153   -35.3858    10.2459    10.3475
  487.0000     0.3000     7.6715     0.0371   108.1608     0.1224     2.4746   105.3001   -35.3741    10.6125    10.6477
  487.5000     0.2975     7.6728     0.0372   106.9884     0.1218     2.4747   104.9126   -35.3623    10.9164    10.8735
  488.0000     0.2697     7.6593     0.0524   104.6291     0.1214     2.4763   104.4500   -35.3506    11.1514    10.9563
  488.5000     0.2618     7.6458     0.0632   101.7829     0.1214     2.4756   103.9875   -35.1903    11.1571    11.0384
  489.0000     0.2636     7.6474     0.0631    99.9105     0.1208     2.4772   103.9689   -35.1785    11.0092    10.9667
  489.5000     0.2777     7.6784     0.0439   100.6706     0.1179     2.4840   104.2644   -35.1668    10.7882    10.8970
  490.0000     0.2831     7.6945     0.0275   104.5427     0.1091     2.4946   104.7834   -35.3036    10.4983    10.7529
  490.5000     0.2768     7.7107     0.0337   105.8890     0.1052     2.5029   105.1424   -35.2919    10.3593    10.5390
  491.0000     0.2725     7.7120     0.0489   104.5719     0.1025     2.5060   105.3560   -35.4317    10.2930    10.3279
  491.5000     0.2737     7.7133     0.0581   104.2861     0.1019     2.5076   105.3413   -35.4170    10.2984    10.3335
  492.0000     0.2969     7.7146     0.0357   106.0847     0.1034     2.5060   105.3295   -35.5542    10.3035    10.3392
  492.5000     0.2987     7.7159     0.0118   107.4346     0.1058     2.5033   105.1675   -35.6909    10.1669    10.2734
  493.0000     0.2905     7.7321     0.0330   107.8943     0.1039     2.5034   105.0054   -35.6790     9.8269    10.0676
  493.5000     0.2859     7.7631     0.0603   107.7569     0.0991     2.5095   105.0688   -35.5186     9.2374     9.0701
  494.0000     0.2886     7.7495     0.1070   104.9561     0.0963     2.5163   105.8834   -35.6555     8.2721     8.0032
  494.5000     0.2916     7.6401     0.0786    99.6295     0.1029     2.4984   107.6748   -35.6434     7.8289     7.5734
  495.0000     0.2955     7.5151     0.0638    98.0119     0.1252     2.4534   109.4662   -35.4829     7.8339     7.4395
  495.5000     0.2958     7.4716     0.0685    98.6420     0.1514     2.4294   111.7835   -35.3201     7.9473     7.5483
  496.0000     0.2918     7.5177     0.0731    99.2285     0.1595     2.4115   111.8468   -35.3084     8.5220     7.7646
  496.5000     0.2887     7.5784     0.0692    98.9459     0.1453     2.4394   110.7508   -35.2967     9.0124     8.0984
  497.0000     0.2878     7.6242     0.0539    99.5576     0.1223     2.4695   109.1156   -35.2849     9.1353     8.5431
  497.5000     0.2899     7.6403     0.0571   100.9075     0.1112     2.4898   106.7747   -35.2732  -999.2500  -999.2500
  498.0000  -999.2500     7.6565     0.0648   102.9993     0.1120     2.4952   105.1100   -35.2614  -999.2500  -999.2500
  498.5000  -999.2500     7.6578     0.0679   105.5361     0.1132  -999.2500   104.3469   -35.2497  -999.2500  -999.2500
  499.0000  -999.2500     7.6443     0.0606   108.9632     0.1138  -999.2500   104.0346   -35.3895  -999.2500  -999.2500
  499.5000  -999.2500     7.6604     0.0563   112.9837     0.1131  -999.2500   103.4218   -35.3748  -999.2500  -999.2500
  500.0000  -999.2500     7.6469     0.0369   116.7074     0.1158  -999.2500   102.6587   -35.3631  -999.2500  -999.2500
  500.5000  -999.2500     7.6482     0.0220   117.0151     0.1191  -999.2500   102.1210   -35.3513  -999.2500  -999.2500
  501.0000  -999.2500     7.6496     0.0161   116.7917     0.1194  -999.2500   101.9594   -35.3396  -999.2500  -999.2500
  501.5000  -999.2500     7.6511     0.0208   116.6724     0.1190  -999.2500  -999.2500   -35.1793  -999.2500  -999.2500
  502.0000  -999.2500     7.6673     0.0270   116.6172     0.1142  -999.2500  -999.2500   -35.1675  -999.2500  -999.2500
  502.5000  -999.2500     7.6686     0.0587   116.6345     0.1105  -999.2500  -999.2500   -35.3044  -999.2500  -999.2500
  503.0000  -999.2500     7.6847     0.0499   116.6469     0.1078  -999.2500  -999.2500   -35.4413  -999.2500  -999.2500
  503.5000  -999.2500     7.7009     0.0350   116.6617     0.1011  -999.2500  -999.2500   -35.5781  -999.2500  -999.2500
  504.0000  -999.2500     7.7022     0.0261   116.6794     0.0987  -999.2500  -999.2500   -35.5661  -999.2500  -999.2500
  504.5000  -999.2500     7.6840     0.0308   116.6940     0.1017  -999.2500  -999.2500   -35.4056  -999.2500  -999.2500
  505.0000  -999.2500     7.5704     0.0401   116.8569     0.1035  -999.2500  -999.2500   -35.3938  -999.2500  -999.2500
  505.5000  -999.2500     7.4568     0.0818   116.8715     0.1040  -999.2500  -999.2500   -35.2310  -999.2500  -999.2500
  506.0000  -999.2500     7.2920     0.1224   116.8861     0.1108  -999.2500  -999.2500   -35.0707  -999.2500  -999.2500
  506.5000  -999.2500     6.6553     0.1578   116.9007     0.1280  -999.2500  -999.2500   -35.0589  -999.2500  -999.2500
  507.0000  -999.2500     6.5973     0.1659   116.9139     0.1370  -999.2500  -999.2500   -35.1987  -999.2500  -999.2500
  507.5000  -999.2500  -999.2500  -999.2500  -999.2500  -999.2500  -999.2500  -999.2500   -35.3355  -999.2500  -999.2500
  508.0000  -999.2500  -999.2500  -999.2500  -999.2500  -999.2500  -999.2500  -999.2500   -35.4724  -999.2500  -999.2500
  508.5000  -999.2500  -999.2500  -999.2500  -999.2500  -999.2500  -999.2500  -999.2500   -35.4577  -999.2500  -999.2500
  509.0000  -999.2500  -999.2500  -999.2500  -999.2500  -999.2500  -999.2500  -999.2500   -35.5975  -999.2500  -999.2500
