~VERSION INFORMATION
 VERS.                2.0:   CWLS LOG ASCII STANDARD - VERSION 2.0
 WRAP.                 NO:   ONE LINE PER DEPTH STEP
~WELL INFORMATION
#MNEM.UNIT      DATA TYPE    INFORMATION
#----------   ------------   ------------------------------
 STRT.F           20.0000:   START DEPTH
 STOP.F          600.0000:   STOP DEPTH
 STEP.F            0.5000:   STEP LENGTH
 NULL.          -999.2500:   NO VALUE
 COMP. FENIX & SCISSON INC:   COMPANY
 WELL. TEAPOT DOME #23 SX 3-4:   WELL
 FLD .             TEAPOT:   FIELD
 LOC .       S4 T38N R78W:   LOCATION
 CNTY.            NATRONA:   COUNTY
 STAT.            WYOMING:   STATE
 CTRY. UNITED STATES OF AMERICA:   COUNTRY
 SRVC.            Unknown:   SERVICE COMPANY
 DATE.        31-JUL-1978:   LOGDATE
 API .       490251067600:   API NUMBER
~CURVE INFORMATION
#MNEM.UNIT       API CODE    CURVE DESCRIPTION
#----------   ------------   ------------------------------
 DEPT.F                  :   
 CALD.IN     45 280 60 00:   CALIPER FROM DENSITY LOG
 GRD .GAPI   45 310 01 00:   GAMMA RAY FROM DENSITY LOG
 CORR.G/C3   45 356 01 00:   DENSITY CORRECTION
 DPHI.DEC    45 890 12 00:   DENSITY POROSITY SANDSTONE
 RHOB.G/C3   45 350 01 00:   BULK DENSITY
 SPR .MV     07 010 01 00:   SPONTANEOUS POTENTIAL
 ILD .OHMM   07 120 46 00:   INDUCTION LOG DEEP
 SN  .OHMM   07 040 16 00:   SHORT NORMAL 16"
 CILD.MMHO   07 110 46 00:   CONDUCTIVITY INDUCTION LOG DEEP
~PARAMETER INFORMATION
#MNEM.UNIT          VALUE    DESCRIPTION
#----------   ------------   ------------------------------
 PD  .                 GL:   PERMANENT DATUM
 EPD .F              5181:   ELEVATION PERMANENT DATUM
 LMF .                 KB:   LOG MEASURED FROM
 DAPD.F                 4:   FEET ABOVE PERMANENT DATUM
 DMF .                 KB:   DRILLING MEASURED FROM
 EKB .F              5185:   KELLING BUSHING
 EGL .F              5181:   GROUND LEVEL
 DATE.        31-JUL-1978:   RUN DATE
 RUN .                  1:   RUN NUMBER
 DD  .F               595:   DEPTH DRILLER
 DL  .F               606:   DEPTH LOGGER
 BLI .F               600:   BOTTOM LOG INTERVAL
 TLI .F                40:   TOP LOG INTERVAL
 CBL .F                45:   CASING BOTTOM LOGGER
 BS  .IN            7.875:   BIT SIZE
 BSD .F               595:   BIT SIZE AT DEPTH
 DFT .                KCL:   DRILLING FLUID TYPE
 DFD .                9.0:   DRILLING FLUID DENSITY
 DFV .                 36:   DRILLING FLUID VISCOSITY
 DFPH.                9.0:   DRILLING FLUID PH
 DFL .                8.0:   DRILLING FLUID LOSS
 MSS .           FLOWLINE:   MUD SAMPLE SOURCE
 BHT .F                74:   BOTTOM HOLE TEMPERATURE
 TCS .HRS            0500:   TIME CURCULATED STOPPED
 MRT .F                74:   MAXIMUM RECORDED TEMPERATURE
 LUN .               2958:   LOGGING UNIT NUMBER
 LUL .               CASP:   LOGGING UNIT LOCATION
 ENGI.            POINTER:   RECORDING ENGINEER
 WITN.              AMEND:   WITNESSED BY
 CLNT.            A2DTECH:   CLIENT CODE
 ORIG.           5" PRINT:   ORIGIN OF DATA
 UWI .       490251067600:   UNIQUE WELL ID
 DICO. A2D Technologies, Inc.:   DIGITIZING COMPANY
~OTHER INFORMATION
~A   DEPT     CALD        GRD       CORR       DPHI       RHOB        SPR        ILD         SN       CILD   
# ...
  385.0000     8.3180   123.8573    -0.0059     0.1954     2.3324   -34.4131     4.9790     7.0119   193.2609
  385.5000     8.3344   125.5122    -0.0089     0.1477     2.4081   -33.3843     5.1568     6.9666   196.3393
  386.0000     8.4556   119.5437     0.0175     0.0733     2.5483   -32.4893     5.1947     7.0185   199.9704
  386.5000     9.1766   116.2632     0.0499     0.1087     2.4974   -32.0386     4.9190     7.1191   202.0235
  387.0000     8.6081   119.4155     0.0409     0.1191     2.4503   -31.8810     4.8208     7.2711   201.1380
  387.5000     8.4296   120.9182     0.0199     0.0990     2.5058   -31.8720     4.9929     7.3753   190.6367
  388.0000     8.4459   115.9987     0.0140     0.0750     2.5313   -31.8630     5.5792     7.5328   171.0856
  388.5000     9.1370   112.1203     0.0289     0.0783     2.5247   -31.8540     6.0646     7.5968   158.2761
  389.0000     8.3887   113.4762     0.0281     0.0825     2.5195   -31.8450     6.4569     7.7495   150.7101
  389.5000     8.2848   109.1315     0.0202     0.0857     2.5114   -31.5389     6.8274     7.9150   143.8931
  390.0000     8.2865   108.5647     0.0180     0.0896     2.5032   -31.3813     6.9742     7.9768   137.0761
  390.5000     8.2725   110.0931     0.0158     0.0926     2.5033   -31.0751     6.9781     8.0890   134.7535
  391.0000     8.2742   112.7832     0.0143     0.0883     2.5050   -30.7689     6.9820     8.1468   132.4309
  391.5000     8.2603   115.4725     0.0129     0.0949     2.4990   -30.4627     7.0343     8.2066   132.3555
  392.0000     8.2320   116.2442     0.0122     0.0991     2.4931   -30.3052     7.0382     8.2101   132.2801
  392.5000     8.2333   116.9884     0.0078     0.0973     2.4909   -30.1476     7.0909     8.2135   132.2047
  393.0000     8.2347   121.6328     0.0078     0.0927     2.5015   -30.1386     7.1432     8.2169   132.1293
  393.5000     8.2661   123.1356     0.0079     0.1023     2.4941   -30.1296     7.1967     8.2204   132.0539
  394.0000     8.3274   120.6077     0.0079     0.1083     2.4821   -30.1206     7.2060     8.1664   131.9785
  394.5000     8.3258   116.1340     0.0080     0.1028     2.4890   -30.1116     7.2545     8.1706   131.9031
  395.0000     8.2998   113.0056     0.0081     0.0934     2.5123   -30.4020     7.2086     8.1170   131.8277
  395.5000     8.3162   116.4542     0.0096     0.0941     2.5184   -30.5416     7.1630     8.1212   132.5202
  396.0000     8.3175   121.3976     0.0105     0.1028     2.4900   -30.2332     7.1176     8.0679   132.4259
  396.5000     8.3189   120.2124     0.0112     0.1015     2.4961   -30.0756     7.0725     8.0721   132.3505
  397.0000     8.3353   115.2902     0.0113     0.0973     2.5051   -29.9180     7.0278     8.0191   133.0430
  397.5000     8.3366   113.9529     0.0114     0.0949     2.5105   -29.6137     7.0318     8.0232   133.7167
  398.0000     8.3380   119.0457     0.0114     0.0961     2.5094   -29.4562     7.0357     8.0266   133.6224
  398.5000     8.2494   110.5970     0.0115     0.0972     2.5009   -29.2987     7.0396     8.0300   132.0489
  399.0000     8.2054   109.1045     0.0123     0.0939     2.4995   -29.1411     7.0924     8.0333   130.4753
  399.5000     8.3871   108.5075     0.0123     0.1005     2.4972   -28.9836     7.1455     8.0367   128.9018
  400.0000     8.4930   106.8657     0.0147     0.1067     2.4809   -28.9747     7.2988     8.1519   125.8490
  400.5000     8.3300   101.6418     0.0147     0.1043     2.4840   -28.8186     7.4557     8.0988   122.7405
  401.0000     8.1816    97.3134     0.0148     0.1049     2.4825   -28.8111     7.5115     7.8288   118.1780
  401.5000     8.1381   101.6418     0.0149     0.1171     2.4555   -29.1008     7.1119     7.6183   130.0496
  402.0000     8.1243   105.5224     0.0150     0.1192     2.4509   -29.0933     6.1554     8.0550   133.9827
  402.5000     8.1262   107.1642     0.0157     0.1384     2.4275   -28.7886     6.0318     7.9402   140.7737
  403.0000     8.1123   111.3433     0.0158     0.1629     2.3610   -28.4839     6.1623     7.6764   155.0772
  403.5000     8.1142   114.1791     0.0128     0.2114     2.2559   -29.2193     6.1658     7.5767   174.6529
  404.0000     8.1003   118.8060    -0.0021     0.2485     2.1293   -28.9146     6.0846     7.4803   159.5704
  404.5000     8.1022   112.0896    -0.0223     0.1532     2.3834   -27.7184     6.0453     7.4840   157.9724
  405.0000     8.1544   104.5298    -0.0050     0.0196     2.6209   -27.1165     6.0071     7.4876   157.9011
  405.5000     9.9341   101.5480     0.0898     0.0624     2.6584   -27.1090     6.0113     7.5432   159.3108
  406.0000     8.2265    99.9156     0.1290     0.1010     2.5012   -26.0614     6.0983     7.6518   159.2176
  406.5000     8.0331    99.4825     0.0734     0.0944     2.5043   -25.7567  -999.2500     8.0903   159.1268
  407.0000     8.0192   100.8485     0.0502     0.0905     2.5171   -25.4520  -999.2500     8.6728   140.3095
  407.5000     7.9762   102.2104     0.0525     0.0894     2.5156   -24.8501  -999.2500     9.0441   116.9977
  408.0000     7.9473   100.3088     0.0556     0.0846     2.5157   -23.9510  -999.2500     9.2379   104.1728
  408.5000     7.9942    98.7736     0.0587     0.0859     2.5128   -23.3200  -999.2500     9.1160    95.8423
  409.0000     8.1906    97.7331     0.0610     0.0901     2.5188   -22.7251  -999.2500     9.2472    94.2761
  409.5000     8.4470    96.2430     0.0641     0.0793     2.5226   -22.4443  -999.2500     9.5767   101.6532
  410.0000     8.5684    86.2519     0.0672     0.0795     2.5137   -22.5953  -999.2500     9.9179    98.5662
  410.5000     8.5250    83.7198     0.0695     0.1056     2.4853   -22.8752  -999.2500    10.1304    89.4866
  411.0000     8.4216    82.0874     0.0673     0.1208     2.4447   -22.5705  -999.2500    10.2891    85.6505
  411.5000     8.3631    79.1056     0.0606     0.1520     2.4185   -21.5229    11.9232    10.5796    80.3163
  412.0000     8.3946    68.3277     0.0592     0.1939     2.3357   -20.1781    14.3755    10.8784    57.0045
  412.5000     8.7007    66.5453     0.0570     0.1894     2.3717   -20.3195    14.2834    11.1855    57.6855
  413.0000     8.7871    64.4630     0.0701     0.1651     2.3875   -20.1630    15.0024    11.4223    55.3248
  413.5000     8.7886    61.9310     0.0834     0.1803     2.2737   -19.5612    17.5954    11.6632    49.9905
  414.0000     8.7747    61.1939     0.0774     0.2405     2.1045   -19.1079    18.6033    11.7497    48.4016
  414.5000     8.7616    62.8639     0.0299     0.2234     2.2139   -18.3574    17.6951    11.7554    49.0826
  415.0000     8.7631    66.3289     0.0306     0.1437     2.3676   -17.6070    16.5339    11.7612    48.9888
  415.5000     8.7946    74.8913     0.0844     0.1580     2.3901   -17.7499    15.6738    11.7669    50.3991
  416.0000     8.8861    78.3522     0.1063     0.2569     2.1767   -15.8089    15.4783    11.8542    51.8451
  416.5000     8.9476    71.3266     0.0613     0.2768     2.1573   -15.2070    15.4894    11.8600    53.2138
  417.0000     9.0241    68.3420     0.0192     0.2972     2.2375   -14.9023    15.7132    11.9480    53.1230
  417.5000     9.0556    64.4606     0.0167     0.1957     2.3417   -14.8948    16.0521    11.9538    51.5341
  418.0000     9.1920    64.4773     0.0547     0.0872     2.5096   -14.7387    16.5120    12.0425    49.1961
  418.5000    10.3626    65.2436     0.1014     0.1255     2.4385   -14.7312    17.1027    12.1319    46.8581
  419.0000     9.2251    66.1599     0.0917     0.1360     2.4303   -14.8722    17.7145    12.2219    45.2692
  419.5000     9.2566    66.4764     0.0534     0.1156     2.4843   -14.8930    18.7322    12.3126    42.9312
  420.0000     9.2731    66.3432     0.0347     0.0730     2.5507   -15.1563    19.6721    12.3186    41.3423
  420.5000     9.2746    66.8097     0.0423     0.0442     2.5863   -15.2973    20.8023    12.3246    40.5024
  421.0000     9.2761    70.2747     0.0476     0.0409     2.5801   -15.4384    21.9975    12.3306    40.4116
