~VERSION INFORMATION
 VERS.                2.0:   CWLS LOG ASCII STANDARD - VERSION 2.0
 WRAP.                 NO:   ONE LINE PER DEPTH STEP
~WELL INFORMATION
#MNEM.UNIT      DATA TYPE    INFORMATION
#----------   ------------   ------------------------------
 STRT.F            3.0000:   START DEPTH
 STOP.F          604.0000:   STOP DEPTH
 STEP.F            0.5000:   STEP LENGTH
 NULL.          -999.2500:   NO VALUE
 COMP. BROWN JOHN E&C INC:   COMPANY
 WELL.    73-2 SX-3 #73-3:   WELL
 FLD .             TEAPOT:   FIELD
 LOC .       S3 T38N R78W:   LOCATION
 CNTY.            NATRONA:   COUNTY
 STAT.            WYOMING:   STATE
 CTRY. UNITED STATES OF AMERICA:   COUNTRY
 SRVC.     Atlas Wireline:   SERVICE COMPANY
 DATE.        13-APR-1992:   LOGDATE
 API .       490252251100:   API NUMBER
~CURVE INFORMATION
#MNEM.UNIT       API CODE    CURVE DESCRIPTION
#----------   ------------   ------------------------------
 DEPT.F                  :   
 GRR .GAPI   07 310 01 00:   GAMMA RAY
 RILD.OHMM   07 120 46 00:   INDUCTION LOG DEEP RESISTIVITY
 RILM.OHMM   07 120 44 00:   INDUCTION LOG MEDIUM RESISTIVITY
~PARAMETER INFORMATION
#MNEM.UNIT          VALUE    DESCRIPTION
#----------   ------------   ------------------------------
 PD  .                 GL:   PERMANENT DATUM
 EPD .F              5131:   ELEVATION PERMANENT DATUM
 LMF .                 KB:   LOG MEASURED FROM
 DAPD.F                 5:   FEET ABOVE PERMANENT DATUM
 DMF .                 KB:   DRILLING MEASURED FROM
 EKB .F              5136:   KELLING BUSHING
 EDF .F              5135:   DRILLING FLOOR
 EGL .F              5131:   GROUND LEVEL
 DATE.        13-APR-1992:   RUN DATE
 RUN .                  1:   RUN NUMBER
 DD  .F               610:   DEPTH DRILLER
 DL  .F               608:   DEPTH LOGGER
 BLI .F               605:   BOTTOM LOG INTERVAL
 TLI .F                 3:   TOP LOG INTERVAL
 CS  .IN            8.625:   CASING SIZE
 CBD .F                45:   CASING BOTTOM DRILLER
 CBL .F                50:   CASING BOTTOM LOGGER
 BS  .IN            7.875:   BIT SIZE
 BSD .F               610:   BIT SIZE AT DEPTH
 DFT .                AIR:   DRILLING FLUID TYPE
 LUN .           HL- 6272:   LOGGING UNIT NUMBER
 LUL .             CASPER:   LOGGING UNIT LOCATION
 ENGI.       P. RASHUSSEN:   RECORDING ENGINEER
 WITN.          G. STRONG:   WITNESSED BY
 CLNT.            A2DTECH:   CLIENT CODE
 ORIG.           5" PRINT:   ORIGIN OF DATA
 UWI .       490252251100:   UNIQUE WELL ID
 DICO. A2D Technologies, Inc.:   DIGITIZING COMPANY
~OTHER INFORMATION
~A    DEPT      GRR      RILD       RILM   
# ...
   94.0000   123.5146     6.0603     6.0327
   94.5000   125.6208     6.0144     6.0296
   95.0000   130.7573     6.0108     5.9422
   95.5000   136.4999     6.0067     5.9386
   96.0000   133.7379     6.0031     5.9355
   96.5000   126.7242     5.9996     5.9324
   97.0000   126.1519     5.9960     5.9293
   97.5000   128.2581     6.0352     6.0107
   98.0000   124.6986     6.1599     6.0505
   98.5000   120.9516     6.2420     6.1747
   99.0000   121.5427     6.3717     6.2595
   99.5000   124.2549     6.5033     6.4342
  100.0000   130.3005     6.5439     7.2203
  100.5000   129.0874     7.1569     7.7369
  101.0000   120.9027     7.5171     7.9518
  101.5000   111.2027     7.7310     7.7806
  102.0000   106.0482     6.8339     7.4034
  102.5000   107.5604     6.6890     7.1952
  103.0000   112.4060     6.5439     6.8476
  103.5000   117.2515     6.3632     6.6083
  104.0000   118.1576     5.9312     6.5579
  104.5000   118.1545     5.8871     6.4616
  105.0000   118.7570     5.8434     6.4124
  105.5000   120.2692     5.6402     6.4080
  106.0000   124.5086     5.5207     6.4037
  106.5000   129.3541     5.5180     6.3549
  107.0000   134.5027     5.5154     6.3506
  107.5000   134.8035     5.5514     6.3918
  108.0000   132.9816     5.6268     6.5215
  108.5000   129.3423     5.7835     6.6076
  109.0000   124.7939     6.0274     6.7439
  109.5000   120.5485     6.5511     6.8808
  110.0000   122.1419     6.9242     7.0708
  110.5000   124.1789     7.2170     7.2660
  111.0000   124.1752     7.4252     7.4147
  111.5000   124.4760     7.6960     7.5664
  112.0000   125.6844     7.6199     7.6688
  112.5000   127.4996     7.4065     7.5024
  113.0000   129.3148     7.2495     7.4973
  113.5000   129.9187     7.1456     7.3371
  114.0000   126.5816     6.9941     7.1802
  114.5000   125.9262     6.8939     7.0267
  115.0000   126.8991     6.6079     6.6408
  115.5000   124.1366     6.3641     6.3189
  116.0000   122.9333     6.2422     6.2707
  116.5000   126.5661     6.2392     6.4438
  117.0000   132.3207     6.1929     6.4867
  117.5000   134.4389     6.2341     6.4802
  118.0000   134.1329     6.2304     6.5668
  118.5000   132.0088     6.4487     6.7012
  119.0000   128.9755     6.6300     6.7919
  119.5000   126.2452     6.7720     6.7850
  120.0000   124.7271     6.9052     6.8303
  120.5000   123.2090     6.9011     6.8233
  121.0000   120.7818     6.8979     6.9641
  121.5000   121.1000     6.9429     7.0082
  122.0000   125.1512     6.9883     7.0525
  122.5000   129.8631     7.1328     7.1956
  123.0000   130.7699     7.2300     7.3416
  123.5000   128.6450     7.3279     7.4918
  124.0000   130.7633     7.5310     7.5933
  124.5000   130.4573     7.7406     7.6413
  125.0000   128.6361     7.7370     7.6896
  125.5000   125.6028     7.7333     7.6831
  126.0000   118.0241     7.6758     7.6245
  126.5000   111.3545     7.5129     7.5664
  127.0000   111.0485     7.4052     7.5600
  127.5000   112.6211     7.2482     7.3470
  128.0000   117.4055     6.9962     7.1411
  128.5000   124.3722     6.8959     6.9399
  129.0000   129.2177     6.7969     6.8870
  129.5000   131.6390     6.7457     6.8578
  130.0000   133.7572     6.7425     6.7341
  130.5000   134.0580     6.7393     6.7295
  131.0000   131.6301     6.7361     6.7250
  131.5000   128.8999     6.1787     6.7205
  132.0000   127.3817     5.8931     6.7159
  132.5000   126.4697     5.8903     6.5724
  133.0000   126.8019     6.0967     6.6365
  133.5000   128.2819     6.4891     6.7481
  134.0000   127.6721     6.8109     6.8383
  134.5000   127.9730     6.8555     6.8816
  135.0000   129.7874     6.8522     6.8769
  135.5000   131.6026     6.7970     6.8723
  136.0000   129.7815     6.7499     6.7725
  136.5000   127.6573     6.7467     6.7208
  137.0000   127.6544     6.7916     6.8578
  137.5000   129.4696     6.8359     6.9975
  138.0000   131.5878     6.8798     6.9928
  138.5000   134.0091     7.0222     7.0370
  139.0000   134.3092     7.2175     7.0323
  139.5000   133.2879     7.3195     7.0275
  140.0000   129.1510     7.4149     7.1215
  140.5000   129.7541     7.4105     7.2161
  141.0000   132.4784     7.3043     7.2611
  141.5000   133.3845     7.3529     7.4097
  142.0000   132.4732     7.4009     7.4565
  142.5000   133.9846     7.5005     7.6091
  143.0000   134.5885     7.6024     7.7108
  143.5000   134.5847     7.6554     7.8139
  144.0000   133.0666     7.8094     7.8077
  144.5000   130.9425     7.8057     7.9675
  145.0000   131.6262     7.8020     8.0179
  145.5000   136.0873     7.7983     8.0125
  146.0000   138.8116     7.7946     8.0631
  146.5000   138.8086     7.7909     8.1141
  147.0000   139.1087     7.7872     8.1647
  147.5000   139.4095     7.8408     8.1585
  148.0000   140.0126     7.9445     8.2101
  148.5000   140.9180     7.9964     8.2046
  149.0000   141.5212     8.1041     8.1990
  149.5000   142.1243     8.2141     8.2509
  150.0000   142.4243     8.2678     8.3612
  150.5000   141.7889     8.4388     8.4232
  151.0000   140.7981     8.4348     8.4853
  151.5000   137.8205     8.6437     8.6393
  152.0000   136.9930     8.7764     8.8777
  152.5000   137.2812     8.9033     9.0593
  153.0000   133.3036     9.0868     9.3093
  153.5000   132.0669     9.2266     9.4997
  154.0000   128.7024     9.5970     9.7619
  154.5000   127.4657     9.8634    10.0314
  155.0000   126.2289    10.2096    10.2715
  155.5000   123.4724    10.4200    10.4450
  156.0000   119.8040    10.4129    10.3653
  156.5000   114.0080    10.3348    10.2138
  157.0000   115.2028    10.1858    10.1358
  157.5000   127.0359     9.8998    10.0585
  158.0000   135.8296     9.6893     9.9123
  158.5000   131.2430     9.6166     9.7682
  159.0000   129.7082     9.4120     9.6263
  159.5000   130.2956     9.2118     9.2899
  160.0000   120.8469     9.1427     9.2189
  160.5000   122.3457     9.0740     9.0850
  161.0000   125.3642     9.0689     9.0156
  161.5000   127.4709     9.0629     9.0087
  162.0000   136.8724     9.0579     9.0658
  162.5000   139.5871     9.0529     9.1230
  163.0000   141.3898     9.0480     9.1168
  163.5000   141.3688     9.0430     9.1106
  164.0000   140.7400     9.0380     9.0403
  164.5000   139.1992     8.9078     8.8779
  165.0000   133.7072     8.7794     8.6570
  165.5000   130.6467     8.7746     8.7116
  166.0000   131.5380     8.7698     8.7057
  166.5000   133.9482     8.7650     8.6997
  167.0000   136.7110     8.7602     8.6938
  167.5000   140.3495     8.7553     8.6878
  168.0000   141.5319     8.7504     8.6819
  168.5000   139.9382     8.7455     8.6759
  169.0000   135.0540     8.6185     8.6700
  169.5000   133.8172     8.4943     8.6640
  170.0000   135.3160     8.6091     8.6581
  170.5000   142.2859     8.6658     8.6514
  171.0000   145.6084     8.6599     8.6455
  171.5000   143.4598     8.7169     8.6389
  172.0000   140.7033     8.7110     8.6330
  172.5000   141.8981     8.7062     8.6271
  173.0000   141.8772     8.6408     8.5612
  173.5000   141.5522     8.4571     8.3781
  174.0000   138.4918     8.3936     8.2564
  174.5000   138.7748     8.3890     8.1364
  175.0000   140.2736     8.2106     8.1308
  175.5000   142.3802     7.9762     7.9016
  176.0000   141.1429     7.5145     7.5724
  176.5000   142.0882     6.9313     7.2570
  177.0000   145.9595     6.8793     7.1509
  177.5000   148.3754     6.9247     7.1460
  178.0000   147.1334     7.0182     7.1905
  178.5000   149.5441     7.1130     7.2359
  179.0000   153.7784     7.2586     7.2310
  179.5000   151.9337     7.3566     7.4305
  180.0000   147.0496     7.5092     7.5825
  180.5000   145.8128     7.7166     7.7376
  181.0000   142.4484     7.9309     7.8410
  181.5000   136.9563     8.0943     8.0574
  182.0000   128.1207     8.2036     8.1650
  182.5000   127.4919     8.3144     8.2741
  183.0000   126.2551     8.2481     8.2684
  183.5000   124.3979     8.2474     8.2621
  184.0000   120.1338     8.2418     8.2564
  184.5000   121.3290     8.1800     8.1357
