~VERSION INFORMATION
 VERS.                2.0:   CWLS LOG ASCII STANDARD - VERSION 2.0
 WRAP.                 NO:   ONE LINE PER DEPTH STEP
~WELL INFORMATION
#MNEM.UNIT      DATA TYPE    INFORMATION
#----------   ------------   ------------------------------
 STRT.F           80.0000:   START DEPTH
 STOP.F          679.5000:   STOP DEPTH
 STEP.F            0.5000:   STEP LENGTH
 NULL.          -999.2500:   NO VALUE
 COMP. U S NAVY/INTEX OIL CO:   COMPANY
 WELL.      NPR 3 #23-S-2:   WELL
 FLD .        TEAPOT DOME:   FIELD
 LOC .       S2 T38N R78W:   LOCATION
 CNTY.            NATRONA:   COUNTY
 STAT.            WYOMING:   STATE
 CTRY. UNITED STATES OF AMERICA:   COUNTRY
 SRVC.       Schlumberger:   SERVICE COMPANY
 DATE.        16-JUL-1962:   LOGDATE
 API .       490250645000:   API NUMBER
~CURVE INFORMATION
#MNEM.UNIT       API CODE    CURVE DESCRIPTION
#----------   ------------   ------------------------------
 DEPT.F                  :   
 GR  .GAPI   30 310 01 00:   GAMMA RAY
 SPR .MV     05 010 01 00:   SPONTANEOUS POTENTIAL FROM RES.
 ILD .OHMM   05 120 46 00:   INDUCTION LOG DEEP
 CILD.MMHO   05 110 46 00:   CONDUCTIVITY INDUCTION LOG DEEP
 ASN .OHMM   05 041 16 00:   AMPLIFIED SHORT NORMAL 16"
~PARAMETER INFORMATION
#MNEM.UNIT          VALUE    DESCRIPTION
#----------   ------------   ------------------------------
 PD  .                 GL:   PERMANENT DATUM
 EPD .F              5126:   ELEVATION PERMANENT DATUM
 LMF .                 KB:   LOG MEASURED FROM
 DAPD.F                 5:   FEET ABOVE PERMANENT DATUM
 DMF .                 KB:   DRILLING MEASURED FROM
 EKB .F              5131:   KELLING BUSHING
 EGL .F              5126:   GROUND LEVEL
 DATE.            7-17-62:   RUN DATE
 RUN .                  1:   RUN NUMBER
 DD  .F               680:   DEPTH DRILLER
 DL  .F               680:   DEPTH LOGGER
 BLI .F               679:   BOTTOM LOG INTERVAL
 TLI .F                87:   TOP LOG INTERVAL
 BS  .IN             6.75:   BIT SIZE
 BSD .F               680:   BIT SIZE AT DEPTH
 DFT .       OIL EMULSION:   DRILLING FLUID TYPE
 DFD .                 10:   DRILLING FLUID DENSITY
 DFV .                 41:   DRILLING FLUID VISCOSITY
 DFL .                2.9:   DRILLING FLUID LOSS
 RMS .OHMM           5.86:   RESISTIVITY MUD SAMPLE
 MST .F                73:   MUD SAMPLE TEMPERATURE
 RMF .OHMM           4.19:   RESISTIVITY MUD FILTRATE SAMPLE
 MFST.F                73:   MUD FILTRATE SAMPLE TEMPERATURE
 RMC .OHMM           5.66:   RESISTIVITY MUD CAKE
 MCST.F                73:   MUD CAKE SAMPLE TEMPERATURE
 TCS .HRS               1:   TIME CURCULATED STOPPED
 LUN .               2503:   LOGGING UNIT NUMBER
 LUL .               CSPR:   LOGGING UNIT LOCATION
 ENGI.             DANNER:   RECORDING ENGINEER
 WITN.          JORGENSON:   WITNESSED BY
 CLNT.            A2DTECH:   CLIENT CODE
 ORIG.       2", 5" PRINT:   ORIGIN OF DATA
 UWI .       490250645000:   UNIQUE WELL ID
 DICO. A2D Technologies, Inc.:   DIGITIZING COMPANY
~OTHER INFORMATION
~A   DEPT       GR        SPR          ILD      CILD         ASN 
# ...
  446.0000   136.6395   -31.5624     7.8370   117.5000     7.8277
  446.5000   140.6502   -31.4991     7.8169   118.5996     7.7843
  447.0000   146.1050   -31.4902     7.7409   120.8524     7.7528
  447.5000   151.1933   -31.6640     7.5006   123.6076     7.6005
  448.0000   145.0701   -31.8253     7.2674   128.5857     7.3776
  448.5000   143.3596   -31.5557     6.9854   135.7429     7.1246
  449.0000   142.0213   -30.7542     6.6487   145.0120     6.7836
  449.5000   136.7615   -29.7694     6.2035   154.5310     6.3998
  450.0000   145.7001   -29.4183     5.7056   174.8534     6.0165
  450.5000   139.2767   -29.1474     5.2081   196.4001     5.6325
  451.0000   133.3424   -28.6768     4.7104   229.3667     5.2161
  451.5000   139.8390   -28.2866     4.2149   274.4667     4.7951
  452.0000   143.7425   -28.3860     3.7194   319.5667     4.3744
  452.5000   153.1375   -28.4887     3.2234   364.6667     3.9574
  453.0000   142.8815   -28.9329     2.7544   398.5667     3.6990
  453.5000   138.4228   -29.3959     2.6073   429.5000     3.4383
  454.0000   126.5382   -29.6616     2.4697   439.9500     3.2901
  454.5000   118.8472   -29.6624     2.5401   435.4250     3.2675
  455.0000   112.7124   -29.6624     2.6483   425.9000     3.3352
  455.5000   105.6030   -29.6583     2.7597   404.5333     3.4179
  456.0000   124.6922   -29.3481     2.9481   360.3836     3.5106
  456.5000   122.5484   -28.6660     3.4987   311.3031     3.7312
  457.0000   131.1783   -28.4849     4.0512   262.1635     4.2526
  457.5000   138.4101   -29.4291     4.6030   219.7899     4.8284
  458.0000   145.2997   -30.3544     5.2332   183.1778     5.2427
  458.5000   138.0168   -31.2477     5.7090   164.2000     5.6174
  459.0000   135.1733   -31.7636     6.0049   153.5000     5.9196
  459.5000   143.5874   -32.2525     6.1542   149.5000     6.0240
  460.0000   144.6005   -32.6210     6.1738   149.5000     6.1203
  460.5000   127.4325   -32.4587     6.1928   149.8450     6.1489
  461.0000   121.1673   -32.3098     6.2109   150.3400     6.1281
  461.5000   133.4855   -32.1617     6.2297   150.8350     6.1135
  462.0000   154.8714   -31.9699     6.2482   151.2354     6.1960
  462.5000   152.5846   -31.6049     6.1339   156.2328     6.2783
  463.0000   144.9938   -31.2409     5.9956   169.9872     6.2937
  463.5000   134.0500   -30.8792     5.6898   186.0000     6.1946
  464.0000   146.0327   -30.7469     5.0761   202.5000     5.9432
  464.5000   155.1135   -31.0049     4.7986   217.3750     5.4928
  465.0000   152.8725   -30.9704     4.6631   226.2143     5.0585
  465.5000   147.6561   -30.8701     4.5305   235.0536     4.9317
  466.0000   154.7951   -30.7673     4.3872   242.7455     4.9625
  466.5000   165.4171   -30.6640     4.2210   248.5954     4.7253
  467.0000   156.3896   -30.5577     4.1755   252.5400     4.5790
  467.5000   163.6771   -30.4722     4.2228   246.0000     4.7872
  468.0000   167.1960   -31.1419     4.3474   235.2091     5.0149
  468.5000   148.4665   -31.8748     4.6795   219.0091     5.1520
  469.0000   146.8769   -32.1641     4.9988   201.5000     5.1163
  469.5000   139.0154   -32.2426     5.3177   192.9688     5.3629
  470.0000   146.8508   -32.3224     5.6373   181.7000     5.7698
  470.5000   129.1310   -32.8996     5.9556   167.8636     6.1351
  471.0000   131.6022   -33.5033     6.2556   158.8636     6.3329
  471.5000   151.0736   -33.4218     6.4847   150.5000     6.6079
  472.0000   159.5341   -32.1104     6.7033   142.5500     6.9824
  472.5000   163.1760   -30.5463     6.9216   135.1250     7.2561
  473.0000   166.3442   -30.2776     7.1408   130.5000     7.4050
  473.5000   155.8366   -31.4577     7.3427   127.5022     7.4555
  474.0000   156.4992   -32.6031     7.2502   128.1407     7.4866
  474.5000   147.9830   -32.3918     7.1494   129.6498     7.4495
  475.0000   136.1265   -32.1582     7.0503   132.4147     7.3888
  475.5000   130.2137   -31.7977     6.9494   136.1818     7.3205
  476.0000   135.7693   -31.2994     6.8103   140.6818     7.2486
  476.5000   145.1721   -30.4828     6.6686   144.5571     7.0962
  477.0000   153.2516   -29.8419     6.5272   147.5000     6.9384
  477.5000   151.1455   -29.8775     6.3885   154.4423     6.7804
  478.0000   148.6682   -30.3337     6.1424   161.6769     6.6223
  478.5000   161.0117   -30.2574     5.8659   170.6250     6.4250
  479.0000   159.8602   -29.9757     5.5888   183.0000     6.1947
  479.5000   166.8125   -29.6864     5.3114   199.2800     5.9737
  480.0000   162.5412   -29.3983     5.0252   210.5000     5.6682
  480.5000   176.1663   -29.1091     4.9516   215.9563     5.3366
  481.0000   172.4772   -28.5596     4.9490   214.1000     5.1504
  481.5000   166.6515   -27.9710     4.9492   212.2437     5.2685
  482.0000   159.6836   -27.6898     4.9509   210.5000     5.4074
  482.5000   149.8388   -28.1606     4.9824   203.3409     5.3835
  483.0000   134.1301   -28.7264     5.1157   196.5909     5.5873
  483.5000   134.6010   -29.2990     5.4789   185.8167     6.3233
  484.0000   138.1961   -29.8692     5.8677   166.0000     6.5959
  484.5000   143.3150   -30.4456     6.2617   151.4167     6.8469
  485.0000   146.4528   -30.5576     6.6345   144.5447     6.9510
  485.5000   143.4147   -30.4072     6.8503   139.5639     7.0526
  486.0000   155.5630   -30.2491     7.0588   136.8993     7.1591
  486.5000   154.5895   -30.6583     7.0637   135.8795     7.2679
  487.0000   156.6717   -31.1434     7.0749   134.8647     7.3259
  487.5000   157.8133   -31.4280     7.0867   133.8456     7.4024
  488.0000   159.2299   -31.3839     7.0981   132.8265     7.4945
  488.5000   149.1817   -31.3415     7.1097   131.8073     7.5872
  489.0000   142.9074   -31.2975     7.1212   130.7882     7.6657
  489.5000   144.5569   -31.2423     7.1326   130.9260     7.7092
  490.0000   154.5511   -30.8892     7.1441   131.5200     7.7042
  490.5000   157.6207   -30.6867     7.1441   132.1140     7.6984
  491.0000   154.8039   -30.8864     7.1323   132.7080     7.6927
  491.5000   149.6671   -31.0241     7.1206   133.3020     7.6606
  492.0000   160.7354   -30.8116     7.1088   134.1600     7.5986
  492.5000   158.0899   -30.6048     7.0970   135.1500     7.5369
  493.0000   153.0980   -30.3997     7.0852   135.5000     7.4750
  493.5000   156.3072   -30.1957     7.0735   135.5000     7.4126
  494.0000   158.8042   -30.0531     7.0618   135.2786     7.3903
  494.5000   166.5805   -29.9237     7.0505   134.9250     7.3900
  495.0000   160.5258   -29.4860     7.0494   134.5714     7.3899
  495.5000   149.6386   -29.8881     6.9638   138.4500     7.3688
  496.0000   157.6405   -30.3442     6.7404   143.5000     7.3084
  496.5000   160.3685   -30.5882     6.3985   156.4541     7.1527
  497.0000   155.8311   -30.3226     5.9738   169.6610     6.9486
  497.5000   158.9122   -30.0725     5.5451   179.9184     6.6511
  498.0000   163.1299   -30.2595     5.3432   187.8221     6.1782
  498.5000   158.5374   -30.4181     5.2800   191.7650     5.7529
  499.0000   167.3740   -30.1219     5.2498   192.2600     5.9571
  499.5000   168.0092   -29.8188     5.2487   193.3557     5.7820
  500.0000   164.6148   -30.0351     5.3010   195.0168     5.4736
  500.5000   150.2967   -30.7624     5.3725   195.8618     5.4827
  501.0000   153.0936   -31.4886     5.4441   189.9055     5.9957
  501.5000   141.0004   -31.7419     5.5159   183.5000     6.2922
  502.0000   133.2093   -30.9534     5.5297   183.5000     6.2894
  502.5000   141.8134   -30.3914     5.4928   187.2000     6.1608
  503.0000   148.8214   -31.3802     5.4557   191.0771     5.9244
  503.5000   148.2270   -32.2644     5.4182   188.1971     5.6851
  504.0000   176.5834   -31.4363     5.3808   185.3171     5.5743
  504.5000   170.4054   -30.3647     5.3470   184.2971     5.8519
  505.0000   168.3374   -29.6871     5.4068   186.5000     5.8142
  505.5000   170.8782   -29.7986     5.5627   183.2067     5.6870
  506.0000   163.9302   -29.8978     5.8626   177.8540     6.0192
  506.5000   149.3951   -29.9976     6.1607   164.2460     6.4577
