~VERSION INFORMATION
 VERS.                2.0:   CWLS LOG ASCII STANDARD - VERSION 2.0
 WRAP.                 NO:   ONE LINE PER DEPTH STEP
~WELL INFORMATION
#MNEM.UNIT      DATA TYPE    INFORMATION
#----------   ------------   ------------------------------
 STRT.F            0.0000:   START DEPTH
 STOP.F          883.0000:   STOP DEPTH
 STEP.F            0.5000:   STEP LENGTH
 NULL.          -999.2500:   NO VALUE
 COMP.       F D SERV INC:   COMPANY
 WELL. N P R 3 SX-35 #26-1-35:   WELL
 FLD .             TEAPOT:   FIELD
 LOC .      S35 T39N R78W:   LOCATION
 CNTY.            NATRONA:   COUNTY
 STAT.            WYOMING:   STATE
 CTRY. UNITED STATES OF AMERICA:   COUNTRY
 SRVC.     Atlas Wireline:   SERVICE COMPANY
 DATE.        21-NOV-1991:   LOGDATE
 API .       490252247800:   API NUMBER
~CURVE INFORMATION
#MNEM.UNIT       API CODE    CURVE DESCRIPTION
#----------   ------------   ------------------------------
 DEPT.F                  :   
 GRR .GAPI   07 310 01 00:   GAMMA RAY
 RILD.OHMM   07 120 46 00:   INDUCTION LOG DEEP RESISTIVITY
 RILM.OHMM   07 120 44 00:   INDUCTION LOG MEDIUM RESISTIVITY
 SPR .MV     07 010 01 00:   SPONTANEOUS POTENTIAL
 RFOC.OHMM   07 270 04 00:   RESISTIVITY FOCUSED LOG
~PARAMETER INFORMATION
#MNEM.UNIT          VALUE    DESCRIPTION
#----------   ------------   ------------------------------
 PD  .                 GL:   PERMANENT DATUM
 EPD .F              5098:   ELEVATION PERMANENT DATUM
 LMF .                 KB:   LOG MEASURED FROM
 DAPD.F                10:   FEET ABOVE PERMANENT DATUM
 DMF .                 KB:   DRILLING MEASURED FROM
 EKB .F              5108:   KELLING BUSHING
 EGL .F              5098:   GROUND LEVEL
 DATE.        21-NOV-1991:   RUN DATE
 RUN .                  1:   RUN NUMBER
 DD  .F               939:   DEPTH DRILLER
 DL  .F               887:   DEPTH LOGGER
 BLI .F               884:   BOTTOM LOG INTERVAL
 CS  .IN            9.625:   CASING SIZE
 CBD .F                40:   CASING BOTTOM DRILLER
 CBL .F                47:   CASING BOTTOM LOGGER
 BS  .IN             8.75:   BIT SIZE
 BSD .F               939:   BIT SIZE AT DEPTH
 DFT .               LSND:   DRILLING FLUID TYPE
 MSS .            MUDTANK:   MUD SAMPLE SOURCE
 RMS .OHMM           0.32:   RESISTIVITY MUD SAMPLE
 MST .F                90:   MUD SAMPLE TEMPERATURE
 RMB .OHMM           0.27:   RESISTIVITY MUD AT BHT
 BHT .F               103:   BOTTOM HOLE TEMPERATURE
 TCS .HRS               2:   TIME CURCULATED STOPPED
 MRT .F               103:   MAXIMUM RECORDED TEMPERATURE
 LUN .            HL 6307:   LOGGING UNIT NUMBER
 LUL .             CASPER:   LOGGING UNIT LOCATION
 ENGI.            WADDELL:   RECORDING ENGINEER
 WITN.             STRONG:   WITNESSED BY
 CLNT.            A2DTECH:   CLIENT CODE
 ORIG.           5" PRINT:   ORIGIN OF DATA
 UWI .       490252247800:   UNIQUE WELL ID
 DICO. A2D Technologies, Inc.:   DIGITIZING COMPANY
~OTHER INFORMATION
~A    DEPT      GRR      RILD       RILM        SPR       RFOC   
# ...
  732.0000   122.7222     5.1353     5.1226   -53.3182     6.2886
  732.5000   122.2306     5.2790     5.2662   -53.2010     6.3310
  733.0000   120.6439     5.3890     5.3017   -52.9049     6.3741
  733.5000   120.1788     5.4249     5.2999   -52.7575     6.3719
  734.0000   123.8042     5.4226     5.2985   -52.4613     6.3702
  734.5000   130.3919     5.4592     5.3345   -52.3155     6.3241
  735.0000   133.1101     5.4956     5.3705   -52.1710     6.3223
  735.5000   132.4141     5.5710     5.4066   -52.1769     6.3650
  736.0000   130.5799     5.6866     5.4427   -52.3345     6.4976
  736.5000   131.0220     5.6451     5.4033   -52.4921     6.5878
  737.0000   131.0055     5.5649     5.3639   -52.9532     6.7251
  737.5000   129.6266     5.5178     5.2881   -53.4143     6.6764
  738.0000   127.3372     5.4836     5.2134   -53.8978     6.6281
  738.5000   128.0069     5.5206     5.2119   -54.4897     6.4889
  739.0000   130.0422     5.5574     5.2105   -54.9507     6.4356
  739.5000   131.6357     5.6731     5.1729   -55.1083     6.2622
  740.0000   131.3783     5.7506     5.2442   -55.2659     6.1307
  740.5000   127.2679     5.7486     5.5105   -55.1201     6.1720
  741.0000   122.7024     5.7466     5.6991   -55.1259     6.3010
  741.5000   117.4540     5.6645     5.8186   -54.6780     6.4332
  742.0000   113.1161     5.3550     5.7761   -54.2286     6.6133
  742.5000   115.3790     4.8546     5.1282   -53.6275     6.8995
  743.0000   119.0439     4.4629     4.5213   -53.3284     7.3397
  743.5000   122.6331     4.1028     3.8494   -52.8805     7.3897
  744.0000   125.3513     3.9607     3.2743   -52.7344     6.4687
  744.5000   126.2486     3.9906     3.1863   -52.5887     4.6241
  745.0000   126.9216     4.0983     3.3684   -52.5960     3.2824
  745.5000   125.5394     4.3323     3.1622   -52.7536     3.1689
  746.0000   123.0224     4.6766     3.3429   -52.9112     3.8259
  746.5000   119.3538     4.9092     4.0354   -53.0688     6.2873
  747.0000   117.0047     5.2625     4.6067   -53.3782     7.4785
  747.5000   114.3300     5.5629     5.2589   -53.8392     7.7423
  748.0000   111.5854     5.9306     5.7787   -54.6282     7.6863
  748.5000   109.5237     6.2594     6.1288   -55.8251     7.6842
  749.0000   108.3724     6.4796     6.0418   -56.5897     7.5755
  749.5000   108.5868     6.6151     5.9149   -56.8990     7.5735
  750.0000   111.5326     6.5663     5.9969   -56.9049     7.5714
  750.5000   114.3460     6.6100     5.9949   -56.7575     7.5693
  751.0000   115.8310     6.7008     6.2062   -56.4613     7.5668
  751.5000   115.8145     6.7968     6.3862   -55.8442     7.5648
  752.0000   115.5737     7.0311     6.7918   -55.2606     7.6158
  752.5000   114.8776     7.2784     7.2304   -54.6580     7.6137
  753.0000   113.0435     7.5873     7.6973   -53.9066     7.7729
  753.5000   107.5675     8.1333     8.0244   -53.1537     8.4505
  754.0000    96.1373     8.6579     7.7470   -51.9580     9.6560
  754.5000    82.2722     9.0253     7.4792   -50.9031    10.3806
  755.0000    78.6171     9.0855     7.2712   -49.5347    10.9344
  755.5000    76.1002     9.0817     7.1684   -48.1608    10.8553
  756.0000    74.4936     9.2708     7.0174   -47.1333     8.9863
  756.5000    73.3424     9.3334     6.9183   -46.6854     8.0899
  757.0000    73.3292     9.0725     6.8683   -46.5392     7.8018
  757.5000    78.6875     8.8814     6.9150   -46.0931     7.8844
  758.0000    82.6318     8.8784     6.8570   -45.6452     8.3916
  758.5000    81.4805     9.0662     6.8026   -45.3490     8.8693
  759.0000    72.1350     9.1237     6.6166   -44.8821     9.1157
  759.5000    63.6999     9.1838     6.5683   -44.4532     9.0471
  760.0000    61.4106     9.1807     6.5661   -44.0971     8.6699
  760.5000    60.2593     9.1776     6.6104   -43.5593     8.1940
  761.0000    61.6842     9.1745     6.6172   -43.1114     8.0196
  761.5000    64.7820     9.1076     6.6983   -42.6635     8.1851
  762.0000    64.9997     9.1045     6.7429   -42.0638     8.3550
  762.5000    64.5279     9.1108     6.7406   -41.7552     8.4680
  763.0000    64.0595     9.3429     6.6439   -41.0181     8.6093
  763.5000    63.7739     9.5371     6.5963   -40.4185     8.6974
  764.0000    65.8269     9.7304     6.6398   -39.9687     8.7536
  764.5000    68.8694     9.7946     6.6846   -39.7341     8.6190
  765.0000    72.6056     9.7896     6.7292   -39.5599     8.5626
  765.5000    72.5834     9.7856     6.7740   -39.4219     8.7993
  766.0000    73.9269     9.7816     6.7240   -39.4355     8.9195
  766.5000    75.4981     9.7780     6.7217   -39.2968     8.9772
  767.0000    76.8472     9.7736     6.6727   -39.0099     8.9086
  767.5000    74.5433     9.8381     6.7171   -38.4163     8.8417
  768.0000    67.4650     9.8341     6.8118   -37.5191     8.7754
  768.5000    65.6219     9.8300     6.9102   -36.6219     8.5886
  769.0000    67.2290     9.8259     7.0458   -35.8765     8.4058
  769.5000    70.6935     9.8298     6.8974   -35.7375     8.5916
  770.0000    73.2888     9.7487     6.7051   -35.5994     9.1299
  770.5000    73.7274     9.4103     6.5639   -35.9226     9.0614
  771.0000    73.6997     9.2115     6.4707   -36.2337     8.7455
  771.5000    75.9537     9.4685     6.2465   -36.2498     8.2655
  772.0000    80.9391     9.7328     6.5116   -36.1081     7.7574
  772.5000    77.9579     9.9347     6.9316   -36.7317     7.4348
  773.0000    74.0663    10.0703     7.2851   -37.2002     7.2766
  773.5000    73.8165    10.1368     7.6911   -37.8205     8.1900
  774.0000    78.0277    10.1230     7.9623   -39.1995     9.2827
  774.5000    83.3265    10.0570     7.7940   -42.2477    11.2263
  775.0000    87.6291    10.1942     7.7371   -45.4476    11.4353
  775.5000    88.5229    10.1901     7.9535   -46.9950    10.8820
  776.0000    86.6743     9.9747     8.2910   -48.6642    10.5762
  776.5000    85.0643     9.9013     8.3470   -49.7397    10.4237
  777.0000    86.4023     9.8972     8.1705   -50.8153    10.1309
  777.5000    88.6563     9.6207     7.9418   -52.3460     9.8462
  778.0000    89.5446     9.2868     7.7148   -53.4215     9.7043
  778.5000    88.5934     9.1521     7.2987   -54.1936     9.6990
  779.0000    85.1700     9.0151     7.2461   -54.6621     9.6937
  779.5000    81.9612     8.9562     7.6591   -55.1306     9.7576
  780.0000    80.1181     8.9526     8.1531   -54.5271     9.8284
  780.5000    79.6407     8.9489     8.5586   -53.7658     9.9522
  781.0000    80.5290     8.9453     8.6768   -53.0494     9.9454
  781.5000    80.9620     8.9416     8.0881   -52.6075     9.9400
  782.0000    80.7122     9.0637     7.9732   -52.1656     9.7966
  782.5000    80.2348     9.5138     8.0292   -51.7236     9.7231
  783.0000    79.5205    10.0563     8.2686   -51.2817     9.8546
  783.5000    78.8240    10.5607     9.0944   -50.9882    10.1994
  784.0000    79.4799    11.0902     9.7488   -51.0048    10.7800
  784.5000    79.9185    11.5481    10.3776   -51.0182    11.1574
  785.0000    79.4356    11.7058    10.7427   -51.5073    11.3952
  785.5000    78.7306    11.6196    10.7390   -52.1103    12.6372
  786.0000    77.3427    11.6148    10.2949   -52.2753    15.3600
  786.5000    78.9138    11.6101     9.3329   -51.9851    18.2821
  787.0000    81.3955    11.5246     8.5201   -51.6949    20.0125
  787.5000    84.1047    11.2810     8.0497   -51.2530    15.6597
  788.0000    87.4380    10.8895     8.2791   -51.1112    11.6703
  788.5000    92.7043    10.3587     8.5711   -50.9757    10.0017
  789.0000    93.1429     9.7713     8.3314   -50.8377     9.7207
  789.5000    91.0666     9.1331     8.1559   -50.5475     9.7154
  790.0000    89.2235     8.9401     8.0401   -50.2606     9.7100
  790.5000    90.5671     8.8742     7.9814   -49.9671     9.7729
  791.0000    91.2333     8.8876     7.9232   -49.5285     9.8361
  791.5000    89.6122     8.9926     7.9205   -49.2350     9.8996
  792.0000    87.5415     8.9880     7.8080   -48.7931     9.8929
  792.5000    85.9105     9.0475     7.8053   -48.3545     9.8186
