~VERSION INFORMATION
 VERS.                2.0:   CWLS LOG ASCII STANDARD - VERSION 2.0
 WRAP.                 NO:   ONE LINE PER DEPTH STEP
~WELL INFORMATION
#MNEM.UNIT      DATA TYPE    INFORMATION
#----------   ------------   ------------------------------
 STRT.F           38.0000:   START DEPTH
 STOP.F          517.0000:   STOP DEPTH
 STEP.F            0.5000:   STEP LENGTH
 NULL.          -999.2500:   NO VALUE
 COMP. FENIX & SCISSON U.S. NAVY:   COMPANY
 WELL.     NPR 3 #88 S -3:   WELL
 FLD .             TEAPOT:   FIELD
 LOC .       S3 T38N R78W:   LOCATION
 CNTY.            NATRONA:   COUNTY
 STAT.            WYOMING:   STATE
 CTRY. UNITED STATES OF AMERICA:   COUNTRY
 SRVC.              Welex:   SERVICE COMPANY
 DATE.        10-APR-1977:   LOGDATE
 API .       490251033000:   API NUMBER
~CURVE INFORMATION
#MNEM.UNIT       API CODE    CURVE DESCRIPTION
#----------   ------------   ------------------------------
 DEPT.F                  :   
 GRD .GAPI   45 310 01 00:   GAMMA RAY FROM DENSITY LOG
 CALD.IN     45 280 60 00:   CALIPER FROM DENSITY LOG
 CORR.G/C3   45 356 01 00:   DENSITY CORRECTION
 RHOB.G/C3   45 350 01 00:   BULK DENSITY
 DPHI.DEC    45 890 12 00:   DENSITY POROSITY SANDSTONE
 SPR .MV     07 010 01 00:   SPONTANEOUS POTENTIAL
 ILD .OHMM   07 120 46 00:   INDUCTION LOG DEEP
 ILM .OHMM   07 120 44 00:   INDUCTION LOG MEDIUM
 SGRD.OHMM   07 221 05 00:   SHALLOW SHORT GUARD RESISTIVITY
~PARAMETER INFORMATION
#MNEM.UNIT          VALUE    DESCRIPTION
#----------   ------------   ------------------------------
 PD  .                 GL:   PERMANENT DATUM
 EPD .F              5120:   ELEVATION PERMANENT DATUM
 LMF .                 GL:   LOG MEASURED FROM
 DMF .                 GL:   DRILLING MEASURED FROM
 EGL .F              5120:   GROUND LEVEL
 DATE.        10-APR-1977:   RUN DATE
 RUN .                  1:   RUN NUMBER
 DD  .F               520:   DEPTH DRILLER
 DL  .F               519:   DEPTH LOGGER
 BLI .F               517:   BOTTOM LOG INTERVAL
 TLI .F                40:   TOP LOG INTERVAL
 CS  .IN            8.625:   CASING SIZE
 CBD .F                40:   CASING BOTTOM DRILLER
 CBL .F                42:   CASING BOTTOM LOGGER
 BS  .IN            7.875:   BIT SIZE
 BSD .F               520:   BIT SIZE AT DEPTH
 DFT .           KCL- GEL:   DRILLING FLUID TYPE
 DFD .                8.8:   DRILLING FLUID DENSITY
 DFV .                 38:   DRILLING FLUID VISCOSITY
 DFPH.                8.0:   DRILLING FLUID PH
 DFL .                6.4:   DRILLING FLUID LOSS
 MSS .            MUD PIT:   MUD SAMPLE SOURCE
 RMS .OHMM            .28:   RESISTIVITY MUD SAMPLE
 MST .F                55:   MUD SAMPLE TEMPERATURE
 RMF .OHMM            .23:   RESISTIVITY MUD FILTRATE SAMPLE
 MFST.F                55:   MUD FILTRATE SAMPLE TEMPERATURE
 RMC .OHMM            .32:   RESISTIVITY MUD CAKE
 MCST.F                55:   MUD CAKE SAMPLE TEMPERATURE
 MFSS.               MEAS:   MUD FILTRATE SAMPLE SOURCE
 MCSS.               MEAS:   MUD CAKE SAMPLE SOURCE
 RMB .OHMM            .24:   RESISTIVITY MUD AT BHT
 BHT .F                65:   BOTTOM HOLE TEMPERATURE
 TCS .HRS            0300:   TIME CURCULATED STOPPED
 MRT .F                65:   MAXIMUM RECORDED TEMPERATURE
 LUN .               0716:   LOGGING UNIT NUMBER
 LUL .             VERNAL:   LOGGING UNIT LOCATION
 ENGI.        E. CALLAHAN:   RECORDING ENGINEER
 WITN.            R. LYON:   WITNESSED BY
 CLNT.            A2DTECH:   CLIENT CODE
 ORIG.           5" PRINT:   ORIGIN OF DATA
 UWI .       490251033000:   UNIQUE WELL ID
 DICO. A2D Technologies, Inc.:   DIGITIZING COMPANY
~OTHER INFORMATION
~A   DEPT       GRD        CALD     CORR         RHOB     DPHI        SPR        ILD        ILM       SGRD   
# ...
  293.5000   141.4424     7.9397     0.0033     2.4704     0.1051   -34.8568     7.3825     7.6978    12.4829
  294.0000   142.9452     7.9410     0.0049     2.4772     0.1042   -35.1760     7.3763     7.7453    12.2918
  294.5000   143.5538     7.9422     0.0111     2.4870     0.0933   -35.3445     7.4218     7.7930    12.1948
  295.0000   141.9269     7.9433     0.0187     2.4953     0.0891   -35.3625     7.4675     7.8409    12.3651
  295.5000   140.5980     7.9444     0.0234     2.5014     0.0873   -35.3805     7.5661     7.8344    12.6029
  296.0000   139.7163     7.9456     0.0250     2.5045     0.0891   -35.3984     7.6660     7.8170    12.1588
  296.5000   139.2817     7.9468     0.0207     2.5015     0.0920   -35.4164     7.7671     7.7892    12.2325
  297.0000   138.9961     7.9479     0.0133     2.4971     0.0953   -35.2832     7.8231     7.7601    12.3922
  297.5000   139.0085     7.9342     0.0105     2.4919     0.0977   -35.3017     7.9182     7.6463    12.5510
  298.0000   139.3191     7.9354     0.0061     2.4836     0.1004   -35.0181     7.9099     7.6400    12.7149
  298.5000   140.0767     7.9366     0.0048     2.4784     0.1058   -34.5847     7.9603     7.7410    12.8809
  299.0000   138.4498     7.9378     0.0049     2.4732     0.1090   -34.1508     7.9521     7.8979    12.6902
  299.5000   136.5249     7.9390     0.0066     2.4695     0.1090   -33.7170     7.9455     8.0581    12.3292
  300.0000   135.3451     7.9402     0.0082     2.4689     0.1077   -33.5843     7.9680     8.1078    11.9807
  300.5000   134.3143     7.9320     0.0109     2.4726     0.1051   -32.9969     8.0454     8.2154    11.8886
  301.0000   133.4326     7.9274     0.0114     2.4855     0.1015   -33.0174     8.0391     8.2090    11.8005
  301.5000   132.4018     7.9135     0.0131     2.4780     0.1017   -33.0338     8.0330     8.2028    12.2951
  302.0000   131.2221     7.9145     0.0132     2.4728     0.1053   -33.0502     7.9699     8.1965    12.9923
  302.5000   130.1913     7.9156     0.0148     2.4781     0.1041   -33.0666     7.9085     8.0756    13.7291
  303.0000   129.7567     7.9166     0.0164     2.4797     0.1014   -33.2336     7.7390     7.8475    13.9154
  303.5000   129.7691     7.9177     0.0195     2.4737     0.1064   -33.4006     7.5730     7.5203    13.9047
  304.0000   130.0797     7.9038     0.0211     2.4636     0.1151   -34.0194     7.2573     7.1069    13.8960
  304.5000   130.2411     7.9048     0.0242     2.4475     0.1217   -34.3370     6.9547     6.6696    13.7910
  305.0000   130.4026     7.8910     0.0168     2.4321     0.1268   -34.5040     6.4814     6.1297    12.7649
  305.5000   130.4151     7.8920     0.0079     2.4116     0.1373   -34.6710     5.3279     5.7125    10.3492
  306.0000   130.4276     7.8931     0.0035     2.4014     0.1466   -34.6873     4.8635     5.6291     5.8799
  306.5000   129.3968     7.8941     0.0021     2.4278     0.1249   -34.8543     5.3571     5.7839     4.9363
  307.0000   128.3661     7.8802     0.0067     2.4718     0.1084   -35.0213     5.5817     6.4167     8.5846
  307.5000   127.3353     7.8514     0.0098     2.4865     0.0999   -35.0377     5.7352     6.5932    15.0434
  308.0000   126.9007     7.7629     0.0144     2.4949     0.0924   -35.0542     6.0175     7.0640    15.0336
  308.5000   126.7641     7.7043     0.0220     2.5013     0.0867   -35.0708     6.4024     8.1148    15.4473
  309.0000   126.6275     7.8247     0.0251     2.5066     0.0858   -34.9197     7.1078     8.7550    15.9854
  309.5000   126.6400     7.8855     0.0252     2.5043     0.0878   -34.5009     7.7876     9.0590    16.0897
  310.0000   126.5034     7.8865     0.0238     2.4973     0.0914   -34.3666     8.5770     9.0519    16.0773
  310.5000   126.3669     7.8875     0.0239     2.4910     0.0950   -34.0859     8.9826     9.3659    16.0673
  311.0000   125.1871     7.8886     0.0240     2.4843     0.0998   -34.1023     8.9741     9.9649    16.2829
  311.5000   123.7092     7.9046     0.0271     2.4742     0.1073   -33.9640     9.0932     9.8880    16.6193
  312.0000   123.1256     7.9056     0.0318     2.4577     0.1165   -33.8298     9.4087     9.9579    15.7056
  312.5000   123.5851     7.9067     0.0364     2.4513     0.1195   -33.3985     9.6675    10.1639    15.4785
  313.0000   124.1937     7.9077     0.0395     2.4450     0.1222   -33.1137    10.0029    10.7246    15.4689
  313.5000   124.8023     7.9087     0.0411     2.4360     0.1294   -32.8247    10.6426    11.7332    15.4593
  314.0000   123.7715     7.9098     0.0427     2.4162     0.1396   -32.6905    11.6435    12.9265    15.7763
  314.5000   122.8898     7.8959     0.0458     2.4057     0.1486   -32.4057    12.8276    15.3763    18.5089
  315.0000   123.4984     7.8970     0.0504     2.3953     0.1536   -32.2715    14.8391    16.1331    24.1088
  315.5000   124.4050     7.8383     0.0535     2.3886     0.1572   -32.2920    15.8986    17.5277    36.1020
  316.0000   124.1194     7.7647     0.0551     2.3826     0.1593   -32.4590    17.6380    20.1352    42.1698
  316.5000   122.9381     7.7508     0.0567     2.3762     0.1638   -32.7766    19.1627    24.2875    52.0908
  317.0000   121.9818     7.8116     0.0568     2.3561     0.1731   -32.9436    20.3883    33.4458    57.0918
  317.5000   121.4727     7.8425     0.0494     2.3177     0.1859   -33.1106    21.3919    34.3722    42.5658
  318.0000   121.3362     7.8435     0.0300     2.2961     0.2054   -32.9763    22.2950    31.5834    37.0026
  318.5000   121.1996     7.8446     0.0196     2.2844     0.2228   -32.9927    23.0930    31.7803    39.3745
  319.0000   121.3611     7.8456     0.0227     2.2721     0.2258   -33.0091    23.6965    32.6543    42.1916
  319.5000   121.6716     7.8467     0.0288     2.2831     0.2195   -33.0255    23.6741    32.8590    45.8451
  320.0000   121.3114     7.8477     0.0319     2.2917     0.2159   -32.8913    23.6562    31.2690    51.9432
  320.5000   120.8024     7.8488     0.0320     2.2884     0.2155   -32.7571    23.4741    26.8021    38.1968
  321.0000   121.4109     7.8498     0.0276     2.2794     0.2203   -32.6004    23.1315    24.9781    35.8514
  321.5000   122.6156     7.8658     0.0233     2.2727     0.2248   -32.1915    23.1140    24.9592    36.0799
  322.0000   123.9694     7.8519     0.0204     2.2683     0.2281   -31.9026    23.0965    22.7210    39.7547
  322.5000   125.0250     7.8529     0.0190     2.2706     0.2253   -31.7684    22.7595    22.4467    43.8038
  323.0000   125.7082     7.8391     0.0251     2.2857     0.2190   -31.4836    22.9014    29.0898    44.7089
  323.5000   125.8696     7.8401     0.0327     2.3015     0.2085   -31.3535    23.3678    29.2118    48.2354
  324.0000   125.0609     7.8411     0.0373     2.3121     0.2046   -31.3699    23.6825    30.0095    56.5902
  324.5000   123.4340     7.8273     0.0254     2.2978     0.2099   -31.3863    23.9969    32.1521    62.7903
  325.0000   120.7639     7.8283     0.0195     2.2829     0.2180   -31.4027    24.6523    35.9193    55.7375
  325.5000   117.6467     7.8294     0.0166     2.2641     0.2291   -31.4190    24.8065    39.0243    54.5500
  326.0000   113.9334     7.8453     0.0182     2.2672     0.2294   -31.7366    25.1353    40.6683    62.7666
  326.5000   112.1575     7.8464     0.0243     2.3048     0.2083   -31.9036    25.1163    38.1586    59.8029
  327.0000   111.5738     7.8474     0.0319     2.3229     0.1969   -31.9200    25.2729    38.1297    50.7817
  327.5000   110.9902     7.8485     0.0395     2.3252     0.1948   -31.7817    25.0778    37.5732    63.4260
  328.0000   109.5123     7.8197     0.0441     2.3162     0.2008   -31.8022    24.8545    34.7729    55.9106
  328.5000   107.7364     7.8207     0.0442     2.3020     0.2082   -31.6639    24.6890    34.0337    51.7508
  329.0000   106.2585     7.8218     0.0398     2.2908     0.2154   -31.5332    24.6703    35.7089    50.6483
  329.5000   104.1846     7.8079     0.0339     2.2788     0.2190   -31.3990    24.6517    34.6939    51.3277
