~VERSION INFORMATION
 VERS.                2.0:   CWLS LOG ASCII STANDARD - VERSION 2.0
 WRAP.                 NO:   ONE LINE PER DEPTH STEP
~WELL INFORMATION
#MNEM.UNIT      DATA TYPE    INFORMATION
#----------   ------------   ------------------------------
 STRT.F           80.0000:   START DEPTH
 STOP.F         1056.0000:   STOP DEPTH
 STEP.F            0.5000:   STEP LENGTH
 NULL.          -999.2500:   NO VALUE
 COMP. U S NAVY-INTEX OIL:   COMPANY
 WELL.      NPR 3 #68-S-2:   WELL
 FLD .        TEAPOT DOME:   FIELD
 LOC .       S2 T38N R78W:   LOCATION
 CNTY.            NATRONA:   COUNTY
 STAT.            WYOMING:   STATE
 CTRY. UNITED STATES OF AMERICA:   COUNTRY
 SRVC.       Schlumberger:   SERVICE COMPANY
 DATE.        21-JUL-1964:   LOGDATE
 API .       490250638800:   API NUMBER
~CURVE INFORMATION
#MNEM.UNIT       API CODE    CURVE DESCRIPTION
#----------   ------------   ------------------------------
 DEPT.F                  :   
 SPR .MV     05 010 01 00:   SPONTANEOUS POTENTIAL FROM RES.
 ASN .OHMM   05 041 16 00:   AMPLIFIED SHORT NORMAL 16"
 ILD .OHMM   05 120 46 00:   INDUCTION LOG DEEP
 CILD.MMHO   05 110 46 00:   CONDUCTIVITY INDUCTION LOG DEEP
 GR  .GAPI   30 310 01 00:   GAMMA RAY
 CALS.IN     60 280 50 00:   CALIPER FROM SONIC LOG
 DT  .US/F   60 520 00 00:   INTERVAL TRANSIT TIME
~PARAMETER INFORMATION
#MNEM.UNIT          VALUE    DESCRIPTION
#----------   ------------   ------------------------------
 PD  .                 GL:   PERMANENT DATUM
 EPD .F              5201:   ELEVATION PERMANENT DATUM
 LMF .                 KB:   LOG MEASURED FROM
 DAPD.F                 5:   FEET ABOVE PERMANENT DATUM
 DMF .                 KB:   DRILLING MEASURED FROM
 EKB .F              5206:   KELLING BUSHING
 EGL .F              5201:   GROUND LEVEL
 DATE.          8-12-1964:   RUN DATE
 RUN .                  1:   RUN NUMBER
 DD  .F              1055:   DEPTH DRILLER
 DL  .F              1057:   DEPTH LOGGER
 BLI .F              1055:   BOTTOM LOG INTERVAL
 TLI .F               450:   TOP LOG INTERVAL
 CS  .IN              4.5:   CASING SIZE
 BS  .IN             6.75:   BIT SIZE
 DFT .            GEL OIL:   DRILLING FLUID TYPE
 DFD .                9.3:   DRILLING FLUID DENSITY
 DFV .                 48:   DRILLING FLUID VISCOSITY
 DFPH.                 10:   DRILLING FLUID PH
 DFL .                 10:   DRILLING FLUID LOSS
 MSS .           FLOWLINE:   MUD SAMPLE SOURCE
 RMS .OHMM           1.07:   RESISTIVITY MUD SAMPLE
 MST .F                95:   MUD SAMPLE TEMPERATURE
 RMF .OHMM            .67:   RESISTIVITY MUD FILTRATE SAMPLE
 MFST.F                95:   MUD FILTRATE SAMPLE TEMPERATURE
 RMC .OHMM           1.44:   RESISTIVITY MUD CAKE
 MCST.F                95:   MUD CAKE SAMPLE TEMPERATURE
 MFSS.                 FP:   MUD FILTRATE SAMPLE SOURCE
 MCSS.                 FP:   MUD CAKE SAMPLE SOURCE
 TCS .HRS               1:   TIME CURCULATED STOPPED
 LUN .               4507:   LOGGING UNIT NUMBER
 LUL .               CSPR:   LOGGING UNIT LOCATION
 ENGI.             DANNER:   RECORDING ENGINEER
 WITN.         JORGENESEN:   WITNESSED BY
 CLNT.            A2DTECH:   CLIENT CODE
 ORIG.           2" PRINT:   ORIGIN OF DATA
 UWI .       490250638800:   UNIQUE WELL ID
 DICO. A2D Technologies, Inc.:   DIGITIZING COMPANY
~OTHER INFORMATION
~A   DEPT      SPR          ASN        ILD      CILD        GR       CALS         DT   
# ...
  808.0000   -32.9120     7.6648     6.3743   157.5002    63.6845     6.6542    98.7729
  808.5000   -32.9104     7.7314     6.4107   155.5060    61.6003     6.6692    98.6962
  809.0000   -32.7601     7.8023     6.4506   154.5039    63.0936     6.6692    98.4692
  809.5000   -32.7585     7.8706     6.5015   152.5298    59.2217     6.6692    98.2421
  810.0000   -32.9061     7.9895     6.6018   151.7857    64.8886     6.6542    98.2406
  810.5000   -32.9046     8.1157     6.6775   150.2035    67.4244     6.6542    98.1639
  811.0000   -32.9029     8.2034     6.6781   148.8095    65.4899     6.6692    98.0069
  811.5000   -32.9541     8.2994     6.7537   148.3433    67.1330     6.6692    97.1008
  812.0000   -33.1982     8.3758     6.7545   146.5774    65.0495     6.6692    96.9564
  812.5000   -33.4265     8.4427     6.8301   145.8333    63.5614     6.6692    97.3309
  813.0000   -33.6831     8.5366     6.9058   145.8333    64.0122     6.6692    97.4797
  813.5000   -34.0877     8.6234     6.9396   145.8333    64.7603     6.6692    97.4782
  814.0000   -34.2355     8.7037     6.9820   145.8333    64.1672     6.6692    97.3163
  814.5000   -34.0849     8.7663     7.0304   145.8333    60.5934     6.6692    97.2497
  815.0000   -33.8574     8.7993     7.0584   145.8333    62.9809     6.6542    97.4111
  815.5000   -33.7673     8.8376     7.1341   145.8779    64.0263     6.6542    97.3832
  816.0000   -33.6331     8.8655     7.1347   146.5774    54.9391     6.6542    96.8689
  816.5000   -33.6769     8.9134     7.1355   146.7610    50.4711     6.6542    97.3937
  817.0000   -33.7794     8.9189     7.1362   147.3214    50.3243     6.6393    98.2193
  817.5000   -33.7780     8.8919     7.1370   148.3879    52.5635     6.6393    98.8945
  818.0000   -33.6145     8.8387     7.1378   148.8095    56.5903     6.6393    99.5696
  818.5000   -33.1785     8.7905     7.1385   148.8095    58.9777     6.6393   100.2448
  819.0000   -32.8793     8.6888     7.1392   148.8095    60.0406     6.6244   100.6193
  819.5000   -32.5796     8.5843     7.1400   148.8095    59.8509     6.6244   100.2419
  820.0000   -32.4292     8.4198     7.1407   149.1071    64.2027     6.6244    99.7892
  820.5000   -32.4277     8.2701     7.0667   150.2976    69.8689     6.6244    99.4870
  821.0000   -32.4262     8.1000     7.0674   152.2222    71.2281     6.6244    99.2599
  821.5000   -32.4247     7.9557     7.0681   154.2859    65.3998     6.6244    99.4088
  822.0000   -32.4231     7.7858     7.0250   157.7381    63.1635     6.5946    99.7832
  822.5000   -32.4218     7.7080     6.8925   163.9892    61.6840     6.5797   100.5336
  823.0000   -32.2713     7.5066     6.6214   202.3810    63.6465     6.5648   101.8103
  823.5000   -32.2697     7.1090     6.2847   237.7155    65.0263     6.5648   103.1622
  824.0000   -32.2345     6.5775     5.7994   258.4224    67.0580     6.5648   104.9652
  824.5000   -32.1176     5.9807     5.1377   282.7381    64.1226     6.5648   106.9938
  825.0000   -31.9051     5.4560     4.3787   313.9881    63.0401     6.5499   109.2479
  825.5000   -31.8149     5.0040     3.4065   348.9583    64.8315     6.5499   113.8329
  826.0000   -31.6662     4.6372     2.7755   382.2057    57.6817     6.5499   118.9442
  826.5000   -31.3366     4.1349     2.3601   414.8834    56.7904     6.5499   121.9502
  827.0000   -31.0669     3.7408     2.1282   444.1964    51.2792     6.5350   123.0017
  827.5000   -30.7092     3.4622     1.9649   464.2117    53.3686     6.4903   121.4961
  828.0000   -30.4679     3.2810     1.7636   489.5833    54.1168     6.3711   123.5247
  828.5000   -30.4041     3.2006     1.7642   497.7480    66.6384     6.1028   123.0720
  829.0000   -30.4913     3.0865     1.7650   496.3698    69.1748     5.8197   115.3262
  829.5000   -30.7613     2.9335     1.8807   478.8202    69.9230     5.8346   111.1142
  830.0000   -30.9637     2.8281     2.1158   443.5007    64.8589     6.2370   110.7367
  830.5000   -31.0566     3.0123     2.8901   291.6667    64.7121     6.4754   110.0585
  831.0000   -31.1381     4.0861     3.4880   256.1024    69.4848     6.5797   106.6736
  831.5000   -31.2028     4.2271     3.7149   233.8559    77.6844     6.5797   102.7623
  832.0000   -31.3500     4.3406     3.8682   215.5941    80.5183     6.5797   103.2871
  832.5000   -31.3488     4.6142     4.1256   196.5784    75.4549     6.5946   103.7367
  833.0000   -31.4962     5.6671     4.8400   182.2917    72.1792     6.6095   104.4119
  833.5000   -31.4948     6.0724     5.4573   180.6102    72.3312     6.6244   104.1849
  834.0000   -31.6424     6.3271     5.8893   179.3155    70.2477     6.6095   103.4315
  834.5000   -31.6406     6.3724     5.9272   182.1580    72.4861     6.5797   102.9789
  835.0000   -31.6865     6.4205     5.7186   188.5408    79.0465     6.5797   102.5263
  835.5000   -31.7869     6.4928     5.2928   199.4048    80.8371     6.5648   102.3744
  836.0000   -31.7854     6.5317     4.9062   209.8411    72.3460     6.5648   102.2225
  836.5000   -31.7839     6.5682     4.4709   221.7262    76.8199     6.5648   103.4992
  837.0000   -31.7821     6.5683     4.2125   233.1142    77.5673     6.5499   106.5052
  837.5000   -31.7375     6.5449     4.0107   244.4199    73.1000     6.5499   107.7819
  838.0000   -31.6303     6.2654     3.8234   253.7202    69.6753     6.5499   108.6075
  838.5000   -31.6289     5.7990     3.7046   261.7764    73.8511     6.5499   109.5834
  839.0000   -31.4556     5.3549     3.5764   269.3452    69.6812     6.5499   111.9128
  839.5000   -31.0787     5.0157     3.5022   272.3810    66.7035     6.5350   111.3098
  840.0000   -30.9489     5.0105     3.5828   268.2533    71.3265     6.5350   107.6241
  840.5000   -30.5796     5.2402     3.7527   253.7202    74.0120     6.5350   106.9459
  841.0000   -30.6463     5.4013     4.2006   245.8633    76.1014     6.5648   108.3029
  841.5000   -30.8825     5.4909     4.7029   238.0952    79.8301     6.5499   107.9729
  842.0000   -31.1188     5.5784     4.8463   220.1605    74.3190     6.5648   105.3473
  842.5000   -31.3549     5.8070     4.9327   199.9258    73.7034     6.6095   104.3521
  843.0000   -31.6153     6.2226     5.0529   183.7798    72.6767     6.6542   102.7652
  843.5000   -31.6783     6.6519     5.3775   175.2723    69.7079     6.6841   101.2539
  844.0000   -31.9146     7.0813     5.9043   168.1548    79.9051     6.6841    99.9779
  844.5000   -32.1508     7.4692     6.1949   162.6731    88.9389     6.6841    99.2646
  845.0000   -32.2380     7.8038     6.3573   156.8455    87.3475     6.6542    99.1127
  845.5000   -32.3532     7.9049     6.4776   152.7977    83.0611     6.5946    99.0362
  846.0000   -32.2911     7.9619     6.5978   151.0417    73.4810     6.5648   100.3877
  846.5000   -32.0517     8.0269     6.6565   152.5298    68.3844     6.5648   101.1381
  847.0000   -31.6637     8.0784     6.6572   155.4168    70.6230     6.5946   101.5129
  847.5000   -31.3959     8.0718     6.5819   159.3000    69.2852     6.6095   101.6618
  848.0000   -31.1533     7.9966     6.4631   163.3238    73.0140     6.6244   101.8106
  848.5000   -31.0030     7.8676     6.3286   167.3209    75.5505     6.6393   101.9591
  849.0000   -31.0015     7.6533     6.0615   173.3631    76.4476     6.6542   102.2584
  849.5000   -31.0852     7.4162     5.8219   178.8987    77.3448     6.6692   102.7832
  850.0000   -31.1724     7.2789     5.4641   188.2440    78.2408     6.6542   103.1174
  850.5000   -31.4439     7.1026     5.1063   198.0308    78.5412     6.6240   103.5338
  851.0000   -31.6448     6.9563     4.7630   208.6514    84.9511     6.5350   103.9833
  851.5000   -31.8882     6.7548     4.4934   223.9583    77.3520     6.5350   104.3585
  852.0000   -32.0358     6.5505     4.2864   242.5595    71.5408     6.5201   104.9593
  852.5000   -32.0343     6.2905     4.1205   252.1580    76.0136     6.5201   106.4623
  853.0000   -31.8835     6.0041     3.9596   257.5994    76.7603     6.5201   108.8676
