~VERSION INFORMATION
 VERS.                2.0:   CWLS LOG ASCII STANDARD - VERSION 2.0
 WRAP.                 NO:   ONE LINE PER DEPTH STEP
~WELL INFORMATION
#MNEM.UNIT      DATA TYPE    INFORMATION
#----------   ------------   ------------------------------
 STRT.F            1.0000:   START DEPTH
 STOP.F          886.0000:   STOP DEPTH
 STEP.F            0.5000:   STEP LENGTH
 NULL.          -999.2500:   NO VALUE
 COMP. BROWN JOHN E&C INC:   COMPANY
 WELL. NAVAL PETROLEUM RESERVE 3 SHX-1 #33-2:   WELL
 FLD .             NPR #3:   FIELD
 LOC .       S2 T38N R78W:   LOCATION
 CNTY.            NATRONA:   COUNTY
 STAT.            WYOMING:   STATE
 CTRY. UNITED STATES OF AMERICA:   COUNTRY
 SRVC.      Western Atlas:   SERVICE COMPANY
 DATE.        26-NOV-1991:   LOGDATE
 API .       490252248300:   API NUMBER
~CURVE INFORMATION
#MNEM.UNIT       API CODE    CURVE DESCRIPTION
#----------   ------------   ------------------------------
 DEPT.F                  :   
 RILD.OHMM   07 120 46 00:   INDUCTION LOG DEEP RESISTIVITY
 RILM.OHMM   07 120 44 00:   INDUCTION LOG MEDIUM RESISTIVITY
 RFOC.OHMM   07 220 04 00:   RESISTIVITY FOCUSED LOG
 SPR .MV     07 010 01 00:   SPONTANEOUS POTENTIAL
 GRR .GAPI   07 310 01 00:   GAMMA RAY
~PARAMETER INFORMATION
#MNEM.UNIT          VALUE    DESCRIPTION
#----------   ------------   ------------------------------
 PD  .                 GL:   PERMANENT DATUM
 EPD .F              5133:   ELEVATION PERMANENT DATUM
 LMF .                 KB:   LOG MEASURED FROM
 DAPD.F                10:   FEET ABOVE PERMANENT DATUM
 DMF .                 KB:   DRILLING MEASURED FROM
 EKB .F              5143:   KELLING BUSHING
 EGL .F              5133:   GROUND LEVEL
 DATE.        26-NOV-1991:   RUN DATE
 RUN .                  1:   RUN NUMBER
 DD  .F               892:   DEPTH DRILLER
 DL  .F               889:   DEPTH LOGGER
 BLI .F               837:   BOTTOM LOG INTERVAL
 CS  .IN            8.625:   CASING SIZE
 CBD .F                40:   CASING BOTTOM DRILLER
 CBL .F                55:   CASING BOTTOM LOGGER
 BS  .IN            7.875:   BIT SIZE
 BSD .F               892:   BIT SIZE AT DEPTH
 DFT .            POLYMER:   DRILLING FLUID TYPE
 DFD .                9.8:   DRILLING FLUID DENSITY
 DFV .                 38:   DRILLING FLUID VISCOSITY
 DFPH.                9.5:   DRILLING FLUID PH
 DFL .               10.6:   DRILLING FLUID LOSS
 MSS .           FLOWLINE:   MUD SAMPLE SOURCE
 RMS .OHMM           2.08:   RESISTIVITY MUD SAMPLE
 MST .F                78:   MUD SAMPLE TEMPERATURE
 RMF .OHMM           1.66:   RESISTIVITY MUD FILTRATE SAMPLE
 MFST.F                78:   MUD FILTRATE SAMPLE TEMPERATURE
 RMC .OHMM           2.60:   RESISTIVITY MUD CAKE
 MCST.F                78:   MUD CAKE SAMPLE TEMPERATURE
 MFSS.               MEAS:   MUD FILTRATE SAMPLE SOURCE
 MCSS.               CALC:   MUD CAKE SAMPLE SOURCE
 RMB .OHMM           1.08:   RESISTIVITY MUD AT BHT
 BHT .F               150:   BOTTOM HOLE TEMPERATURE
 TCS .HRS               2:   TIME CURCULATED STOPPED
 MRT .F               150:   MAXIMUM RECORDED TEMPERATURE
 LUN .            HL-6307:   LOGGING UNIT NUMBER
 LUL .         CASPER, WY:   LOGGING UNIT LOCATION
 ENGI.             ZIEGER:   RECORDING ENGINEER
 WITN.             STRONG:   WITNESSED BY
 CLNT.            A2DTECH:   CLIENT CODE
 ORIG.           5" PRINT:   ORIGIN OF DATA
 UWI .       490252248300:   UNIQUE WELL ID
 DICO. A2D Technologies, Inc.:   DIGITIZING COMPANY
~OTHER INFORMATION
~A    DEPT    RILD       RILM       RFOC        SPR         GRR  
# ...
  611.0000     4.4064     4.7777     6.4531   -85.0338   119.8065
  611.5000     4.9219     5.0847     6.2406   -85.1963   123.7481
  612.0000     5.2736     5.3000     6.1960   -85.5097   128.0724
  612.5000     5.3455     5.4108     6.1943   -85.6722   129.7587
  613.0000     5.4183     5.4874     6.1926   -85.6838   127.3344
  613.5000     5.4541     5.5615     6.1905   -85.6955   125.2137
  614.0000     5.4518     5.5605     6.2322   -85.3957   124.9058
  614.5000     5.4500     5.4832     6.2941   -84.8168   125.5056
  615.0000     5.3731     5.3325     6.4226   -84.3760   123.0813
  615.5000     5.2244     5.1144     6.6208   -83.9352   118.8458
  616.0000     4.9066     4.7711     6.8600   -83.4915   116.4231
  616.5000     4.6081     4.4508     6.9062   -83.0536   121.8538
  617.0000     4.3579     4.2368     5.7248   -82.9140   123.3585
  617.5000     4.1185     4.0941     4.9655   -82.6244   124.8632
  618.0000     3.9517     4.0093     4.6793   -82.6365   125.7637
  618.5000     3.8690     3.9535     4.9853   -82.6507   126.0614
  619.0000     3.7881     3.9530     5.2256   -82.8132   123.6371
  619.5000     3.7868     4.0357     5.2018   -82.9757   120.6101
  620.0000     3.8924     4.2358     5.0097   -83.4399   118.7915
  620.5000     4.0280     4.4459     5.3311   -83.9041   117.5770
  621.0000     4.2270     4.6382     5.7441   -84.3682   116.9656
  621.5000     4.5048     4.8977     5.8542   -84.9935   118.1682
  622.0000     4.8187     5.1765     5.8698   -85.9028   121.7877
  622.5000     5.0567     5.4711     6.0918   -86.2161   124.8030
  623.0000     5.2698     5.7424     6.5548   -86.6803   123.5887
  623.5000     5.4539     5.9445     6.7913   -86.6920   119.9574
  624.0000     5.6055     6.1532     7.0704   -86.7036   117.2325
  624.5000     5.8013     6.2849     7.1190   -86.7153   116.6224
  625.0000     5.9213     6.4576     7.2154   -86.7270   117.9253
  625.5000     6.0437     6.5016     7.1890   -86.7391   119.3297
  626.0000     6.0838     6.5005     7.1615   -86.7533   119.6260
  626.5000     6.0812     6.4547     7.1100   -86.7649   118.7123
  627.0000     6.0371     6.3210     6.9903   -86.9275   118.4043
  627.5000     6.0351     6.1472     6.8693   -86.7854   118.7005
  628.0000     5.9089     6.0198     6.7824   -86.8000   119.6010
  628.5000     5.8255     5.9361     6.7187   -86.8117   120.0458
  629.0000     5.7026     5.7727     6.7170   -86.3708   120.4956
  629.5000     5.5403     5.6140     6.7151   -86.2317   119.8840
  630.0000     5.3544     5.4597     6.6836   -86.0925   119.8782
  630.5000     5.1345     5.2002     6.6648   -86.1071   119.8723
  631.0000     4.8895     4.9189     6.5154   -86.2696   120.1685
  631.5000     4.6562     4.7178     6.3870   -86.2813   121.0690
  632.0000     4.4650     4.5881     6.1973   -86.2930   124.6885
  632.5000     4.3413     4.4930     5.7951   -86.3047   131.3292
  633.0000     4.3099     4.5235     5.2828   -86.3167   140.0000
  633.5000     4.3430     4.8142     4.7518   -86.1801   139.8156
  634.0000     4.4278     5.0181     4.6957   -86.1918   132.8207
  634.5000     4.4881     5.1945     5.6694   -85.9018   127.0746
  635.0000     4.6772     5.3771     6.6649   -85.7597   123.1413
  635.5000     5.0114     5.6048     7.0257   -85.7743   122.2305
  636.0000     5.3324     5.7638     7.0238   -85.7860   126.1507
  636.5000     5.5571     5.9706     6.9496   -85.7979   130.0723
  637.0000     5.8316     6.0888     6.8753   -85.8123   131.8791
  637.5000     5.9111     6.2590     6.8263   -85.8240   131.2185
  638.0000     5.9917     6.3458     6.9612   -85.8356   126.7299
  638.5000     5.9891     6.3891     7.2381   -85.8473   127.6304
  639.0000     5.9871     6.4327     7.4121   -86.0098   128.2303
  639.5000     5.9851     6.4316     7.4101   -86.3232   127.0144
  640.0000     5.9831     6.4755     7.4081   -86.4857   123.3832
  640.5000     5.9811     6.4744     7.4060   -86.4977   120.6583
  641.0000     5.9791     6.5186     7.4555   -86.5119   123.3715
  641.5000     5.9353     6.5177     7.5578   -86.5236   126.3867
  642.0000     5.9333     6.5168     7.5554   -86.2336   125.7764
  642.5000     5.8903     6.5159     7.5533   -85.9437   126.0714
  643.0000     5.8883     6.4700     7.4988   -85.8045   128.4825
  643.5000     5.8863     6.4245     7.4404   -85.5145   129.9886
  644.0000     5.8843     6.3351     7.3747   -85.3754   129.6792
  644.5000     5.8417     6.2903     7.2808   -85.3900   129.0691
  645.0000     5.8397     6.3332     7.2351   -85.4016   129.0632
  645.5000     5.8784     6.3323     7.2862   -85.4133   129.6616
  646.0000     5.9580     6.3315     7.3178   -85.4250   128.6891
  646.5000     5.9560     6.3749     7.2797   -85.4367   126.3266
  647.0000     5.9540     6.2426     7.2773   -85.4484   129.9446
  647.5000     5.9109     6.0270     7.3263   -85.3092   132.3556
  648.0000     5.7872     5.6913     7.3119   -85.1504   133.2576
  648.5000     5.5881     5.3942     7.2474   -84.8801   131.1355
  649.0000     5.2788     5.2824     6.7794   -84.8947   128.7126
  649.5000     5.0322     5.1371     5.9024   -84.9063   127.4983
  650.0000     4.9269     5.2807     5.2898   -84.4646   126.2835
  650.5000     4.9252     5.2789     5.5417   -84.9507   127.4898
  651.0000     4.9236     5.2772     6.3567   -85.2483   127.4861
  651.5000     4.9219     5.2754     6.6672   -85.7139   125.6705
  652.0000     4.7856     5.2736     6.5247   -85.7270   123.8548
  652.5000     4.6531     4.9873     6.5817   -85.7402   124.4561
  653.0000     4.3617     4.4552     6.7773   -85.7533   126.2760
  653.5000     4.0756     4.0474     6.7356   -85.7664   128.4684
  654.0000     4.0181     3.9353     5.8761   -85.7798   130.7910
  654.5000     3.9890     3.9890     4.9458   -85.7960   124.4437
  655.0000     3.9601     4.0157     4.6131   -85.8091   115.3773
  655.5000     3.9863     4.1557     4.8370   -85.8223   111.1447
  656.0000     4.0407     4.3308     5.4823   -85.8354   114.7672
  656.5000     4.1529     4.6725     6.0812   -85.8485   122.0150
  657.0000     4.3343     4.9739     6.5292   -85.7104   125.6374
  657.5000     4.6690     5.2532     6.7436   -85.4223   126.2387
  658.0000     5.0375     5.5511     6.7413   -85.2846   128.0478
  658.5000     5.4350     5.7058     6.7385   -84.8486   128.9519
  659.0000     5.6640     5.9047     6.7366   -84.7076   126.8334
  659.5000     5.7417     6.0687     6.7455   -84.5732   124.1115
  660.0000     5.6211     6.1947     6.8472   -84.4322   122.5979
  660.5000     5.3529     5.8579     7.0235   -84.5994   125.6161
  661.0000     4.9802     4.8512     7.2105   -84.7634   124.1026
  661.5000     4.5919     4.5184     7.3286   -84.9377   122.8913
  662.0000     4.2532     4.4339     7.0345   -85.2455   125.0835
  662.5000     4.3714     4.4636     4.7509   -85.2586   127.4164
  663.0000     4.4932     4.5556     4.4929   -85.1176   129.2261
  663.5000     4.4603     4.7147     4.6563   -84.8291   131.0359
  664.0000     4.4899     4.9476     5.8434   -84.5406   124.9906
  664.5000     4.6146     5.1920     6.7106   -84.2549   121.6644
  665.0000     4.7892     5.5271     7.2402   -83.9668   120.4530
  665.5000     5.2606     5.8569     7.3393   -84.1513   120.1480
  666.0000     5.7152     6.3417     7.3542   -84.4489   120.4472
  666.5000     6.0813     6.6090     7.4151   -84.7637   120.1414
  667.0000     6.3816     6.7457     7.5373   -84.7768   120.7427
  667.5000     6.4691     6.8376     7.6969   -84.7899   122.2503
  668.0000     6.4664     6.8353     7.7772   -84.6490   121.0389
  668.5000     6.4642     6.8330     7.8497   -84.3637   118.6191
  669.0000     6.5136     6.8782     7.7923   -84.3771   116.5013
  669.5000     6.5957     6.9788     7.7901   -84.3933   118.6132
  670.0000     6.7316     7.0670     7.8416   -84.4064   121.3293
  670.5000     6.7293     6.9667     7.8661   -84.8720   119.4075
  671.0000     6.7270     6.8684     7.8907   -85.0360   115.8846
  671.5000     6.6322     6.8186     7.9428   -85.2000   116.7880
