~VERSION INFORMATION
 VERS.                2.0:   CWLS LOG ASCII STANDARD - VERSION 2.0
 WRAP.                 NO:   ONE LINE PER DEPTH STEP
~WELL INFORMATION
#MNEM.UNIT      DATA TYPE    INFORMATION
#----------   ------------   ------------------------------
 STRT.F         1179.0000:   START DEPTH
 STOP.F         2186.0000:   STOP DEPTH
 STEP.F            0.5000:   STEP LENGTH
 NULL.          -999.2500:   NO VALUE
 COMP. FENIX & SCISSON INC:   COMPANY
 WELL.  404 SH 33 #404-33:   WELL
 FLD .             TEAPOT:   FIELD
 LOC .      S33 T39N R78W:   LOCATION
 CNTY.            NATRONA:   COUNTY
 STAT.            WYOMING:   STATE
 CTRY. UNITED STATES OF AMERICA:   COUNTRY
 SRVC.            Unknown:   SERVICE COMPANY
 DATE.        19-NOV-1992:   LOGDATE
 API .       490251071100:   API NUMBER
~CURVE INFORMATION
#MNEM.UNIT       API CODE    CURVE DESCRIPTION
#----------   ------------   ------------------------------
 DEPT.F                  :   
 TGAS.UNITS  91 830 01 00:   TOTAL GAS FROM HOTWIRE
 ROP .MIN/FT 91 810 01 00:   RATE OF DRILLING PENETRATION
~PARAMETER INFORMATION
#MNEM.UNIT          VALUE    DESCRIPTION
#----------   ------------   ------------------------------
 EKB .F              5170:   KELLING BUSHING
 EGL .F              5160:   GROUND LEVEL
 DATE.        19-NOV-1992:   RUN DATE
 RUN .                  1:   RUN NUMBER
 DD  .F              2186:   DEPTH DRILLER
 TLI .F              1186:   TOP LOG INTERVAL
 CS  .IN             8.25:   CASING SIZE
 CBD .F              1080:   CASING BOTTOM DRILLER
 WITN.   C. TOWER/R. HUSK:   WITNESSED BY
 CLNT.            A2DTECH:   CLIENT CODE
 ORIG.           5" PRINT:   ORIGIN OF DATA
 UWI .       490251071100:   UNIQUE WELL ID
 DICO. A2D Technologies, Inc.:   DIGITIZING COMPANY
~OTHER INFORMATION
~A  DEPT       TGAS       ROP   
# ...
 1422.0000    36.1999     0.5944
 1422.5000    36.2273     0.5947
 1423.0000    36.2548     0.5950
 1423.5000    36.2822     0.5953
 1424.0000    36.3096     0.5957
 1424.5000    36.3370     0.6069
 1425.0000    36.3644     0.6073
 1425.5000    36.3919     0.6076
 1426.0000    36.4193     0.6079
 1426.5000    36.4467     0.6082
 1427.0000    34.2783     0.6085
 1427.5000    33.2206     0.5979
 1428.0000    34.3774     0.5983
 1428.5000    34.4235     0.5986
 1429.0000    36.6664     0.5990
 1429.5000    37.8127     0.5993
 1430.0000    38.9554     0.5996
 1430.5000    41.2019     0.6000
 1431.0000    42.3446     0.6003
 1431.5000    43.4873     0.6006
 1432.0000    43.5298     0.6009
 1432.5000    46.8765     0.6013
 1433.0000    46.9225     0.6016
 1433.5000    46.9650     0.6019
 1434.0000    47.0075     0.6022
 1434.5000    48.1537     0.6026
 1435.0000    48.1962     0.6029
 1435.5000    48.2422     0.6032
 1436.0000    48.2811     0.6036
 1436.5000    50.5276     0.6039
 1437.0000    51.6703     0.6042
 1437.5000    51.7164     0.6045
 1438.0000    51.7624     0.6158
 1438.5000    52.9015     0.6161
 1439.0000    54.0513     0.6274
 1439.5000    55.1905     0.6387
 1440.0000    56.3403     0.6170
 1440.5000    56.3828     0.6174
 1441.0000    56.4288     0.6178
 1441.5000    56.4677     0.6071
 1442.0000    56.5173     0.6075
 1442.5000    56.5597     0.6078
 1443.0000    56.6022     0.6081
 1443.5000    56.6482     0.6085
 1444.0000    55.5798     0.6197
 1444.5000    55.6365     0.6200
 1445.0000    54.5645     0.6204
 1445.5000    54.6247     0.6207
 1446.0000    55.7604     0.6211
 1446.5000    56.9101     0.6214
 1447.0000    56.9561     0.6217
 1447.5000    56.9986     0.6220
 1448.0000    57.0411     0.6224
 1448.5000    58.1873     0.6227
 1449.0000    58.2298     0.6230
 1449.5000    58.2758     0.6234
 1450.0000    58.3183     0.6126
 1450.5000    58.3643     0.6131
 1451.0000    58.4067     0.6134
 1451.5000    58.4528     0.5918
 1452.0000    60.6922     0.5811
 1452.5000    60.7382     0.5815
 1453.0000    60.7842     0.5819
 1453.5000    60.8302     0.5822
 1454.0000    60.8691     0.5826
 1454.5000    59.8114     0.5828
 1455.0000    58.7465     0.5832
 1455.5000    58.8031     0.5835
 1456.0000    58.8456     0.5838
 1456.5000    58.8916     0.5842
 1457.0000    57.8268     0.5735
 1457.5000    57.8763     0.5739
 1458.0000    57.9223     0.5742
 1458.5000    56.8539     0.5746
 1459.0000    54.6959     0.5638
 1459.5000    54.7561     0.5533
 1460.0000    53.6877     0.5537
 1460.5000    53.7443     0.5429
 1461.0000    53.7832     0.5433
 1461.5000    53.8293     0.5437
 1462.0000    53.8753     0.5440
 1462.5000    52.8069     0.5663
 1463.0000    52.8600     0.5775
 1463.5000    52.9024     0.6654
 1464.0000    52.9520     0.7204
 1464.5000    52.9909     0.7973
 1465.0000    53.0405     0.7976
 1465.5000    53.0829     0.8089
 1466.0000    53.1219     0.8092
 1466.5000    50.9603     0.7986
 1467.0000    51.0134     0.7990
 1467.5000    49.9450     0.7555
 1468.0000    50.0016     0.7121
 1468.5000    50.0476     0.6795
 1469.0000    50.0901     0.6361
 1469.5000    50.1290     0.6146
 1470.0000    50.1786     0.5930
 1470.5000    50.2175     0.5823
 1471.0000    51.3673     0.5718
 1471.5000    51.4062     0.5502
 1472.0000    51.4558     0.5506
 1472.5000    51.4983     0.5399
 1473.0000    54.8415     0.5403
 1473.5000    54.8875     0.5406
 1474.0000    59.3309     0.5410
 1474.5000    60.4772     0.5413
 1475.0000    63.8204     0.5088
 1475.5000    64.9666     0.4981
 1476.0000    68.3063     0.4876
 1476.5000    69.4525     0.4659
 1477.0000    72.7993     0.4553
 1477.5000    74.2504     0.4557
 1478.0000    77.2887     0.4560
 1478.5000    80.6320     0.4454
 1479.0000    81.7711     0.4567
 1479.5000    86.2217     0.4571
 1480.0000    87.3644     0.4574
 1480.5000    90.7111     0.4577
 1481.0000    91.8503     0.4580
 1481.5000    95.2006     0.4474
 1482.0000    95.2395     0.4447
 1482.5000    96.3893     0.4371
 1483.0000    97.5320     0.4374
 1483.5000    98.6783     0.4487
 1484.0000    99.8210     0.4600
 1484.5000    99.8635     0.4603
 1485.0000    99.9095     0.4606
 1485.5000    99.9519     0.4610
 1486.0000   101.0982     0.4613
 1486.5000   101.1371     0.4616
 1487.0000   101.1060     0.4620
 1487.5000   101.0729     0.4513
 1488.0000   101.0397     0.4626
 1488.5000   101.0066     0.4630
 1489.0000   100.9735     0.4633
 1489.5000   100.9404     0.4746
 1490.0000   100.9073     0.4858
 1490.5000   100.8742     0.5080
 1491.0000   100.8411     0.5083
 1491.5000   100.8080     0.5196
 1492.0000   100.7748     0.5200
 1492.5000   100.7417     0.5531
 1493.0000   100.7086     0.5534
 1493.5000   100.6755     0.5538
 1494.0000   100.6424     0.5541
 1494.5000   100.6093     0.5544
 1495.0000   100.5762     0.5547
 1495.5000   100.5431     0.5440
 1496.0000   100.5099     0.5444
 1496.5000   100.4768     0.5448
 1497.0000   100.4437     0.5232
 1497.5000   100.4106     0.5236
 1498.0000   100.3775     0.5239
 1498.5000   100.3444     0.5242
 1499.0000   100.3113     0.5246
 1499.5000   100.2782     0.5249
 1500.0000   100.2450     0.5252
 1500.5000   100.2119     0.5365
 1501.0000   100.1788     0.5587
 1501.5000   100.1457     0.5590
 1502.0000   100.1126     0.5702
 1502.5000   100.0795     0.5925
 1503.0000   100.0464     0.6038
 1503.5000   100.0133     0.6041
 1504.0000    99.9801     0.6044
 1504.5000    99.9470     0.6048
 1505.0000    99.9139     0.6051
 1505.5000    99.8808     0.6054
 1506.0000    99.8477     0.6057
 1506.5000    99.8146     0.6060
 1507.0000    99.7815     0.6064
 1507.5000    99.7484     0.6067
 1508.0000    99.7152     0.5868
 1508.5000    99.6821     0.5874
 1509.0000    99.6490     0.5769
 1509.5000    99.6159     0.5773
 1510.0000    99.5828     0.5886
 1510.5000    99.5497     0.5891
 1511.0000    99.5166     0.5785
 1511.5000    99.4835     0.5790
 1512.0000    99.4503     0.5795
 1512.5000    99.4172     0.5580
 1513.0000    99.3841     0.5585
 1513.5000    99.3510     0.5478
 1514.0000    99.3179     0.5484
 1514.5000    99.2848     0.5489
 1515.0000    99.2517     0.5493
 1515.5000    99.2186     0.5387
 1516.0000    99.1854     0.5172
 1516.5000    99.1523     0.5178
 1517.0000    99.1192     0.5072
 1517.5000    99.0861     0.5077
 1518.0000    99.0530     0.5082
 1518.5000    99.0199     0.5086
 1519.0000    98.9868     0.5090
 1519.5000    98.9537     0.5095
 1520.0000    98.9205     0.5208
 1520.5000    98.8874     0.5213
 1521.0000    98.8543     0.5217
 1521.5000    98.8212     0.5222
 1522.0000    98.7881     0.5226
 1522.5000    99.2787     0.5230
 1523.0000   100.1054     0.5235
 1523.5000   100.9321     0.5239
 1524.0000   101.7589     0.5244
 1524.5000   102.5856     0.5248
 1525.0000   103.4123     0.5252
 1525.5000   104.2390     0.5256
 1526.0000   104.6672     0.5261
 1526.5000   104.7306     0.5484
 1527.0000   105.8995     0.5598
 1527.5000   109.2637     0.5602
 1528.0000   113.7333     0.5607
 1528.5000   128.0999     0.5611
 1529.0000   152.3739     0.5724
 1529.5000   263.5621     0.5619
 1530.0000   321.9331     0.5734
 1530.5000   321.8663     0.5738
 1531.0000   321.7979     0.6071
 1531.5000   321.7295     0.6075
 1532.0000   321.6610     0.6079
 1532.5000   321.5926     0.6084
 1533.0000   321.5242     0.6198
 1533.5000   321.4557     0.6421
 1534.0000   321.3873     0.6535
 1534.5000   321.3188     0.6539
 1535.0000   321.2504     0.6653
 1535.5000   321.1820     0.6986
 1536.0000   321.1136     0.6990
 1536.5000   321.0451     0.6994
 1537.0000   320.9767     0.7108
 1537.5000   320.9082     0.7440
 1538.0000   320.8398     0.7883
 1538.5000   320.7714     0.8215
 1539.0000   320.7029     0.8767
 1539.5000   320.6345     0.9208
 1540.0000   320.5661     0.8884
 1540.5000   320.4976     0.8342
 1541.0000   320.4292     0.7907
 1541.5000   320.3607     0.7475
 1542.0000   320.2923     0.7370
 1542.5000   320.2239     0.7155
 1543.0000   320.1555     0.7161
