~VERSION INFORMATION
 VERS.                2.0:   CWLS LOG ASCII STANDARD - VERSION 2.0
 WRAP.                 NO:   ONE LINE PER DEPTH STEP
~WELL INFORMATION
#MNEM.UNIT      DATA TYPE    INFORMATION
#----------   ------------   ------------------------------
 STRT.F           31.0000:   START DEPTH
 STOP.F          662.0000:   STOP DEPTH
 STEP.F            0.5000:   STEP LENGTH
 NULL.          -999.2500:   NO VALUE
 COMP. FENIX & SCISSON INC:   COMPANY
 WELL.   NPR-3 #83SX15-15:   WELL
 FLD .             TEAPOT:   FIELD
 LOC .      S15 T38N R78W:   LOCATION
 CNTY.            NATRONA:   COUNTY
 STAT.            WYOMING:   STATE
 CTRY. UNITED STATES OF AMERICA:   COUNTRY
 SRVC.            Unknown:   SERVICE COMPANY
 DATE.        17-MAY-1978:   LOGDATE
 API .       490251062500:   API NUMBER
~CURVE INFORMATION
#MNEM.UNIT       API CODE    CURVE DESCRIPTION
#----------   ------------   ------------------------------
 DEPT.F                  :   
 SN  .OHMM   07 040 16 00:   SHORT NORMAL 16'
 ILD .OHMM   07 120 46 00:   INDUCTION LOG DEEP
 CALD.IN     45 280 60 00:   CALIPER
 GRD .GAPI   45 310 01 00:   GAMMA RAY FROM DENSITY LOG
 RHOB.G/C3   45 350 01 00:   BULK DENSITY
 DPHI.DEC    45 890 10 00:   DENSITY POROSITY SANDSTONE
 CORR.G/C3   45 356 01 00:   DENSITY CORRECTION
~PARAMETER INFORMATION
#MNEM.UNIT          VALUE    DESCRIPTION
#----------   ------------   ------------------------------
 PD  .                 GL:   PERMANENT DATUM
 EPD .F              5265:   ELEVATION PERMANENT DATUM
 LMF .                 KB:   LOG MEASURED FROM
 DMF .                 KB:   DRILLING MEASURED FROM
 EKB .F              5269:   KELLING BUSHING
 EGL .F              5265:   GROUND LEVEL
 DATE.          5-17-1978:   RUN DATE
 RUN .                  1:   RUN NUMBER
 DD  .F               670:   DEPTH DRILLER
 DL  .F               668:   DEPTH LOGGER
 BLI .F               662:   BOTTOM LOG INTERVAL
 TLI .F                40:   TOP LOG INTERVAL
 CS  .IN            8.625:   CASING SIZE
 CBD .F                40:   CASING BOTTOM DRILLER
 BS  .IN            7.875:   BIT SIZE
 BSD .F               670:   BIT SIZE AT DEPTH
 DFT .                KCL:   DRILLING FLUID TYPE
 DFD .                8.6:   DRILLING FLUID DENSITY
 DFV .                 31:   DRILLING FLUID VISCOSITY
 DFPH.                 10:   DRILLING FLUID PH
 BHT .F                75:   BOTTOM HOLE TEMPERATURE
 TCS .HRS               2:   TIME CURCULATED STOPPED
 MRT .F                75:   MAXIMUM RECORDED TEMPERATURE
 LUN .               3006:   LOGGING UNIT NUMBER
 LUL .                CPR:   LOGGING UNIT LOCATION
 ENGI.             MILLER:   RECORDING ENGINEER
 WITN.           MCGINLEY:   WITNESSED BY
 CLNT.            A2DTECH:   CLIENT CODE
 ORIG.      2" & 5" PRINT:   ORIGIN OF DATA
 UWI .       490251062500:   UNIQUE WELL ID
 DICO. A2D Technologies, Inc.:   DIGITIZING COMPANY
~OTHER INFORMATION
~A   DEPT       SN        ILD       CALD         GRD      RHOB       DPHI       CORR   
# ...
  349.5000     7.3850     7.6284     7.4779    69.6784     2.4522     0.1389     0.0250
  350.0000     7.3640     7.5851     7.4842    67.2813     2.4536     0.1354     0.0250
  350.5000     7.3431     7.5420     7.4906    65.8899     2.4528     0.1363     0.0250
  351.0000     7.3222     7.4995     7.4969    67.8856     2.4521     0.1380     0.0258
  351.5000     7.3014     7.5078     7.5033    71.2774     2.4513     0.1397     0.0266
  352.0000     7.2806     7.5161     7.5096    73.9782     2.4506     0.1414     0.0274
  352.5000     7.2599     7.5244     7.5160    74.5540     2.4509     0.1393     0.0282
  353.0000     7.2393     7.5327     7.5223    74.6969     2.4568     0.1358     0.0291
  353.5000     7.2187     7.5410     7.5287    74.1571     2.4600     0.1340     0.0299
  354.0000     7.1982     7.5493     7.5350    73.7777     2.4626     0.1318     0.0307
  354.5000     7.1776     7.5575     7.5400    73.5745     2.4649     0.1317     0.0318
  355.0000     7.1461     7.5694     7.5399    73.0500     2.4642     0.1328     0.0330
  355.5000     7.0771     7.4991     7.5398    72.3858     2.4634     0.1322     0.0342
  356.0000     7.0087     7.3945     7.5398    72.1196     2.4642     0.1295     0.0354
  356.5000     6.9410     7.2913     7.5398    73.1052     2.4668     0.1266     0.0367
  357.0000     6.8739     7.1896     7.5398    74.0601     2.4620     0.1342     0.0362
  357.5000     6.8075     7.0893     7.5398    75.3546     2.4564     0.1367     0.0351
  358.0000     6.7418     6.9904     7.5398    76.7798     2.4542     0.1384     0.0340
  358.5000     6.6532     6.8929     7.5398    77.3550     2.4546     0.1346     0.0329
  359.0000     6.6687     6.8396     7.5398    75.7696     2.4550     0.1350     0.0318
  359.5000     6.6932     6.8500     7.5398    71.5229     2.4553     0.1382     0.0307
  360.0000     6.7178     6.8572     7.5398    67.3248     2.4557     0.1379     0.0297
  360.5000     6.7424     6.8643     7.5398    64.0203     2.4562     0.1366     0.0310
  361.0000     6.7672     6.8715     7.5399    63.9805     2.4602     0.1310     0.0358
  361.5000     6.7920     6.8787     7.5402    65.9890     2.4707     0.1229     0.0405
  362.0000     6.8169     6.8859     7.5303    68.0063     2.4802     0.1170     0.0428
  362.5000     6.8420     6.8932     7.5141    70.0116     2.4801     0.1234     0.0424
  363.0000     6.8671     6.9004     7.4566    72.0150     2.4790     0.1218     0.0420
  363.5000     6.8923     6.9076     7.3986    74.0249     2.4790     0.1230     0.0416
  364.0000     6.9176     6.9149     7.3402    76.0294     2.4790     0.1201     0.0412
  364.5000     6.9430     6.9221     7.2823    77.6573     2.4790     0.1196     0.0411
  365.0000     6.9684     6.9294     7.2591    76.8681     2.4769     0.1231     0.0432
  365.5000     6.9940     6.9366     7.2608    74.3397     2.4733     0.1266     0.0430
  366.0000     7.0197     6.9439     7.2682    71.6892     2.4751     0.1253     0.0473
  366.5000     7.0455     6.9512     7.2757    70.2495     2.4801     0.1220     0.0545
  367.0000     7.0713     6.9585     7.2794    69.5018     2.4837     0.1198     0.0571
  367.5000     7.0972     6.9658     7.2390    69.1096     2.4854     0.1209     0.0575
  368.0000     7.1233     6.9731     7.1981    69.8231     2.4871     0.1189     0.0578
  368.5000     7.1619     6.9804     7.1576    71.3315     2.4888     0.1145     0.0581
  369.0000     7.1591     6.9877     7.1184    72.4262     2.4900     0.1114     0.0584
  369.5000     7.1537     6.9950     7.1013    69.4762     2.4871     0.1179     0.0587
  370.0000     7.1484     7.0023     7.0833    68.3841     2.4816     0.1207     0.0590
  370.5000     7.1431     7.0097     7.0651    69.5101     2.4769     0.1201     0.0587
  371.0000     7.1378     7.0170     7.0469    72.0914     2.4770     0.1191     0.0584
  371.5000     7.1325     7.0244     7.0287    74.6351     2.4769     0.1182     0.0581
  372.0000     7.1271     7.0304     7.0106    75.4405     2.4751     0.1249     0.0578
  372.5000     7.1218     7.0070     6.9925    75.2249     2.4703     0.1295     0.0575
  373.0000     7.1165     6.9842     6.9818    74.5145     2.4656     0.1326     0.0572
  373.5000     7.1112     6.9617     6.9810    74.4276     2.4629     0.1354     0.0588
  374.0000     7.1058     6.9392     6.9879    74.3651     2.4630     0.1351     0.0674
  374.5000     7.1004     6.9167     7.1202    74.2775     2.4673     0.1258     0.0759
  375.0000     7.0837     6.8870     7.2501    73.7968     2.4767     0.1196     0.0841
  375.5000     7.0148     6.8453     7.3636    73.3256     2.4782     0.1211     0.0817
  376.0000     6.9467     6.8039     7.3649    73.6922     2.4771     0.1227     0.0778
  376.5000     6.8906     6.7628     7.3696    74.7704     2.4759     0.1243     0.0775
  377.0000     6.8538     6.7219     7.3743    75.0306     2.4760     0.1238     0.0781
  377.5000     6.8177     6.6812     7.3790    74.9363     2.4829     0.1166     0.0788
  378.0000     6.7817     6.6408     7.3837    75.6634     2.4879     0.1122     0.0730
  378.5000     6.7459     6.6006     7.3884    76.8980     2.4818     0.1214     0.0628
  379.0000     6.7103     6.5607     7.3931    75.7241     2.4755     0.1247     0.0532
  379.5000     6.6749     6.5210     7.3978    74.7596     2.4725     0.1286     0.0516
  380.0000     6.6396     6.4816     7.4012    74.4843     2.4740     0.1250     0.0485
  380.5000     6.6045     6.4424     7.4030    74.5594     2.4745     0.1218     0.0428
  381.0000     6.5697     6.3974     7.4048    74.8229     2.4720     0.1240     0.0371
  381.5000     6.5321     6.3337     7.4066    75.0770     2.4697     0.1275     0.0313
  382.0000     6.4722     6.2706     7.4084    75.3310     2.4641     0.1335     0.0281
  382.5000     6.4075     6.2081     7.4102    75.5871     2.4602     0.1305     0.0250
  383.0000     6.3433     6.1462     7.4120    75.8459     2.4576     0.1339     0.0230
  383.5000     6.2797     6.0849     7.4138    76.0715     2.4508     0.1393     0.0230
  384.0000     6.2167     6.0243     7.4155    75.0190     2.4440     0.1448     0.0235
  384.5000     6.1544     5.9643     7.4173    72.7574     2.4371     0.1502     0.0264
  385.0000     6.0927     5.9048     7.4191    72.6568     2.4365     0.1482     0.0302
  385.5000     6.0317     5.8460     7.4209    73.0909     2.4420     0.1462     0.0342
  386.0000     5.9711     5.7877     7.4227    73.5153     2.4499     0.1390     0.0381
  386.5000     5.9110     5.7301     7.4245    73.8733     2.4580     0.1334     0.0398
  387.0000     5.9021     5.6889     7.4263    73.4509     2.4585     0.1334     0.0339
  387.5000     5.9280     5.7363     7.4281    72.3973     2.4578     0.1316     0.0305
  388.0000     6.0065     5.7735     7.4299    71.1094     2.4572     0.1331     0.0296
  388.5000     6.0858     5.8290     7.4317    70.2939     2.4566     0.1362     0.0291
  389.0000     6.1662     5.9088     7.4335    70.8814     2.4560     0.1362     0.0295
  389.5000     6.2476     5.9896     7.4352    70.1359     2.4569     0.1357     0.0300
  390.0000     6.3301     6.0716     7.4370    69.1323     2.4585     0.1351     0.0304
  390.5000     6.4137     6.1547     7.4388    69.9075     2.4601     0.1322     0.0308
  391.0000     6.4719     6.1806     7.4403    71.4869     2.4617     0.1294     0.0312
  391.5000     6.4409     6.2378     7.4402    73.0632     2.4613     0.1314     0.0316
  392.0000     6.3851     6.1947     7.4402    74.6372     2.4604     0.1314     0.0320
  392.5000     6.3299     6.1512     7.4403    75.6670     2.4593     0.1318     0.0325
  393.0000     6.2751     6.1080     7.4457    76.0236     2.4580     0.1346     0.0328
  393.5000     6.2208     6.0652     7.4574    76.3836     2.4566     0.1370     0.0351
  394.0000     6.1669     6.0226     7.4691    76.6101     2.4610     0.1320     0.0380
  394.5000     6.1135     5.9803     7.4808    75.8888     2.4716     0.1215     0.0410
