~VERSION INFORMATION
 VERS.                2.0:   CWLS LOG ASCII STANDARD - VERSION 2.0
 WRAP.                 NO:   ONE LINE PER DEPTH STEP
~WELL INFORMATION
#MNEM.UNIT      DATA TYPE    INFORMATION
#----------   ------------   ------------------------------
 STRT.F           80.0000:   START DEPTH
 STOP.F          782.0000:   STOP DEPTH
 STEP.F            0.5000:   STEP LENGTH
 NULL.          -999.2500:   NO VALUE
 COMP.            US NAVY:   COMPANY
 WELL. NPR 3 TEAPOT DOM #87-S-34:   WELL
 FLD .             TEAPOT:   FIELD
 LOC .      S34 T39N R78W:   LOCATION
 CNTY.            NATRONA:   COUNTY
 STAT.            WYOMING:   STATE
 CTRY. UNITED STATES OF AMERICA:   COUNTRY
 SRVC.       Schlumberger:   SERVICE COMPANY
 DATE.        07-AUG-1961:   LOGDATE
 API .       490250651100:   API NUMBER
~CURVE INFORMATION
#MNEM.UNIT       API CODE    CURVE DESCRIPTION
#----------   ------------   ------------------------------
 DEPT.F                  :   
 GR  .GAPI   30 310 01 00:   GAMMA RAY
 SPR .MV     05 010 01 00:   SPONTANEOUS POTENTIAL FROM RES.
 ASN .OHMM   05 041 16 00:   AMPLIFIED SHORT NORMAL 16"
 ILD .OHMM   05 120 46 00:   INDUCTION LOG DEEP
 CILD.MMHO   05 110 46 00:   CONDUCTIVITY INDUCTION LOG DEEP
~PARAMETER INFORMATION
#MNEM.UNIT          VALUE    DESCRIPTION
#----------   ------------   ------------------------------
 PD  .                 KB:   PERMANENT DATUM
 EPD .F                  :   ELEVATION PERMANENT DATUM
 LMF .                 KB:   LOG MEASURED FROM
 DAPD.F                  :   FEET ABOVE PERMANENT DATUM
 DMF .                 KB:   DRILLING MEASURED FROM
 EKB .F              5102:   KELLING BUSHING
 EDF .F                  :   DRILLING FLOOR
 EGL .F              5097:   GROUND LEVEL
 DATE.        07-AUG-1961:   RUN DATE
 RUN .                  1:   RUN NUMBER
 DD  .F               770:   DEPTH DRILLER
 DL  .F               783:   DEPTH LOGGER
 BLI .F               782:   BOTTOM LOG INTERVAL
 TLI .F               100:   TOP LOG INTERVAL
 CS  .IN                 :   CASING SIZE
 CBD .F                  :   CASING BOTTOM DRILLER
 CBL .F                  :   CASING BOTTOM LOGGER
 BS  .IN             6.75:   BIT SIZE
 BSD .F               770:   BIT SIZE AT DEPTH
 DFT .       OIL EMULSION:   DRILLING FLUID TYPE
 DFD .               10.4:   DRILLING FLUID DENSITY
 DFV .                 45:   DRILLING FLUID VISCOSITY
 DFPH.                   :   DRILLING FLUID PH
 DFL .                   :   DRILLING FLUID LOSS
 MSS .                   :   MUD SAMPLE SOURCE
 RMS .OHMM           0.95:   RESISTIVITY MUD SAMPLE
 MST .F                72:   MUD SAMPLE TEMPERATURE
 RMF .OHMM               :   RESISTIVITY MUD FILTRATE SAMPLE
 MFST.F                  :   MUD FILTRATE SAMPLE TEMPERATURE
 RMC .OHMM               :   RESISTIVITY MUD CAKE
 MCST.F                  :   MUD CAKE SAMPLE TEMPERATURE
 MFSS.                   :   MUD FILTRATE SAMPLE SOURCE
 MCSS.                   :   MUD CAKE SAMPLE SOURCE
 RMB .OHMM               :   RESISTIVITY MUD AT BHT
 BHT .F                  :   BOTTOM HOLE TEMPERATURE
 TCS .HRS               1:   TIME CURCULATED STOPPED
 TLAB.HRS                :   TIME LOGGER AT BOTTOM
 MRT .F                  :   MAXIMUM RECORDED TEMPERATURE
 LUN .               2544:   LOGGING UNIT NUMBER
 LUL .                   :   LOGGING UNIT LOCATION
 ENGI.             QUINBY:   RECORDING ENGINEER
 WITN.          JORGENSON:   WITNESSED BY
 CLNT.            A2DTECH:   CLIENT CODE
 ORIG.       2", 5" PRINT:   ORIGIN OF DATA
 UWI .       490250651100:   UNIQUE WELL ID
 DICO. A2D Technologies, Inc.:   DIGITIZING COMPANY
 OS  .                   :   OTHER SERVICES
 PWI .                   :   PRIMARY WELL IDENTIFIER
 R1  .                   :   REMARKS 1
 R2  .                   :   REMARKS 2
~OTHER INFORMATION
~A   DEPT       GR        SPR         ASN         ILD      CILD  
# ...
  690.0000    31.3932   -21.9880    12.5000    11.0548    81.5016
  690.5000    29.8314   -21.9880    12.8748    11.1265    81.4871
  691.0000    28.5826   -21.9880    12.9493    11.1988    84.4801
  691.5000    27.3338   -21.9880    12.9482    11.1952    85.9699
  692.0000    27.6500   -22.5904    12.7218    11.0417    88.9624
  692.5000    28.7486   -23.0422    12.7209    10.8881    91.9554
  693.0000    28.9075   -23.3434    12.6446    10.7346    93.4446
  693.5000    28.5976   -23.3434    12.4933    10.5811    94.9339
  694.0000    28.9724   -23.4940    12.2668    10.4276    94.9157
  694.5000    31.4883   -23.3434    12.0404    10.1988    96.4086
  695.0000    32.5507   -23.1928    11.8891    10.1154    96.3905
  695.5000    33.6181   -22.8916    11.9632     9.8910    96.3760
  696.0000    30.3251   -22.4398    12.0377     9.8128    96.3609
  696.5000    28.6025   -22.1386    12.1120     9.7345    96.3434
  697.0000    35.0361   -21.8373    12.1109     9.6563    96.3288
  697.5000    37.5431   -21.6867    12.0348     9.6534    96.3143
  698.0000    36.4508   -21.6867    12.0337     9.6505    96.2998
  698.5000    34.7326   -21.6867    12.0328     9.6476    96.2853
  699.0000    28.6324   -21.8373    12.1073     9.6445    96.2707
  699.5000    26.9142   -21.9880    12.1816     9.7170    96.2527
  700.0000    24.8829   -22.1386    12.3308     9.7894    96.2382
  700.5000    28.1724   -22.5887    12.6291     9.9364    90.2424
  701.0000    27.8626   -22.8888    13.0780    10.3852    87.2494
  701.5000    25.2054   -23.0376    13.6774    11.3612    84.2563
  702.0000    22.7970   -23.0361    14.4271    11.9607    78.2557
  702.5000    16.4722   -23.0347    15.7026    13.8592    72.2551
  703.0000    15.5411   -23.3344    17.2041    15.3475    67.7583
  703.5000    12.1060   -23.6342    18.4050    17.3784    61.7613
  704.0000     8.0449   -23.7833    20.3577    19.8612    55.7607
  704.5000     6.7988   -23.9325    22.1601    22.0428    51.2639
  705.0000     6.6521   -23.7801    23.5865    23.6972    46.7669
  705.5000     5.8774   -23.7756    25.0123    24.9826    40.5711
  706.0000     5.5703   -23.4756    25.9124    26.6291    36.2696
  706.5000     8.0839   -23.4742    26.6621    27.3046    34.7803
  707.0000     7.7787   -23.4727    27.3367    26.9259    34.7984
  707.5000     6.2216   -23.4713    28.0112    26.5472    34.8128
  708.0000     4.0385   -23.4698    28.6105    26.0933    34.8273
  708.5000     2.6359   -23.4684    29.2093    25.7146    34.8421
  709.0000     3.2716   -23.4669    28.9064    25.5547    34.8598
  709.5000     5.3138   -23.6161    27.7012    24.9567    36.3780
  710.0000     9.3905   -24.5179    26.0449    23.5238    37.8962
  710.5000    10.4937   -24.9682    24.4638    21.7897    42.4219
  711.0000    10.1886   -25.1177    23.6346    20.5827    46.9476
  711.5000    12.3873   -25.1159    22.7296    19.3757    49.9699
  712.0000    16.3074   -25.1145    21.9756    18.7711    51.4914
  712.5000    13.3418   -24.9623    21.3719    18.6935    51.5059
  713.0000    10.5327   -24.8100    20.9186    18.6156    53.0241
  713.5000     8.5042   -24.3567    20.5405    18.4628    53.0385
  714.0000    13.6782   -23.9035    20.1624    18.2347    54.5567
  714.5000    16.5029   -23.6008    19.7086    17.9314    54.5715
  715.0000    16.6672   -23.5994    19.4057    17.6280    56.0930
  715.5000    15.7361   -23.5979    19.1779    17.3181    57.6112
  716.0000    20.2822   -23.7471    18.9502    16.9454    57.6256
  716.5000    26.0803   -23.8959    18.7225    16.7926    57.6401
  717.0000    30.9394   -24.0454    18.6451    16.6398    57.6545
  717.5000    34.7031   -24.3448    18.4920    16.4117    59.1730
  718.0000    35.3369   -24.6445    18.4147    16.2590    60.6946
  718.5000    34.7168   -24.6431    18.4125    16.0309    60.7090
  719.0000    34.6961   -24.6416    18.3352    15.8780    60.7235
  719.5000    34.9185   -24.6398    18.3330    15.8001    62.2417
  720.0000    33.6466   -24.3372    18.3308    15.8732    62.2561
  720.5000    32.0895   -24.1851    18.4790    16.0969    60.7218
  721.0000    30.3759   -24.0331    18.6267    16.4713    57.7737
  721.5000    28.5057   -23.7304    18.7749    16.7703    56.2880
  722.0000    28.1820   -23.5783    18.9237    16.9187    57.8062
  722.5000    29.1473   -23.2753    19.0719    16.6148    60.8282
  723.0000    30.8765   -22.9727    19.2195    16.3114    62.3464
  723.5000    30.2584   -22.6700    18.8409    15.9327    63.8799
  724.0000    29.1707   -22.5180    18.3124    15.6294    65.3864
  724.5000    26.5181   -22.3659    17.8591    15.3260    66.9046
  725.0000    25.8999   -22.2139    17.5562    14.9473    68.4229
  725.5000    25.9077   -22.3630    17.3285    14.6323    68.4373
  726.0000    25.9155   -22.5122    17.1008    14.2647    69.9555
  726.5000    25.2973   -22.6613    16.7973    14.1872    68.4662
  727.0000    25.3063   -22.9607    16.6448    14.1850    68.4812
  727.5000    25.6259   -23.4111    16.4922    14.2582    66.9913
  728.0000    25.7903   -23.5602    16.5652    14.4066    67.0094
  728.5000    25.6202   -23.5588    16.7134    14.5605    67.0238
  729.0000    21.5805   -23.5569    16.7865    14.7787    67.0383
  729.5000    25.5343   -23.5555    16.8595    14.9272    67.0527
  730.0000    27.0866   -23.5540    16.7064    14.8491    67.0677
  730.5000    26.5670   -23.5526    16.4787    14.3199    67.0852
  731.0000    25.1944   -23.5511    16.2509    13.9412    67.0997
  731.5000    24.2799   -23.3991    16.0232    13.6378    68.6179
  732.0000    24.6429   -23.2470    15.7955    13.3233    70.1361
  732.5000    26.6432   -22.7934    15.4920    12.9552    71.6543
  733.0000    26.3377   -22.4908    15.2643    12.6518    73.3433
  733.5000    27.7811   -22.3387    14.9614    12.3484    79.2056
  734.0000    28.1038   -22.4882    14.6585    12.0451    82.2276
  734.5000    27.4908   -22.4864    14.3555    11.8170    85.2495
  735.0000    26.8384   -22.6356    13.9774    11.5086    86.7678
  735.5000    31.0735   -22.7847    13.7492    11.2097    89.7897
  736.0000    34.8372   -22.9335    13.5966    11.0569    89.9451
  736.5000    30.6196   -22.9321    13.5193    10.8288    91.3260
  737.0000    29.5320   -23.2318    13.4419    10.7513    92.8442
  737.5000    27.8183   -23.2304    13.2894    10.6739    92.8587
  738.0000    26.1047   -23.2289    13.2120    10.6717    91.3657
  738.5000    27.2079   -23.2274    13.2093    10.6694    91.3838
  739.0000    27.5287   -23.0750    13.2075    10.6668    91.3985
  739.5000    27.8495   -22.9230    13.2050    10.6646    91.4163
  740.0000    28.1684   -22.7709    13.2028    10.6624    91.4307
  740.5000    27.3937   -22.4683    13.1255    10.8109    91.4452
  741.0000    29.9074   -22.1656    13.1233    10.8087    91.4596
  741.5000    30.5392   -21.8538    13.1206    10.9571    91.4741
  742.0000    29.2970   -21.5600    13.0432    11.1050    91.4887
  742.5000    28.8333   -21.5585    12.9659    11.1028    89.9992
  743.0000    28.8431   -21.7080    12.9637    11.2512    90.0173
  743.5000  -999.2500   -21.8572    12.9616    11.2491    90.0317
  744.0000  -999.2500   -22.1566    12.8842    11.2469    90.0462
  744.5000  -999.2500   -22.4563    12.8063    11.1694    90.0606
  745.0000  -999.2500   -22.7561    12.8042    11.0918    90.0752
  745.5000  -999.2500   -22.9052    12.7268    11.0139    90.0931
  746.0000  -999.2500   -22.9034    12.8004    10.9364    90.1076
  746.5000  -999.2500   -23.0529    12.8734    10.9343    90.1220
  747.0000  -999.2500   -23.0511    13.0211    10.8568    90.1365
  747.5000  -999.2500   -23.0497    13.1687    10.7793    90.1509
  748.0000  -999.2500   -23.0482    13.1666    10.6978    90.1654
  748.5000  -999.2500   -22.8958    13.0892    10.5485    90.1834
  749.0000  -999.2500   -22.5931    12.9367    10.4710    90.1979
  749.5000  -999.2500   -22.4411    12.8593    10.4689    90.2123
  750.0000  -999.2500   -22.4400    12.7820    10.4667    90.3752
  750.5000  -999.2500   -22.4398    12.7792    10.3892    91.3244
