~VERSION INFORMATION
 VERS.                2.0:   CWLS LOG ASCII STANDARD - VERSION 2.0
 WRAP.                 NO:   ONE LINE PER DEPTH STEP
~WELL INFORMATION
#MNEM.UNIT      DATA TYPE    INFORMATION
#----------   ------------   ------------------------------
 STRT.F          100.0000:   START DEPTH
 STOP.F          780.0000:   STOP DEPTH
 STEP.F            0.5000:   STEP LENGTH
 NULL.          -999.2500:   NO VALUE
 COMP. U S NAVY-INTEX OIL:   COMPANY
 WELL.        NPR #34-S-2:   WELL
 FLD .             TEAPOT:   FIELD
 LOC .       S2 T38N R78W:   LOCATION
 CNTY.            NATRONA:   COUNTY
 STAT.            WYOMING:   STATE
 CTRY. UNITED STATES OF AMERICA:   COUNTRY
 SRVC.       Schlumberger:   SERVICE COMPANY
 DATE.        16-JUL-1962:   LOGDATE
 API .       490250644000:   API NUMBER
~CURVE INFORMATION
#MNEM.UNIT       API CODE    CURVE DESCRIPTION
#----------   ------------   ------------------------------
 DEPT.F                  :   
 ASN .OHMM   05 041 16 00:   AMPLIFIED SHORT NORMAL 16"
 CILD.MMHO   05 110 46 00:   CONDUCTIVITY INDUCTION LOG DEEP
 ILD .OHMM   05 120 46 00:   INDUCTION LOG DEEP
 SPR .MV     05 010 01 00:   SPONTANEOUS POTENTIAL FROM RES.
 CALM.IN     15 280 01 00:   CALIPER FROM MICRO LOG
 GR  .GAPI   30 310 01 00:   GAMMA RAY
~PARAMETER INFORMATION
#MNEM.UNIT          VALUE    DESCRIPTION
#----------   ------------   ------------------------------
 LMF .                 KB:   LOG MEASURED FROM
 DMF .                 KB:   DRILLING MEASURED FROM
 EKB .F              5130:   KELLING BUSHING
 EGL .F              5125:   GROUND LEVEL
 DATE.        16-JUL-1962:   RUN DATE
 RUN .                  1:   RUN NUMBER
 DD  .F               780:   DEPTH DRILLER
 DL  .F               781:   DEPTH LOGGER
 BLI .F               780:   BOTTOM LOG INTERVAL
 TLI .F               100:   TOP LOG INTERVAL
 CBD .F                10:   CASING BOTTOM DRILLER
 BS  .IN             6.75:   BIT SIZE
 BSD .F               780:   BIT SIZE AT DEPTH
 DFT .       OIL EMULSION:   DRILLING FLUID TYPE
 DFD .               10.3:   DRILLING FLUID DENSITY
 DFV .                 43:   DRILLING FLUID VISCOSITY
 DFL .                4.6:   DRILLING FLUID LOSS
 RMS .OHMM              4:   RESISTIVITY MUD SAMPLE
 MST .F                82:   MUD SAMPLE TEMPERATURE
 RMF .OHMM            3.1:   RESISTIVITY MUD FILTRATE SAMPLE
 MFST.F                82:   MUD FILTRATE SAMPLE TEMPERATURE
 RMC .OHMM            4.3:   RESISTIVITY MUD CAKE
 MCST.F                82:   MUD CAKE SAMPLE TEMPERATURE
 TCS .HRS             0.5:   TIME CURCULATED STOPPED
 LUN .               2503:   LOGGING UNIT NUMBER
 LUL .               CSPR:   LOGGING UNIT LOCATION
 ENGI.           ELLERMAN:   RECORDING ENGINEER
 WITN.          JORGENSON:   WITNESSED BY
 CLNT.            A2DTECH:   CLIENT CODE
 ORIG.           5" PRINT:   ORIGIN OF DATA
 UWI .       490250644000:   UNIQUE WELL ID
 DICO. A2D Technologies, Inc.:   DIGITIZING COMPANY
~OTHER INFORMATION
~A   DEPT       ASN       CILD         ILD      SPR       CALM         GR   
# ...
  672.0000    17.4828    54.6407    16.8841   -55.2261     6.5505    49.6711
  672.5000    17.3393    55.1772    16.6297   -55.0744     6.5358    64.4569
  673.0000    17.1151    56.8862    16.4315   -56.2620     6.5212    53.9044
  673.5000    17.0404    57.6347    16.2052   -56.5567     6.4916    63.1094
  674.0000    16.8161    59.1317    15.9789   -56.4042     6.4621    64.0177
  674.5000    16.6667    60.6287    15.7464   -56.1037     6.3878    48.4878
  675.0000    16.4425    61.3772    15.5890   -55.9520     6.3135    39.5933
  675.5000    16.2182    62.8743    15.2999   -55.8003     6.2541    51.2116
  676.0000    15.9940    63.6228    14.9984   -55.6486     6.2842    53.4774
  676.5000    15.7698    63.6228    14.6969   -55.6457     6.3741    25.8800
  677.0000    15.6203    63.6228    14.5458   -55.6428     6.4938    33.5779
  677.5000    15.5456    63.6228    14.3195   -55.6399     6.5985    40.3697
  678.0000    15.4709    63.6228    14.3187   -55.6369     6.6436    36.9050
  678.5000    15.4709    63.6228    14.3934   -55.3358     6.6290    33.4127
  679.0000    15.5456    63.6228    14.4677   -54.7376     6.6293    22.3660
  679.5000    15.5456    63.5257    14.6173   -53.8419     6.6146    29.0763
  680.0000    15.6203    62.8743    14.7669   -54.4342     6.6000    39.7897
  680.5000    15.6951    62.1257    14.8414   -55.1754     6.5854    21.5426
  681.0000    15.6951    61.3772    14.9910   -55.7677     6.5708    35.1228
  681.5000    15.7698    60.6287    14.9901   -56.0625     6.5711    40.1035
  682.0000    15.7698    59.8802    14.9142   -55.7560     6.5564    28.9477
  682.5000    15.4709    59.8802    14.6879   -55.2902     6.5568    25.7836
  683.0000    15.2466    62.1257    14.4616   -54.7137     6.5571    27.4472
  683.5000    15.0972    62.8743    14.2353   -54.4132     6.5573    26.9991
  684.0000    14.9477    64.3713    14.1593   -54.1127     6.5726    38.6185
  684.5000    14.7982    64.3713    14.1586   -53.8122     6.5729    39.5280
  685.0000    14.5740    64.3713    14.1579   -53.5117     6.5731    54.3137
  685.5000    14.4245    65.1198    14.1571   -53.0624     6.5585    52.9110
  686.0000    14.2003    65.1198    14.0812   -52.9107     6.5588    60.8093
  686.5000    14.0508    65.5352    14.0742   -52.9077     6.5442    66.2425
  687.0000    13.9626    66.0029    13.9168   -52.9048     6.5445    63.5332
  687.5000    13.6771    67.3653    13.6277   -53.0501     6.5298    52.0746
  688.0000    13.4529    68.1138    13.3262   -52.8983     6.5302    45.8939
  688.5000    13.3034    69.0083    13.0999   -52.7466     6.5305    36.3972
  689.0000    13.1540    70.3593    12.7984   -52.7437     6.5308    31.4231
  689.5000    13.0045    71.8563    12.6473   -52.8897     6.5311    38.2160
  690.0000    12.8550    73.3533    12.4210   -52.8868     6.5314    34.4497
  690.5000    12.7055    74.8503    12.2699   -52.7351     6.5466    39.8840
  691.0000    12.5561    76.3473    12.1188   -52.4315     6.5618    59.0438
  691.5000    12.4066    77.8443    11.9677   -51.8170     6.5770    65.0950
  692.0000    12.3318    78.5928    11.8917   -50.7911     6.5923    63.9685
  692.5000    12.2571    79.3413    11.8158   -50.7882     6.6075    52.6948
  693.0000    12.1824    79.3413    11.8150   -51.0829     6.6078    50.1637
  693.5000    12.1824    79.3413    11.8141   -51.0800     6.6081    37.3465
  694.0000    12.1824    78.5928    11.8888   -51.0771     6.6084    31.6206
  694.5000    12.1076    77.8443    11.9630   -51.0743     6.5937    37.6571
  695.0000    12.1824    77.0958    11.9624   -50.7737     6.5642    35.2494
  695.5000    12.2571    77.0958    11.9616   -50.6205     6.5495    41.1350
  696.0000    12.3318    76.3473    11.9608   -50.1726     6.5200    38.1240
  696.5000    12.3318    77.0958    11.8849   -49.8715     6.5053    40.9942
  697.0000    12.3318    79.3413    11.8090   -49.8686     6.4907    47.9368
  697.5000    12.2571    81.5868    11.6986   -50.0152     6.4612    55.0302
  698.0000    12.0329    82.3353    11.6383   -50.1611     6.4615    51.2639
  698.5000    11.8087    83.0838    11.5060   -50.1575     6.4767    36.2495
  699.0000    11.5845    83.8323    11.4175   -50.3036     6.4920    32.1174
  699.5000    11.4350    84.5808    11.2788   -50.5981     6.5221    44.4910
  700.0000    11.3602    85.3293    11.2030   -50.8929     6.5672    45.5502
  700.5000    11.2108    85.3293    11.1114   -51.1876     6.6272    40.7292
  701.0000    11.1360    86.0778    11.0510   -51.4823     6.6275    44.8060
  701.5000    11.0613    86.8263    10.9729   -51.6282     6.6278    49.6359
  702.0000    11.0613    86.8263    10.8208   -51.6246     6.6131    48.2829
  702.5000    10.9865    87.5749    10.7444   -51.3241     6.6081    47.2326
  703.0000    10.9865    87.5749    10.7426   -50.8748     6.6111    51.1575
  703.5000    10.9865    87.5749    10.7411   -50.1278     6.6109    58.8235
  704.0000    11.0601    88.3234    10.6645   -49.3809     6.6257    60.9351
  704.5000    10.9852    88.3234    10.6630   -48.0381     6.6255    70.5882
  705.0000    11.0598    89.1482    10.7371   -47.1423     6.6403    72.3982
  705.5000    11.0596    90.6526    10.8108   -46.3953     6.6401    59.1184
  706.0000    11.1342    89.9115    10.8845   -45.9460     6.6400    60.4314
  706.5000    11.2088    89.9188    10.9582   -45.9430     6.6398    66.3650
  707.0000    11.3581    88.4292    11.0316   -46.0889     6.6248    58.0694
  707.5000    11.4328    86.7638    11.1052   -46.0860     6.6097    59.7285
  708.0000    11.5073    84.6996    11.1037   -46.2321     6.6095    61.6893
  708.5000    11.5072    83.2100    11.0271   -46.2289     6.5945    53.2428
  709.0000    11.4323    82.4689    11.0256   -46.2260     6.5794    52.7903
  709.5000    11.2827    82.4781    11.0241   -46.2231     6.5792    44.6455
  710.0000    11.2078    84.7310    10.9471   -46.2201     6.5791    39.8190
  710.5000    11.1329    86.9839    10.8704   -46.0684     6.5640    58.5219
  711.0000    11.0184    89.2368    10.7937   -46.0655     6.5490    62.0302
  711.5000    10.8991    90.7412    10.7171   -46.0625     6.5488    59.5777
  712.0000    10.8195    92.2456    10.5652   -45.9028     6.5337    52.6395
  712.5000    10.6838    94.4985    10.4133   -45.7341     6.5336    57.4661
  713.0000    10.5342    96.0030    10.2615   -45.4578     6.5484    70.1357
  713.5000    10.4593    96.8386    10.1096   -45.1572     6.5482    59.4268
  714.0000    10.4592    98.2635    10.0330   -45.0055     6.5630    53.3937
  714.5000    10.4590    99.0209     9.9563   -44.7049     6.5927    55.3545
  715.0000    10.4589    99.7768     9.8796   -44.5532     6.6075    53.9970
  715.5000    10.5335    99.7842     9.8781   -44.4014     6.6223    57.6169
  716.0000    10.4586   100.5401     9.8015   -44.3985     6.6072    62.2926
  716.5000    10.5332   100.5475     9.8000   -44.5451     6.5921    52.4811
  717.0000    10.5330   100.5548     9.7985   -44.9879     6.5611    55.6561
  717.5000    10.6076   101.3107     9.8722   -45.4314     6.5147    59.1252
  718.0000    10.7569   100.5678     9.8707   -46.0237     6.4424    50.5279
  718.5000    10.9063    99.8285     9.7937   -46.4673     6.3974    52.3379
  719.0000    11.0556    99.0855     9.7922   -46.9107     6.3674    55.3545
  719.5000    11.2474    96.8474     9.8659   -47.0566     6.3673    46.7572
  720.0000    11.8027    91.6171    10.0148   -47.0635     6.3970    40.1207
  720.5000    12.4752    83.3910    10.3893   -47.3858     6.4864    55.9495
  721.0000    13.1477    71.4223    10.9893   -48.3215     6.6057    46.0030
  721.5000    14.4181    59.4537    12.0404   -50.9131     6.6503    51.2821
  722.0000    16.1369    54.9501    13.9187   -52.9935     6.6651    36.4223
  722.5000    18.1547    48.8895    17.0751   -56.2644     6.5853    21.1161
  723.0000    20.5462    41.2420    19.8556   -61.0234     6.5006     8.8439
  723.5000    23.0871    33.9044    23.4631   -63.8478     6.4556     5.5212
