~VERSION INFORMATION
 VERS.                2.0:   CWLS LOG ASCII STANDARD - VERSION 2.0
 WRAP.                 NO:   ONE LINE PER DEPTH STEP
~WELL INFORMATION
#MNEM.UNIT      DATA TYPE    INFORMATION
#----------   ------------   ------------------------------
 STRT.F          566.5000:   START DEPTH
 STOP.F         2065.5000:   STOP DEPTH
 STEP.F            0.5000:   STEP LENGTH
 NULL.          -999.2500:   NO VALUE
 COMP. LAWRENCE/ALLISON INC:   COMPANY
 WELL.      NPR 3 #25-X-3:   WELL
 FLD .             TEAPOT:   FIELD
 LOC .       S3 T38N R78W:   LOCATION
 CNTY.            NATRONA:   COUNTY
 STAT.            WYOMING:   STATE
 CTRY. UNITED STATES OF AMERICA:   COUNTRY
 SRVC.            Unknown:   SERVICE COMPANY
 DATE.        26-SEP-1987:   LOGDATE
 API .       490251119000:   API NUMBER
~CURVE INFORMATION
#MNEM.UNIT       API CODE    CURVE DESCRIPTION
#----------   ------------   ------------------------------
 DEPT.F                  :   
 ROP .MIN/FT 91 810 01 00:   RATE OF DRILLING PENETRATION
 TGAS.UNITS  91 830 01 00:   TOTAL GAS FROM HOTWIRE
~PARAMETER INFORMATION
#MNEM.UNIT          VALUE    DESCRIPTION
#----------   ------------   ------------------------------
 DATE.        26-SEP-1987:   RUN DATE
 RUN .                  1:   RUN NUMBER
 DD  .F              2066:   DEPTH DRILLER
 TLI .F               566:   TOP LOG INTERVAL
 WITN. R. HUSK/R. PETERSON:   WITNESSED BY
 CLNT.            A2DTECH:   CLIENT CODE
 ORIG.           5" PRINT:   ORIGIN OF DATA
 UWI .       490251119000:   UNIQUE WELL ID
 DICO. A2D Technologies, Inc.:   DIGITIZING COMPANY
~OTHER INFORMATION
~A   DEPT        ROP       TGAS 
# ...
  931.0000     0.5302   232.4011
  931.5000     0.5098   222.9526
  932.0000     0.5103   213.8374
  932.5000     0.5108   213.9450
  933.0000     0.5007   214.0488
  933.5000     0.4907   214.1527
  934.0000     0.4808   214.2566
  934.5000     0.4499   214.3604
  935.0000     0.4087   214.4643
  935.5000     0.3986   214.5681
  936.0000     0.3993   214.6720
  936.5000     0.3890   214.7759
  937.0000     0.3889   214.8797
  937.5000     0.3888   214.9836
  938.0000     0.3888   215.0874
  938.5000     0.3887   215.1913
  939.0000     0.3886   215.2952
  939.5000     0.3885   215.3990
  940.0000     0.3884   215.5029
  940.5000     0.3883   215.6068
  941.0000     0.3883   215.7106
  941.5000     0.3882   215.8145
  942.0000     0.3881   215.9183
  942.5000     0.3880   216.0222
  943.0000     0.3879   216.1261
  943.5000     0.3878   216.2299
  944.0000     0.3878   216.3338
  944.5000     0.3877   216.4376
  945.0000     0.3876   216.5415
  945.5000     0.3875   216.6454
  946.0000     0.3874   216.7492
  946.5000     0.3873   216.8531
  947.0000     0.3873   216.9570
  947.5000     0.3872   217.0608
  948.0000     0.3871   217.1647
  948.5000     0.3870   217.2685
  949.0000     0.3869   217.3724
  949.5000     0.3868   217.4763
  950.0000     0.3868   217.5801
  950.5000     0.3867   217.6840
  951.0000     0.3866   217.7878
  951.5000     0.3865   217.8917
  952.0000     0.3864   217.9956
  952.5000     0.3863   218.0994
  953.0000     0.3863   218.2033
  953.5000     0.3862   218.3071
  954.0000     0.3861   218.4110
  954.5000     0.3860   218.5149
  955.0000     0.3859   218.6187
  955.5000     0.3858   218.7226
  956.0000     0.3858   218.8264
  956.5000     0.3857   218.9303
  957.0000     0.3856   219.0342
  957.5000     0.3855   219.1380
  958.0000     0.3854   219.2419
  958.5000     0.3853   219.3458
  959.0000     0.3852   219.4496
  959.5000     0.3852   219.5535
  960.0000     0.3851   219.6573
  960.5000     0.3850   219.7612
  961.0000     0.3849   219.8651
  961.5000     0.3848   219.9689
  962.0000     0.3847   220.0728
  962.5000     0.3847   220.1767
  963.0000     0.3846   220.2805
  963.5000     0.3845   220.3844
  964.0000     0.3844   220.4882
  964.5000     0.3843   220.5921
  965.0000     0.3847   220.6960
  965.5000     0.3538   219.4351
  966.0000     0.3438   212.0153
  966.5000     0.3129   204.5956
  967.0000     0.3030   197.1759
  967.5000     0.2931   189.7561
  968.0000     0.3040   182.3364
  968.5000     0.2940   174.9167
  969.0000     0.2840   167.4969
  969.5000     0.2842   160.0772
  970.0000     0.2843   155.9771
  970.5000     0.2844   156.2179
  971.0000     0.2845   156.4587
  971.5000     0.2846   156.6995
  972.0000     0.2847   156.9403
  972.5000     0.2847   157.1811
  973.0000     0.2848   157.4219
  973.5000     0.2849   157.6627
  974.0000     0.2850   157.9035
  974.5000     0.2851   158.1443
  975.0000     0.2852   158.3851
  975.5000     0.2853   158.6259
  976.0000     0.2854   158.8667
  976.5000     0.2855   159.1075
  977.0000     0.2856   159.3483
  977.5000     0.2857   159.5891
  978.0000     0.2858   159.8298
  978.5000     0.2859   160.0706
  979.0000     0.2860   160.3114
  979.5000     0.2860   160.5522
  980.0000     0.2861   160.7930
  980.5000     0.2862   161.0338
  981.0000     0.2863   161.2746
  981.5000     0.2864   161.5154
  982.0000     0.2865   161.7562
  982.5000     0.2866   161.9970
  983.0000     0.2867   162.2378
  983.5000     0.2868   162.4786
  984.0000     0.2869   162.7194
  984.5000     0.2870   162.9602
  985.0000     0.2871   163.2009
  985.5000     0.2872   163.4417
  986.0000     0.2873   163.6825
  986.5000     0.2873   163.9233
  987.0000     0.2874   164.1641
  987.5000     0.2875   164.4049
  988.0000     0.2876   164.6457
  988.5000     0.2877   164.8865
  989.0000     0.2878   165.1273
  989.5000     0.2879   165.3681
  990.0000     0.2880   165.6089
  990.5000     0.2881   165.8497
  991.0000     0.2882   166.0905
  991.5000     0.2883   166.3313
  992.0000     0.2884   166.5721
  992.5000     0.2885   166.8129
  993.0000     0.2886   167.0536
  993.5000     0.2886   167.2944
  994.0000     0.2887   167.5352
  994.5000     0.2888   167.7760
  995.0000     0.2889   168.0168
  995.5000     0.2890   168.2576
  996.0000     0.2891   168.4984
  996.5000     0.2892   168.7392
  997.0000     0.2895   168.9800
  997.5000     0.2900   169.7077
  998.0000     0.2799   178.6190
  998.5000     0.2910   187.5303
  999.0000     0.3332   196.4417
  999.5000     0.3754   205.3530
 1000.0000     0.3759   215.6948
 1000.5000     0.3868   215.5818
 1001.0000     0.3872   215.4471
 1001.5000     0.3771   215.3124
 1002.0000     0.3773   215.1777
 1002.5000     0.3775   215.0430
 1003.0000     0.3777   214.9083
 1003.5000     0.3779   214.7736
 1004.0000     0.3781   214.6389
 1004.5000     0.3783   214.5042
 1005.0000     0.3785   214.3695
 1005.5000     0.3786   214.2348
 1006.0000     0.3788   214.1001
 1006.5000     0.3790   213.9655
 1007.0000     0.3792   213.8307
 1007.5000     0.3794   213.6961
 1008.0000     0.3796   213.5614
 1008.5000     0.3798   213.4267
 1009.0000     0.3800   213.2920
 1009.5000     0.3802   213.1573
 1010.0000     0.3804   213.0226
 1010.5000     0.3805   212.8879
 1011.0000     0.3807   212.7532
 1011.5000     0.3809   212.6185
 1012.0000     0.3811   212.4838
 1012.5000     0.3813   212.3491
 1013.0000     0.3815   212.2144
 1013.5000     0.3817   212.0798
 1014.0000     0.3819   211.9451
 1014.5000     0.3821   211.8104
 1015.0000     0.3823   211.6757
 1015.5000     0.3825   211.5410
 1016.0000     0.3826   211.4063
 1016.5000     0.3828   211.2716
 1017.0000     0.3830   211.1369
 1017.5000     0.3832   211.0022
 1018.0000     0.3834   210.8675
 1018.5000     0.3836   210.7328
 1019.0000     0.3838   210.5981
 1019.5000     0.3840   210.4635
 1020.0000     0.3842   210.3288
 1020.5000     0.3844   210.1941
 1021.0000     0.3845   210.0594
 1021.5000     0.3847   209.9247
 1022.0000     0.3849   209.7900
 1022.5000     0.3851   209.6553
 1023.0000     0.3853   209.5206
 1023.5000     0.3855   209.3859
 1024.0000     0.3857   209.2512
 1024.5000     0.3859   209.1165
 1025.0000     0.3861   208.9818
 1025.5000     0.3863   208.8472
 1026.0000     0.3865   208.7124
 1026.5000     0.3866   208.5778
 1027.0000     0.3868   208.4431
 1027.5000     0.3870   208.3084
 1028.0000     0.3872   208.1737
 1028.5000     0.3874   208.0390
 1029.0000     0.3876   207.9043
 1029.5000     0.3878   207.7696
 1030.0000     0.3880   207.6349
 1030.5000     0.3882   207.5002
 1031.0000     0.3884   207.3655
 1031.5000     0.3886   207.2308
 1032.0000     0.3887   207.0961
 1032.5000     0.3889   206.9615
 1033.0000     0.3891   206.8268
 1033.5000     0.3893   206.6921
 1034.0000     0.3895   206.5574
 1034.5000     0.3897   206.4227
 1035.0000     0.3899   206.2880
 1035.5000     0.3901   206.1533
 1036.0000     0.3903   206.0186
 1036.5000     0.3905   205.8839
 1037.0000     0.3906   205.7492
 1037.5000     0.3908   205.6145
 1038.0000     0.3910   205.4798
 1038.5000     0.3912   205.3452
 1039.0000     0.3914   205.2105
 1039.5000     0.3916   205.0758
 1040.0000     0.3918   204.9411
 1040.5000     0.3920   204.8064
 1041.0000     0.3922   204.6717
 1041.5000     0.3924   204.5370
 1042.0000     0.3926   204.4023
 1042.5000     0.3927   204.2676
 1043.0000     0.3929   204.1329
 1043.5000     0.3931   203.9982
 1044.0000     0.3933   203.8635
 1044.5000     0.3935   203.7289
 1045.0000     0.3937   203.5942
 1045.5000     0.3939   203.4595
 1046.0000     0.3941   203.3248
 1046.5000     0.3943   203.1901
 1047.0000     0.3945   203.0554
 1047.5000     0.3946   202.9207
 1048.0000     0.3948   202.7860
 1048.5000     0.3950   202.6513
 1049.0000     0.3952   202.5166
 1049.5000     0.3954   202.3819
 1050.0000     0.3956   202.2472
 1050.5000     0.3958   202.1125
 1051.0000     0.3960   201.9778
 1051.5000     0.3962   201.8432
 1052.0000     0.3964   201.7085
