~VERSION INFORMATION
 VERS.                2.0:   CWLS LOG ASCII STANDARD - VERSION 2.0
 WRAP.                 NO:   ONE LINE PER DEPTH STEP
~WELL INFORMATION
#MNEM.UNIT      DATA TYPE    INFORMATION
#----------   ------------   ------------------------------
 STRT.F            0.0000:   START DEPTH
 STOP.F         3024.5000:   STOP DEPTH
 STEP.F            0.5000:   STEP LENGTH
 NULL.          -999.2500:   NO VALUE
 COMP. LAWRENCE/ALLISON INC:   COMPANY
 WELL.   NPR 3 77X #77-28:   WELL
 FLD .           N.P.R. 3:   FIELD
 LOC .      S28 T39N R78W:   LOCATION
 CNTY.            NATRONA:   COUNTY
 STAT.            WYOMING:   STATE
 CTRY. UNITED STATES OF AMERICA:   COUNTRY
 SRVC.      Dresser Atlas:   SERVICE COMPANY
 DATE.        19-OCT-1986:   LOGDATE
 API .       490251110400:   API NUMBER
~CURVE INFORMATION
#MNEM.UNIT       API CODE    CURVE DESCRIPTION
#----------   ------------   ------------------------------
 DEPT.F                  :   
 PORD.DEC    45 890 12 00:   DENSITY POROSITY SANDSTONE
 CNC .DEC    42 890 03 00:   NEUTRON POROSITY SANDSTONE
 DEN .G/C3   45 350 01 00:   COMPENSATED BULK DENSTIY
 CORR.G/C3   45 356 01 00:   DENSITY CORRECTION
 CALD.IN     45 280 60 00:   CALIPER FROM DENSITY LOG
 GRR .GAPI   07 310 01 00:   GAMMA RAY FROM RES. LOG.
 RFOC.OHMM   07 220 04 00:   RESISTIVITY FOCUSED LOG
 RILD.OHMM   07 120 46 00:   INDUCTION LOG DEEP RESISTIVITY
 RILM.OHMM   07 120 44 00:   INDUCTION LOG MEDIUM RESISTIVITY
 SPR .MV     07 010 01 00:   SPONTANEOUS POTENTIAL
~PARAMETER INFORMATION
#MNEM.UNIT          VALUE    DESCRIPTION
#----------   ------------   ------------------------------
 PD  .                 GL:   PERMANENT DATUM
 EPD .F              5074:   ELEVATION PERMANENT DATUM
 LMF .                 KB:   LOG MEASURED FROM
 DAPD.F                12:   FEET ABOVE PERMANENT DATUM
 DMF .                 KB:   DRILLING MEASURED FROM
 EKB .F              5086:   KELLING BUSHING
 EGL .F              5074:   GROUND LEVEL
 DATE.           10-19-86:   RUN DATE
 RUN .                  1:   RUN NUMBER
 DD  .F              3021:   DEPTH DRILLER
 DL  .F              3025:   DEPTH LOGGER
 BLI .F              3023:   BOTTOM LOG INTERVAL
 CS  .IN            8.625:   CASING SIZE
 CBD .F               620:   CASING BOTTOM DRILLER
 CBL .F               615:   CASING BOTTOM LOGGER
 BS  .IN            7.875:   BIT SIZE
 BSD .F              3021:   BIT SIZE AT DEPTH
 DFT .        KCL POLYMER:   DRILLING FLUID TYPE
 DFD .                8.9:   DRILLING FLUID DENSITY
 DFV .                 38:   DRILLING FLUID VISCOSITY
 DFPH.                9.5:   DRILLING FLUID PH
 DFL .               11.2:   DRILLING FLUID LOSS
 MSS .           FLOWLINE:   MUD SAMPLE SOURCE
 RMS .OHMM            .25:   RESISTIVITY MUD SAMPLE
 MST .F                65:   MUD SAMPLE TEMPERATURE
 RMF .OHMM           .203:   RESISTIVITY MUD FILTRATE SAMPLE
 MFST.F                65:   MUD FILTRATE SAMPLE TEMPERATURE
 RMC .OHMM            .31:   RESISTIVITY MUD CAKE
 MCST.F                65:   MUD CAKE SAMPLE TEMPERATURE
 MFSS.               MEAS:   MUD FILTRATE SAMPLE SOURCE
 MCSS.               CALC:   MUD CAKE SAMPLE SOURCE
 RMB .OHMM           .136:   RESISTIVITY MUD AT BHT
 BHT .F               119:   BOTTOM HOLE TEMPERATURE
 TCS .HRS               5:   TIME CURCULATED STOPPED
 MRT .F               119:   MAXIMUM RECORDED TEMPERATURE
 LUN .               6274:   LOGGING UNIT NUMBER
 LUL .               GLTE:   LOGGING UNIT LOCATION
 ENGI.             RAUTIO:   RECORDING ENGINEER
 WITN.             STRONG:   WITNESSED BY
 CLNT.            A2DTECH:   CLIENT CODE
 ORIG.       2", 5" PRINT:   ORIGIN OF DATA
 UWI .       490251110400:   UNIQUE WELL ID
 DICO. A2D Technologies, Inc.:   DIGITIZING COMPANY
~OTHER INFORMATION
~A    DEPT    PORD        CNC        DEN       CORR       CALD        GRR       RFOC       RILD       RILM        SPR   
# ...
  636.5000  -999.2500  -999.2500  -999.2500  -999.2500  -999.2500   108.7501     8.0318     7.7658     7.4103   -54.1756
  637.0000  -999.2500  -999.2500  -999.2500  -999.2500  -999.2500   107.2465     7.9209     7.6380     7.2944   -54.0699
  637.5000  -999.2500  -999.2500  -999.2500  -999.2500  -999.2500   105.9193     7.7934     7.5123     7.1802   -53.8831
  638.0000  -999.2500  -999.2500  -999.2500  -999.2500  -999.2500   107.6504     7.6628     7.3886     7.0680   -53.6953
  638.5000  -999.2500  -999.2500  -999.2500  -999.2500  -999.2500   110.3518     7.5345     7.2670     6.9574   -53.5075
  639.0000  -999.2500  -999.2500  -999.2500  -999.2500  -999.2500   112.3935     7.4083     7.1474     6.9421   -53.3198
  639.5000  -999.2500  -999.2500  -999.2500  -999.2500  -999.2500   110.7364     7.2842     7.0298     6.9420   -53.1321
  640.0000  -999.2500  -999.2500  -999.2500  -999.2500  -999.2500   108.3300     7.1942     6.9141     6.9421   -52.9444
  640.5000  -999.2500  -999.2500  -999.2500  -999.2500  -999.2500   106.6945     7.1344     6.8003     6.9418   -52.7563
  641.0000  -999.2500  -999.2500  -999.2500  -999.2500  -999.2500   108.8826     7.0751     6.7531     6.9424   -52.5665
  641.5000  -999.2500  -999.2500  -999.2500  -999.2500  -999.2500   111.4827     7.0163     6.7531     6.8913   -52.3959
  642.0000  -999.2500  -999.2500  -999.2500  -999.2500  -999.2500   109.7560     7.0062     6.7530     6.8489   -52.5769
  642.5000  -999.2500  -999.2500  -999.2500  -999.2500  -999.2500   106.9849     7.0061     6.7529     6.8068   -52.7683
  643.0000  -999.2500  -999.2500  -999.2500  -999.2500  -999.2500   105.5675     7.0061     6.7530     6.7649   -52.9579
  643.5000  -999.2500  -999.2500  -999.2500  -999.2500  -999.2500   105.5619     7.0516     6.8115     6.7531   -53.1472
  644.0000  -999.2500  -999.2500  -999.2500  -999.2500  -999.2500   106.1954     7.1019     6.8762     6.7531   -53.3416
  644.5000  -999.2500  -999.2500  -999.2500  -999.2500  -999.2500   107.3376     7.1504     6.9421     6.7531   -53.3806
  645.0000  -999.2500  -999.2500  -999.2500  -999.2500  -999.2500   108.4834     7.2618     6.7717     6.4542   -53.3852
  645.5000  -999.2500  -999.2500  -999.2500  -999.2500  -999.2500   109.6283     7.0725     6.5641     6.0983   -53.3315
  646.0000  -999.2500  -999.2500  -999.2500  -999.2500  -999.2500   110.7857     6.7835     6.3628     5.7596   -53.1850
  646.5000  -999.2500  -999.2500  -999.2500  -999.2500  -999.2500   111.1293     6.5062     6.1677     5.4115   -53.1783
  647.0000  -999.2500  -999.2500  -999.2500  -999.2500  -999.2500   111.1145     6.2738     5.9786     5.4169   -53.6086
  647.5000  -999.2500  -999.2500  -999.2500  -999.2500  -999.2500   112.1438     6.0971     5.7952     5.4147   -54.4327
  648.0000  -999.2500  -999.2500  -999.2500  -999.2500  -999.2500   113.4904     5.9133     5.6175     5.3595   -55.2581
  648.5000  -999.2500  -999.2500  -999.2500  -999.2500  -999.2500   114.3243     5.7351     5.4453     5.3020   -56.0839
  649.0000  -999.2500  -999.2500  -999.2500  -999.2500  -999.2500   114.2959     5.6699     5.4150     5.2454   -56.9130
  649.5000  -999.2500  -999.2500  -999.2500  -999.2500  -999.2500   115.9173     5.6699     5.4150     5.1893   -57.6729
  650.0000  -999.2500  -999.2500  -999.2500  -999.2500  -999.2500   118.3161     5.6814     5.4150     5.1715   -58.3596
  650.5000  -999.2500  -999.2500  -999.2500  -999.2500  -999.2500   118.5933     5.6924     5.4150     5.2430   -59.0449
  651.0000  -999.2500  -999.2500  -999.2500  -999.2500  -999.2500   116.9447     5.7033     5.4650     5.2676   -59.7459
  651.5000  -999.2500  -999.2500  -999.2500  -999.2500  -999.2500   116.3558     5.7142     5.4274     5.2138   -61.0389
  652.0000  -999.2500  -999.2500  -999.2500  -999.2500  -999.2500   117.5276     5.7224     5.3803     5.1597   -63.2380
  652.5000  -999.2500  -999.2500  -999.2500  -999.2500  -999.2500   117.8845     5.7223     5.3336     5.1062   -65.4265
  653.0000  -999.2500  -999.2500  -999.2500  -999.2500  -999.2500   117.8722     5.7223     5.2875     5.0533   -67.6199
  653.5000  -999.2500  -999.2500  -999.2500  -999.2500  -999.2500   118.0206     5.7223     5.2672     4.9846   -69.8098
  654.0000  -999.2500  -999.2500  -999.2500  -999.2500  -999.2500   122.1080     5.7223     5.2675     4.9846   -71.7749
  654.5000  -999.2500  -999.2500  -999.2500  -999.2500  -999.2500   121.8951     5.7223     5.2675     4.9390   -73.0464
  655.0000  -999.2500  -999.2500  -999.2500  -999.2500  -999.2500   117.0896     5.7222     5.2896     4.9851   -73.8580
  655.5000  -999.2500  -999.2500  -999.2500  -999.2500  -999.2500   113.8776     5.7349     5.3341     5.0378   -74.2761
  656.0000  -999.2500  -999.2500  -999.2500  -999.2500  -999.2500   111.6571     5.7711     5.3792     5.0911   -74.6840
  656.5000  -999.2500  -999.2500  -999.2500  -999.2500  -999.2500   109.4020     5.8077     5.4245     5.1450   -75.0843
  657.0000  -999.2500  -999.2500  -999.2500  -999.2500  -999.2500   109.1568     5.8444     5.4702     5.1994   -75.3072
  657.5000  -999.2500  -999.2500  -999.2500  -999.2500  -999.2500   111.6905     5.8814     5.5163     5.2545   -75.2431
  658.0000  -999.2500  -999.2500  -999.2500  -999.2500  -999.2500   116.8887     5.9187     5.5628     5.3100   -75.2469
  658.5000  -999.2500  -999.2500  -999.2500  -999.2500  -999.2500   119.9314     5.9566     5.6184     5.3654   -75.3546
  659.0000  -999.2500  -999.2500  -999.2500  -999.2500  -999.2500   117.5076     5.9914     5.6185     5.3401   -75.8888
  659.5000  -999.2500  -999.2500  -999.2500  -999.2500  -999.2500   114.0439     5.9045     5.6185     5.3004   -76.7013
  660.0000  -999.2500  -999.2500  -999.2500  -999.2500  -999.2500   111.0447     5.8229     5.5734     5.2608   -78.1742
  660.5000  -999.2500  -999.2500  -999.2500  -999.2500  -999.2500   112.5275     5.7424     5.5391     5.2215   -79.6411
  661.0000  -999.2500  -999.2500  -999.2500  -999.2500  -999.2500   114.8072     5.6631     5.5050     5.1825   -81.1053
  661.5000  -999.2500  -999.2500  -999.2500  -999.2500  -999.2500   114.4322     5.5848     5.4710     5.1437   -82.4507
  662.0000  -999.2500  -999.2500  -999.2500  -999.2500  -999.2500   113.0403     5.5156     5.4373     5.1241   -83.0462
  662.5000  -999.2500  -999.2500  -999.2500  -999.2500  -999.2500   111.8977     5.5156     5.4150     5.1297   -83.7690
  663.0000  -999.2500  -999.2500  -999.2500  -999.2500  -999.2500   112.3188     5.6001     5.4174     5.1405   -84.5108
  663.5000  -999.2500  -999.2500  -999.2500  -999.2500  -999.2500   114.2906     5.6903     5.4304     5.1512   -85.2028
  664.0000  -999.2500  -999.2500  -999.2500  -999.2500  -999.2500   116.2735     5.7754     5.4434     5.1619   -85.5720
  664.5000  -999.2500  -999.2500  -999.2500  -999.2500  -999.2500   116.7034     5.7756     5.4566     5.1716   -85.5889
  665.0000  -999.2500  -999.2500  -999.2500  -999.2500  -999.2500   116.7088     5.7578     5.4651     5.1570   -85.5900
  665.5000  -999.2500  -999.2500  -999.2500  -999.2500  -999.2500   116.6830     5.7337     5.4506     5.1412   -85.7030
  666.0000  -999.2500  -999.2500  -999.2500  -999.2500  -999.2500   115.7540     5.7098     5.4382     5.1255   -85.8470
  666.5000  -999.2500  -999.2500  -999.2500  -999.2500  -999.2500   113.8153     5.6859     5.4258     5.1098   -86.0957
  667.0000  -999.2500  -999.2500  -999.2500  -999.2500  -999.2500   111.8551     5.6699     5.4148     5.0942   -86.3351
  667.5000  -999.2500  -999.2500  -999.2500  -999.2500  -999.2500   111.2331     5.6699     5.4150     5.0786   -86.5751
  668.0000  -999.2500  -999.2500  -999.2500  -999.2500  -999.2500   113.8046     5.6699     5.4150     5.0631   -86.8114
  668.5000  -999.2500  -999.2500  -999.2500  -999.2500  -999.2500   115.0734     5.6699     5.4150     5.0477   -86.9808
  669.0000  -999.2500  -999.2500  -999.2500  -999.2500  -999.2500   114.3043     5.6699     5.4150     5.0307   -86.9757
  669.5000  -999.2500  -999.2500  -999.2500  -999.2500  -999.2500   113.4260     5.6699     5.4150     5.0366   -86.9898
