~VERSION INFORMATION
 VERS.                2.0:   CWLS LOG ASCII STANDARD - VERSION 2.0
 WRAP.                 NO:   ONE LINE PER DEPTH STEP
~WELL INFORMATION
#MNEM.UNIT      DATA TYPE    INFORMATION
#----------   ------------   ------------------------------
 STRT.F            0.0000:   START DEPTH
 STOP.F         2720.0000:   STOP DEPTH
 STEP.F            0.5000:   STEP LENGTH
 NULL.          -999.2500:   NO VALUE
 COMP. DEPARTMENT OF ENERGY:   COMPANY
 WELL.       NPR-3 #410-A:   WELL
 FLD . TEAPOT NAVAL RESERVE:   FIELD
 LOC .      S20 T39N R78W:   LOCATION
 CNTY.            NATRONA:   COUNTY
 STAT.            WYOMING:   STATE
 CTRY. UNITED STATES OF AMERICA:   COUNTRY
 SRVC.      NL McCullough:   SERVICE COMPANY
 DATE.        26-JUL-1965:   LOGDATE
 API .       490251144500:   API NUMBER
~CURVE INFORMATION
#MNEM.UNIT       API CODE    CURVE DESCRIPTION
#----------   ------------   ------------------------------
 DEPT.F                  :   
 GR  .GAPI   30 310 01 00:   GAMMA RAY
 CALI.IN     30 280 01 00:   CALIPER
~PARAMETER INFORMATION
#MNEM.UNIT          VALUE    DESCRIPTION
#----------   ------------   ------------------------------
 PD  .                 GL:   PERMANENT DATUM
 LMF .                 GL:   LOG MEASURED FROM
 DATE.            7-16-65:   RUN DATE
 RUN .                  1:   RUN NUMBER
 DD  .F              2720:   DEPTH DRILLER
 TLI .F              2100:   TOP LOG INTERVAL
 CS  .IN            6.875:   CASING SIZE
 DFT .              WATER:   DRILLING FLUID TYPE
 ENGI. FITZSIMMONE/COWLTHORPE:   RECORDING ENGINEER
 WITN.             HUDSON:   WITNESSED BY
 CLNT.            A2DTECH:   CLIENT CODE
 ORIG.           5" PRINT:   ORIGIN OF DATA
 UWI .       490251144500:   UNIQUE WELL ID
 DICO. A2D Technologies, Inc.:   DIGITIZING COMPANY
~OTHER INFORMATION
~A    DEPT      GR         CALI 
# ...
 2551.5000    79.6842     5.9742
 2552.0000    80.2598     5.9827
 2552.5000    81.4178     5.9904
 2553.0000    82.9469     5.9788
 2553.5000    83.8102     5.9638
 2554.0000    84.7155     5.9501
 2554.5000    87.1705     5.9524
 2555.0000    90.8675     5.9549
 2555.5000    89.3189     5.9575
 2556.0000    88.1828     5.9600
 2556.5000    89.4806     5.9625
 2557.0000    90.6796     5.9650
 2557.5000    96.8958     5.9674
 2558.0000    93.5654     5.9700
 2558.5000    86.4098     5.9756
 2559.0000    89.3352     5.9812
 2559.5000    90.1073     5.9868
 2560.0000    93.4388     5.9893
 2560.5000    93.2077     5.9687
 2561.0000    92.8336     5.9475
 2561.5000    97.8842     5.9265
 2562.0000    98.6740     5.9093
 2562.5000    97.7959     5.9121
 2563.0000   102.1265     5.9146
 2563.5000    97.3353     5.9172
 2564.0000   101.1766     5.9197
 2564.5000   103.2608     5.9222
 2565.0000    99.3163     5.9247
 2565.5000    97.2396     5.9272
 2566.0000   101.0229     5.9297
 2566.5000   102.0991     5.9276
 2567.0000   101.5862     5.9249
 2567.5000   101.1821     5.9222
 2568.0000   101.2649     5.9195
 2568.5000    98.9832     5.9168
 2569.0000    99.2370     5.9141
 2569.5000    96.1647     5.9115
 2570.0000    87.5439     5.9096
 2570.5000    84.6561     5.9096
 2571.0000    86.1530     5.9131
 2571.5000    89.5901     5.9187
 2572.0000    96.8883     5.9244
 2572.5000    99.7341     5.9301
 2573.0000   102.8462     5.9358
 2573.5000   105.1236     5.9415
 2574.0000   108.5676     5.9472
 2574.5000   109.3395     5.9491
 2575.0000   105.8719     5.9446
 2575.5000   105.2674     5.9400
 2576.0000   102.0865     5.9354
 2576.5000    98.9823     5.9303
 2577.0000   103.3467     5.9494
 2577.5000   107.8196     5.9756
 2578.0000   105.4281     6.0023
 2578.5000   103.2163     6.0286
 2579.0000   105.6539     5.9981
 2579.5000   109.5544     5.9628
 2580.0000   117.0749     5.9274
 2580.5000   118.0869     5.8912
 2581.0000   118.6290     5.9004
 2581.5000   115.2673     5.9214
 2582.0000   110.3342     5.9622
 2582.5000   110.4346     6.0168
 2583.0000   117.6377     6.0301
 2583.5000   123.3372     6.0303
 2584.0000   123.0855     6.0301
 2584.5000   121.3525     6.0301
 2585.0000   120.4906     6.0301
 2585.5000   122.3951     6.0301
 2586.0000   124.2855     6.0336
 2586.5000   125.8423     6.0394
 2587.0000   125.8965     6.0452
 2587.5000   126.0110     6.0510
 2588.0000   120.4627     6.0569
 2588.5000   112.0556     6.0627
 2589.0000   108.9259     6.0688
 2589.5000   110.3098     6.0607
 2590.0000   113.8996     6.0473
 2590.5000   114.6465     6.0337
 2591.0000   115.8518     6.0201
 2591.5000   120.9839     6.0066
 2592.0000   122.5415     5.9926
 2592.5000   118.9772     5.9983
 2593.0000   115.0333     6.0124
 2593.5000   113.6556     6.0266
 2594.0000   116.0469     6.0408
 2594.5000   111.1204     6.0550
 2595.0000   113.4530     6.0692
 2595.5000   112.0014     6.0834
 2596.0000   110.8792     6.0902
 2596.5000   116.5355     6.0904
 2597.0000   120.9098     6.0904
 2597.5000   121.8474     6.0904
 2598.0000   110.2601     6.0904
 2598.5000   101.1918     6.0904
 2599.0000   100.7197     6.0904
 2599.5000   108.6775     6.0904
 2600.0000   113.7105     6.0904
 2600.5000   115.0857     6.0904
 2601.0000   113.5364     6.0904
 2601.5000   111.3732     6.0904
 2602.0000   114.2406     6.0904
 2602.5000   120.3561     6.0912
 2603.0000   123.1154     6.0630
 2603.5000   121.0499     6.0315
 2604.0000   121.7501     6.0281
 2604.5000   117.9290     6.0259
 2605.0000   117.3197     6.0235
 2605.5000   114.8232     6.0211
 2606.0000   119.8005     6.0187
 2606.5000   129.0514     6.0162
 2607.0000   129.5422     6.0138
 2607.5000   132.7025     6.0115
 2608.0000   134.7846     6.0136
 2608.5000   126.6687     6.0219
 2609.0000   124.3291     6.0302
 2609.5000   130.6614     6.0385
 2610.0000   135.8100     6.0470
 2610.5000   140.5547     6.0346
 2611.0000   145.9140     6.0089
 2611.5000   147.5544     5.9829
 2612.0000   152.1772     5.9566
 2612.5000   151.6643     5.9310
 2613.0000   144.4683     5.9436
 2613.5000   137.3920     5.9586
 2614.0000   129.0659     5.9735
 2614.5000   121.0046     5.9883
 2615.0000   115.7341     6.0032
 2615.5000   120.0367     6.0180
 2616.0000   122.5032     6.0328
 2616.5000   119.9252     6.0479
 2617.0000   118.8172     6.0455
 2617.5000   122.8057     6.0381
 2618.0000   121.8909     6.0305
 2618.5000   124.1292     6.0301
 2619.0000   133.8441     6.0301
 2619.5000   138.7830     6.0301
 2620.0000   136.4403     6.0301
 2620.5000   135.1536     6.0301
 2621.0000   138.8483     6.0291
 2621.5000   135.4648     6.0257
 2622.0000   127.8311     6.0224
 2622.5000   125.7361     6.0190
 2623.0000   123.9681     6.0156
 2623.5000   122.2448     6.0124
 2624.0000   121.2065     6.0165
 2624.5000   122.7745     6.0374
 2625.0000   129.9740     6.0501
 2625.5000   137.3181     6.0416
 2626.0000   140.1387     6.0329
 2626.5000   141.7798     6.0243
 2627.0000   143.0790     6.0156
 2627.5000   144.6421     6.0069
 2628.0000   151.0450     5.9982
 2628.5000   141.3819     5.9903
 2629.0000   132.9723     5.9938
 2629.5000   129.7444     5.9976
 2630.0000   121.1072     6.0014
 2630.5000   112.3595     6.0052
 2631.0000   109.9374     6.0090
 2631.5000   113.2601     6.0128
 2632.0000   114.1076     6.0165
 2632.5000   114.5143     6.0203
 2633.0000   111.5188     6.0241
 2633.5000   109.0074     6.0278
 2634.0000   110.1977     6.0308
 2634.5000   110.7847     6.0325
 2635.0000   107.5038     6.0343
 2635.5000   103.7654     6.0360
 2636.0000   108.9064     6.0377
 2636.5000   114.7112     6.0395
 2637.0000   117.4553     6.0412
 2637.5000   118.4266     6.0429
 2638.0000   117.3870     6.0447
 2638.5000   114.8575     6.0464
 2639.0000   112.2817     6.0481
 2639.5000   111.6660     6.0500
 2640.0000   116.0717     6.0465
 2640.5000   116.2610     6.0419
 2641.0000   123.2129     6.0373
 2641.5000   125.5423     6.0327
 2642.0000   123.1669     6.0281
 2642.5000   128.1021     6.0235
 2643.0000   128.0701     6.0188
 2643.5000   133.0271     6.0142
 2644.0000   133.0601     6.0103
 2644.5000   130.3429     6.0149
 2645.0000   130.5716     6.0195
 2645.5000   131.9167     6.0240
 2646.0000   133.6711     6.0287
 2646.5000   137.2964     6.0189
 2647.0000   140.2059     6.0113
 2647.5000   132.7239     6.0137
 2648.0000   120.3161     6.0161
 2648.5000    99.1523     6.0186
 2649.0000    93.7486     6.0211
 2649.5000    93.7758     6.0236
 2650.0000    96.5110     6.0261
 2650.5000   100.7856     6.0285
 2651.0000   102.3468     6.0313
 2651.5000   100.9199     6.0348
 2652.0000   103.2268     6.0383
 2652.5000   105.9248     6.0417
 2653.0000   105.9598     6.0452
 2653.5000   110.6676     6.0487
 2654.0000   115.5554     6.0502
 2654.5000   113.8375     6.0502
 2655.0000   117.8277     6.0502
 2655.5000   127.3611     6.0502
 2656.0000   135.2201     6.0502
 2656.5000   138.3143     6.0502
 2657.0000   143.1079     6.0502
 2657.5000   149.7242     6.0502
 2658.0000   149.0304     6.0489
 2658.5000   151.1134     6.0457
 2659.0000   151.5698     6.0426
 2659.5000   142.1577     6.0394
 2660.0000   130.5545     6.0363
 2660.5000   119.1048     6.0331
 2661.0000   110.9391     6.0304
 2661.5000   116.0924     6.0377
 2662.0000   118.4835     6.0453
 2662.5000   114.5361     6.0630
 2663.0000   111.2781     6.1021
 2663.5000   115.2885     6.1564
 2664.0000   121.2090     6.2098
 2664.5000   122.9425     6.2089
 2665.0000   127.1981     6.2065
 2665.5000   136.3983     6.2042
 2666.0000   139.3978     6.2021
 2666.5000   141.4519     6.1999
 2667.0000   139.1678     6.1978
 2667.5000   138.8967     6.1956
 2668.0000   139.5641     6.1934
 2668.5000   133.0321     6.1912
 2669.0000   132.7338     6.1908
 2669.5000   133.7198     6.1908
 2670.0000   137.1672     6.1908
 2670.5000   135.5593     6.1908
 2671.0000   133.5402     6.1908
 2671.5000   126.5598     6.1908
 2672.0000   122.9812     6.1908
 2672.5000   124.4955     6.1908
