~VERSION INFORMATION
 VERS.                2.0:   CWLS LOG ASCII STANDARD - VERSION 2.0
 WRAP.                 NO:   ONE LINE PER DEPTH STEP
~WELL INFORMATION
#MNEM.UNIT      DATA TYPE    INFORMATION
#----------   ------------   ------------------------------
 STRT.F           34.0000:   START DEPTH
 STOP.F          510.0000:   STOP DEPTH
 STEP.F            0.5000:   STEP LENGTH
 NULL.          -999.2500:   NO VALUE
 COMP. LAWRENCE/ALLISON INC:   COMPANY
 WELL.      58-36 SX #3-3:   WELL
 FLD .             TEAPOT:   FIELD
 LOC .       S3 T38N R78W:   LOCATION
 CNTY.            NATRONA:   COUNTY
 STAT.            WYOMING:   STATE
 CTRY. UNITED STATES OF AMERICA:   COUNTRY
 SRVC.           Gearhart:   SERVICE COMPANY
 DATE.        17-SEP-1987:   LOGDATE
 API .       490251116300:   API NUMBER
~CURVE INFORMATION
#MNEM.UNIT       API CODE    CURVE DESCRIPTION
#----------   ------------   ------------------------------
 DEPT.F                  :   
 SPR .MV     07 010 01 00:   SPONTANEOUS POTENTIAL
 RLL .OHMM   07 220 00 00:   LATEROLOG RESISTIVITY
 RILD.OHMM   07 120 46 00:   INDUCTION LOG DEEP RESISTIVITY
 RILM.OHMM   07 120 44 00:   INDUCTION LOG MEDIUM RESISTIVITY
 GRR .GAPI   07 310 01 00:   GAMMA RAY FROM RES. LOG.
~PARAMETER INFORMATION
#MNEM.UNIT          VALUE    DESCRIPTION
#----------   ------------   ------------------------------
 PD  .                 GL:   PERMANENT DATUM
 EPD .F              5205:   ELEVATION PERMANENT DATUM
 LMF .                 KB:   LOG MEASURED FROM
 DAPD.F                 8:   FEET ABOVE PERMANENT DATUM
 DMF .                 KB:   DRILLING MEASURED FROM
 EKB .F              5213:   KELLING BUSHING
 EDF .F              5211:   DRILLING FLOOR
 EGL .F              5205:   GROUND LEVEL
 DATE.            9-17-87:   RUN DATE
 RUN .                  1:   RUN NUMBER
 DD  .F               521:   DEPTH DRILLER
 DL  .F               512:   DEPTH LOGGER
 BLI .F               510:   BOTTOM LOG INTERVAL
 TLI .F                30:   TOP LOG INTERVAL
 CS  .IN            8.625:   CASING SIZE
 CBD .F                52:   CASING BOTTOM DRILLER
 CBL .F                52:   CASING BOTTOM LOGGER
 BS  .IN            7.875:   BIT SIZE
 BSD .F               521:   BIT SIZE AT DEPTH
 DFT .          KCL WATER:   DRILLING FLUID TYPE
 DFD .                8.8:   DRILLING FLUID DENSITY
 MSS .            MUD PIT:   MUD SAMPLE SOURCE
 RMS .OHMM            .60:   RESISTIVITY MUD SAMPLE
 MST .F                41:   MUD SAMPLE TEMPERATURE
 TCS .HRS            0630:   TIME CURCULATED STOPPED
 TLAB.HRS            0918:   TIME LOGGER AT BOTTOM
 MRT .F                80:   MAXIMUM RECORDED TEMPERATURE
 LUN .               7650:   LOGGING UNIT NUMBER
 LUL .           GILLETTE:   LOGGING UNIT LOCATION
 ENGI.         WEATHERMON:   RECORDING ENGINEER
 WITN.             STRONG:   WITNESSED BY
 CLNT.            A2DTECH:   CLIENT CODE
 ORIG. 1", 2.5", 5" PRINT:   ORIGIN OF DATA
 UWI .       490251116300:   UNIQUE WELL ID
 DICO. A2D Technologies, Inc.:   DIGITIZING COMPANY
~OTHER INFORMATION
~A   DEPT      SPR        RLL       RILD       RILM        GRR   
# ...
  339.0000   -91.1600    20.1187    18.8932    14.8139    79.0775
  339.5000   -91.6353    20.4517    19.3618    16.0702    76.8705
  340.0000   -92.1117    20.8516    19.1162    17.4330    74.6375
  340.5000   -92.5881    20.1054    18.7250    18.1458    73.7374
  341.0000   -93.0649    19.2335    18.3419    16.4502    74.9772
  341.5000   -93.5448    18.3966    17.9785    14.7703    77.2321
  342.0000   -93.8583    17.5956    17.6931    13.2620    79.4646
  342.5000   -94.1336    17.0947    17.4209    11.9589    81.6866
  343.0000   -94.5549    17.0062    17.1529    11.4145    83.5448
  343.5000   -95.0614    17.0062    16.8890    11.4142    83.8447
  344.0000   -95.5991    17.0061    16.6291    11.7235    83.9137
  344.5000   -96.2852    17.0062    16.3733    12.0732    81.1455
  345.0000   -96.9630    17.0062    16.1954    12.0736    77.8851
  345.5000   -97.6413    17.0062    16.0387    11.8357    74.5876
  346.0000   -98.3152    17.0056    15.8833    11.6147    74.9944
  346.5000   -98.9610    17.0091    15.7296    11.4174    76.0083
  347.0000   -99.8247    16.8916    15.5773    11.6862    77.0387
  347.5000  -100.0985    16.7611    15.4265    11.9426    78.0428
  348.0000  -100.4955    16.5310    15.2772    12.1826    78.8011
  348.5000  -101.3058    16.1980    15.1293    12.1826    79.6959
  349.0000  -102.0551    15.8717    14.9829    11.8803    80.6046
  349.5000  -102.8012    15.6455    14.8378    11.6809    81.3659
  350.0000  -103.5477    15.7399    14.6942    11.4862    80.5342
  350.5000  -104.2943    15.8132    14.5519    11.3098    79.7078
  351.0000  -105.0409    15.8868    14.4110    11.3103    78.9503
  351.5000  -105.7880    15.9382    14.2715    11.3122    79.0299
  352.0000  -106.5346    15.7936    14.1333    11.3122    82.5077
  352.5000  -107.2723    15.6347    13.9965    11.3122    86.1339
  353.0000  -107.8158    15.4776    13.8610    11.3120    87.4782
  353.5000  -108.0321    15.3208    13.7421    11.3110    88.6300
  354.0000  -108.2601    15.2036    13.7674    11.3122    87.9246
  354.5000  -108.4859    15.1580    13.8030    11.5979    87.2394
  355.0000  -108.7087    15.1147    13.8386    12.0088    86.3109
  355.5000  -108.9286    15.0763    13.9004    12.2960    84.0192
  356.0000  -109.3758    15.2859    14.1524    12.3199    81.7129
  356.5000  -109.7123    15.5162    14.4090    12.3459    79.4552
  357.0000  -110.0464    15.7506    14.6703    12.3716    80.1723
  357.5000  -110.3787    15.9884    14.9363    12.3979    81.1854
  358.0000  -110.7113    16.2295    15.2072    12.5539    81.5230
  358.5000  -111.0438    16.4744    15.5042    12.8307    80.7217
  359.0000  -111.3764    16.5598    15.5037    13.2408    79.9082
  359.5000  -111.7089    16.6190    15.1849    12.8900    80.7838
  360.0000  -112.0412    16.6940    14.9511    12.2475    82.0030
  360.5000  -112.3736    16.4340    14.7215    11.6396    83.2425
  361.0000  -112.7136    15.9640    14.4954    11.0626    83.4687
  361.5000  -113.0611    15.5075    14.2642    10.6464    82.2838
  362.0000  -113.6109    15.0640    13.9347    10.4914    82.7451
  362.5000  -114.1540    14.6333    13.5075    10.3388    84.1355
  363.0000  -114.6988    14.3799    13.1944    10.1883    85.3934
  363.5000  -115.2453    14.2610    12.8584    10.1203    84.6031
  364.0000  -115.7920    14.2610    12.5219    10.1588    83.8901
  364.5000  -115.7567    14.2610    12.6499    10.1860    84.5455
  365.0000  -115.6362    14.2610    12.8830    10.2160    84.4922
  365.5000  -115.5147    14.2610    13.1177    10.5312    82.0137
  366.0000  -115.2049    14.2610    13.3653    10.8698    79.6485
  366.5000  -114.5419    14.2610    13.8075    11.2194    79.7769
  367.0000  -113.8870    14.6727    14.2816    11.5802    80.3325
  367.5000  -113.2328    15.5156    14.9471    12.1052    79.7502
  368.0000  -112.5812    16.8596    15.9720    12.7762    77.4143
  368.5000  -111.9263    18.3199    17.0671    13.4844    73.4623
  369.0000  -111.3744    19.9068    18.2373    14.2318    71.2219
  369.5000  -110.8966    20.2799    19.1832    15.0209    69.3970
  370.0000  -110.4184    20.2799    19.3853    15.8540    67.5957
  370.5000  -110.6704    20.2799    19.5940    16.7308    66.0711
  371.0000  -111.0363    20.7237    19.7239    17.5671    66.7921
  371.5000  -111.4033    21.0930    20.1554    18.0176    69.0440
  372.0000  -111.6042    21.3502    20.6035    18.4852    70.7991
  372.5000  -111.7995    21.6099    21.0616    18.8939    70.8724
  373.0000  -111.9959    21.8721    21.4848    19.2044    69.6119
  373.5000  -112.1928    22.1480    21.7236    19.5173    68.3717
  374.0000  -112.3865    22.4819    21.9650    19.8347    67.0906
  374.5000  -112.5747    22.6644    22.2091    20.0948    68.3206
  375.0000  -113.0004    22.8760    22.4560    19.8628    70.9761
  375.5000  -113.3000    22.5489    22.4282    19.5410    73.6945
  376.0000  -113.5980    22.3569    22.3984    19.5460    73.4379
  376.5000  -113.8926    22.1667    22.3693    18.6868    72.5650
  377.0000  -114.1765    21.9777    22.3404    18.0080    71.7704
  377.5000  -114.9232    21.7906    22.3116    17.4856    72.6312
  378.0000  -115.7480    21.6050    22.2826    17.3243    73.5437
  378.5000  -116.5796    21.4211    22.2520    17.3825    74.4459
  379.0000  -117.0861    21.2416    22.0970    17.4403    74.8544
  379.5000  -117.4267    20.9926    21.8522    17.6483    74.6012
  380.0000  -117.7650    20.7504    21.6101    17.0713    73.4704
  380.5000  -118.0823    20.5110    21.3706    16.5400    71.0830
  381.0000  -118.3852    20.2115    21.0457    15.5117    68.7028
  381.5000  -118.6921    19.8032    21.3089    14.5674    66.3329
  382.0000  -118.9873    19.3973    21.7371    13.6806    66.5265
  382.5000  -119.7466    19.1880    22.1739    13.1199    69.9755
  383.0000  -120.6733    20.6781    22.2488    13.5772    72.9230
  383.5000  -121.5756    24.3639    22.2488    14.1492    72.9281
  384.0000  -121.8911    28.7066    22.1632    14.7453    70.3982
  384.5000  -122.2418    32.8339    21.8030    15.2166    67.6136
  385.0000  -122.2738    32.8339    21.4487    15.4807    65.5580
  385.5000  -122.2081    32.0508    21.1001    15.7395    65.1154
  386.0000  -122.1395    26.8687    20.4881    16.0865    66.5386
  386.5000  -122.0713    21.8878    19.6497    15.9399    68.2779
  387.0000  -122.0033    19.2735    19.0180    15.7622    70.0304
  387.5000  -121.9351    19.1832    18.6537    15.5877    71.7855
  388.0000  -122.0194    19.1832    18.3147    15.3582    73.5514
  388.5000  -122.3135    19.1832    18.3619    15.5186    75.2786
  389.0000  -122.5907    19.1832    18.4068    15.7676    75.1000
  389.5000  -122.9402    19.1832    18.4518    16.0206    73.4506
  390.0000  -122.9280    19.1834    18.4970    16.2776    70.8454
  390.5000  -122.9266    19.1949    18.5422    16.5388    68.2077
  391.0000  -123.1880    19.2205    18.5875    16.8041    68.0984
  391.5000  -123.6219    19.2459    18.6329    17.0737    70.8506
  392.0000  -124.0646    19.2715    18.6590    17.1645    73.3431
  392.5000  -124.1416    19.2971    18.5161    17.0868    74.7983
  393.0000  -124.1425    19.3226    18.4057    17.0340    73.7274
  393.5000  -124.1414    19.3480    18.2957    16.9813    72.7184
  394.0000  -124.1403    19.3596    18.1863    16.9289    72.6899
  394.5000  -124.1417    19.4751    18.0778    16.8765    74.0386
  395.0000  -124.2287    19.6042    17.9785    16.7373    76.7811
  395.5000  -124.6590    19.7239    17.9785    16.5058    79.7695
  396.0000  -125.0799    19.3074    17.6642    16.2582    81.2424
  396.5000  -125.4966    18.9302    17.3755    15.9940    82.6123
  397.0000  -125.7025    18.5604    17.0942    15.7341    82.6815
  397.5000  -125.9198    18.1978    16.9228    15.4951    80.9769
  398.0000  -126.1431    17.8422    16.7535    14.6827    79.0619
  398.5000  -125.8642    17.4932    16.5860    13.9661    77.1340
  399.0000  -125.5290    17.1517    16.4201    13.4083    76.2488
  399.5000  -125.5161    16.8465    16.2558    12.9997    78.0182
