~VERSION INFORMATION
 VERS.                2.0:   CWLS LOG ASCII STANDARD - VERSION 2.0
 WRAP.                 NO:   ONE LINE PER DEPTH STEP
~WELL INFORMATION
#MNEM.UNIT      DATA TYPE    INFORMATION
#----------   ------------   ------------------------------
 STRT.F           30.0000:   START DEPTH
 STOP.F          637.0000:   STOP DEPTH
 STEP.F            0.5000:   STEP LENGTH
 NULL.          -999.2500:   NO VALUE
 COMP.    FENIX & SCISSON:   COMPANY
 WELL.        NPR #82-S-3:   WELL
 FLD .             TEAPOT:   FIELD
 LOC .       S3 T38N R78W:   LOCATION
 CNTY.            NATRONA:   COUNTY
 STAT.            WYOMING:   STATE
 CTRY. UNITED STATES OF AMERICA:   COUNTRY
 SRVC.              Welex:   SERVICE COMPANY
 DATE.        08-MAY-1977:   LOGDATE
 API .       490251035100:   API NUMBER
~CURVE INFORMATION
#MNEM.UNIT       API CODE    CURVE DESCRIPTION
#----------   ------------   ------------------------------
 DEPT.F                  :   
 SPR .MV     07 010 01 00:   SPONTANEOUS POTENTIAL FROM RES.
 ILD .OHMM   07 120 46 00:   INDUCTION LOG DEEP
 ILM .OHMM   07 120 44 00:   INDUCTION LOG MEDIUM
 SGRD.OHMM   07 220 05 00:   SHALLOW GUARD RESISTIVITY
 GRD .GAPI   45 310 01 00:   GAMMA RAY FROM DENSITY LOG
 CALD.IN     45 280 60 00:   CALIPER FROM DENSITY LOG
 CORR.G/C3   45 356 01 00:   DENSITY CORRECTION
 RHOB.G/C3   45 350 01 00:   BULK DENSITY
 DPHI.DEC    45 890 12 00:   DENSITY POROSITY SANDSTONE
~PARAMETER INFORMATION
#MNEM.UNIT          VALUE    DESCRIPTION
#----------   ------------   ------------------------------
 PD  .                 GL:   PERMANENT DATUM
 EPD .F              5100:   ELEVATION PERMANENT DATUM
 LMF .                 GL:   LOG MEASURED FROM
 DMF .                 GL:   DRILLING MEASURED FROM
 EGL .F              5100:   GROUND LEVEL
 DATE.        08-MAY-1977:   RUN DATE
 RUN .                  1:   RUN NUMBER
 DD  .F               635:   DEPTH DRILLER
 DL  .F               640:   DEPTH LOGGER
 BLI .F               638:   BOTTOM LOG INTERVAL
 TLI .F                30:   TOP LOG INTERVAL
 CS  .IN            8.625:   CASING SIZE
 CBD .F                40:   CASING BOTTOM DRILLER
 CBL .F                38:   CASING BOTTOM LOGGER
 BS  .IN            7.875:   BIT SIZE
 BSD .F               635:   BIT SIZE AT DEPTH
 DFT .            KCL MUD:   DRILLING FLUID TYPE
 DFD .                8.8:   DRILLING FLUID DENSITY
 DFV .                 32:   DRILLING FLUID VISCOSITY
 DFPH.                7.5:   DRILLING FLUID PH
 MSS .           FLOWLINE:   MUD SAMPLE SOURCE
 RMS .OHMM            .25:   RESISTIVITY MUD SAMPLE
 MST .F                80:   MUD SAMPLE TEMPERATURE
 RMF .OHMM            .22:   RESISTIVITY MUD FILTRATE SAMPLE
 MFST.F                80:   MUD FILTRATE SAMPLE TEMPERATURE
 RMC .OHMM            .31:   RESISTIVITY MUD CAKE
 MCST.F                80:   MUD CAKE SAMPLE TEMPERATURE
 MFSS.               MEAS:   MUD FILTRATE SAMPLE SOURCE
 MCSS.               MEAS:   MUD CAKE SAMPLE SOURCE
 RMB .OHMM            .23:   RESISTIVITY MUD AT BHT
 BHT .F                87:   BOTTOM HOLE TEMPERATURE
 TCS .HRS            0130:   TIME CURCULATED STOPPED
 MRT .F                87:   MAXIMUM RECORDED TEMPERATURE
 LUN .               8611:   LOGGING UNIT NUMBER
 LUL .             CASPER:   LOGGING UNIT LOCATION
 ENGI.            C. DOAK:   RECORDING ENGINEER
 WITN.            R. LYON:   WITNESSED BY
 CLNT.            A2DTECH:   CLIENT CODE
 ORIG.           5" PRINT:   ORIGIN OF DATA
 UWI .       490251035100:   UNIQUE WELL ID
 DICO. A2D Technologies, Inc.:   DIGITIZING COMPANY
~OTHER INFORMATION
~A   DEPT      SPR        ILD        ILM       SGRD         GRD      CALD        CORR        RHOB     DPHI   
# ...
  285.5000   -49.0948     9.4330    11.2596    15.3252   114.5981     7.9313     0.0273     2.4410     0.1392
  286.0000   -48.9321     9.4388    11.2674    14.8746   115.8534     7.9324     0.0229     2.4336     0.1433
  286.5000   -48.9173     9.4447    11.2751    13.3435   118.5715     7.9334     0.0185     2.4217     0.1514
  287.0000   -48.9025     9.3856    11.2052    13.5385   120.1686     7.9344     0.0156     2.4046     0.1621
  287.5000   -48.8878     9.3915    10.9836    13.5478   120.3125     7.9355     0.0112     2.3919     0.1684
  288.0000   -49.0246     9.3973    10.9913    13.5571   119.4338     7.9514     0.0098     2.3897     0.1696
  288.5000   -49.0061     9.3371    11.0749    13.3642   119.8987     7.9524     0.0099     2.3957     0.1651
  289.0000   -48.9913     9.3443    11.0826    13.2062   119.1694     7.9534     0.0115     2.4055     0.1602
  289.5000   -49.1282     9.3501    11.0902    13.2153   116.2079     7.9545     0.0146     2.4092     0.1581
  290.0000   -49.2613     9.3559    10.9460    12.8669   115.6275     7.9555     0.0177     2.4100     0.1572
  290.5000   -49.3945     9.2336    10.9535    13.1448   115.0470     7.9565     0.0208     2.4145     0.1560
  291.0000   -49.5276     9.1129    11.1131    13.7070   113.5736     7.9576     0.0268     2.4288     0.1506
  291.5000   -49.6608     8.9321    11.1208    13.8137   110.9098     7.9586     0.0329     2.4400     0.1404
  292.0000   -49.6423     8.8749    10.9762    13.9164   111.5198     7.9745     0.0360     2.4505     0.1344
  292.5000   -49.6275     8.8817    10.7591    13.5472   114.0643     7.9755     0.0376     2.4513     0.1341
  293.0000   -49.7644     8.8872    10.5461    13.5589   116.3076     7.9765     0.0407     2.4498     0.1344
  293.5000   -49.7459     8.8927    10.4091    13.3824   114.9867     7.9776     0.0423     2.4506     0.1352
  294.0000   -50.0307     8.9598    10.4163    13.0274   113.9598     7.9786     0.0438     2.4618     0.1315
  294.5000   -50.1638     8.9653    10.3518    13.0364   115.9091     7.9648     0.0454     2.4649     0.1259
  295.0000   -50.2970     8.9709    10.2878    13.2265   119.6441     7.9807     0.0455     2.4627     0.1268
  295.5000   -50.2785     8.9764    10.2242    13.0543   122.3374     7.9668     0.0411     2.4627     0.1280
  296.0000   -50.5596     8.9190    10.1611    12.6185   125.1796     7.9679     0.0427     2.4702     0.1252
  296.5000   -50.6964     8.9259    10.1681    12.6294   125.9384     7.9689     0.0443     2.4755     0.1206
  297.0000   -50.8296     8.8687    10.1751    12.9022   126.3995     7.9699     0.0459     2.4822     0.1165
  297.5000   -50.8111     8.7528    10.1122    12.3028   126.8607     7.9710     0.0460     2.4912     0.1088
  298.0000   -50.9479     8.6384    10.0497    12.3113   125.9826     7.9572     0.0461     2.4987     0.1049
  298.5000   -51.0811     8.4669    10.0566    12.3198   121.8307     7.9584     0.0446     2.4995     0.1054
  299.0000   -51.2142     8.2432     9.9258    12.3282   118.4229     7.9444     0.0432     2.4958     0.1075
  299.5000   -51.3474     7.9690     9.7968    12.1678   116.3543     7.9456     0.0418     2.4921     0.1102
  300.0000   -51.5056     7.7913     9.6694    12.0074   116.3690     7.9465     0.0404     2.4862     0.1141
  300.5000   -51.8067     7.5718     9.5533    12.1365   116.2336     7.9479     0.0357     2.4780     0.1185
  301.0000   -51.8988     7.3524     9.4191    11.8595   115.6398     7.9492     0.0346     2.4714     0.1230
  301.5000   -52.1781     7.1528     9.2322    11.7025   115.5163     7.9506     0.0347     2.4580     0.1304
  302.0000   -52.1648     7.0588     8.9868    11.4718   117.7618     7.9368     0.0333     2.4498     0.1343
  302.5000   -52.3028     7.0142     8.8679    10.8630   115.5430     7.9384     0.0334     2.4483     0.1369
  303.0000   -52.1383     6.9699     8.6932     9.8696   118.1221     7.9398     0.0305     2.4454     0.1381
  303.5000   -51.8292     6.9258     8.5207     8.9671   120.4804     7.9411     0.0291     2.4417     0.1402
  304.0000   -51.3721     6.9297     8.2942     7.9804   118.2382     7.9424     0.0262     2.4410     0.1399
  304.5000   -51.0630     6.9335     8.4145     9.2293   116.7204     7.9438     0.0248     2.4456     0.1357
  305.0000   -51.0497     6.9853     8.7147    12.3363   113.0505     7.9299     0.0265     2.4576     0.1305
  305.5000   -50.8886     7.0446     9.0257    12.0912   113.7200     7.9166     0.0296     2.4651     0.1257
  306.0000   -50.5794     7.2461     9.3477    11.7696   118.9644     7.9180     0.0325     2.4696     0.1221
  306.5000   -50.4183     7.4533     9.5488    11.4566   119.9653     7.9194     0.0341     2.4727     0.1206
  307.0000   -50.5532     7.6665     9.7542    11.3831   118.1517     7.9058     0.0342     2.4757     0.1200
  307.5000   -50.6879     7.8757     9.8277    11.3919   118.4227     7.9220     0.0343     2.4720     0.1209
  308.0000   -50.8225     7.8801     9.9018    11.8804   120.0298     7.9234     0.0314     2.4646     0.1280
  308.5000   -50.9571     7.8844     9.9079    12.1342   120.0188     7.9247     0.0270     2.4550     0.1328
  309.0000   -51.0917     7.9433     9.8459    12.3974   118.9643     7.9260     0.0256     2.4475     0.1366
  309.5000   -50.9304     7.9476     9.8520    12.0676   118.5574     7.9125     0.0257     2.4454     0.1393
  310.0000   -50.9172     8.0070     9.8581    11.9097   119.6158     7.8990     0.0242     2.4409     0.1414
  310.5000   -51.0518     7.9553     9.8642    11.7539   120.5220     7.8855     0.0244     2.4335     0.1458
  311.0000   -51.1865     7.9607     9.8703    11.8426   120.5353     7.8868     0.0215     2.4311     0.1473
  311.5000   -51.3212     7.8561     9.8070    12.0125   119.6558     7.8881     0.0200     2.4396     0.1404
  312.0000   -51.4558     7.7529     9.6803    11.6145   119.9668     7.9043     0.0186     2.4434     0.1416
  312.5000   -51.5905     7.6510     9.6195    10.9225   121.1707     7.9056     0.0187     2.4315     0.1457
  313.0000   -51.7397     7.4471     9.4288    10.9293   119.3983     7.9070     0.0203     2.4248     0.1493
  313.5000   -52.0246     7.2487     9.2417    10.9360   115.2450     7.9083     0.0234     2.4346     0.1403
  314.0000   -52.3097     6.9590     8.9960    11.4049   114.5110     7.9245     0.0265     2.4399     0.1397
  314.5000   -52.5947     6.6351     8.4604    10.5059   117.8015     7.9407     0.0311     2.4451     0.1361
  315.0000   -53.0035     6.2827     7.8479    10.2969   120.1958     7.9420     0.0326     2.4497     0.1378
  315.5000   -53.2861     5.9491     7.3300    10.2325   121.1020     7.9434     0.0327     2.4437     0.1387
  316.0000   -53.4208     5.6722     6.9412     9.6231   117.0975     7.9447     0.0283     2.4363     0.1450
  316.5000   -53.1084     5.5203     6.7103     7.2083   115.6228     7.9460     0.0254     2.4207     0.1527
  317.0000   -52.6513     5.5623     6.6684     5.9466   116.5290     7.9474     0.0255     2.4125     0.1557
  317.5000   -52.3422     5.6815     7.0053     5.2923   117.5840     7.9487     0.0256     2.4081     0.1610
  318.0000   -52.3289     5.8435     7.3581     9.5806   119.0855     7.9501     0.0257     2.4067     0.1520
  318.5000   -52.3157     6.0516     7.8357    10.8531   121.0334     7.9514     0.0258     2.4302     0.1368
  319.0000   -52.1545     6.3104     8.1685    11.0868   122.9812     7.9502     0.0304     2.4586     0.1233
  319.5000   -51.9933     6.5803     8.4030    11.0174   127.4589     7.9392     0.0350     2.4853     0.1125
  320.0000   -51.9800     6.9570     8.6961    11.1773   129.8499     7.9408     0.0365     2.4936     0.1106
  320.5000   -51.6709     7.2047     8.8926    11.6565   125.8487     7.9570     0.0321     2.4966     0.1074
  321.0000   -51.2139     7.5129     9.1480    11.6665   124.8170     7.9584     0.0352     2.4973     0.1077
  321.5000   -51.0527     7.7804     9.3460    11.9148   124.9792     7.9597     0.0383     2.4982     0.1057
