~VERSION INFORMATION
 VERS.                2.0:   CWLS LOG ASCII STANDARD - VERSION 2.0
 WRAP.                 NO:   ONE LINE PER DEPTH STEP
~WELL INFORMATION
#MNEM.UNIT      DATA TYPE    INFORMATION
#----------   ------------   ------------------------------
 STRT.F           36.0000:   START DEPTH
 STOP.F          700.0000:   STOP DEPTH
 STEP.F            0.5000:   STEP LENGTH
 NULL.          -999.2500:   NO VALUE
 COMP. FENIX & SCISSON INC:   COMPANY
 WELL. NPR #3 13SX14 #13-14:   WELL
 FLD .             TEAPOT:   FIELD
 LOC .      S14 T38N R78W:   LOCATION
 CNTY.            NATRONA:   COUNTY
 STAT.            WYOMING:   STATE
 CTRY. UNITED STATES OF AMERICA:   COUNTRY
 SRVC.              Welex:   SERVICE COMPANY
 DATE.        28-FEB-1977:   LOGDATE
 API .       490251029600:   API NUMBER
~CURVE INFORMATION
#MNEM.UNIT       API CODE    CURVE DESCRIPTION
#----------   ------------   ------------------------------
 DEPT.F                  :   
 CALD.IN     45 280 60 00:   CALIPER FROM DENSITY LOG
 GRD .GAPI   45 310 01 00:   GAMMA RAY FROM DENSITY LOG
 CORR.G/C3   45 356 01 00:   DENSITY CORRECTION
 RHOB.G/C3   45 350 01 00:   BULK DENSITY
 DPHI.DEC    45 890 12 00:   DENSITY POROSITY SANDSTONE
 SPR .MV     07 010 01 00:   SPONTANEOUS POTENTIAL
 SGRD.OHMM   07 220 05 00:   SHALLOW RESISTIVITY
 ILD .OHMM   07 120 46 00:   INDUCTION LOG DEEP
 ILM .OHMM   07 120 44 00:   INDUCTION LOG MEDIUM
~PARAMETER INFORMATION
#MNEM.UNIT          VALUE    DESCRIPTION
#----------   ------------   ------------------------------
 PD  .                 GL:   PERMANENT DATUM
 EPD .F              5238:   ELEVATION PERMANENT DATUM
 LMF .                 GL:   LOG MEASURED FROM
 DMF .                 GL:   DRILLING MEASURED FROM
 EGL .F              5238:   GROUND LEVEL
 DATE.            2-28-77:   RUN DATE
 RUN .                  1:   RUN NUMBER
 DD  .F               710:   DEPTH DRILLER
 DL  .F               706:   DEPTH LOGGER
 BLI .F               704:   BOTTOM LOG INTERVAL
 TLI .F                42:   TOP LOG INTERVAL
 CS  .IN            8.625:   CASING SIZE
 CBD .F                42:   CASING BOTTOM DRILLER
 CBL .F                42:   CASING BOTTOM LOGGER
 BS  .IN            7.875:   BIT SIZE
 BSD .F               710:   BIT SIZE AT DEPTH
 DFT .           CHEM-GEL:   DRILLING FLUID TYPE
 DFD .                8.7:   DRILLING FLUID DENSITY
 DFV .                 33:   DRILLING FLUID VISCOSITY
 DFPH.                  7:   DRILLING FLUID PH
 DFL .                  8:   DRILLING FLUID LOSS
 MSS .          FLOW LINE:   MUD SAMPLE SOURCE
 RMS .OHMM           .382:   RESISTIVITY MUD SAMPLE
 MST .F                54:   MUD SAMPLE TEMPERATURE
 RMF .OHMM           .342:   RESISTIVITY MUD FILTRATE SAMPLE
 MFST.F                54:   MUD FILTRATE SAMPLE TEMPERATURE
 RMC .OHMM           .821:   RESISTIVITY MUD CAKE
 MCST.F                54:   MUD CAKE SAMPLE TEMPERATURE
 MFSS.           MEASURED:   MUD FILTRATE SAMPLE SOURCE
 MCSS.           MEASURED:   MUD CAKE SAMPLE SOURCE
 RMB .OHMM           .333:   RESISTIVITY MUD AT BHT
 BHT .F                62:   BOTTOM HOLE TEMPERATURE
 TCS .HRS               3:   TIME CURCULATED STOPPED
 MRT .F                62:   MAXIMUM RECORDED TEMPERATURE
 LUN .               8611:   LOGGING UNIT NUMBER
 LUL .           GILLETTE:   LOGGING UNIT LOCATION
 ENGI.               DOAK:   RECORDING ENGINEER
 WITN.               JAPP:   WITNESSED BY
 CLNT.            A2DTECH:   CLIENT CODE
 ORIG.       2", 5" PRINT:   ORIGIN OF DATA
 UWI .       490251029600:   UNIQUE WELL ID
 DICO. A2D Technologies, Inc.:   DIGITIZING COMPANY
~OTHER INFORMATION
~A   DEPT       CALD       GRD       CORR        RHOB     DPHI         SPR        SGRD      ILD        ILM   
# ...
  255.0000     7.9277   132.1886     0.0105     2.4800     0.0978   -41.3308    10.0415     7.0544     9.2555
  255.5000     7.9309   133.4820     0.0104     2.4780     0.0990   -41.2437    10.1910     7.0575     9.0508
  256.0000     7.9341   135.3967     0.0081     2.4760     0.0974   -41.1562    10.3913     7.0806     9.0508
  256.5000     7.9373   137.1489     0.0059     2.4740     0.1016   -41.0661    10.2131     7.1773     9.3041
  257.0000     7.9405   136.9513     0.0036     2.4717     0.1029   -41.1215    10.0168     7.2753     9.5514
  257.5000     7.9437   133.6544     0.0050     2.4759     0.0980   -41.2030    10.4582     7.3747     9.8054
  258.0000     7.9469   130.5069     0.0079     2.4876     0.0910   -41.2860    11.1840     7.4754    10.1096
  258.5000     7.9502   127.3526     0.0108     2.4989     0.0842   -41.3691    11.9345     7.5775    10.0773
  259.0000     7.9534   125.7091     0.0137     2.5095     0.0807   -41.4484    11.6763     7.6810    10.0388
  259.5000     7.9566   126.4768     0.0167     2.5087     0.0813   -41.4224    11.4315     7.7859     9.9249
  260.0000     7.9598   127.9492     0.0196     2.5049     0.0837   -41.3918    11.1887     7.8941    10.0241
  260.5000     7.9630   128.4566     0.0225     2.5011     0.0860   -41.3617    11.4424     8.0308    10.1460
  261.0000     7.9662   126.0765     0.0239     2.4974     0.0883   -41.3317    11.6544     8.0050    10.2693
  261.5000     7.9694   124.2460     0.0251     2.4948     0.0891   -41.3018    11.8250     7.9734    10.3931
  262.0000     7.9726   123.6659     0.0262     2.4962     0.0883   -41.2720    11.6079     7.9425    10.2916
  262.5000     7.9758   124.6567     0.0267     2.4975     0.0876   -41.2521    11.3445     7.9121    10.1918
  263.0000     7.9790   125.6455     0.0257     2.4988     0.0869   -41.2525    10.9842     7.8819    10.0931
  263.5000     7.9822   126.6513     0.0248     2.5002     0.0862   -41.2525    11.0218     7.8518     9.9952
  264.0000     7.9771   126.5135     0.0238     2.5015     0.0855   -41.2524    11.0852     7.8095     9.8984
  264.5000     7.9711   126.1952     0.0229     2.5025     0.0851   -41.2523    11.1811     7.8225     9.7544
  265.0000     7.9652   126.4432     0.0219     2.5028     0.0849   -41.2350    11.1285     7.8565     9.8177
  265.5000     7.9592   127.4221     0.0210     2.5031     0.0847   -41.2023    10.9724     7.8906    10.0157
  266.0000     7.9533   127.8039     0.0200     2.5034     0.0847   -41.1694    10.7836     7.9248    10.2175
  266.5000     7.9474   125.8857     0.0191     2.5043     0.0835   -41.1364    10.9894     7.9592    10.4240
  267.0000     7.9415   124.0478     0.0202     2.5096     0.0801   -41.1036    11.3599     7.9938    10.7836
  267.5000     7.9355   122.8204     0.0223     2.5146     0.0772   -41.0710    11.7429     8.0285    10.7361
  268.0000     7.9296   123.9507     0.0244     2.5196     0.0744   -41.0807    12.1566     8.0633    10.6523
  268.5000     7.9236   123.3596     0.0265     2.5246     0.0715   -41.1354    11.8928     8.0983    10.5691
  269.0000     7.9177   123.5576     0.0285     2.5245     0.0704   -41.1901    11.6229     8.1335    10.4866
  269.5000     7.9118   126.2578     0.0306     2.5215     0.0727   -41.2450    11.5024     8.1779    10.4047
  270.0000     7.9059   129.2766     0.0327     2.5236     0.0719   -41.3004    11.6814     8.1497    10.3235
  270.5000     7.9046   127.7678     0.0347     2.5285     0.0690   -41.3563    11.8250     8.0979    10.2429
  271.0000     7.9098   126.1493     0.0368     2.5327     0.0661   -41.4080    11.5434     8.0464    10.1629
  271.5000     7.9150   127.0191     0.0388     2.5336     0.0655   -41.3626    11.1710     7.9953    10.1096
  272.0000     7.9203   128.0137     0.0372     2.5291     0.0680   -40.9584    10.7836     7.9444    10.2484
  272.5000     7.9255   128.9171     0.0355     2.5247     0.0705   -40.6595    10.5865     7.8939    10.3730
  273.0000     7.9307   127.4583     0.0338     2.5206     0.0731   -41.0651    10.9650     7.8438    10.4991
  273.5000     7.9360   125.9164     0.0322     2.5216     0.0748   -41.4307    11.2603     7.8095    10.5865
  274.0000     7.9412   124.4424     0.0303     2.5192     0.0736   -41.0202    11.7165     7.8277    10.3974
  274.5000     7.9464   125.7926     0.0278     2.5110     0.0791   -41.1250    11.6208     7.8476    10.2293
  275.0000     7.9517   128.4288     0.0252     2.5029     0.0847   -41.6211    11.4340     7.8677    10.0179
  275.5000     7.9569   131.0547     0.0227     2.4947     0.0903   -41.5397    11.2502     7.8818    10.0960
  276.0000     7.9620   133.7110     0.0201     2.4866     0.0932   -41.4173    11.0860     7.8817    10.2129
  276.5000     7.9622   134.7899     0.0176     2.4819     0.0962   -41.2962    11.1697     7.8680    10.3931
  277.0000     7.9621   133.5759     0.0150     2.4773     0.0992   -41.0627    11.2915     7.8527    10.3065
  277.5000     7.9622   131.9795     0.0131     2.4744     0.1014   -41.1566    11.0916     7.8374     9.9249
  278.0000     7.9622   130.0120     0.0147     2.4799     0.0983   -41.2443    10.8821     7.8221     9.9585
  278.5000     7.9696   128.3923     0.0162     2.4852     0.0951   -41.1704    11.0022     7.8068    10.0290
  279.0000     7.9819   127.4001     0.0177     2.4905     0.0914   -41.0998    11.1836     7.7916    10.1096
  279.5000     7.9943   126.3964     0.0176     2.4874     0.0926   -41.0635    11.3680     7.7764     9.9560
  280.0000     8.0068   126.5496     0.0096     2.4805     0.0980   -41.1374    11.5003     7.7612     9.7436
  280.5000     8.0198   128.6178     0.0030     2.4736     0.1034   -41.2108    11.0669     7.7460     9.9176
  281.0000     8.0064   130.6849     0.0047     2.4721     0.1046   -41.2839    10.7033     7.7133    10.1096
  281.5000     7.9867   132.7462     0.0062     2.4804     0.0942   -41.3571    10.8424     7.6596    10.0535
  282.0000     7.9667   134.7969     0.0076     2.4970     0.0851   -41.4339    10.9835     7.6063     9.9300
  282.5000     7.9468   136.8634     0.0091     2.5129     0.0783   -41.3869    10.6739     7.5533     9.8080
  283.0000     7.9266   137.4056     0.0106     2.5071     0.0812   -41.2985    10.3962     7.5007     9.6875
  283.5000     7.9275   135.6339     0.0120     2.5016     0.0850   -41.3084    10.7320     7.4485     9.5685
  284.0000     7.9362   135.6263     0.0121     2.4961     0.0888   -41.4234    10.9810     7.3966     9.4778
  284.5000     7.9451   135.9336     0.0097     2.4905     0.0927   -41.3524    10.8786     7.3451     9.7097
  285.0000     7.9540   135.5609     0.0073     2.4850     0.0959   -41.2122    10.7915     7.2940    10.0168
  285.5000     7.9629   135.1318     0.0049     2.4794     0.0985   -41.0721    10.7067     7.2542     9.9621
  286.0000     7.9717   134.9946     0.0026     2.4738     0.1015   -41.2096    10.6195     7.1876     9.8338
  286.5000     7.9806   136.8002     0.0016     2.4706     0.1046   -41.3981    10.4894     7.1876     9.7436
  287.0000     7.9895   135.8564     0.0036     2.4792     0.0994   -41.3393    10.4894     7.2160     9.8193
  287.5000     7.9984   134.1815     0.0056     2.4878     0.0940   -41.1802    10.4894     7.2864     9.8824
  288.0000     8.0072   132.4742     0.0075     2.4963     0.0883   -41.1115    10.5865     7.3575     9.9459
  288.5000     8.0161   130.7692     0.0095     2.4941     0.0899   -41.3919    10.8769     7.4293    10.0099
  289.0000     8.0220   129.0790     0.0114     2.4907     0.0915   -41.6397    11.0357     7.5019    10.0742
  289.5000     8.0173   127.3815     0.0134     2.4912     0.0914   -41.4672    11.1969     7.5751    10.1389
  290.0000     8.0089   126.9346     0.0153     2.4959     0.0890   -41.2781    11.3990     7.6490    10.2041
  290.5000     8.0005   128.7349     0.0172     2.5006     0.0866   -41.4155    11.3990     7.7237    10.2977
  291.0000     7.9921   128.6805     0.0185     2.5054     0.0842   -41.6145    11.2258     7.7990    10.2658
