~VERSION INFORMATION
 VERS.                2.0:   CWLS LOG ASCII STANDARD - VERSION 2.0
 WRAP.                 NO:   ONE LINE PER DEPTH STEP
~WELL INFORMATION
#MNEM.UNIT      DATA TYPE    INFORMATION
#----------   ------------   ------------------------------
 STRT.F           35.0000:   START DEPTH
 STOP.F          736.0000:   STOP DEPTH
 STEP.F            0.5000:   STEP LENGTH
 NULL.          -999.2500:   NO VALUE
 COMP. US DEPTMNT OF ENRGY:   COMPANY
 WELL.       NPR 3 #73-15:   WELL
 FLD .   TEAPOT NAVAL RES:   FIELD
 LOC .      S15 T38N R78W:   LOCATION
 CNTY.            NATRONA:   COUNTY
 STAT.            WYOMING:   STATE
 CTRY. UNITED STATES OF AMERICA:   COUNTRY
 SRVC.           Gearhart:   SERVICE COMPANY
 DATE.        02-SEP-1987:   LOGDATE
 API .       490251122300:   API NUMBER
~CURVE INFORMATION
#MNEM.UNIT       API CODE    CURVE DESCRIPTION
#----------   ------------   ------------------------------
 DEPT.F                  :   
 GRR .GAPI   07 310 01 00:   GAMMA RAY
 RILD.OHMM   07 120 46 00:   INDUCTION LOG DEEP RESISTIVITY
 RILM.OHMM   07 120 44 00:   INDUCTION LOG MEDIUM RESISTIVITY
~PARAMETER INFORMATION
#MNEM.UNIT          VALUE    DESCRIPTION
#----------   ------------   ------------------------------
 PD  .                 GL:   PERMANENT DATUM
 LMF .                 KB:   LOG MEASURED FROM
 DAPD.F              10.5:   FEET ABOVE PERMANENT DATUM
 DMF .                 KB:   DRILLING MEASURED FROM
 DATE.        02-SEP-1987:   RUN DATE
 RUN .                  1:   RUN NUMBER
 DD  .F               740:   DEPTH DRILLER
 DL  .F               743:   DEPTH LOGGER
 BLI .F               735:   BOTTOM LOG INTERVAL
 TLI .F                30:   TOP LOG INTERVAL
 CS  .IN            9.625:   CASING SIZE
 CBD .F               740:   CASING BOTTOM DRILLER
 CBL .F                40:   CASING BOTTOM LOGGER
 BS  .IN             8.75:   BIT SIZE
 BSD .F               740:   BIT SIZE AT DEPTH
 DFT .                AIR:   DRILLING FLUID TYPE
 TCS .HRS            0230:   TIME CURCULATED STOPPED
 TLAB.HRS            0447:   TIME LOGGER AT BOTTOM
 MRT .F                80:   MAXIMUM RECORDED TEMPERATURE
 LUN .               7697:   LOGGING UNIT NUMBER
 LUL .           GILLETTE:   LOGGING UNIT LOCATION
 ENGI.         WEATHERMON:   RECORDING ENGINEER
 WITN.             STRONG:   WITNESSED BY
 CLNT.            A2DTECH:   CLIENT CODE
 ORIG.           5" PRINT:   ORIGIN OF DATA
 UWI .       490251122300:   UNIQUE WELL ID
 DICO. A2D Technologies, Inc.:   DIGITIZING COMPANY
~OTHER INFORMATION
~A   DEPT       GRR      RILD       RILM   
# ...
  399.0000   112.3323     7.0218     6.7823
  399.5000   111.7503     7.1224     7.0241
  400.0000   112.5385     7.2742     7.1736
  400.5000   113.9196     7.3812     7.3266
  401.0000   115.1488     7.4814     7.5347
  401.5000   116.0758     7.5874     7.7487
  402.0000   114.8721     7.6946     7.8588
  402.5000   113.7001     7.8034     7.8604
  403.0000   113.4187     7.8589     7.8624
  403.5000   112.5381     7.9148     7.8640
  404.0000   111.6524     7.9159     7.8656
  404.5000   111.0637     7.9170     7.8672
  405.0000   111.3916     7.9180     7.8688
  405.5000   111.4123     7.8642     7.8704
  406.0000   111.1299     7.8108     7.8175
  406.5000   110.2451     7.7041     7.8191
  407.0000   110.5801     7.6454     7.6593
  407.5000   112.1349     7.4951     7.5027
  408.0000   113.3334     7.3414     7.3979
  408.5000   113.0467     7.2411     7.2355
  409.0000   113.3747     7.0435     6.8590
  409.5000   113.6974     6.6634     6.6723
  410.0000   113.4160     6.3038     6.3567
  410.5000   107.6964     5.8813     6.0983
  411.0000   104.9980     5.6418     5.6114
  411.5000   105.6229     5.6426     5.1994
  412.0000   109.2690     5.6433     4.9534
  412.5000   112.6133     5.7631     4.9144
  413.0000   111.7272     5.8478     5.0599
  413.5000   111.4457     6.0169     5.4257
  414.0000   112.3727     6.3109     5.7880
  414.5000   111.1900     6.6727     6.3845
  415.0000   110.3044     6.9578     6.8762
  415.5000   110.0177     7.2551     7.2709
  416.0000   111.5541     7.6179     7.5296
  416.5000   111.9194     7.8884     7.6504
  417.0000   110.6891     7.9445     7.7450
  417.5000   110.4076     7.9456     7.8551
  418.0000   112.8902     8.0579     7.9667
  418.5000   115.8921     8.1153     8.0798
  419.0000   117.4233     8.1730     8.1946
  419.5000   116.2355     8.2311     8.3111
  420.0000   113.5371     8.2899     8.3205
  420.5000   109.9324     8.3489     8.3729
  421.0000   108.7395     8.4669     8.4330
  421.5000   109.3695     8.5866     8.5528
  422.0000   111.5049     8.5878     8.6141
  422.5000   113.3434     8.6489     8.7364
  423.0000   114.6022     8.7104     8.7382
  423.5000   116.1038     8.8336     8.6795
  424.0000   116.4214     8.8348     8.7419
  424.5000   115.5408     8.8360     8.7440
  425.0000   114.0509     8.8372     8.8068
  425.5000   112.8631     8.8433     8.8086
  426.0000   111.9774     8.9013     8.8104
  426.5000   111.3938     8.8411     8.8122
  427.0000   112.6229     8.8423     8.8140
  427.5000   114.4563     8.8311     8.8158
  428.0000   115.0812     8.7831     8.7564
  428.5000   113.5388     8.6630     8.6374
  429.0000   112.7055     8.6042     8.5199
  429.5000   113.9398     8.4869     8.4040
  430.0000   117.2837     8.4289     8.3475
  430.5000   122.7424     8.3719     8.2339
  431.0000   123.0652     8.3151     8.2360
  431.5000   122.1795     8.2014     8.2377
  432.0000   120.6896     8.1457     8.1819
  432.5000   117.3870     8.0344     8.0705
  433.0000   114.3446     7.9798     7.9060
  433.5000   112.5519     7.8710     7.7444
  434.0000   112.9223     7.4982     7.4814
  434.5000   116.2663     7.0935     7.0782
  435.0000   119.6102     6.5723     6.6442
  435.5000   121.4435     6.1318     6.1919
  436.0000   120.5578     5.5254     5.6703
  436.5000   119.6670     4.8089     5.2176
  437.0000   118.7855     4.3635     4.8345
  437.5000   118.5045     3.9594     4.2965
  438.0000   118.2235     3.6624     3.7396
  438.5000   117.7749     3.3409     3.2549
  439.0000   117.0615     2.9997     2.9332
  439.5000   116.1758     2.9177     2.6803
  440.0000   110.4563     2.8778     2.6074
  440.5000   103.5283     2.8984     2.6265
  441.0000    99.3176     2.8786     2.7027
  441.5000    99.9566     2.9603     2.8958
  442.0000   110.1874     3.3553     3.2372
  442.5000   117.8137     3.6987     3.6694
  443.0000   119.9440     3.9932     4.1305
  443.5000   117.2508     4.3714     4.4907
  444.0000   115.7608     4.7221     4.8485
  444.5000   116.9900     5.1037     5.1986
  445.0000   118.8233     5.5010     5.4211
  445.5000   121.8651     5.7360     5.6140
  446.0000   125.2090     5.8985     5.7735
  446.5000   125.2297     5.7776     5.6508
  447.0000   124.3440     5.4658     5.3826
  447.5000   124.9740     5.1351     5.0978
  448.0000   127.1127     4.9603     4.8906
  448.5000   127.7540     4.8248     4.6270
  449.0000   125.9199     4.6933     4.4081
  449.5000   122.6518     4.6939     4.3480
  450.0000   119.9445     4.6946     4.3792
  450.5000   117.2372     4.7948     4.5360
  451.0000   115.7394     4.8636     4.7638
  451.5000   115.1630     5.0721     5.0379
  452.0000   121.9006     5.3264     5.2542
  452.5000   128.6301     5.6325     5.5566
  453.0000   131.0979     5.9562     5.7995
  453.5000   128.3986     6.2985     6.1436
  454.0000   125.6913     6.6611     6.5270
  454.5000   123.2884     7.0502     6.8073
  455.0000   121.4943     7.4485     7.0505
  455.5000   120.3091     7.7140     7.3023
  456.0000   119.4282     7.8241     7.6158
  456.5000   119.7656     7.8262     7.8332
  457.0000   121.3276     7.7736     7.8905
  457.5000   123.4909     7.6688     7.8385
  458.0000   125.9587     7.5650     7.7868
  458.5000   128.1220     7.5146     7.5765
  459.0000   129.6764     7.4134     7.4226
  459.5000   130.9265     7.3635     7.3226
  460.0000   127.9148     7.2643     7.1739
  460.5000   125.1679     7.1660     7.0773
  461.0000   124.9354     7.0200     6.9819
  461.5000   127.4112     6.7350     6.8401
  462.0000   129.2701     6.3231     6.2954
  462.5000   128.6856     5.9807     6.0824
  463.0000   127.8129     5.7051     5.7553
  463.5000   128.1497     5.3606     5.3706
  464.0000   130.0295     5.0365     5.0799
  464.5000   134.3109     5.0382     4.7325
  465.0000   137.6918     5.1101     4.6136
  465.5000   142.2905     5.1472     4.8121
  466.0000   146.8891     5.3326     5.1602
  466.5000   146.3127     5.6767     5.5336
  467.0000   140.2568     5.9614     5.9339
  467.5000   133.8965     6.2603     6.3632
  468.0000   127.6795     6.6201     6.6365
  468.5000   123.3149     7.0005     6.9318
  469.0000   121.2164     7.3006     7.2696
  469.5000   121.8577     7.5609     7.5818
  470.0000   124.3254     7.7259     7.7442
  470.5000   127.7063     7.8330     7.8008
  471.0000   129.8696     7.8351     7.7487
  471.5000   129.2531     7.8919     7.8605
  472.0000   126.8984     7.8940     7.8632
  472.5000   126.3139     7.9512     7.8659
  473.0000   127.5721     7.9533     7.9240
  473.5000   128.2052     7.9555     7.9267
  474.0000   127.9332     7.9577     7.9294
  474.5000   129.1913     7.9047     7.9321
  475.0000   130.1370     7.9073     7.8791
  475.5000   129.8255     7.8542     7.8278
  476.0000   128.3834     7.8019     7.7762
  476.5000   129.6335     7.7499     7.7789
  477.0000   131.4924     7.6455     7.7276
  477.5000   132.1336     7.7009     7.7308
  478.0000   131.2528     7.7618     7.7334
  478.5000   130.9802     7.8134     7.7900
  479.0000   131.3384     7.8152     7.7380
  479.5000   133.5470     7.8176     7.7413
  480.0000   134.7282     7.8197     7.7439
  480.5000   130.5069     7.7671     7.7465
  481.0000   127.7996     7.7159     7.7492
  481.5000   127.5276     7.6115     7.6447
  482.0000   129.0902     7.5552     7.4901
  482.5000   131.2535     7.4072     7.3892
  483.0000   133.7212     7.2061     7.2890
  483.5000   139.2331     7.0592     7.1416
  484.0000   144.4405     6.9154     6.9481
  484.5000   147.2126     6.7745     6.7599
  485.0000   149.0715     6.6365     6.5737
  485.5000   148.7195     6.4563     6.4432
  486.0000   145.1871     6.1840     6.2257
  486.5000   141.5665     5.9842     5.9734
  487.0000   137.9459     5.9444     5.6522
  487.5000   135.8474     5.9464     5.4231
  488.0000   135.8799     5.9480     5.3126
  488.5000   136.8255     5.9496     5.3519
  489.0000   138.0964     5.9512     5.3920
  489.5000   140.2470     5.9945     5.5506
