~VERSION INFORMATION
 VERS.                2.0:   CWLS LOG ASCII STANDARD - VERSION 2.0
 WRAP.                 NO:   ONE LINE PER DEPTH STEP
~WELL INFORMATION
#MNEM.UNIT      DATA TYPE    INFORMATION
#----------   ------------   ------------------------------
 STRT.F           70.0000:   START DEPTH
 STOP.F         1236.0000:   STOP DEPTH
 STEP.F            0.5000:   STEP LENGTH
 NULL.          -999.2500:   NO VALUE
 COMP. U S NAVY/INTEX OIL CO:   COMPANY
 WELL. NAVAL PETROLEUM TE ##3 75S-11:   WELL
 FLD .             TEAPOT:   FIELD
 LOC .      S11 T38N R78W:   LOCATION
 CNTY.            NATRONA:   COUNTY
 STAT.            WYOMING:   STATE
 CTRY. UNITED STATES OF AMERICA:   COUNTRY
 SRVC.         Lane Wells:   SERVICE COMPANY
 DATE.        04-MAR-1960:   LOGDATE
 API .       490250633900:   API NUMBER
~CURVE INFORMATION
#MNEM.UNIT       API CODE    CURVE DESCRIPTION
#----------   ------------   ------------------------------
 DEPT.F                  :   
 GR  .GAPI   30 310 01 00:   GAMMA RAY
 SPR .MV     05 010 01 00:   SPONTANEOUS POTENTIAL FROM RES.
 ILD .OHMM   05 120 46 00:   INDUCTION LOG DEEP
 CILD.MMHO   05 110 46 00:   CONDUCTIVITY INDUCTION LOG DEEP
 ASN .OHMM   05 041 18 00:   AMPLIFIED SHORT NORMAL 18"
~PARAMETER INFORMATION
#MNEM.UNIT          VALUE    DESCRIPTION
#----------   ------------   ------------------------------
 PD  .                 GL:   PERMANENT DATUM
 EPD .F              5252:   ELEVATION PERMANENT DATUM
 LMF .                 KB:   LOG MEASURED FROM
 DAPD.F                 5:   FEET ABOVE PERMANENT DATUM
 DMF .                 KB:   DRILLING MEASURED FROM
 EKB .F              5257:   KELLING BUSHING
 EGL .F              5252:   GROUND LEVEL
 DATE.             3-4-60:   RUN DATE
 RUN .                  1:   RUN NUMBER
 DD  .F              1239:   DEPTH DRILLER
 DL  .F              1238:   DEPTH LOGGER
 BLI .F              1236:   BOTTOM LOG INTERVAL
 TLI .F                70:   TOP LOG INTERVAL
 CS  .IN            8.625:   CASING SIZE
 CBD .F                12:   CASING BOTTOM DRILLER
 BS  .IN            7.875:   BIT SIZE
 BSD .F              1239:   BIT SIZE AT DEPTH
 DFT .                GEL:   DRILLING FLUID TYPE
 DFD .                9.2:   DRILLING FLUID DENSITY
 DFV .                 34:   DRILLING FLUID VISCOSITY
 DFPH.                7.5:   DRILLING FLUID PH
 DFL .                8.5:   DRILLING FLUID LOSS
 MSS .                PIT:   MUD SAMPLE SOURCE
 RMS .OHMM              3:   RESISTIVITY MUD SAMPLE
 MST .F                52:   MUD SAMPLE TEMPERATURE
 RMF .OHMM            2.8:   RESISTIVITY MUD FILTRATE SAMPLE
 MFST.F                55:   MUD FILTRATE SAMPLE TEMPERATURE
 RMC .OHMM            3.3:   RESISTIVITY MUD CAKE
 MCST.F                55:   MUD CAKE SAMPLE TEMPERATURE
 MFSS.                MUD:   MUD FILTRATE SAMPLE SOURCE
 MCSS.              PRESS:   MUD CAKE SAMPLE SOURCE
 RMB .OHMM            2.2:   RESISTIVITY MUD AT BHT
 BHT .F                77:   BOTTOM HOLE TEMPERATURE
 TCS .HRS              .5:   TIME CURCULATED STOPPED
 MRT .F                77:   MAXIMUM RECORDED TEMPERATURE
 LUN .               4474:   LOGGING UNIT NUMBER
 LUL .             CASPER:   LOGGING UNIT LOCATION
 ENGI.      GRIGGS/NELSON:   RECORDING ENGINEER
 WITN.  JORGENSEN/HOLLAND:   WITNESSED BY
 CLNT.            A2DTECH:   CLIENT CODE
 ORIG.       2", 5" PRINT:   ORIGIN OF DATA
 UWI .       490250633900:   UNIQUE WELL ID
 DICO. A2D Technologies, Inc.:   DIGITIZING COMPANY
~OTHER INFORMATION
~A   DEPT       GR        SPR          ILD      CILD         ASN 
# ...
  863.0000  -999.2500   -35.2903     6.7041   157.3833     7.8151
  863.5000  -999.2500   -35.2434     6.7164   157.1652     7.8312
  864.0000  -999.2500   -35.1452     6.7287   157.0497     7.7829
  864.5000  -999.2500   -34.9416     6.7412   157.0568     7.7131
  865.0000  -999.2500   -34.7396     6.7455   158.0741     7.6441
  865.5000  -999.2500   -34.5371     6.7074   159.0954     7.5749
  866.0000  -999.2500   -34.3324     6.6684   160.1122     7.5058
  866.5000  -999.2500   -34.1277     6.6295   161.1290     7.4366
  867.0000  -999.2500   -34.3387     6.5908   162.1458     7.3677
  867.5000  -999.2500   -34.5876     6.5519   163.1626     7.2977
  868.0000  -999.2500   -34.8353     6.5132   164.1794     7.2911
  868.5000  -999.2500   -35.0828     6.4744   165.1962     7.3198
  869.0000  -999.2500   -35.3319     6.4354   166.2130     7.3457
  869.5000  -999.2500   -35.5677     6.3970   167.2298     7.3148
  870.0000  -999.2500   -35.4356     6.3418   168.2466     7.2506
  870.5000  -999.2500   -35.2853     6.2810   169.2634     7.1860
  871.0000  -999.2500   -35.1362     6.2196   170.2802     7.1214
  871.5000  -999.2500   -34.9869     6.1581   171.2970     7.0570
  872.0000  -999.2500   -34.8537     6.0967   172.8317     6.9925
  872.5000  -999.2500   -34.9432     6.0353   174.5329     6.9275
  873.0000  -999.2500   -35.0377     5.9742   176.2341     6.8530
  873.5000  -999.2500   -35.1312     5.9014   177.9353     6.7332
  874.0000  -999.2500   -35.1906     5.8035   179.6364     6.6044
  874.5000  -999.2500   -34.9754     5.7058   181.3253     6.4784
  875.0000  -999.2500   -34.7563     5.6082   184.2905     6.3199
  875.5000  -999.2500   -34.5382     5.5106   189.3904     6.1602
  876.0000  -999.2500   -34.3203     5.4131   194.4976     6.0003
  876.5000  -999.2500   -34.1024     5.3156   199.6032     5.8406
  877.0000  -999.2500   -33.8844     5.2171   204.7114     5.6807
  877.5000  -999.2500   -33.6663     5.1175   209.8379     5.5211
  878.0000  -999.2500   -33.4361     5.0315   215.0123     5.3612
  878.5000  -999.2500   -33.5298     5.0263   215.0293     5.2781
  879.0000  -999.2500   -33.7336     5.0934   211.3571     5.3046
  879.5000  -999.2500   -33.9403     5.1618   207.6530     5.5395
  880.0000  -999.2500   -34.1463     5.2297   203.9673     5.7807
  880.5000  -999.2500   -34.3521     5.2976   200.5110     6.0206
  881.0000  -999.2500   -34.5579     5.3655   198.5600     6.2415
  881.5000  -999.2500   -34.7639     5.4334   196.7146     6.3201
  882.0000  -999.2500   -34.9704     5.5014   194.8724     6.3939
  882.5000  -999.2500   -35.1783     5.5693   193.0303     6.4397
  883.0000  -999.2500   -35.1596     5.6379   191.1873     6.4700
  883.5000  -999.2500   -34.9822     5.6599   189.6568     6.5002
  884.0000  -999.2500   -34.8063     5.6603   189.6578     6.5306
  884.5000  -999.2500   -34.6307     5.6602   189.6557     6.5604
  885.0000  -999.2500   -34.4552     5.6602   189.6562     6.5587
  885.5000  -999.2500   -34.2798     5.6603   189.6568     6.5300
  886.0000  -999.2500   -34.1043     5.6620   189.6568     6.5269
  886.5000  -999.2500   -33.9286     5.5843   190.4250     6.5144
  887.0000  -999.2500   -33.7517     5.4853   191.4290     6.4662
  887.5000  -999.2500   -33.5753     5.3859   192.4340     6.3547
  888.0000  -999.2500   -33.6064     5.2866   193.4376     6.2471
  888.5000  -999.2500   -33.6512     5.1874   194.4459     6.1397
  889.0000  -999.2500   -33.6951     5.0882   196.6017     6.0323
  889.5000  -999.2500   -33.7387     4.9889   200.8141     5.9241
  890.0000  -999.2500   -33.7823     4.8897   205.0266     5.7723
  890.5000  -999.2500   -33.8258     4.7904   209.5806     5.5478
  891.0000  -999.2500   -33.8694     4.6912   220.1650     5.3243
  891.5000  -999.2500   -33.9126     4.5918   231.6835     5.1006
  892.0000  -999.2500   -34.0244     4.4920   243.2019     4.8770
  892.5000  -999.2500   -34.1927     4.3953   254.8618     4.6527
  893.0000  -999.2500   -34.3611     4.3909   258.4843     4.4263
  893.5000  -999.2500   -34.5306     4.3954   258.4843     4.2267
  894.0000  -999.2500   -34.6995     4.4903   254.8618     4.5215
  894.5000  -999.2500   -34.8219     4.5874   251.0549     4.8317
  895.0000  -999.2500   -34.5500     4.6840   247.3434     5.1395
  895.5000  -999.2500   -34.2790     4.7806   240.6762     5.4473
  896.0000  -999.2500   -35.3258     4.9011   223.9209     5.6745
  896.5000  -999.2500   -34.7865     5.1102   221.4346     5.7444
  897.0000  -999.2500   -35.1140     5.2927   216.0125     5.8796
  897.5000  -999.2500   -34.9513     5.3667   211.6748     5.9876
  898.0000  -999.2500   -34.8143     5.4584   206.2526     6.1229
  898.5000  -999.2500   -35.0672     5.5505   202.1294     6.2581
  899.0000  -999.2500   -35.3252     5.6426   198.8374     6.3938
  899.5000  -999.2500   -35.5500     5.7347   195.5453     6.5105
  900.0000    86.9960   -35.6912     5.8269   192.6253     6.6066
  900.5000    84.7837   -35.8338     5.9181   189.7568     6.7026
  901.0000    86.9960   -35.9765     5.9943   186.8884     6.7986
  901.5000    75.3024   -36.1191     6.0340   184.0200     6.8923
  902.0000    70.1111   -36.2619     6.0747   181.1516     6.9625
  902.5000    83.9140   -36.4081     6.1151   178.2832     7.0340
  903.0000    91.6231   -36.5894     6.1555   176.2871     7.1057
  903.5000    95.8788   -36.2084     6.1962   174.8539     7.1774
  904.0000    78.1406   -35.7531     6.2359   173.4206     7.2492
  904.5000    84.2092   -35.6404     6.3198   171.9874     7.3197
  905.0000    90.1969   -35.9389     6.4244   170.5542     7.3656
  905.5000    92.8647   -36.2246     6.4307   169.1210     7.4069
  906.0000    84.9605   -36.5252     6.4301   168.3111     7.4485
  906.5000    80.7593   -36.4016     6.4300   168.7479     7.4893
  907.0000    85.1268   -36.1578     6.4294   169.1846     7.4828
  907.5000    81.8189   -35.9033     6.4005   169.6214     7.4721
  908.0000    75.7600   -36.0613     6.3234   170.3445     7.4280
  908.5000    75.9203   -36.3065     6.2471   172.1093     7.3796
  909.0000    85.3393   -36.5568     6.1703   173.8715     7.2629
  909.5000    93.7571   -36.4161     6.0950   175.6347     7.1468
  910.0000    97.8852   -36.2194     5.9680   177.3891     7.0371
  910.5000    88.0560   -36.0217     5.8228   179.4183     6.9376
  911.0000    86.2921   -35.8250     5.6760   183.2641     6.8365
  911.5000    80.9216   -35.6305     5.5292   187.1355     6.7123
  912.0000    79.9481   -35.5154     5.3818   190.9977     6.5383
  912.5000    83.9118   -35.5492     5.2308   195.8356     6.3192
  913.0000    80.3539   -35.5805     5.0782   202.1859     6.1101
  913.5000    85.8539   -35.6124     4.9297   208.5363     5.8697
  914.0000    86.9358   -35.6436     4.6834   219.6830     5.6062
  914.5000    80.1562   -35.6783     4.4250   231.7221     5.1743
  915.0000    89.4315   -35.5577     4.1661   243.7612     4.7534
  915.5000    89.8174   -35.3747     3.9076   261.1768     4.3333
  916.0000    85.2173   -35.0818     3.6491   282.1429     3.9036
  916.5000    85.1015   -34.7459     3.3906   306.6547     3.5412
  917.0000    98.4818   -34.4097     3.1321   322.8117     3.1886
  917.5000   106.3253   -34.0732     2.8736   348.0216     2.8421
  918.0000   106.8307   -33.7354     2.6146   382.6760     2.5236
  918.5000    99.3265   -33.3919     2.3547   413.5586     2.2734
  919.0000    88.4214   -33.5504     2.1120   430.2134     2.2066
  919.5000    82.8796   -33.7922     2.2792   442.1223     2.1934
  920.0000    81.5827   -34.0349     2.4749   450.5396     2.2417
  920.5000    86.7110   -34.2605     2.6703   439.3885     2.6317
  921.0000    98.9207   -34.3140     2.8649   424.6592     2.9994
  921.5000    91.0903   -34.3725     3.0595   402.5230     3.3602
  922.0000    93.3905   -34.4316     3.2540   371.9791     3.7207
  922.5000    69.0908   -34.4908     3.4486   344.3738     4.0814
  923.0000    81.2313   -34.5499     3.6432   321.1249     4.4406
  923.5000    77.1446   -34.6091     3.8377   297.9661     4.7556
