~VERSION INFORMATION
 VERS.                2.0:   CWLS LOG ASCII STANDARD - VERSION 2.0
 WRAP.                 NO:   ONE LINE PER DEPTH STEP
~WELL INFORMATION
#MNEM.UNIT      DATA TYPE    INFORMATION
#----------   ------------   ------------------------------
 STRT.F           25.0000:   START DEPTH
 STOP.F          528.0000:   STOP DEPTH
 STEP.F            0.5000:   STEP LENGTH
 NULL.          -999.2500:   NO VALUE
 COMP. FENIX & SCISSON INC:   COMPANY
 WELL.       NPR #3 #11-3:   WELL
 FLD .             NPR #3:   FIELD
 LOC .       S3 T38N R78W:   LOCATION
 CNTY.            NATRONA:   COUNTY
 STAT.            WYOMING:   STATE
 CTRY. UNITED STATES OF AMERICA:   COUNTRY
 SRVC.       Schlumberger:   SERVICE COMPANY
 DATE.        01-MAR-1977:   LOGDATE
 API .       490251028300:   API NUMBER
~CURVE INFORMATION
#MNEM.UNIT       API CODE    CURVE DESCRIPTION
#----------   ------------   ------------------------------
 DEPT.F                  :   
 SPR .MV     07 010 01 00:   SPONTANEOUS POTENTIAL
 LL8 .OHMM   07 220 08 00:   LATEROLOG-8 RES.
 ILM .OHMM   07 120 44 00:   INDUCTION LOG MEDIUM
 ILD .OHMM   07 120 46 00:   INDUCTION LOG DEEP
 GRD .GAPI   45 310 01 00:   GAMMA RAY FROM DENSITY LOG
 CALD.IN     45 280 60 00:   CALIPER
 RHOB.G/C3   45 350 01 00:   BULK DENSITY
 CORR.G/C3   45 356 01 00:   DENSITY CORRECTION
 DPHI.DEC    45 890 12 00:   DENSITY POROSITY SANDSTONE
~PARAMETER INFORMATION
#MNEM.UNIT          VALUE    DESCRIPTION
#----------   ------------   ------------------------------
 PD  .                 GL:   PERMANENT DATUM
 EPD .F              5178:   ELEVATION PERMANENT DATUM
 LMF .                 GL:   LOG MEASURED FROM
 DMF .                 GL:   DRILLING MEASURED FROM
 EKB .F              5183:   KELLING BUSHING
 EGL .F              5178:   GROUND LEVEL
 DATE.           3-1-1977:   RUN DATE
 RUN .                  1:   RUN NUMBER
 DD  .F               535:   DEPTH DRILLER
 DL  .F               526:   DEPTH LOGGER
 BLI .F               520:   BOTTOM LOG INTERVAL
 TLI .F                30:   TOP LOG INTERVAL
 CS  .IN            8.625:   CASING SIZE
 CBD .F                40:   CASING BOTTOM DRILLER
 CBL .F                30:   CASING BOTTOM LOGGER
 BS  .IN            7.875:   BIT SIZE
 BSD .F               535:   BIT SIZE AT DEPTH
 DFT .                KCL:   DRILLING FLUID TYPE
 DFD .                8.7:   DRILLING FLUID DENSITY
 DFV .                 37:   DRILLING FLUID VISCOSITY
 DFPH.                  8:   DRILLING FLUID PH
 DFL .                7.2:   DRILLING FLUID LOSS
 MSS .                PIT:   MUD SAMPLE SOURCE
 RMS .OHMM           .495:   RESISTIVITY MUD SAMPLE
 MST .F                62:   MUD SAMPLE TEMPERATURE
 RMF .OHMM           .406:   RESISTIVITY MUD FILTRATE SAMPLE
 MFST.F                65:   MUD FILTRATE SAMPLE TEMPERATURE
 MFSS.                  M:   MUD FILTRATE SAMPLE SOURCE
 RMB .OHMM           .438:   RESISTIVITY MUD AT BHT
 BHT .F                70:   BOTTOM HOLE TEMPERATURE
 TCS .HRS            0800:   TIME CURCULATED STOPPED
 TLAB.HRS            1130:   TIME LOGGER AT BOTTOM
 MRT .F                70:   MAXIMUM RECORDED TEMPERATURE
 LUN .               5642:   LOGGING UNIT NUMBER
 LUL .               CSPR:   LOGGING UNIT LOCATION
 ENGI.             MARTIN:   RECORDING ENGINEER
 CLNT.            A2DTECH:   CLIENT CODE
 ORIG.       2", 5" PRINT:   ORIGIN OF DATA
 UWI .       490251028300:   UNIQUE WELL ID
 DICO. A2D Technologies, Inc.:   DIGITIZING COMPANY
~OTHER INFORMATION
~A   DEPT      SPR        LL8        ILM        ILD         GRD      CALD       RHOB       CORR       DPHI   
# ...
  317.0000   -53.6838     8.6079     6.0160     5.3548   110.9926     8.1458     2.4681     0.0026     0.1172
  317.5000   -52.4918     6.1326     5.6484     5.2203   113.4102     8.1447     2.4934     0.0124     0.1111
  318.0000   -51.4212     3.9623     5.3548     5.1010   112.1160     8.1435     2.5241     0.0242     0.1047
  318.5000   -51.8393     5.1690     5.3270     4.9844   109.3976     8.1423     2.5004     0.0041     0.1079
  319.0000   -52.7145     6.2987     5.3055     4.8818   107.1980     8.1411     2.4984     0.0091     0.1092
  319.5000   -53.2647     6.1060     5.5205     5.1622   108.9768     8.1399     2.4931     0.0175     0.1094
  320.0000   -50.8071     6.5865     5.8674     5.4927   111.8662     8.1387     2.4847     0.0129     0.1130
  320.5000   -47.6417     6.9953     6.2361     5.8443   114.7671     8.1375     2.4667     0.0072     0.1190
  321.0000   -46.1738     7.4270     6.6280     6.2185   117.7565     8.1384     2.4494     0.0055     0.1270
  321.5000   -47.9201     7.8867     7.0342     6.6166   117.1912     8.1401     2.4322     0.0157     0.1351
  322.0000   -49.7785     8.4242     7.5162     7.0402   116.3568     8.1418     2.4151     0.0256     0.1444
  322.5000   -51.6927     8.5850     7.9941     7.4909   117.4678     8.1435     2.3904     0.0325     0.1542
  323.0000   -52.7396     8.7674     8.3490     7.8383   118.7546     8.1452     2.4018     0.0036     0.1591
  323.5000   -51.6405     8.9875     8.3699     7.8879   119.3383     8.1469     2.4266     0.0040     0.1388
  324.0000   -49.4841     9.0686     8.3932     7.9382   117.9192     8.1487     2.4522     0.0080     0.1231
  324.5000   -47.3553     9.1429     8.4170     7.9878   116.5615     8.1504     2.4496     0.0040     0.1309
  325.0000   -47.9763     9.2178     8.4412     8.0441   115.1956     8.1521     2.4453    -0.0020     0.1359
  325.5000   -48.3719     9.2474     8.4657     8.0432   113.7792     8.1538     2.4544    -0.0061     0.1218
  326.0000   -48.0425     9.2600     8.4902     8.0437   113.5059     8.1555     2.4671    -0.0039     0.1191
  326.5000   -47.7058     9.2728     8.5147     8.0436   113.2663     8.1572     2.4781    -0.0015     0.1161
  327.0000   -48.2774     9.2857     8.5394     8.0435   112.4684     8.1589     2.4740     0.0010     0.1147
  327.5000   -48.2722     9.2988     8.5641     8.0435   109.9590     8.1607     2.4709    -0.0005     0.1150
  328.0000   -47.2077     9.3118     8.5889     8.0435   107.6752     8.1624     2.4858    -0.0019     0.1131
  328.5000   -46.1571     9.3262     8.6137     8.0435   109.7161     8.1641     2.5020     0.0016     0.1079
  329.0000   -45.5243     9.4565     8.6382     8.0435   112.4147     8.1658     2.5205     0.0054     0.1027
  329.5000   -46.4229     9.6548     8.6602     8.0435   115.1824     8.1675     2.5165     0.0080     0.0976
  330.0000   -48.1255     9.5048     8.5505     8.0435   114.6445     8.1692     2.5098     0.0053     0.1011
  330.5000   -47.9119     9.2244     8.4242     8.0436   113.8661     8.1709     2.5029     0.0026     0.1056
  331.0000   -45.9459     8.9525     8.4805     8.0423   113.3441     8.1727     2.4965     0.0075     0.1106
  331.5000   -43.8130     8.6624     8.5616     8.0399   113.4965     8.1743     2.5140     0.0151     0.1086
  332.0000   -42.2107     8.7420     8.6435     8.1981   113.6331     8.1761     2.5269     0.0214     0.0867
  332.5000   -43.3098     9.0865     8.7264     8.4242   113.7741     8.1731     2.5126     0.0161     0.0919
  333.0000   -47.4262     9.4870     8.8098     8.6565   113.8968     8.1654     2.4990     0.0089     0.0967
  333.5000   -48.0258     9.8583     8.8916     8.8228   112.4740     8.1573     2.4854     0.0016     0.1038
  334.0000   -47.2312    10.6398     8.9959     8.1685   111.2866     8.1494     2.4801    -0.0014     0.1009
  334.5000   -46.1069    11.3251     8.3081     7.3170   111.2260     8.1409     2.4921     0.0090     0.0954
  335.0000   -45.0126    15.1081     7.0995     6.5542   111.1336     8.1325     2.4912     0.0139     0.0934
  335.5000   -44.5196    18.1861     6.3726     5.8710   110.6865     8.1240     2.4743     0.0086     0.1045
  336.0000   -47.2375     8.1582     6.0084     5.4296   110.1910     8.1155     2.4798     0.0019     0.1066
  336.5000   -50.2611     3.3317     5.7659     5.2083   109.6764     8.1070     2.4902     0.0213     0.0906
  337.0000   -50.8652     3.8663     5.7659     5.5207   110.1051     8.0985     2.4968     0.0145     0.0985
  337.5000   -51.3959     5.1768     6.0210     5.8899   109.3058     8.0900     2.4755    -0.0004     0.1036
  338.0000   -51.9109     6.9313     6.7447     6.3246   108.3658     8.0815     2.4749    -0.0005     0.0958
  338.5000   -52.8167     8.7214     7.5552     6.8439   107.4195     8.0730     2.4772     0.0028     0.0974
  339.0000   -53.0744     9.4930     8.4632     7.4712   107.6815     8.0646     2.4792     0.0135     0.1074
  339.5000   -52.1982    10.4207     9.5885     8.1559   109.6631     8.0561     2.4753     0.0244     0.1046
  340.0000   -47.9912    10.7139     9.8156     8.9034   111.5884     8.0476     2.4504     0.0227     0.1157
  340.5000   -49.0699    11.0492    10.0157     9.7194   113.3493     8.0391     2.4224     0.0275     0.1326
  341.0000   -52.0630    11.4303    10.2213    10.5175   113.4714     8.0306     2.3957     0.0781     0.1495
  341.5000   -53.8451    11.0477    10.4296    10.5175   109.1133     8.0222     2.3687     0.0480     0.1715
  342.0000   -52.1564    10.6376    10.6420    10.5175   103.1988     8.0173     2.4191     0.0068     0.1506
  342.5000   -45.9671    10.2427    10.8584    10.5175   100.8576     8.0159     2.4770     0.0178     0.1207
  343.0000   -44.8803     9.6725    11.1370    10.7139   101.8197     8.0146     2.5199     0.0134     0.0907
  343.5000   -48.4368    10.4026    11.5616    11.0492   103.0415     8.0133     2.5227     0.0224     0.0790
  344.0000   -50.1915    12.4684    12.0032    11.3951   104.3096     8.0119     2.4913     0.0121     0.0954
  344.5000   -48.7829    14.7480    12.4599    11.7519   106.5784     8.0106     2.4962     0.0027     0.0904
  345.0000   -47.3977    15.3664    12.9340    12.1197   110.5388     8.0093     2.5050     0.0243     0.0868
  345.5000   -46.1287    14.0416    13.3762    12.3080   109.6647     8.0079     2.5133     0.0338     0.0842
  346.0000   -44.8498    13.1007    13.0035    12.1990   108.2136     8.0066     2.5203     0.0346     0.0794
  346.5000   -43.3753    12.2229    12.6737    11.9840   106.7275     8.0053     2.5264     0.0443     0.0737
  347.0000   -41.1953    11.4039    12.3523    11.7728   105.2276     8.0040     2.5296     0.0503     0.0780
  347.5000   -39.0529    10.7139    11.7147    11.5653   103.3016     8.0027     2.4994     0.0272     0.0899
  348.0000   -36.9106    10.1826    10.8108    11.3614    98.7039     8.0014     2.4701     0.0157     0.1027
  348.5000   -34.7647     9.7225     9.9765    11.0152    89.4620     7.9999     2.4444     0.0156     0.1154
  349.0000   -32.8587     9.2819     8.9461    11.5365    81.1214     7.9985     2.4347     0.0299     0.1295
  349.5000   -33.6993     8.7309     9.0710    12.2401    76.1560     7.9830     2.4173     0.0193     0.1448
  350.0000   -33.1790     8.7284    10.7437    12.9274    74.2562     7.9534     2.3917     0.0595     0.1619
  350.5000   -32.4779    11.1578    12.5198    13.6505    72.3401     7.9237     2.3658     0.0481     0.1789
  351.0000   -33.4253    13.8030    14.5878    14.4120    70.6279     7.8939     2.3399     0.0366     0.1960
  351.5000   -33.0825    18.2919    18.4881    15.2157    69.4105     7.8641     2.3141     0.0255     0.2077
  352.0000   -33.4751    17.9812    18.4025    16.0644    68.1984     7.8351     2.2906     0.0140     0.2143
  352.5000   -34.8598    17.3293    18.1704    16.9604    66.9592     7.7934     2.2854     0.0128     0.2209
  353.0000   -36.2430    17.7984    18.4936    17.5018    66.4604     7.7796     2.2822     0.0209     0.2233
