~VERSION INFORMATION
 VERS.                2.0:   CWLS LOG ASCII STANDARD - VERSION 2.0
 WRAP.                 NO:   ONE LINE PER DEPTH STEP
~WELL INFORMATION
#MNEM.UNIT      DATA TYPE    INFORMATION
#----------   ------------   ------------------------------
 STRT.F           31.0000:   START DEPTH
 STOP.F         1450.0000:   STOP DEPTH
 STEP.F            0.5000:   STEP LENGTH
 NULL.          -999.2500:   NO VALUE
 COMP. FENIX & SCISSON INC:   COMPANY
 WELL.    NPR-3 SX #86-14:   WELL
 FLD .             TEAPOT:   FIELD
 LOC .      S14 T38N R78W:   LOCATION
 CNTY.            NATRONA:   COUNTY
 STAT.            WYOMING:   STATE
 CTRY. UNITED STATES OF AMERICA:   COUNTRY
 SRVC.            Unknown:   SERVICE COMPANY
 DATE.        05-APR-1978:   LOGDATE
 API .       490251060800:   API NUMBER
~CURVE INFORMATION
#MNEM.UNIT       API CODE    CURVE DESCRIPTION
#----------   ------------   ------------------------------
 DEPT.F                  :   
 CALD.IN     45 280 60 00:   CALIPER
 GRD .GAPI   45 310 01 00:   GAMMA RAY FROM DENSITY LOG
 RHOB.G/C3   45 350 01 00:   BULK DENSITY
 CORR.G/C3   45 356 01 00:   DENSITY CORRECTION
 DPHI.DEC    45 890 12 00:   DENSITY POROSITY SANDSTONE
 SPR .MV     05 010 01 00:   SPONTANEOUS POTENTIAL FROM RES.
 SN  .OHMM   05 040 16 00:   SHORT NORMAL 16"
 ILD .OHMM   05 120 46 00:   INDUCTION LOG DEEP
~PARAMETER INFORMATION
#MNEM.UNIT          VALUE    DESCRIPTION
#----------   ------------   ------------------------------
 PD  .                 GL:   PERMANENT DATUM
 EPD .F              5367:   ELEVATION PERMANENT DATUM
 LMF .                 KB:   LOG MEASURED FROM
 DMF .                 KB:   DRILLING MEASURED FROM
 EKB .F              5371:   KELLING BUSHING
 EGL .F              5369:   GROUND LEVEL
 DATE.           4-5-1978:   RUN DATE
 RUN .                  1:   RUN NUMBER
 DD  .F              1455:   DEPTH DRILLER
 DL  .F              1446:   DEPTH LOGGER
 BLI .F              1440:   BOTTOM LOG INTERVAL
 TLI .F               100:   TOP LOG INTERVAL
 CS  .IN            8.625:   CASING SIZE
 CBD .F                40:   CASING BOTTOM DRILLER
 BS  .IN            7.875:   BIT SIZE
 BSD .F              1455:   BIT SIZE AT DEPTH
 DFT .                KCL:   DRILLING FLUID TYPE
 DFD .                8.6:   DRILLING FLUID DENSITY
 DFV .                 31:   DRILLING FLUID VISCOSITY
 DFPH.                 10:   DRILLING FLUID PH
 DFL .                8.4:   DRILLING FLUID LOSS
 MSS .           FLOWLINE:   MUD SAMPLE SOURCE
 RMS .OHMM            .95:   RESISTIVITY MUD SAMPLE
 MST .F                54:   MUD SAMPLE TEMPERATURE
 RMF .OHMM            .95:   RESISTIVITY MUD FILTRATE SAMPLE
 MFST.F                62:   MUD FILTRATE SAMPLE TEMPERATURE
 RMC .OHMM             .8:   RESISTIVITY MUD CAKE
 MCST.F                62:   MUD CAKE SAMPLE TEMPERATURE
 MFSS.               MEAS:   MUD FILTRATE SAMPLE SOURCE
 RMB .OHMM            .66:   RESISTIVITY MUD AT BHT
 BHT .F                78:   BOTTOM HOLE TEMPERATURE
 TCS .HRS               6:   TIME CURCULATED STOPPED
 MRT .F                78:   MAXIMUM RECORDED TEMPERATURE
 LUN .               2958:   LOGGING UNIT NUMBER
 LUL .               CASP:   LOGGING UNIT LOCATION
 ENGI.             MILLER:   RECORDING ENGINEER
 WITN.           MCGINLEY:   WITNESSED BY
 CLNT.            A2DTECH:   CLIENT CODE
 ORIG.        2" 5" PRINT:   ORIGIN OF DATA
 UWI .       490251060800:   UNIQUE WELL ID
 DICO. A2D Technologies, Inc.:   DIGITIZING COMPANY
~OTHER INFORMATION
~A   DEPT     CALD         GRD      RHOB       CORR       DPHI        SPR         SN        ILD   
# ...
 1043.5000     8.1772    92.4179     2.4879     0.0321     0.1049    -0.4102     8.6044     7.0133
 1044.0000     8.1777    92.8885     2.4638     0.0306     0.1114    -0.3571     8.5578     7.0256
 1044.5000     8.1782    93.7380     2.4538     0.0312     0.1118    -0.3003     8.5114     7.0378
 1045.0000     8.1787    94.0999     2.4483     0.0319     0.1105    -0.1531     8.4653     7.0501
 1045.5000     8.1792    95.4554     2.4540     0.0354     0.1071     0.0054     8.4257     7.0624
 1046.0000     8.1797    96.6006     2.4612     0.0409     0.1020     0.1640     8.4976     7.0747
 1046.5000     8.1802    96.8171     2.4684     0.0439     0.0970     0.3226     8.5749     7.0871
 1047.0000     8.1807    96.5970     2.4754     0.0319     0.1042     0.4808     8.6529     7.0994
 1047.5000     8.1812    94.6673     2.4617     0.0220     0.1075     0.6411     8.7315     7.1118
 1048.0000     8.1817    92.4354     2.4584     0.0229     0.1075     0.6699     8.8248     7.1243
 1048.5000     8.1822    91.7985     2.4547     0.0237     0.1093     0.6273     8.8114     7.1331
 1049.0000     8.1827    92.0633     2.4522     0.0244     0.0984     0.5831     8.7906     7.1198
 1049.5000     8.1832    91.9608     2.4672     0.0251     0.0924     0.5389     8.7698     7.1086
 1050.0000     8.1837    92.2448     2.4828     0.0259     0.0915     0.4949     8.7436     7.0975
 1050.5000     8.1842    93.6551     2.4851     0.0222     0.0914     0.4508     8.7534     7.0864
 1051.0000     8.1847    93.7706     2.4859     0.0141     0.0938     0.4067     8.7679     7.0753
 1051.5000     8.1852    89.2630     2.4768     0.0135     0.0990     0.3628     8.7824     7.0685
 1052.0000     8.1857    87.0591     2.4738     0.0174     0.0912     0.3182     8.7969     7.0840
 1052.5000     8.1862    88.0730     2.4819     0.0185     0.0895     0.3421     8.8114     7.0960
 1053.0000     8.1867    88.3173     2.4852     0.0130     0.0956     0.4164     8.8260     7.1079
 1053.5000     8.1872    86.8555     2.4765     0.0076     0.1002     0.4914     8.8406     7.1198
 1054.0000     8.1877    85.3461     2.4670     0.0031     0.1014     0.5668     8.8552     7.1314
 1054.5000     8.1882    89.3175     2.4662     0.0060     0.1066     0.6414     8.8698     7.1745
 1055.0000     8.1887    93.5028     2.4461     0.0094     0.1092     0.6830     8.8846     7.2227
 1055.5000     8.1892    96.3191     2.4378     0.0128     0.1114     0.5974     8.9061     7.2715
 1056.0000     8.1897    95.3050     2.4578     0.0126     0.1162     0.5151     8.8845     7.3206
 1056.5000     8.1883    94.3473     2.4621     0.0086     0.1214     0.4330     8.8413     7.3700
 1057.0000     8.1839    94.0848     2.4406     0.0045     0.1266     0.3510     8.7983     7.4197
 1057.5000     8.1795    95.4306     2.4319     0.0021     0.1329     0.2687     8.7556     7.4698
 1058.0000     8.1751    97.5829     2.4236     0.0021     0.1431     0.1856     8.7131     7.5407
 1058.5000     8.1707    97.3470     2.4025     0.0020     0.1551     0.0964     8.6628     7.4915
 1059.0000     8.1663    95.5930     2.3773     0.0024     0.1706     0.4110     8.6771     7.4097
 1059.5000     8.1619    90.3280     2.3606     0.0157     0.1822     0.8288     8.6948     7.3288
 1060.0000     8.1576    86.4228     2.3380     0.0413     0.1860     1.2273     8.7127     7.2487
 1060.5000     8.1532    86.7613     2.3253     0.0662     0.1715     2.0123     8.7304     7.1695
 1061.0000     8.1488    90.6803     2.3516     0.0859     0.1775     2.7911     8.7422     7.0680
 1061.5000     8.1444    93.3913     2.3405     0.1030     0.1738     3.7750     8.6848     7.0892
 1062.0000     8.1400    93.5074     2.3354     0.1181     0.1707     4.8715     8.6627     7.1196
 1062.5000     8.1356    91.0784     2.3620     0.1166     0.1875     5.5104     8.8186     7.1502
 1063.0000     8.1311    90.3177     2.3268     0.1221     0.1952     5.5449     8.9380     7.1808
 1063.5000     8.1305    89.6492     2.3063     0.1552     0.1769     5.5849     9.0035     7.2296
 1064.0000     8.1311    89.6488     2.3400     0.1857     0.1806     5.6232     9.0285     7.3086
 1064.5000     8.1317    90.8511     2.3377     0.1877     0.1865     5.6614     9.0535     7.3884
 1065.0000     8.1324    90.8557     2.3247     0.2035     0.1880     5.6778     9.1376     7.5589
 1065.5000     8.1330    85.4116     2.3257     0.2237     0.1679     5.6393     9.4183     7.7530
 1066.0000     8.1336    81.4142     2.3922     0.2424     0.1044     5.6019     9.7077     7.9291
 1066.5000     8.1343    81.2198     2.4784     0.2148     0.0754     5.5640     9.8601     8.0467
 1067.0000     8.1349    80.5862     2.5157     0.1665     0.0681     5.5250     9.8601     8.1653
 1067.5000     8.1355    79.7036     2.5311     0.1093     0.0874     5.4968    10.0435     8.3143
 1068.0000     8.1362    80.8105     2.4745     0.0540     0.0937     5.7377    10.3226     8.6627
 1068.5000     8.1368    81.7180     2.4788     0.0552     0.0928     5.9926    10.6285     8.8128
 1069.0000     8.1374    81.7950     2.4821     0.0564     0.0949     6.2471    10.6977     8.9738
 1069.5000     8.1381    81.8582     2.4866     0.0519     0.0979     6.4811    10.7676     9.0727
 1070.0000     8.1387    83.3521     2.4753     0.0496     0.1006     6.4481    10.8375     9.2138
 1070.5000     8.1393    84.5064     2.4610     0.0790     0.0961     6.4077    10.9079     9.4503
 1071.0000     8.1400    83.4578     2.4726     0.1117     0.0882     6.3685    10.9792     9.6794
 1071.5000     8.1406    82.6936     2.4913     0.1068     0.0949     6.3292    11.0173     9.6794
 1072.0000     8.1412    82.9293     2.4787     0.0983     0.1008     6.2893    10.8766     9.6026
 1072.5000     8.1419    83.1371     2.4637     0.1071     0.0854     6.2871    10.8400     9.5425
 1073.0000     8.1425    81.5466     2.4861     0.1111     0.0754     6.2874    10.7916     9.4446
 1073.5000     8.1431    79.5755     2.5125     0.0792     0.0933     6.2874    10.5969     9.3066
 1074.0000     8.1438    78.8911     2.4874     0.0664     0.1062     6.2874    10.4079     9.2439
 1074.5000     8.1444    78.9273     2.4756     0.0345     0.1117     6.2878    10.3054     9.1822
 1075.0000     8.1450    79.5856     2.4610     0.0341     0.1174     6.2868    10.2681     9.1213
 1075.5000     8.1457    80.2398     2.4436     0.0360     0.1204     6.2924    10.2317     9.0727
 1076.0000     8.1463    81.4365     2.4317     0.0522     0.0971     5.9071    10.2032     8.9647
 1076.5000     8.1469    80.9546     2.4897     0.0664     0.0995     5.3050    10.1692     8.8598
 1077.0000     8.1476    81.2681     2.4550     0.0511     0.1031     4.6972    10.1351     8.7561
 1077.5000     8.1482    81.0684     2.4654     0.0472     0.1068     4.0897    10.1011     8.6627
 1078.0000     8.1488    77.8302     2.4561     0.0274     0.1086     3.4746    10.0670     8.7657
 1078.5000     8.1495    76.9349     2.4585     0.0242     0.1090     3.2769    10.0266     8.9064
 1079.0000     8.1571    79.9791     2.4572     0.0250     0.1130     3.1990     9.9710     8.8766
 1079.5000     8.1782    80.1189     2.4489     0.0259     0.1144     3.1268     9.9159     8.8210
 1080.0000     8.1439    80.3117     2.4452     0.0329     0.1089     3.1580     9.8601     8.7659
 1080.5000     8.1104    80.9300     2.4578     0.0610     0.1002     3.2765     9.9057     8.7432
 1081.0000     8.0760    81.6028     2.4698     0.0682     0.1032     3.3954     9.9524     8.9295
 1081.5000     8.0748    80.8887     2.4794     0.0683     0.1062     3.4957     9.9994     9.0885
 1082.0000     8.0826    79.8747     2.4649     0.0677     0.1086     3.4933    10.0442     9.2420
 1082.5000     8.0907    80.1209     2.4544     0.0918     0.1014     3.4930    10.0442     9.1553
 1083.0000     8.0986    82.3527     2.4713     0.1050     0.0997     3.4935    10.0442     9.0736
 1083.5000     8.1066    82.9819     2.4713     0.1097     0.0966     3.4958    10.0443     8.9926
