~VERSION INFORMATION
 VERS.                2.0:   CWLS LOG ASCII STANDARD - VERSION 2.0
 WRAP.                 NO:   ONE LINE PER DEPTH STEP
~WELL INFORMATION
#MNEM.UNIT      DATA TYPE    INFORMATION
#----------   ------------   ------------------------------
 STRT.M         1049.9000:   START DEPTH
 STOP.M         2123.5000:   STOP DEPTH
 STEP.M            0.1000:   STEP LENGTH
 NULL.          -999.2500:   NO VALUE
 COMP. BROWN JOHN E&C INC:   COMPANY
 WELL. NAVAL PETROLEUM RESERVE 3 STX- #34-3:   WELL
 FLD .            WILDCAT:   FIELD
 LOC .       S3 T38N R78W:   LOCATION
 CNTY.            NATRONA:   COUNTY
 STAT.            WYOMING:   STATE
 CTRY. UNITED STATES OF AMERICA:   COUNTRY
 SRVC.            Unknown:   SERVICE COMPANY
 DATE.        04-SEP-1991:   LOGDATE
 API .       490251090400:   API NUMBER
~CURVE INFORMATION
#MNEM.UNIT       API CODE    CURVE DESCRIPTION
#----------   ------------   ------------------------------
 DEPT.M                  :   
 ROP .MIN/FT 91 810 01 00:   RAT OF DRILLING PENETRATION
 TGAS.UNITS  91 830 01 00:   TOTAL GAS FROM HOTWIRE
~PARAMETER INFORMATION
#MNEM.UNIT          VALUE    DESCRIPTION
#----------   ------------   ------------------------------
 EKB .F              5189:   KELLING BUSHING
 EGL .F              5179:   GROUND LEVEL
 DATE.             9-4-91:   RUN DATE
 DD  .F              2123:   DEPTH DRILLER
 CS  .IN            9.625:   CASING SIZE
 BS  .IN             8.75:   BIT SIZE
 BSD .F              2123:   BIT SIZE AT DEPTH
 ENGI.              TOWER:   RECORDING ENGINEER
 WITN.               HUSK:   WITNESSED BY
 CLNT.            A2DTECH:   CLIENT CODE
 ORIG.           5" PRINT:   ORIGIN OF DATA
 UWI .       490251090400:   UNIQUE WELL ID
 DICO. A2D Technologies, Inc.:   DIGITIZING COMPANY
~OTHER INFORMATION
~A  DEPT       ROP         TGAS 
# ...
 1827.5000     0.4355    21.4714
 1827.6000     0.4285    21.4490
 1827.7000     0.4215    21.0465
 1827.8000     0.4145    21.0480
 1827.9000     0.4075    21.0497
 1828.0000     0.4046    21.0514
 1828.1000     0.4110    21.0531
 1828.2000     0.4173    21.0549
 1828.3000     0.4237    21.0566
 1828.4000     0.4300    21.0583
 1828.5000     0.4353    21.0600
 1828.6000     0.4394    21.0617
 1828.7000     0.4435    21.0181
 1828.8000     0.4476    20.6367
 1828.9000     0.4518    20.6383
 1829.0000     0.4529    20.6400
 1829.1000     0.4526    20.6417
 1829.2000     0.4522    20.6434
 1829.3000     0.4519    20.6273
 1829.4000     0.4516    20.2186
 1829.5000     0.4532    20.2200
 1829.6000     0.4551    20.2217
 1829.7000     0.4570    20.2234
 1829.8000     0.4589    20.2251
 1829.9000     0.4607    20.2269
 1830.0000     0.4581    19.8860
 1830.1000     0.4555    19.8017
 1830.2000     0.4530    19.8034
 1830.3000     0.4504    19.8051
 1830.4000     0.4479    19.8069
 1830.5000     0.4453    19.8088
 1830.6000     0.4428    19.4948
 1830.7000     0.4403    19.3834
 1830.8000     0.4377    19.3851
 1830.9000     0.4352    19.3869
 1831.0000     0.4326    19.3886
 1831.1000     0.4301    19.3906
 1831.2000     0.4275    19.3920
 1831.3000     0.4250    19.3937
 1831.4000     0.4238    19.3954
 1831.5000     0.4234    19.4574
 1831.6000     0.4231    19.8275
 1831.7000     0.4228    19.8291
 1831.8000     0.4225    19.8309
 1831.9000     0.4204    19.8326
 1832.0000     0.4179    19.9428
 1832.1000     0.4153    20.2974
 1832.2000     0.4128    20.6951
 1832.3000     0.4102    20.6966
 1832.4000     0.4077    20.9314
 1832.5000     0.4052    21.1286
 1832.6000     0.4026    21.1303
 1832.7000     0.4001    21.1320
 1832.8000     0.3975    21.1337
 1832.9000     0.3950    21.4170
 1833.0000     0.3924    21.5657
 1833.1000     0.3899    21.5674
 1833.2000     0.3873    21.5691
 1833.3000     0.3855    21.5710
 1833.4000     0.3852    21.5726
 1833.5000     0.3849    21.5743
 1833.6000     0.3846    21.5760
 1833.7000     0.3843    21.5777
 1833.8000     0.3863    21.5794
 1833.9000     0.3904    21.5814
 1834.0000     0.3945    21.5829
 1834.1000     0.3986    21.5846
 1834.2000     0.4028    21.5863
 1834.3000     0.4084    21.6628
 1834.4000     0.4148    22.0183
 1834.5000     0.4211    22.0200
 1834.6000     0.4275    22.0217
 1834.7000     0.4345    22.0234
 1834.8000     0.4441    22.0251
 1834.9000     0.4549    22.0269
 1835.0000     0.4657    22.0287
 1835.1000     0.4765    22.0303
 1835.2000     0.4875    22.0320
 1835.3000     0.5005    22.0337
 1835.4000     0.5135    22.0354
 1835.5000     0.5265    22.0169
 1835.6000     0.5396    21.6106
 1835.7000     0.5535    21.6120
 1835.8000     0.5702    21.6137
 1835.9000     0.5868    21.7599
 1836.0000     0.6035    22.0457
 1836.1000     0.6228    22.0475
 1836.2000     0.6150    22.0491
 1836.3000     0.6058    22.0509
 1836.4000     0.5965    22.0526
 1836.5000     0.5873    22.0543
 1836.6000     0.5781    22.0560
 1836.7000     0.5689    22.0579
 1836.8000     0.5597    22.0594
 1836.9000     0.5505    22.0611
 1837.0000     0.5413    22.0629
 1837.1000     0.5320    22.0646
 1837.2000     0.5228    22.0802
 1837.3000     0.5136    22.4969
 1837.4000     0.5044    22.4983
 1837.5000     0.4952    22.5000
 1837.6000     0.4860    22.5017
 1837.7000     0.4768    22.5034
 1837.8000     0.4675    22.5051
 1837.9000     0.4583    22.5069
 1838.0000     0.4491    22.5086
 1838.1000     0.4438    22.5103
 1838.2000     0.4412    22.5120
 1838.3000     0.4387    22.5137
 1838.4000     0.4361    22.5156
 1838.5000     0.4336    22.5171
 1838.6000     0.4311    22.5189
 1838.7000     0.4285    22.5206
 1838.8000     0.4260    22.5226
 1838.9000     0.4234    22.5240
 1839.0000     0.4208    22.5257
 1839.1000     0.4204    22.5274
 1839.2000     0.4201    22.5291
 1839.3000     0.4198    22.5309
 1839.4000     0.4195    22.5326
 1839.5000     0.4189    22.5344
 1839.6000     0.4163    22.5360
 1839.7000     0.4138    22.5377
 1839.8000     0.4112    22.5394
 1839.9000     0.4087    22.5411
 1840.0000     0.4069    22.5429
 1840.1000     0.4065    22.5446
 1840.2000     0.4062    22.5463
 1840.3000     0.4059    22.5480
 1840.4000     0.4056    22.5497
 1840.5000     0.4064    22.5514
 1840.6000     0.4083    22.5531
 1840.7000     0.4102    22.5549
 1840.8000     0.4121    22.5566
 1840.9000     0.4140    22.5583
 1841.0000     0.4174    22.5601
 1841.1000     0.4215    22.5617
 1841.2000     0.4257    22.5636
 1841.3000     0.4298    22.5651
 1841.4000     0.4344    22.5669
 1841.5000     0.4380    22.5686
 1841.6000     0.4422    22.5703
 1841.7000     0.4463    22.5720
 1841.8000     0.4504    22.5740
 1841.9000     0.4547    22.5754
 1842.0000     0.4610    22.5771
 1842.1000     0.4674    22.5789
 1842.2000     0.4737    22.5806
 1842.3000     0.4801    22.5823
 1842.4000     0.4881    22.5840
 1842.5000     0.5011    22.5857
 1842.6000     0.5141    22.5874
 1842.7000     0.5271    22.5891
 1842.8000     0.5401    22.5909
 1842.9000     0.5541    22.5927
 1843.0000     0.5693    22.5943
 1843.1000     0.5846    22.5960
 1843.2000     0.5998    22.5977
 1843.3000     0.6151    22.5994
 1843.4000     0.6330    22.6011
 1843.5000     0.6527    22.6029
 1843.6000     0.6724    22.6046
 1843.7000     0.6921    22.6063
 1843.8000     0.7118    22.6080
 1843.9000     0.7342    22.6097
 1844.0000     0.7572    22.6115
 1844.1000     0.7802    22.6131
 1844.2000     0.7843    22.6149
 1844.3000     0.7751    22.4749
 1844.4000     0.7659    22.1899
 1844.5000     0.7566    22.1914
 1844.6000     0.7474    22.1933
 1844.7000     0.7416    22.1949
 1844.8000     0.7369    22.1966
 1844.9000     0.7321    22.1983
 1845.0000     0.7273    22.2000
 1845.1000     0.7224    22.2017
 1845.2000     0.7157    22.2038
 1845.3000     0.7087    22.2051
 1845.4000     0.7017    21.9965
 1845.5000     0.6947    21.7800
 1845.6000     0.6883    21.7817
 1845.7000     0.6858    21.7835
 1845.8000     0.6832    21.7851
 1845.9000     0.6807    21.7869
 1846.0000     0.6782    21.7886
 1846.1000     0.6756    21.7903
 1846.2000     0.6731    21.7920
 1846.3000     0.6705    21.7939
 1846.4000     0.6680    21.7954
 1846.5000     0.6654    21.7971
 1846.6000     0.6629    21.7989
 1846.7000     0.6603    21.8006
 1846.8000     0.6578    21.8023
 1846.9000     0.6553    21.8040
 1847.0000     0.6527    21.8057
 1847.1000     0.6533    21.8074
 1847.2000     0.6552    21.8091
 1847.3000     0.6571    21.8109
 1847.4000     0.6590    21.8127
 1847.5000     0.6611    21.8143
 1847.6000     0.6628    21.8160
 1847.7000     0.6647    21.8177
 1847.8000     0.6666    21.8194
 1847.9000     0.6685    21.8211
 1848.0000     0.6704    21.8231
 1848.1000     0.6723    21.8246
 1848.2000     0.6742    21.8263
 1848.3000     0.6761    21.8280
 1848.4000     0.6780    21.8297
 1848.5000     0.6810    21.8314
 1848.6000     0.6873    21.8331
 1848.7000     0.6937    21.8349
 1848.8000     0.7000    21.8366
 1848.9000     0.7064    21.8383
 1849.0000     0.7127    21.8400
 1849.1000     0.7191    21.8419
 1849.2000     0.7254    21.8434
 1849.3000     0.7318    21.8451
 1849.4000     0.7381    21.8469
 1849.5000     0.7459    21.8486
 1849.6000     0.7544    21.8503
 1849.7000     0.7630    21.8523
 1849.8000     0.7716    21.8537
 1849.9000     0.7818    21.8554
 1850.0000     0.7923    21.8541
 1850.1000     0.8053    21.8483
 1850.2000     0.8183    21.8426
 1850.3000     0.8132    21.8368
 1850.4000     0.7956    21.8310
 1850.5000     0.7780    21.8252
 1850.6000     0.7593    21.8195
 1850.7000     0.7508    21.8137
 1850.8000     0.7419    21.8079
 1850.9000     0.7329    21.8021
 1851.0000     0.7239    21.7964
 1851.1000     0.7151    21.7906
 1851.2000     0.7083    21.7848
 1851.3000     0.7016    21.7790
 1851.4000     0.6948    21.7733
 1851.5000     0.6880    21.7675
 1851.6000     0.6818    21.7617
 1851.7000     0.6772    21.7559
