~VERSION INFORMATION
 VERS.                2.0:   CWLS LOG ASCII STANDARD - VERSION 2.0
 WRAP.                 NO:   ONE LINE PER DEPTH STEP
~WELL INFORMATION
#MNEM.UNIT      DATA TYPE    INFORMATION
#----------   ------------   ------------------------------
 STRT.F            1.0000:   START DEPTH
 STOP.F          886.0000:   STOP DEPTH
 STEP.F            0.5000:   STEP LENGTH
 NULL.          -999.2500:   NO VALUE
 COMP. BROWN JOHN E&C INC:   COMPANY
 WELL. NAVAL PETROLEUM RESERVE 3 SHX-1 #33-2:   WELL
 FLD .             NPR #3:   FIELD
 LOC .       S2 T38N R78W:   LOCATION
 CNTY.            NATRONA:   COUNTY
 STAT.            WYOMING:   STATE
 CTRY. UNITED STATES OF AMERICA:   COUNTRY
 SRVC.      Western Atlas:   SERVICE COMPANY
 DATE.        26-NOV-1991:   LOGDATE
 API .       490252248300:   API NUMBER
~CURVE INFORMATION
#MNEM.UNIT       API CODE    CURVE DESCRIPTION
#----------   ------------   ------------------------------
 DEPT.F                  :   
 RILD.OHMM   07 120 46 00:   INDUCTION LOG DEEP RESISTIVITY
 RILM.OHMM   07 120 44 00:   INDUCTION LOG MEDIUM RESISTIVITY
 RFOC.OHMM   07 220 04 00:   RESISTIVITY FOCUSED LOG
 SPR .MV     07 010 01 00:   SPONTANEOUS POTENTIAL
 GRR .GAPI   07 310 01 00:   GAMMA RAY
~PARAMETER INFORMATION
#MNEM.UNIT          VALUE    DESCRIPTION
#----------   ------------   ------------------------------
 PD  .                 GL:   PERMANENT DATUM
 EPD .F              5133:   ELEVATION PERMANENT DATUM
 LMF .                 KB:   LOG MEASURED FROM
 DAPD.F                10:   FEET ABOVE PERMANENT DATUM
 DMF .                 KB:   DRILLING MEASURED FROM
 EKB .F              5143:   KELLING BUSHING
 EGL .F              5133:   GROUND LEVEL
 DATE.        26-NOV-1991:   RUN DATE
 RUN .                  1:   RUN NUMBER
 DD  .F               892:   DEPTH DRILLER
 DL  .F               889:   DEPTH LOGGER
 BLI .F               837:   BOTTOM LOG INTERVAL
 CS  .IN            8.625:   CASING SIZE
 CBD .F                40:   CASING BOTTOM DRILLER
 CBL .F                55:   CASING BOTTOM LOGGER
 BS  .IN            7.875:   BIT SIZE
 BSD .F               892:   BIT SIZE AT DEPTH
 DFT .            POLYMER:   DRILLING FLUID TYPE
 DFD .                9.8:   DRILLING FLUID DENSITY
 DFV .                 38:   DRILLING FLUID VISCOSITY
 DFPH.                9.5:   DRILLING FLUID PH
 DFL .               10.6:   DRILLING FLUID LOSS
 MSS .           FLOWLINE:   MUD SAMPLE SOURCE
 RMS .OHMM           2.08:   RESISTIVITY MUD SAMPLE
 MST .F                78:   MUD SAMPLE TEMPERATURE
 RMF .OHMM           1.66:   RESISTIVITY MUD FILTRATE SAMPLE
 MFST.F                78:   MUD FILTRATE SAMPLE TEMPERATURE
 RMC .OHMM           2.60:   RESISTIVITY MUD CAKE
 MCST.F                78:   MUD CAKE SAMPLE TEMPERATURE
 MFSS.               MEAS:   MUD FILTRATE SAMPLE SOURCE
 MCSS.               CALC:   MUD CAKE SAMPLE SOURCE
 RMB .OHMM           1.08:   RESISTIVITY MUD AT BHT
 BHT .F               150:   BOTTOM HOLE TEMPERATURE
 TCS .HRS               2:   TIME CURCULATED STOPPED
 MRT .F               150:   MAXIMUM RECORDED TEMPERATURE
 LUN .            HL-6307:   LOGGING UNIT NUMBER
 LUL .         CASPER, WY:   LOGGING UNIT LOCATION
 ENGI.             ZIEGER:   RECORDING ENGINEER
 WITN.             STRONG:   WITNESSED BY
 CLNT.            A2DTECH:   CLIENT CODE
 ORIG.           5" PRINT:   ORIGIN OF DATA
 UWI .       490252248300:   UNIQUE WELL ID
 DICO. A2D Technologies, Inc.:   DIGITIZING COMPANY
~OTHER INFORMATION
~A    DEPT    RILD       RILM       RFOC        SPR         GRR  
# ...
  428.0000     7.8046     7.8284     7.7441   -88.7427   113.6902
  428.5000     7.8030     7.8263     7.7416   -89.0531   118.5152
  429.0000     7.8014     7.7701     7.7173   -89.2128   120.0192
  429.5000     7.7998     7.7675     7.6828   -89.2217   117.2892
  430.0000     7.7979     7.7655     7.5217   -89.0795   119.0931
  430.5000     7.7963     7.7634     7.4674   -89.0905   122.7097
  431.0000     7.9036     7.7613     7.5019   -88.7976   124.5136
  431.5000     7.9574     7.7592     7.6292   -88.6534   122.3274
  432.0000     7.7916     7.7035     7.6695   -88.5113   119.6599
  432.5000     7.6296     7.6482     7.6028   -88.2206   119.3512
  433.0000     7.5754     7.5863     7.4228   -87.9278   120.2466
  433.5000     7.5738     7.5383     7.2939   -87.7857   120.8442
  434.0000     7.5196     7.4842     7.2450   -87.6199   120.2290
  434.5000     7.4661     7.3791     7.3975   -87.3508   119.0117
  435.0000     7.4130     7.3261     7.4959   -87.3618   118.6908
  435.5000     7.3603     7.3242     7.4675   -87.5214   120.8609
  436.0000     7.3588     7.2716     7.4011   -87.6810   123.2128
  436.5000     7.3573     7.2194     7.2832   -87.6898   123.8082
  437.0000     7.3558     7.2672     7.2304   -87.8494   124.1037
  437.5000     7.3543     7.3163     7.2054   -88.1599   124.3971
  438.0000     7.3525     7.3139     7.1755   -88.6395   124.0839
  438.5000     7.3510     7.3119     7.2227   -89.2355   121.9604
  439.0000     7.2988     7.1594     7.3380   -89.3951   120.1389
  439.5000     7.1470     7.0589     7.4209   -89.5547   118.3172
  440.0000     6.9501     6.9117     7.4183   -89.7143   119.2127
  440.5000     6.8056     6.7145     7.2126   -89.8739   122.5272
  441.0000     6.7547     6.4001     6.9643   -89.8827   123.7291
  441.5000     6.6164     6.2234     6.7528   -89.7406   120.9991
  442.0000     6.4788     6.1360     6.4934   -89.2850   120.0861
  442.5000     6.3883     6.0080     6.3133   -88.7024   123.0963
  443.0000     6.2990     5.9649     6.2186   -88.4096   127.6192
  443.5000     6.2110     6.0048     6.1236   -88.1167   127.9125
  444.0000     6.1668     6.0477     6.0921   -87.6752   123.6719
  444.5000     6.2085     6.1704     6.0475   -87.5309   124.8716
  445.0000     6.2968     6.3418     6.2646   -87.3889   125.4692
  445.5000     6.4247     6.4287     6.5943   -87.2489   122.7392
  446.0000     6.5587     6.5172     6.8862   -87.4088   120.0114
  446.5000     6.6490     6.5608     6.9735   -87.4178   119.3984
  447.0000     6.7405     6.6965     6.8401   -87.4284   120.9001
  447.5000     6.7388     6.6947     6.7241   -87.5880   121.8127
  448.0000     6.7844     6.7864     6.6278   -87.7477   121.7885
  448.5000     6.7361     6.7372     6.6317   -88.2089   121.4758
  449.0000     6.7347     6.6888     6.7364   -88.3686   120.5607
  449.5000     6.7330     6.6870     6.8120   -88.5282   118.1349
  450.0000     6.5933     6.6390     7.1654   -88.6885   112.4904
  450.5000     6.5910     6.5914     7.2140   -88.3957   109.6581
  451.0000     6.5883     6.5896     6.9440   -88.2534   111.7641
  451.5000     6.5861     6.5423     6.6411   -88.1116   115.6827
  452.0000     6.5838     6.5405     6.4520   -87.9695   118.7351
  452.5000     6.6280     6.5842     6.4991   -87.8297   121.4552
  453.0000     6.7177     6.6283     6.5679   -87.8385   122.3027
  453.5000     6.7628     6.7190     6.6547   -87.6943   120.4790
  454.0000     6.8544     6.7640     6.7672   -87.7053   121.3765
  454.5000     6.9477     6.9039     6.8146   -87.7140   122.5783
  455.0000     6.9937     6.9505     6.9189   -87.7228   120.7546
  455.5000     7.0400     7.0453     6.9535   -88.0333   116.8182
  456.0000     7.0370     7.0433     6.9869   -88.5048   112.5798
  456.5000     6.9861     6.9927     6.9506   -89.1089   110.1540
  457.0000     6.9354     6.9858     6.8921   -89.5702   112.0183
  457.5000     6.8376     6.9402     6.8319   -89.5790   116.2790
  458.0000     6.7880     6.9383     6.7722   -89.7386   119.7929
  458.5000     6.7388     6.9238     6.7080   -89.5944   119.9769
  459.0000     6.7366     6.8868     6.6544   -89.4545   117.9626
  459.5000     6.6877     6.8848     6.6130   -89.1616   116.7453
  460.0000     6.6849     6.8354     6.6116   -89.0196   117.9449
  460.5000     6.6827     6.7863     6.6100   -88.8776   118.8446
  461.0000     6.7269     6.7375     6.6089   -88.5869   118.8335
  461.5000     6.7246     6.7353     6.6075   -88.5957   118.8147
  462.0000     6.7224     6.7335     6.6309   -88.4515   120.0443
  462.5000     6.7201     6.7316     6.6507   -88.3116   118.9577
  463.0000     6.7178     6.7298     6.6956   -88.0188   115.1706
  463.5000     6.6692     6.7753     6.6942   -87.8745   114.2554
  464.0000     6.6171     6.7262     6.6486   -87.4330   117.8719
  464.5000     6.5273     6.7244     6.5992   -87.1327   119.0738
  465.0000     6.5247     6.6300     6.5069   -86.6965   115.4373
  465.5000     6.4774     6.5368     6.4524   -86.4036   113.6158
  466.0000     6.4752     6.5347     6.4147   -86.2616   115.4196
  466.5000     6.4283     6.5329     6.3843   -86.1195   118.7341
  467.0000     6.3817     6.5311     6.3676   -86.1305   117.7784
  467.5000     6.3795     6.5294     6.3664   -86.1393   115.6949
  468.0000     6.3774     6.5276     6.3650   -86.6006   115.6842
  468.5000     6.4196     6.5258     6.3901   -86.9110   115.3732
  469.0000     6.4621     6.5696     6.4067   -87.3726   115.4361
  469.5000     6.5043     6.5677     6.4082   -87.3833   115.9598
  470.0000     6.5021     6.5659     6.4620   -87.2413   116.5574
  470.5000     6.4999     6.5641     6.5163   -86.7954   118.3590
  471.0000     6.4978     6.5620     6.5359   -86.2009   119.5586
  471.5000     6.4956     6.5148     6.4892   -85.6063   118.9455
  472.0000     6.4485     6.5131     6.4325   -85.1648   118.9366
  472.5000     6.4018     6.5115     6.3763   -85.0226   119.8842
  473.0000     6.3996     6.5096     6.3206   -84.8808   123.1464
  473.5000     6.4420     6.5078     6.3065   -84.7387   127.9714
  474.0000     6.4929     6.5061     6.3571   -84.5967   130.9837
  474.5000     6.6181     6.4593     6.4291   -84.4547   131.5813
  475.0000     6.7029     6.5025     6.5388   -84.4657   129.1534
  475.5000     6.8476     6.6832     6.5691   -84.3214   125.5191
  476.0000     6.9886     6.7747     6.7114   -84.1794   120.0722
  476.5000     7.0350     6.8680     6.7511   -84.0392   113.1147
  477.0000     7.0815     6.8656     6.8053   -84.1992   114.3747
  477.5000     7.0766     6.9120     6.9379   -84.3590   118.3837
  478.0000     7.0277     6.9097     6.9367   -84.5206   118.8284
  478.5000     7.0187     6.9078     6.9352   -84.6802   116.4004
  479.0000     6.9739     6.9059     6.9338   -84.9907   114.8810
  479.5000     6.9234     6.8563     6.9321   -85.1503   115.4764
  480.0000     6.9211     6.8541     6.9309   -85.3099   118.7908
  480.5000     6.8709     6.8049     6.8593   -85.6204   120.8968
  481.0000     6.8211     6.7093     6.7633   -85.6292   123.0027
  481.5000     6.8188     6.6611     6.6716   -85.7888   125.1087
  482.0000     6.7675     6.6593     6.5969   -85.6468   126.3083
  482.5000     6.6738     6.6575     6.5500   -85.3561   125.3928
  483.0000     6.6250     6.7021     6.5673   -84.6107   124.7778
  483.5000     6.6227     6.7002     6.6522   -84.0162   125.0733
  484.0000     6.6671     6.6521     6.7299   -83.5725   122.6453
  484.5000     6.6643     6.4680     6.7233   -83.2797   119.0111
  485.0000     6.6160     6.4215     6.6326   -83.1373   118.7024
  485.5000     6.5227     6.3212     6.4891   -83.1464   120.8061
  486.0000     6.4307     6.2425     6.3613   -83.0044   120.4952
  486.5000     6.3827     6.1976     6.2269   -82.8623   119.2779
  487.0000     6.2878     6.1531     6.1711   -82.8733   118.9668
  487.5000     6.2479     6.1943     6.1633   -83.3346   119.2602
  488.0000     6.2458     6.2357     6.2684   -83.6451   119.8556
  488.5000     6.2436     6.2774     6.3110   -84.1063   121.6572
