~VERSION INFORMATION
 VERS.                2.0:   CWLS LOG ASCII STANDARD - VERSION 2.0
 WRAP.                 NO:   ONE LINE PER DEPTH STEP
~WELL INFORMATION
#MNEM.UNIT      DATA TYPE    INFORMATION
#----------   ------------   ------------------------------
 STRT.F            0.0000:   START DEPTH
 STOP.F          984.0000:   STOP DEPTH
 STEP.F            0.5000:   STEP LENGTH
 NULL.          -999.2500:   NO VALUE
 COMP. LAWRENCE/ALLISON INC:   COMPANY
 WELL.     NPR 3 #51-X-11:   WELL
 FLD .             TEAPOT:   FIELD
 LOC .      S11 T38N R78W:   LOCATION
 CNTY.            NATRONA:   COUNTY
 STAT.            WYOMING:   STATE
 CTRY. UNITED STATES OF AMERICA:   COUNTRY
 SRVC.           Gearhart:   SERVICE COMPANY
 DATE.        22-AUG-1988:   LOGDATE
 API .       490251125400:   API NUMBER
~CURVE INFORMATION
#MNEM.UNIT       API CODE    CURVE DESCRIPTION
#----------   ------------   ------------------------------
 DEPT.F                  :   
 GRR .GAPI   07 310 01 00:   GAMMA RAY FROM RES. LOG.
 ILM .OHMM   07 120 44 00:   INDUCTION LOG MEDIUM
 ILD .OHMM   07 120 46 00:   INDUCTION LOG DEEP
~PARAMETER INFORMATION
#MNEM.UNIT          VALUE    DESCRIPTION
#----------   ------------   ------------------------------
 PD  .                 GL:   PERMANENT DATUM
 EPD .F              5187:   ELEVATION PERMANENT DATUM
 LMF .                 KB:   LOG MEASURED FROM
 DAPD.F                10:   FEET ABOVE PERMANENT DATUM
 DMF .                 KB:   DRILLING MEASURED FROM
 EKB .F              5197:   KELLING BUSHING
 EGL .F              5187:   GROUND LEVEL
 DATE.            8-22-88:   RUN DATE
 RUN .                  1:   RUN NUMBER
 DD  .F              1000:   DEPTH DRILLER
 DL  .F               992:   DEPTH LOGGER
 BLI .F             983.5:   BOTTOM LOG INTERVAL
 CS  .IN            9.625:   CASING SIZE
 CBD .F                49:   CASING BOTTOM DRILLER
 CBL .F                49:   CASING BOTTOM LOGGER
 BS  .IN             8.75:   BIT SIZE
 BSD .F              1000:   BIT SIZE AT DEPTH
 DFT .                AIR:   DRILLING FLUID TYPE
 BHT .F                70:   BOTTOM HOLE TEMPERATURE
 TLAB.HRS            0300:   TIME LOGGER AT BOTTOM
 MRT .F                70:   MAXIMUM RECORDED TEMPERATURE
 LUN .               7609:   LOGGING UNIT NUMBER
 LUL .           GILLETTE:   LOGGING UNIT LOCATION
 ENGI.          HUCKFELDT:   RECORDING ENGINEER
 WITN.             STRONG:   WITNESSED BY
 CLNT.            A2DTECH:   CLIENT CODE
 ORIG.      1" 2.5" PRINT:   ORIGIN OF DATA
 UWI .       490251125400:   UNIQUE WELL ID
 DICO. A2D Technologies, Inc.:   DIGITIZING COMPANY
~OTHER INFORMATION
~A    DEPT      GRR       ILM        ILD   
# ...
  728.0000   101.5162     4.6452     4.9784
  728.5000   102.9982     5.0191     5.2023
  729.0000   103.9946     5.2214     5.4350
  729.5000   104.5328     5.4105     5.6798
  730.0000   105.0989     5.6066     5.9357
  730.5000   105.6769     5.8097     6.1202
  731.0000   106.1045     6.0501     6.2460
  731.5000   105.8861     6.0644     6.3988
  732.0000   105.3508     6.0884     6.3988
  732.5000   104.7715     6.1125     6.3988
  733.0000   104.4915     6.1368     6.3988
  733.5000   104.4732     6.1642     6.3988
  734.0000   106.2164     6.2933     6.7254
  734.5000   108.9071     6.4444     7.1578
  735.0000   109.4579     6.5992     7.1401
  735.5000   106.8651     6.7677     7.1206
  736.0000   104.7088     6.7785     7.1011
  736.5000   102.2284     6.7900     7.0817
  737.0000   102.5296     6.8015     7.0624
  737.5000   102.3833     6.8130     7.0431
  738.0000   100.7742     6.8246     7.0238
  738.5000   100.8736     6.8362     7.0046
  739.0000   102.5876     6.8477     6.9854
  739.5000   105.5308     6.8594     6.9664
  740.0000   109.7530     6.8710     6.9473
  740.5000   108.2093     6.8826     6.9283
  741.0000   105.5374     6.8953     6.9094
  741.5000   104.8472     6.8496     6.8903
  742.0000   104.5166     6.8014     6.8713
  742.5000   107.4812     6.7536     6.8527
  743.0000   109.4426     6.7058     6.8337
  743.5000   108.9613     6.6578     6.8142
  744.0000   108.7402     6.6095     6.7963
  744.5000   108.6711     6.5614     6.7782
  745.0000   110.0833     6.5195     6.7084
  745.5000   110.4171     6.3728     6.5733
  746.0000   108.4862     6.2347     6.4410
  746.5000   106.3088     6.0996     6.3113
  747.0000   105.9666     5.9675     6.1843
  747.5000   107.6134     5.8282     6.0501
  748.0000   110.4237     5.2636     5.6909
  748.5000   112.9187     4.7126     5.3251
  749.0000   115.0246     4.2203     4.9828
  749.5000   114.9870     3.7796     4.6577
  750.0000   114.7987     3.3844     4.0294
  750.5000   110.8896     3.0297     3.4778
  751.0000   107.8080     2.6595     3.0018
  751.5000   104.6161     2.4260     2.6369
  752.0000   104.8361     2.1708     2.3333
  752.5000   105.2322     2.0424     2.2892
  753.0000   104.0681     2.0037     2.2892
  753.5000   102.0900     2.0134     2.2892
  754.0000   102.0871     2.1218     2.3499
  754.5000   104.4978     2.3062     2.5702
  755.0000   106.5545     2.5066     2.8113
  755.5000   107.4891     2.7242     3.0749
  756.0000   108.5687     2.9737     3.3631
  756.5000   109.6676     3.4007     3.6787
  757.0000   110.7249     3.9192     4.0234
  757.5000   111.8086     4.5163     4.4004
  758.0000   112.8779     4.7544     4.7604
  758.5000   113.9502     4.8809     5.2102
  759.0000   115.0341     5.0107     5.2102
  759.5000   115.8540     5.1137     5.2102
  760.0000   115.8220     5.1137     5.2086
  760.5000   115.8779     5.0513     5.2135
  761.0000   115.9749     4.9115     5.0945
  761.5000   117.8105     4.6847     5.0170
  762.0000   119.5178     4.4685     4.6486
  762.5000   121.5993     4.2622     4.2620
  763.0000   122.2514     4.0654     4.0619
  763.5000   121.7221     3.8777     4.0201
  764.0000   121.3035     3.7223     3.9806
  764.5000   121.0390     3.6817     3.9368
  765.0000   119.2300     3.6530     3.9368
  765.5000   116.1896     3.7067     4.0559
  766.0000   113.1561     3.8588     4.2174
  766.5000   113.8183     4.0172     4.3853
  767.0000   117.2631     4.1821     4.5599
  767.5000   120.6269     4.3539     4.7415
  768.0000   123.2193     4.5326     4.9296
  768.5000   121.9975     4.7184     5.1256
  769.0000   119.0783     4.9118     5.3295
  769.5000   116.2486     5.1300     5.5416
  770.0000   114.2857     5.3783     5.7159
  770.5000   116.0959     5.6386     5.8726
  771.0000   118.0644     5.8801     6.0337
  771.5000   119.8071     6.0564     6.1992
  772.0000   118.9601     6.2380     6.3695
  772.5000   118.2080     6.3988     6.5195
  773.0000   117.3521     6.3609     6.4562
  773.5000   116.5355     6.3280     6.3720
  774.0000   115.7186     6.2953     6.2889
  774.5000   114.8824     6.2202     6.2069
  775.0000   114.0651     6.1156     6.1259
  775.5000   113.2265     6.0122     6.0460
  776.0000   112.3940     5.9120     5.9671
  776.5000   111.8548     5.8130     5.8941
  777.0000   112.0742     5.7203     5.8282
  777.5000   112.3723     5.3469     5.5076
  778.0000   112.7222     5.0131     5.2180
  778.5000   114.9910     4.7002     4.9436
  779.0000   117.1223     4.4068     4.6836
  779.5000   119.3482     4.3223     4.4373
  780.0000   121.5598     4.3366     4.3223
  780.5000   123.7448     4.3524     4.3478
  781.0000   125.5510     4.3683     4.3707
  781.5000   124.7422     4.3842     4.3937
  782.0000   122.0833     4.4001     4.5297
  782.5000   119.3245     4.5894     4.7630
  783.0000   116.4857     4.8420     5.0083
  783.5000   116.4801     5.1084     5.2654
  784.0000   117.5062     5.3896     5.5373
  784.5000   118.3214     5.6861     5.8229
  785.0000   121.2963     6.0501     6.0546
  785.5000   119.7486     6.0501     6.0719
  786.0000   117.8533     6.0501     6.0892
  786.5000   115.5852     6.0501     6.1066
  787.0000   115.7161     6.0501     6.1241
  787.5000   117.1408     6.0501     6.1417
  788.0000   116.4464     6.0501     6.1593
  788.5000   115.0231     6.0501     6.1769
  789.0000   116.0842     6.0501     6.1945
  789.5000   119.3126     6.0501     6.2122
  790.0000   122.8291     6.0501     6.2299
  790.5000   122.5045     6.0501     6.2477
  791.0000   119.0913     6.0501     6.2649
  791.5000   116.6988     6.0503     6.2791
  792.0000   116.7500     6.0373     6.2420
  792.5000   116.1702     6.0054     6.2111
  793.0000   114.1397     5.9737     6.1803
  793.5000   112.5135     5.9424     6.1497
  794.0000   113.6549     5.9115     6.1200
  794.5000   116.2312     5.8807     6.0917
  795.0000   117.4772     5.8501     6.0596
  795.5000   115.1967     5.7653     5.9852
  796.0000   112.9722     5.5508     5.7999
  796.5000   113.0592     5.3441     5.5322
  797.0000   117.8644     5.1450     5.2768
  797.5000   122.3418     4.9536     5.0332
  798.0000   126.8608     4.7696     4.8350
  798.5000   128.0399     4.6558     4.8419
  799.0000   126.0760     4.6564     4.8611
  799.5000   123.9714     4.7160     4.8805
  800.0000   123.1227     4.7663     4.8999
  800.5000   123.1875     4.8350     4.9262
  801.0000   123.1836     4.7850     4.8749
  801.5000   123.1772     4.5993     4.7969
  802.0000   123.2501     4.4208     4.7202
  802.5000   125.9045     4.2492     4.6577
  803.0000   126.4677     4.0830     4.6305
  803.5000   123.8925     4.0894     4.6078
  804.0000   121.6630     4.0829     4.5720
  804.5000   119.2536     4.2808     4.6248
  805.0000   119.5100     4.4650     4.8039
  805.5000   120.2859     4.6568     4.9899
  806.0000   121.2302     4.8568     5.1830
  806.5000   120.7713     5.0655     5.3860
  807.0000   118.7712     5.3084     5.6144
  807.5000   116.8482     5.3532     5.5898
  808.0000   115.0453     5.4085     5.5629
  808.5000   113.5287     5.4743     5.5360
  809.0000   113.2428     5.3005     5.5105
  809.5000   115.2569     5.1322     5.2794
  810.0000   118.6850     4.9693     5.0676
  810.5000   121.8577     4.8116     4.8654
  811.0000   124.9185     4.6588     4.6711
  811.5000   127.3238     4.5715     4.4891
  812.0000   128.3111     4.6670     4.6532
  812.5000   126.0229     4.8200     4.8181
  813.0000   121.2224     4.9780     4.9887
  813.5000   117.4813     5.1412     5.1655
  814.0000   116.0916     5.3097     5.3488
  814.5000   114.8149     5.4838     5.5389
  815.0000   113.6180     5.6636     5.7205
  815.5000   112.3953     5.8493     5.8448
  816.0000   111.1479     5.9893     5.9624
  816.5000   109.9916     6.0867     6.0825
  817.0000   108.5938     6.1857     6.2051
  817.5000   108.9658     6.2863     6.3301
  818.0000   110.0387     6.3885     6.4576
  818.5000   111.1786     6.4924     6.5403
