~VERSION INFORMATION
 VERS.                2.0:   CWLS LOG ASCII STANDARD - VERSION 2.0
 WRAP.                 NO:   ONE LINE PER DEPTH STEP
~WELL INFORMATION
#MNEM.UNIT      DATA TYPE    INFORMATION
#----------   ------------   ------------------------------
 STRT.F           30.0000:   START DEPTH
 STOP.F          468.0000:   STOP DEPTH
 STEP.F            0.1000:   STEP LENGTH
 NULL.          -999.2500:   NO VALUE
 COMP. LAWRENCE/ALLISON INC:   COMPANY
 WELL.    72-12 SX #10-10:   WELL
 FLD .             TEAPOT:   FIELD
 LOC .      S10 T38N R78W:   LOCATION
 CNTY.            NATRONA:   COUNTY
 STAT.            WYOMING:   STATE
 CTRY. UNITED STATES OF AMERICA:   COUNTRY
 SRVC.           Gearhart:   SERVICE COMPANY
 DATE.        17-MAY-1988:   LOGDATE
 API .       490251122400:   API NUMBER
~CURVE INFORMATION
#MNEM.UNIT       API CODE    CURVE DESCRIPTION
#----------   ------------   ------------------------------
 DEPT.F                  :   
 GRR .GAPI   07 310 01 00:   GAMMA RAY
 RILD.OHMM   07 120 46 00:   INDUCTION LOG DEEP RESISTIVITY
 RILM.OHMM   07 120 44 00:   INDUCTION LOG MEDIUM RESISTIVITY
~PARAMETER INFORMATION
#MNEM.UNIT          VALUE    DESCRIPTION
#----------   ------------   ------------------------------
 PD  .                 GL:   PERMANENT DATUM
 EPD .F              5166:   ELEVATION PERMANENT DATUM
 LMF .                 KB:   LOG MEASURED FROM
 DAPD.F              10.2:   FEET ABOVE PERMANENT DATUM
 DMF .                 KB:   DRILLING MEASURED FROM
 EKB .F            5176.2:   KELLING BUSHING
 EGL .F              5166:   GROUND LEVEL
 DATE.        17-MAY-1988:   RUN DATE
 RUN .                  1:   RUN NUMBER
 DD  .F               480:   DEPTH DRILLER
 DL  .F               476:   DEPTH LOGGER
 BLI .F               468:   BOTTOM LOG INTERVAL
 TLI .F                47:   TOP LOG INTERVAL
 CS  .IN            9.625:   CASING SIZE
 CBD .F                43:   CASING BOTTOM DRILLER
 CBL .F                47:   CASING BOTTOM LOGGER
 BS  .IN             8.75:   BIT SIZE
 BSD .F               480:   BIT SIZE AT DEPTH
 DFT .                AIR:   DRILLING FLUID TYPE
 TCS .HRS            0630:   TIME CURCULATED STOPPED
 TLAB.HRS            0930:   TIME LOGGER AT BOTTOM
 LUN .               7597:   LOGGING UNIT NUMBER
 LUL .           GILLETTE:   LOGGING UNIT LOCATION
 ENGI.             SLATKY:   RECORDING ENGINEER
 WITN.             STRONG:   WITNESSED BY
 CLNT.            A2DTECH:   CLIENT CODE
 ORIG.           5" PRINT:   ORIGIN OF DATA
 UWI .       490251122400:   UNIQUE WELL ID
 DICO. A2D Technologies, Inc.:   DIGITIZING COMPANY
~OTHER INFORMATION
~A   DEPT      GRR       RILD       RILM   
# ...
   66.4000   119.6000     7.8616     7.6975
   66.5000   119.4939     7.9113     7.6973
   66.6000   119.4202     7.9109     7.6970
   66.7000   119.1921     7.9375     7.6968
   66.8000   119.1928     7.9652     7.6966
   66.9000   119.1933     7.9648     7.6964
   67.0000   119.4606     7.9643     7.7385
   67.1000   119.8729     7.9639     7.7497
   67.2000   120.1269     7.9635     7.7495
   67.3000   120.6115     7.9630     7.7493
   67.4000   121.2885     7.9681     7.7491
   67.5000   122.0152     8.0177     7.7489
   67.6000   122.6715     8.0173     7.7813
   67.7000   123.1562     8.0168     7.8026
   67.8000   123.6408     8.0164     7.8024
   67.9000   124.1254     8.0159     7.8021
   68.0000   124.6101     8.0154     7.8019
   68.1000   125.0265     8.0150     7.8017
   68.2000   125.2618     8.0146     7.8015
   68.3000   125.0131     8.0142     7.8013
   68.4000   124.9600     8.0137     7.8011
   68.5000   124.9606     8.0132     7.8008
   68.6000   124.8950     8.0128     7.8349
   68.7000   124.6588     8.0124     7.8549
   68.8000   124.6594     8.0119     7.8547
   68.9000   124.6600     8.0115     7.8545
   69.0000   124.5354     8.0110     7.8542
   69.1000   124.4224     8.0509     7.8893
   69.2000   124.6618     8.0661     7.9087
   69.3000   124.6624     8.0656     7.9084
   69.4000   124.6630     8.0652     7.9110
   69.5000   124.6636     8.0647     7.9632
   69.6000   124.7265     8.0643     7.9630
   69.7000   124.9679     8.0638     7.9628
   69.8000   124.9685     8.0634     7.9626
   69.9000   125.3335     8.0629     7.9659
   70.0000   125.6970     8.0624     8.0177
   70.1000   125.9396     8.0620     8.0175
   70.2000   126.1830     8.0616     8.0173
   70.3000   126.4248     8.0801     8.0171
   70.4000   126.6675     8.1170     8.0212
   70.5000   126.9101     8.1165     8.0726
   70.6000   127.0945     8.1160     8.0724
   70.7000   127.0952     8.1156     8.0996
   70.8000   126.6174     8.1151     8.1284
   70.9000   126.3121     8.1229     8.1281
   71.0000   125.9535     8.1708     8.1279
   71.1000   125.4701     8.1704     8.1672
   71.2000   124.9770     8.1700     8.1842
   71.3000   124.7404     8.1895     8.2012
   71.4000   124.3228     8.2262     8.2410
   71.5000   123.9545     8.2256     8.2407
   71.6000   123.6048     8.2252     8.2405
   71.7000   122.8588     8.2566     8.2403
   71.8000   122.6242     8.3023     8.2582
   71.9000   122.2087     8.3391     8.2974
   72.0000   121.7252     8.3385     8.2971
   72.1000   121.2418     8.3824     8.3388
   72.2000   120.7406     8.3958     8.3546
   72.3000   120.2749     8.4167     8.3736
   72.4000   119.9636     8.4535     8.4202
   72.5000   119.8333     8.4530     8.4711
   72.6000   119.8339     8.4979     8.4708
   72.7000   119.8346     8.5449     8.4706
   72.8000   120.0663     8.5922     8.4906
   72.9000   120.3089     8.6294     8.5379
   73.0000   120.5515     8.6289     8.5886
   73.1000   120.7942     8.6751     8.5884
   73.2000   121.0497     8.6881     8.6213
   73.3000   121.2794     8.7105     8.6694
   73.4000   121.3539     8.7587     8.7081
   73.5000   121.4616     8.8084     8.7078
   73.6000   121.6582     8.8560     8.7540
   73.7000   121.6588     8.9050     8.8028
   73.8000   121.6594     8.9303     8.8519
   73.9000   121.6600     8.9414     8.9012
   74.0000   121.5556     8.9916     8.9525
   74.1000   121.3141     9.0904     9.0008
   74.2000   121.0558     9.1166     9.0510
   74.3000   120.8313     9.1410     9.1014
   74.4000   120.4259     9.1915     9.1522
   74.5000   120.1485     9.2428     9.2040
   74.6000   120.0651     9.2936     9.2545
   74.7000   119.5437     9.3450     9.2678
   74.8000   119.3212     9.3967     9.2931
   74.9000   119.0798     9.4356     9.3449
   75.0000   118.9394     9.4351     9.3970
   75.1000   118.9400     9.4873     9.4494
   75.2000   118.9407     9.5399     9.4621
   75.3000   118.9412     9.5927     9.4888
   75.4000   119.1018     9.6457     9.5417
   75.5000   119.2455     9.6986     9.5948
   75.6000   119.2461     9.6981     9.6484
   75.7000   119.2467     9.7388     9.7022
   75.8000   119.2473     9.7927     9.7277
   75.9000   119.2479     9.8469     9.7426
   76.0000   119.2485     9.9013     9.7951
   76.1000   119.2491     9.9561     9.7948
   76.2000   119.2498     9.9684     9.8378
   76.3000   119.0333     9.9969     9.8926
   76.4000   118.7919    10.0369     9.9478
   76.5000   118.3606    10.0377    10.0004
   76.6000   117.6691    10.0933    10.0001
   76.7000   117.1316    10.1492    10.0449
   76.8000   116.2723    10.1752    10.1009
   76.9000   115.4588    10.1907    10.1395
   77.0000   115.0121    10.2451    10.1430
   77.1000   115.0446    10.2445    10.2097
   77.2000   115.3164    10.2890    10.2095
   77.3000   115.3170    10.3459    10.2421
   77.4000   115.4695    10.4031    10.2802
   77.5000   115.8031    10.4607    10.2895
   77.6000   116.2578    10.5186    10.4237
   77.7000   116.5316    10.5301    10.4235
   77.8000   117.1649    10.5616    10.4578
   77.9000   117.7416    10.6201    10.4957
   78.0000   118.2263    10.6788    10.5013
   78.1000   118.6830    10.7496    10.5684
   78.2000   118.9589    10.7974    10.5682
   78.3000   118.9594    10.8236    10.6039
   78.4000   118.8121    10.8602    10.6630
   78.5000   118.5707    10.9776    10.7224
   78.6000   118.3293    11.0499    10.7899
   78.7000   118.0528    11.0494    10.8424
   78.8000   117.6396    11.0835    10.8648
   78.9000   116.5727    11.1253    10.9108
   79.0000   115.2061    11.1330    11.0247
   79.1000   114.0204    11.2798    11.0931
   79.2000   112.9043    11.3309    11.1480
   79.3000   112.2903    11.3936    11.2102
   79.4000   111.8525    11.4775    11.2727
   79.5000   111.6111    11.6004    11.3355
   79.6000   111.3697    11.6758    11.4048
   79.7000   111.0892    11.7292    11.4623
   79.8000   111.4954    11.8325    11.5688
   79.9000   112.2636    11.9644    11.6714
   80.0000   113.0707    12.0921    11.7475
   80.1000   113.5158    12.1700    11.8896
   80.2000   113.5165    12.2263    11.9506
   80.3000   113.5170    12.3345    12.0629
   80.4000   113.3778    12.4483    12.1687
   80.5000   113.1364    12.5236    12.2491
   80.6000   112.8772    12.6852    12.3950
   80.7000   112.3074    12.7445    12.4598
   80.8000   111.7115    12.8150    12.5293
   80.9000   110.9861    12.8859    12.6307
   81.0000   110.3374    12.9645    12.7579
   81.1000   109.8382    13.1306    12.8323
   81.2000   108.9771    13.1299    12.9005
   81.3000   107.7970    13.2182    13.0241
   81.4000   106.4812    13.3389    13.1359
   81.5000   105.3465    13.4127    13.2092
   81.6000   104.3652    13.4973    13.2850
   81.7000   102.9195    13.4967    13.3569
   81.8000   101.5568    13.5421    13.4314
   81.9000    99.1945    13.6171    13.5063
   82.0000    96.8000    13.6836    13.5639
   82.1000    95.6140    13.6826    13.5635
   82.2000    94.8885    13.6819    13.5631
   82.3000    94.3558    13.7287    13.6191
   82.4000    94.0041    13.7759    13.6571
   82.5000    93.8333    13.7752    13.6567
   82.6000    93.8921    13.7743    13.6563
   82.7000    95.3448    13.7736    13.6559
   82.8000    97.1789    13.8213    13.6556
   82.9000    98.5970    13.8389    13.6552
   83.0000    99.6343    13.7713    13.6548
   83.1000   100.8603    13.7705    13.6544
   83.2000   102.5551    13.7698    13.6540
   83.3000   104.0611    13.7203    13.6537
   83.4000   105.3862    13.6728    13.6533
   83.5000   106.5969    13.6613    13.6529
   83.6000   107.8077    13.5764    13.6525
   83.7000   109.0183    13.5084    13.6521
   83.8000   110.0424    13.4809    13.5917
   83.9000   111.0111    13.4504    13.5567
   84.0000   111.9799    13.3860    13.5563
   84.1000   112.9412    13.3851    13.5559
   84.2000   113.4259    13.3174    13.5555
   84.3000   113.7259    13.2427    13.5552
   84.4000   113.9685    13.1981    13.5124
   84.5000   114.1485    13.1857    13.4604
