~VERSION INFORMATION
 VERS.                2.0:   CWLS LOG ASCII STANDARD - VERSION 2.0
 WRAP.                 NO:   ONE LINE PER DEPTH STEP
~WELL INFORMATION
#MNEM.UNIT      DATA TYPE    INFORMATION
#----------   ------------   ------------------------------
 STRT.F           34.0000:   START DEPTH
 STOP.F          614.0000:   STOP DEPTH
 STEP.F            0.5000:   STEP LENGTH
 NULL.          -999.2500:   NO VALUE
 COMP. FENIX & SCISSON INC:   COMPANY
 WELL.      71-SX-3 #71-3:   WELL
 FLD .             TEAPOT:   FIELD
 LOC .       S3 T38N R78W:   LOCATION
 CNTY.            NATRONA:   COUNTY
 STAT.            WYOMING:   STATE
 CTRY. UNITED STATES OF AMERICA:   COUNTRY
 SRVC.              Welex:   SERVICE COMPANY
 DATE.        10-MAR-1977:   LOGDATE
 API .       490251028900:   API NUMBER
~CURVE INFORMATION
#MNEM.UNIT       API CODE    CURVE DESCRIPTION
#----------   ------------   ------------------------------
 DEPT.F                  :   
 CALD.IN     45 280 60 00:   CALIPER
 GRD .GAPI   45 310 01 00:   GAMMA RAY FROM DENSITY LOG
 RHOB.G/C3   45 350 01 00:   BULK DENSITY
 DPHI.DEC    45 890 12 00:   DENSITY POROSITY SANDSTONE
 CORR.G/C3   45 356 01 00:   DENSITY CORRECTION
 SGRD.OHMM   07 220 05 00:   SHALLOW RESISTIVITY
 ILD .OHMM   07 120 46 00:   INDUCTION LOG DEEP
 ILM .OHMM   07 120 44 00:   INDUCTION LOG MEDIUM
 SPR .MV     07 010 01 00:   SPONTANEOUS POTENTIAL
~PARAMETER INFORMATION
#MNEM.UNIT          VALUE    DESCRIPTION
#----------   ------------   ------------------------------
 PD  .                 GL:   PERMANENT DATUM
 EPD .F              5117:   ELEVATION PERMANENT DATUM
 LMF .                 GL:   LOG MEASURED FROM
 DMF .                 GL:   DRILLING MEASURED FROM
 EGL .F              5117:   GROUND LEVEL
 DATE.          3-10-1977:   RUN DATE
 RUN .                  1:   RUN NUMBER
 DD  .F               630:   DEPTH DRILLER
 DL  .F               619:   DEPTH LOGGER
 BLI .F               617:   BOTTOM LOG INTERVAL
 TLI .F                34:   TOP LOG INTERVAL
 CS  .IN            8.625:   CASING SIZE
 CBD .F                40:   CASING BOTTOM DRILLER
 CBL .F                41:   CASING BOTTOM LOGGER
 BS  .IN            7.875:   BIT SIZE
 BSD .F               630:   BIT SIZE AT DEPTH
 DFT .            KCL MUD:   DRILLING FLUID TYPE
 DFD .                  9:   DRILLING FLUID DENSITY
 DFV .                 33:   DRILLING FLUID VISCOSITY
 MSS .            MUD PIT:   MUD SAMPLE SOURCE
 RMS .OHMM           2.33:   RESISTIVITY MUD SAMPLE
 MST .F                57:   MUD SAMPLE TEMPERATURE
 RMF .OHMM           1.83:   RESISTIVITY MUD FILTRATE SAMPLE
 MFST.F                57:   MUD FILTRATE SAMPLE TEMPERATURE
 RMC .OHMM           2.53:   RESISTIVITY MUD CAKE
 MCST.F                57:   MUD CAKE SAMPLE TEMPERATURE
 MFSS.           FANN KIT:   MUD FILTRATE SAMPLE SOURCE
 MCSS.           FANN KIT:   MUD CAKE SAMPLE SOURCE
 RMB .OHMM            2.1:   RESISTIVITY MUD AT BHT
 BHT .F                63:   BOTTOM HOLE TEMPERATURE
 TCS .HRS             1.5:   TIME CURCULATED STOPPED
 MRT .F                63:   MAXIMUM RECORDED TEMPERATURE
 LUN .               8611:   LOGGING UNIT NUMBER
 LUL .           GILLETTE:   LOGGING UNIT LOCATION
 ENGI.               DOAK:   RECORDING ENGINEER
 WITN.              BURKE:   WITNESSED BY
 CLNT.            A2DTECH:   CLIENT CODE
 ORIG.       2", 5" PRINT:   ORIGIN OF DATA
 UWI .       490251028900:   UNIQUE WELL ID
 DICO. A2D Technologies, Inc.:   DIGITIZING COMPANY
~OTHER INFORMATION
~A   DEPT     CALD        GRD       RHOB       DPHI       CORR       SGRD        ILD        ILM        SPR   
# ...
  180.0000     7.9026    99.7656     2.4521     0.1161     0.0656     9.5065     6.9415     7.9291   -43.8842
  180.5000     7.8830    96.9504     2.4512     0.1158     0.0687     9.5427     6.9674     7.8948   -44.3546
  181.0000     7.8636    99.0771     2.4514     0.1164     0.0714     9.2457     6.9933     7.7956   -44.7713
  181.5000     7.8438   102.1755     2.4534     0.1163     0.0756     9.0079     7.0194     7.8396   -44.9087
  182.0000     7.8226   103.9862     2.4557     0.1156     0.0797     8.7851     7.0459     7.8948   -44.7849
  182.5000     7.7750   102.4446     2.4542     0.1163     0.0839     8.8907     7.0696     7.9503   -44.6665
  183.0000     7.7290   101.1319     2.4423     0.1203     0.0876     9.0268     7.0999     8.0063   -44.5519
  183.5000     7.6825    99.8252     2.4301     0.1243     0.0840     9.2832     7.1303     8.0873   -44.9511
  184.0000     7.6363    98.5177     2.4178     0.1281     0.0802     9.5846     7.1608     8.0725   -45.4030
  184.5000     7.7104    97.2098     2.4127     0.1287     0.0764     9.9916     7.1912     8.0463   -45.7390
  185.0000     7.7943    95.8965     2.4120     0.1293     0.0755     9.9562     7.2216     8.0204   -45.6089
  185.5000     7.8406    94.5397     2.4159     0.1274     0.0750     9.8916     7.2789     8.0135   -45.4356
  186.0000     7.7876    94.5105     2.4251     0.1232     0.0745     9.8095     7.3876     8.2368   -45.2663
  186.5000     7.7258    96.5971     2.4343     0.1174     0.0741     9.8655     7.4978     8.4834   -45.2097
  187.0000     7.6636    98.7050     2.4426     0.1180     0.0713     9.9741     7.6098     8.7374   -45.5452
  187.5000     7.6009    99.8918     2.4437     0.1186     0.0678    10.0839     7.7234     8.8662   -45.6039
  188.0000     7.5981    96.6165     2.4463     0.1165     0.0641    10.1949     7.8387     8.7096   -45.3311
  188.5000     7.6940    93.0727     2.4492     0.1147     0.0631    10.3667     7.9557     8.6250   -45.0592
  189.0000     7.8006    90.7747     2.4444     0.1172     0.0617    10.3133     8.0744     8.7894   -44.7811
  189.5000     7.9063    89.4568     2.4279     0.1213     0.0603    10.1769     8.2376     9.0383   -44.8681
  190.0000     7.9801    88.1547     2.4113     0.1257     0.0588    10.2709     8.1422     9.2938   -45.0147
  190.5000     7.9684    88.1938     2.4159     0.1262     0.0574    12.0081     8.1121     9.5426   -45.0748
  191.0000     7.9277    91.5403     2.4232     0.1251     0.0560    11.5206     8.0821     9.4791   -44.7420
  191.5000     7.8966    94.7380     2.4304     0.1242     0.0564    10.8083     8.0524     9.4049   -44.3937
  192.0000     7.9179    94.5652     2.4268     0.1245     0.0569    10.5192     8.0227     9.3313   -44.0138
  192.5000     7.9374    93.2124     2.4216     0.1248     0.0574    10.4297     7.9931     9.2582   -43.6437
  193.0000     7.9406    91.8772     2.4233     0.1249     0.0579    10.3409     7.9637     9.1857   -43.1273
  193.5000     7.9043    90.5475     2.4276     0.1249     0.0584    10.2709     7.9232     9.1141   -42.5877
  194.0000     7.8640    89.2176     2.4243     0.1249     0.0590    10.1310     7.8402     9.0311   -42.0450
  194.5000     7.8176    87.8857     2.4281     0.1246     0.0595     9.9916     7.7581     8.9288   -41.5030
  195.0000     7.7717    86.5767     2.4335     0.1231     0.0600    10.0668     7.7155     8.8275   -40.9565
  195.5000     7.7258    85.9297     2.4428     0.1182     0.0631    10.1436     7.6929     8.7047   -40.3998
  196.0000     7.6793    89.6029     2.4541     0.1137     0.0662    10.1769     7.6703     8.7298   -40.8452
  196.5000     7.7030    94.8399     2.4657     0.1091     0.0694    10.1218     7.6478     8.7741   -41.4467
  197.0000     7.7474   100.1475     2.4709     0.1067     0.0726    10.0500     7.6253     8.8187   -42.0508
  197.5000     7.7923   104.1480     2.4723     0.1065     0.0757     9.9786     7.6029     8.9480   -42.6532
  198.0000     7.8339   106.2165     2.4707     0.1047     0.0789     9.9078     7.5652     8.7619   -43.2528
  198.5000     7.7960   106.6361     2.4693     0.1046     0.0820     9.8375     7.4285     8.4679   -43.8568
  199.0000     7.7415   104.8779     2.4672     0.1094     0.0852     9.7676     7.3098     8.5893   -44.2377
  199.5000     7.6866   100.7982     2.4612     0.1134     0.0884     9.7077     7.2846     8.8275   -44.5822
  200.0000     7.6326    96.8102     2.4492     0.1234     0.0916     9.5973     7.2358     8.9480   -44.9241
  200.5000     7.6142    95.5822     2.4302     0.1326     0.0880     9.4881     7.1873     8.6569   -44.8149
  201.0000     7.6739    98.9857     2.4111     0.1418     0.0837     9.2454     7.1391     8.4399   -44.7016
  201.5000     7.7393   101.7822     2.4021     0.1484     0.0794     8.9535     7.0912     8.2282   -44.6203
  202.0000     7.7940   101.8015     2.3947     0.1545     0.0751     8.6709     7.0437     8.0219   -44.5398
  202.5000     7.7530   100.1802     2.3951     0.1511     0.0709     8.3971     6.9965     7.7242   -44.4596
  203.0000     7.7084    99.0160     2.4079     0.1470     0.0682     8.1622     6.9496     7.7740   -44.3796
  203.5000     7.6641   101.7334     2.4209     0.1395     0.0696     8.2610     6.9176     7.8722   -44.2997
  204.0000     7.6412   104.4025     2.4338     0.1320     0.0710     8.4017     6.9483     7.9717   -44.2196
  204.5000     7.7145   106.3747     2.4468     0.1246     0.0723     8.5448     6.9820     8.0725   -44.1087
  205.0000     7.7877   104.6220     2.4598     0.1191     0.0737     8.6903     7.0160     8.1622   -43.7808
  205.5000     7.8609   102.8291     2.4666     0.1186     0.0750     8.8383     7.0501     8.0470   -43.4539
  206.0000     7.9367   100.9387     2.4615     0.1205     0.0764     9.0307     7.0843     7.8897   -42.8598
  206.5000     7.9486   102.3856     2.4531     0.1226     0.0777     8.8443     7.1187     7.7242   -42.1721
  207.0000     7.9392   104.8340     2.4449     0.1252     0.0760     8.6554     7.1533     7.9753   -41.4811
  207.5000     7.9292   105.8469     2.4381     0.1286     0.0738     9.0307     7.1766     8.1622   -40.7931
  208.0000     7.9194   103.4642     2.4313     0.1320     0.0717     8.8330     7.0486     8.0282   -40.2764
  208.5000     7.9096   101.2310     2.4245     0.1355     0.0699     8.6209     6.9537     7.9114   -40.8663
  209.0000     7.8998    99.9730     2.4177     0.1389     0.0706     8.4133     6.8542     7.7964   -41.4637
  209.5000     7.8901    97.5442     2.4139     0.1418     0.0714     8.2391     6.7472     7.6830   -41.9656
  210.0000     7.8799    95.5552     2.4150     0.1422     0.0723     8.6275     6.6655     7.6055   -41.8966
  210.5000     7.8581    98.2128     2.4198     0.1386     0.0731     8.5862     6.5848     7.5409   -41.8263
  211.0000     7.8160   101.5335     2.4245     0.1351     0.0738     8.3167     6.5049     7.4769   -41.8359
  211.5000     7.7733   104.9463     2.4292     0.1331     0.0734     8.0557     6.4261     7.4134   -41.9798
  212.0000     7.6373   105.6211     2.4268     0.1334     0.0728     7.9402     6.3483     7.3505   -42.0829
  212.5000     7.6343   103.6335     2.4191     0.1384     0.0723     8.0055     6.2713     7.2873   -42.1975
  213.0000     7.7420   101.2923     2.4114     0.1434     0.0714     8.0749     6.1878     7.1367   -42.3115
  213.5000     7.8469    98.9603     2.4037     0.1484     0.0676     8.1622     6.0823     6.9824   -42.4264
  214.0000     7.7481    96.6792     2.3959     0.1531     0.0637     7.9056     6.1157     7.0665   -42.5555
  214.5000     7.6408    95.9048     2.3928     0.1535     0.0597     7.4443     6.1603     7.1549   -42.1241
  215.0000     7.7642    97.5333     2.3970     0.1511     0.0558     7.6065     6.2053     7.1766   -41.5465
  215.5000     7.7928    95.0488     2.4031     0.1488     0.0534     7.8237     6.2506     7.1653   -40.9682
  216.0000     7.7731    94.1938     2.4087     0.1450     0.0519     8.0478     6.2962     7.1535   -40.8054
