~VERSION INFORMATION
 VERS.                2.0:   CWLS LOG ASCII STANDARD - VERSION 2.0
 WRAP.                 NO:   ONE LINE PER DEPTH STEP
~WELL INFORMATION
#MNEM.UNIT      DATA TYPE    INFORMATION
#----------   ------------   ------------------------------
 STRT.F           53.0000:   START DEPTH
 STOP.F         4152.0000:   STOP DEPTH
 STEP.F            0.5000:   STEP LENGTH
 NULL.          -999.2500:   NO VALUE
 COMP. DEPARTMENT OF ENERGY:   COMPANY
 WELL. RES 3 TEAPOT #11-STX-11:   WELL
 FLD . TEAPOT NAVAL RESERVE:   FIELD
 LOC .      S11 T38N R78W:   LOCATION
 CNTY.            NATRONA:   COUNTY
 STAT.            WYOMING:   STATE
 CTRY. UNITED STATES OF AMERICA:   COUNTRY
 SRVC.       Schlumberger:   SERVICE COMPANY
 DATE.        24-JUL-1975:   LOGDATE
 API .       490251025200:   API NUMBER
~CURVE INFORMATION
#MNEM.UNIT       API CODE    CURVE DESCRIPTION
#----------   ------------   ------------------------------
 DEPT.F                  :   
 SPR .MV     07 010 01 00:   SPONTANEOUS POTENTIAL
 ILD .OHMM   07 120 46 00:   INDUCTION LOG DEEP
 ILM .OHMM   07 120 44 00:   INDUCTION LOG MEDIUM
 LL8 .OHMM   07 220 08 00:   LATEROLOG-8 RES.
 DPOR.DEC    45 890 12 00:   DENSITY POROSITY SANDSTONE
 NPOR.DEC    42 890 03 00:   NEUTRON POROSITY SANDSTONE
 RHOB.G/C3   45 350 01 00:   BULK DENSITY
 CORR.G/C3   45 356 01 00:   DENSITY CORRECTION
 GRD .GAPI   45 310 01 00:   GAMMA RAY FROM DENSITY LOG
 CALD.IN     45 280 60 00:   CALIPER FROM DENSITY LOG
~PARAMETER INFORMATION
#MNEM.UNIT          VALUE    DESCRIPTION
#----------   ------------   ------------------------------
 PD  .                 GL:   PERMANENT DATUM
 EPD .F              5165:   ELEVATION PERMANENT DATUM
 LMF .                 KB:   LOG MEASURED FROM
 DAPD.F                13:   FEET ABOVE PERMANENT DATUM
 DMF .                 KB:   DRILLING MEASURED FROM
 EKB .F              5178:   KELLING BUSHING
 EGL .F              5165:   GROUND LEVEL
 DATE.            7-24-75:   RUN DATE
 RUN .                  1:   RUN NUMBER
 DD  .F              4150:   DEPTH DRILLER
 DL  .F              4154:   DEPTH LOGGER
 BLI .F              4152:   BOTTOM LOG INTERVAL
 TLI .F              1800:   TOP LOG INTERVAL
 CS  .IN            8.625:   CASING SIZE
 CBD .F               625:   CASING BOTTOM DRILLER
 CBL .F               627:   CASING BOTTOM LOGGER
 BS  .IN            7.875:   BIT SIZE
 BSD .F              4150:   BIT SIZE AT DEPTH
 DFT .                FGM:   DRILLING FLUID TYPE
 DFD .                9.5:   DRILLING FLUID DENSITY
 DFV .                 85:   DRILLING FLUID VISCOSITY
 MSS .           FLOWLINE:   MUD SAMPLE SOURCE
 RMS .OHMM           1.34:   RESISTIVITY MUD SAMPLE
 MST .F                91:   MUD SAMPLE TEMPERATURE
 RMF .OHMM           1.17:   RESISTIVITY MUD FILTRATE SAMPLE
 MFST.F                91:   MUD FILTRATE SAMPLE TEMPERATURE
 MFSS.                  M:   MUD FILTRATE SAMPLE SOURCE
 RMB .OHMM            .94:   RESISTIVITY MUD AT BHT
 BHT .F               130:   BOTTOM HOLE TEMPERATURE
 TCS .HRS            1230:   TIME CURCULATED STOPPED
 TLAB.HRS            1900:   TIME LOGGER AT BOTTOM
 MRT .F               132:   MAXIMUM RECORDED TEMPERATURE
 LUN .               7680:   LOGGING UNIT NUMBER
 LUL .               CSPR:   LOGGING UNIT LOCATION
 ENGI.             FRENCH:   RECORDING ENGINEER
 WITN.             CARTER:   WITNESSED BY
 CLNT.            A2DTECH:   CLIENT CODE
 ORIG.       2", 5" PRINT:   ORIGIN OF DATA
 UWI .       490251025200:   UNIQUE WELL ID
 DICO. A2D Technologies, Inc.:   DIGITIZING COMPANY
~OTHER INFORMATION
~A   DEPT      SPR          ILD        ILM       LL8      DPOR       NPOR       RHOB       CORR        GRD       CALD   
# ...
 3872.0000  -999.2500  -999.2500  -999.2500  -999.2500     0.2941     0.4337     2.2914     0.1923   165.4856     9.0915
 3872.5000  -999.2500  -999.2500  -999.2500  -999.2500     0.2932     0.4102     2.3673     0.2269   173.0843     9.0603
 3873.0000  -999.2500  -999.2500  -999.2500  -999.2500     0.2443     0.3877     2.2722     0.1749   181.5746     9.1627
 3873.5000  -999.2500  -999.2500  -999.2500  -999.2500     0.1751     0.3916     2.2407     0.1909   185.9030     9.3621
 3874.0000  -999.2500  -999.2500  -999.2500  -999.2500     0.2087     0.3953     2.3158     0.2354   187.4408     9.5571
 3874.5000  -999.2500  -999.2500  -999.2500  -999.2500     0.2447     0.3871     2.2869     0.2129   188.5426     9.6548
 3875.0000  -999.2500  -999.2500  -999.2500  -999.2500     0.2172     0.3857     2.2508     0.1951   188.9618     9.4286
 3875.5000  -999.2500  -999.2500  -999.2500  -999.2500     0.2035     0.3965     2.2397     0.1964   189.0511     9.6189
 3876.0000  -999.2500  -999.2500  -999.2500  -999.2500     0.2257     0.3847     2.2610     0.2348   191.0184     9.8032
 3876.5000  -999.2500  -999.2500  -999.2500  -999.2500     0.2439     0.3753     2.2806     0.2540   190.0330     9.9850
 3877.0000  -999.2500  -999.2500  -999.2500  -999.2500     0.2381     0.3796     2.2527     0.1840   186.8102     9.7815
 3877.5000  -999.2500  -999.2500  -999.2500  -999.2500     0.2313     0.3926     2.1707     0.1152   183.7454     9.0617
 3878.0000  -999.2500  -999.2500  -999.2500  -999.2500     0.2265     0.4096     2.1579     0.1360   181.9055     9.3021
 3878.5000  -999.2500  -999.2500  -999.2500  -999.2500     0.2580     0.4189     2.2461     0.1947   180.9954     9.5507
 3879.0000  -999.2500  -999.2500  -999.2500  -999.2500     0.2896     0.4209     2.2872     0.2388   183.2021    10.0915
 3879.5000  -999.2500  -999.2500  -999.2500  -999.2500     0.2643     0.4234     2.1982     0.2057   187.9338    10.6156
 3880.0000  -999.2500  -999.2500  -999.2500  -999.2500     0.2195     0.4277     2.1634     0.1756   192.3260    11.0791
 3880.5000  -999.2500  -999.2500  -999.2500  -999.2500     0.2459     0.4313     2.2230     0.1298   195.2568    11.2763
 3881.0000  -999.2500  -999.2500  -999.2500  -999.2500     0.2870     0.4393     2.2745     0.1556   195.9756    11.0912
 3881.5000  -999.2500  -999.2500  -999.2500  -999.2500     0.2728     0.4354     2.3534     0.1698   196.6554    10.8359
 3882.0000  -999.2500  -999.2500  -999.2500  -999.2500     0.2479     0.4304     2.4286     0.1986   192.4000    10.2479
 3882.5000  -999.2500  -999.2500  -999.2500  -999.2500     0.2083     0.4255     2.4738     0.1506   187.9402     9.2649
 3883.0000  -999.2500  -999.2500  -999.2500  -999.2500     0.1685     0.4190     2.3984     0.1969   186.2275     8.7969
 3883.5000  -999.2500  -999.2500  -999.2500  -999.2500     0.1295     0.4071     2.4230     0.1643   182.5152     8.9838
 3884.0000  -999.2500  -999.2500  -999.2500  -999.2500     0.1084     0.3957     2.4782     0.1467   178.1755     8.7410
 3884.5000  -999.2500  -999.2500  -999.2500  -999.2500     0.1453     0.3838     2.4501     0.0776   176.0968     8.4377
 3885.0000  -999.2500  -999.2500  -999.2500  -999.2500     0.1504     0.3537     2.5068     0.1132   176.3665     8.2938
 3885.5000  -999.2500  -999.2500  -999.2500  -999.2500     0.1067     0.3134     2.5627     0.1196   180.3393     8.3508
 3886.0000  -999.2500  -999.2500  -999.2500  -999.2500     0.1141     0.2924     2.5302     0.1220   189.0626     8.4207
 3886.5000  -999.2500  -999.2500  -999.2500  -999.2500     0.0535     0.2826     2.5113     0.1205   192.9795     8.4784
 3887.0000  -999.2500  -999.2500  -999.2500  -999.2500     0.0610     0.2944     2.4933     0.1384   193.6748     8.3970
 3887.5000  -999.2500  -999.2500  -999.2500  -999.2500     0.0734     0.3122     2.4761     0.1551   200.4104     8.3071
 3888.0000  -999.2500  -999.2500  -999.2500  -999.2500     0.0867     0.3229     2.4553     0.1473   204.9105     8.2514
 3888.5000  -999.2500  -999.2500  -999.2500  -999.2500     0.1009     0.3393     2.4372     0.2552   204.6056     8.3915
 3889.0000  -999.2500  -999.2500  -999.2500  -999.2500     0.1152     0.3527     2.4278     0.2331   202.8238     8.5315
 3889.5000  -999.2500  -999.2500  -999.2500  -999.2500     0.1246     0.3614     2.4353     0.1944   202.4240     8.6179
 3890.0000  -999.2500  -999.2500  -999.2500  -999.2500     0.1302     0.3618     2.4052     0.0996   198.1913     8.3728
 3890.5000  -999.2500  -999.2500  -999.2500  -999.2500     0.1348     0.3507     2.4397     0.1633   196.8555     8.1831
 3891.0000  -999.2500  -999.2500  -999.2500  -999.2500     0.1410     0.3428     2.4803     0.1782   196.6221     8.2603
 3891.5000  -999.2500  -999.2500  -999.2500  -999.2500     0.1499     0.3370     2.4872     0.2111   198.1578     8.4684
 3892.0000  -999.2500  -999.2500  -999.2500  -999.2500     0.1197     0.3456     2.4490     0.1988   196.9921     8.7643
 3892.5000  -999.2500  -999.2500  -999.2500  -999.2500     0.1016     0.3600     2.4357     0.1806   195.3450     8.9582
 3893.0000  -999.2500  -999.2500  -999.2500  -999.2500     0.1156     0.3846     2.4650     0.2168   192.0926     9.2248
 3893.5000  -999.2500  -999.2500  -999.2500  -999.2500     0.1296     0.4171     2.4313     0.2312   187.5301     9.9135
 3894.0000  -999.2500  -999.2500  -999.2500  -999.2500     0.1195     0.4580     2.4096     0.1103   184.2108     9.4190
 3894.5000  -999.2500  -999.2500  -999.2500  -999.2500     0.1144     0.4403     2.4836     0.0258   181.1162     8.3133
 3895.0000  -999.2500  -999.2500  -999.2500  -999.2500     0.1389     0.4065     2.5653     0.0108   181.3989     8.2769
 3895.5000  -999.2500  -999.2500  -999.2500  -999.2500     0.1440     0.3206     2.6017     0.0328   186.1268     8.3009
 3896.0000  -999.2500  -999.2500  -999.2500  -999.2500     0.0685     0.2809     2.5922     0.0571   189.9267     8.3690
 3896.5000  -999.2500  -999.2500  -999.2500  -999.2500     0.0331     0.2466     2.5834     0.0684   187.3043     8.4641
 3897.0000  -999.2500  -999.2500  -999.2500  -999.2500     0.0305     0.2515     2.5761     0.0703   184.9032     8.5741
 3897.5000  -999.2500  -999.2500  -999.2500  -999.2500     0.0401     0.2574     2.5550     0.0540   186.6170     8.6518
 3898.0000  -999.2500  -999.2500  -999.2500  -999.2500     0.0423     0.2634     2.5229     0.0496   188.9495     8.5885
 3898.5000  -999.2500  -999.2500  -999.2500  -999.2500     0.0531     0.2702     2.5308     0.1001   189.9316     8.4876
 3899.0000  -999.2500  -999.2500  -999.2500  -999.2500     0.0696     0.2794     2.5453     0.1583   193.3640     8.4202
 3899.5000  -999.2500  -999.2500  -999.2500  -999.2500     0.0756     0.2918     2.5254     0.2062   196.8120     8.3694
 3900.0000  -999.2500  -999.2500  -999.2500  -999.2500     0.0664     0.3045     2.4800     0.2181   197.1861     8.3394
 3900.5000  -999.2500  -999.2500  -999.2500  -999.2500     0.0777     0.3210     2.4147     0.2007   196.5742     8.5183
 3901.0000  -999.2500  -999.2500  -999.2500  -999.2500     0.1095     0.3597     2.3840     0.1929   197.5652     8.8076
 3901.5000  -999.2500  -999.2500  -999.2500  -999.2500     0.1424     0.3711     2.3573     0.1712   199.0244     9.1066
 3902.0000  -999.2500  -999.2500  -999.2500  -999.2500     0.1578     0.3817     2.3122     0.1828   194.4011     9.1543
 3902.5000  -999.2500  -999.2500  -999.2500  -999.2500     0.1738     0.3909     2.2632     0.1773   187.7656     8.8389
 3903.0000  -999.2500  -999.2500  -999.2500  -999.2500     0.1956     0.3909     2.2349     0.1812   183.6257     8.6122
 3903.5000  -999.2500  -999.2500  -999.2500  -999.2500     0.2211     0.3697     2.2278     0.2092   180.3988     8.5611
 3904.0000  -999.2500  -999.2500  -999.2500  -999.2500     0.2510     0.3757     2.2053     0.2356   183.0086     9.4374
 3904.5000  -999.2500  -999.2500  -999.2500  -999.2500     0.2538     0.3848     2.1641     0.2154   185.0280     9.9988
 3905.0000  -999.2500  -999.2500  -999.2500  -999.2500     0.2708     0.3861     2.2074     0.1865   186.7061     9.6068
