~VERSION INFORMATION
 VERS.                2.0:   CWLS LOG ASCII STANDARD - VERSION 2.0
 WRAP.                 NO:   ONE LINE PER DEPTH STEP
~WELL INFORMATION
#MNEM.UNIT      DATA TYPE    INFORMATION
#----------   ------------   ------------------------------
 STRT.F          160.0000:   START DEPTH
 STOP.F         1181.5000:   STOP DEPTH
 STEP.F            0.5000:   STEP LENGTH
 NULL.          -999.2500:   NO VALUE
 COMP.            US NAVY:   COMPANY
 WELL. RES 3 TEAPOT DOM #71-SX-14:   WELL
 FLD .             TEAPOT:   FIELD
 LOC .      S14 T38N R78W:   LOCATION
 CNTY.            NATRONA:   COUNTY
 STAT.            WYOMING:   STATE
 CTRY. UNITED STATES OF AMERICA:   COUNTRY
 SRVC.       Schlumberger:   SERVICE COMPANY
 DATE.        23-AUG-1959:   LOGDATE
 API .       490250632200:   API NUMBER
~CURVE INFORMATION
#MNEM.UNIT       API CODE    CURVE DESCRIPTION
#----------   ------------   ------------------------------
 DEPT.F                  :   
 SPR .MV     05 010 01 00:   SPONTANEOUS POTENTIAL FROM RES.
 IL  .OHMM   05 120 00 00:   INDUCTION LOG
 ASN .OHMM   05 041 16 00:   AMPLIFIED SHORT NORMAL 16"
 CIL .MMHO   05 110 00 00:   CONDUCTIVITY INDUCTION LOG
~PARAMETER INFORMATION
#MNEM.UNIT          VALUE    DESCRIPTION
#----------   ------------   ------------------------------
 PD  .                 GL:   PERMANENT DATUM
 EPD .F              5259:   ELEVATION PERMANENT DATUM
 LMF .                 KB:   LOG MEASURED FROM
 DAPD.F                 4:   FEET ABOVE PERMANENT DATUM
 DMF .                 KB:   DRILLING MEASURED FROM
 EKB .F              5263:   KELLING BUSHING
 EGL .F              5259:   GROUND LEVEL
 DATE.            8-23-59:   RUN DATE
 RUN .                  1:   RUN NUMBER
 DD  .F              1190:   DEPTH DRILLER
 DL  .F              1186:   DEPTH LOGGER
 BLI .F              1180:   BOTTOM LOG INTERVAL
 TLI .F               150:   TOP LOG INTERVAL
 CBD .F                17:   CASING BOTTOM DRILLER
 BS  .IN             6.75:   BIT SIZE
 BSD .F              1190:   BIT SIZE AT DEPTH
 DFT .                GEL:   DRILLING FLUID TYPE
 DFD .                9.5:   DRILLING FLUID DENSITY
 DFV .                 52:   DRILLING FLUID VISCOSITY
 MSS .           FLOWLINE:   MUD SAMPLE SOURCE
 RMS .OHMM            2.6:   RESISTIVITY MUD SAMPLE
 MST .F                62:   MUD SAMPLE TEMPERATURE
 MFSS.                  M:   MUD FILTRATE SAMPLE SOURCE
 MCSS.                  M:   MUD CAKE SAMPLE SOURCE
 RMB .OHMM            2.2:   RESISTIVITY MUD AT BHT
 BHT .F                80:   BOTTOM HOLE TEMPERATURE
 TCS .HRS               1:   TIME CURCULATED STOPPED
 MRT .F                80:   MAXIMUM RECORDED TEMPERATURE
 LUN .               2523:   LOGGING UNIT NUMBER
 LUL .               CSPR:   LOGGING UNIT LOCATION
 ENGI.             ATWOOD:   RECORDING ENGINEER
 WITN.             MARTIN:   WITNESSED BY
 CLNT.            A2DTECH:   CLIENT CODE
 ORIG.     1", 2.5" PRINT:   ORIGIN OF DATA
 UWI .       490250632200:   UNIQUE WELL ID
 DICO. A2D Technologies, Inc.:   DIGITIZING COMPANY
~OTHER INFORMATION
~A   DEPT      SPR           IL        ASN      CIL   
  160.0000   -69.8214     7.7128     8.0319   143.6770
  160.5000   -69.8214     7.8901     8.0319   143.6770
  161.0000   -69.8214     7.9344     8.0319   143.6770
  161.5000   -69.8214     7.9787     8.0319   143.6770
  162.0000   -69.8214     8.0231     8.0674   143.6770
  162.5000   -69.8214     8.0674     8.6348   143.6770
  163.0000   -69.8214     7.9964     8.4980   143.6770
  163.5000   -69.9249     7.9718     8.4357   145.4760
  164.0000   -69.8221     7.8903     8.2907   148.4797
  164.5000   -69.8214     7.8198     8.1600   151.5189
  165.0000   -69.8213     7.7480     8.0173   154.5581
  165.5000   -69.8255     7.6776     7.8836   157.5973
  166.0000   -69.7737     7.6060     7.7424   160.6365
  166.5000   -69.6293     7.5354     7.6498   163.6756
  167.0000   -69.4900     7.4648     7.6119   164.6887
  167.5000   -69.3487     7.3905     7.5679   164.6887
  168.0000   -69.2072     7.3552     7.5121   163.2587
  168.5000   -69.0664     7.3574     7.6006   161.1904
  169.0000   -68.9251     7.3717     7.8358   159.1221
  169.5000   -68.7840     7.4022     8.0781   157.0538
  170.0000   -68.6429     7.4325     8.1005   154.9854
  170.5000   -68.5018     7.4614     7.9069   152.9171
  171.0000   -68.3607     7.4906     7.7244   152.4319
  171.5000   -68.2196     7.5240     7.6310   152.4319
  172.0000   -68.0786     7.5147     7.6948   155.0584
  172.5000   -67.9375     7.4624     7.7604   158.3825
  173.0000   -67.7964     7.4147     7.6788   161.7066
  173.5000   -67.6554     7.3667     7.5225   165.0307
  174.0000   -67.5143     7.3179     7.3762   168.3548
  174.5000   -67.3732     7.2698     7.2286   171.6789
  175.0000   -67.2319     7.2207     7.0720   175.0030
  175.5000   -67.0910     7.1737     6.9967   178.6965
  176.0000   -66.9495     7.1236     7.0053   179.4844
  176.5000   -66.8081     7.0750     7.0176   180.4475
  177.0000   -66.6687     7.0346     7.0816   180.4475
  177.5000   -66.5233     6.9128     7.2172   180.4475
  178.0000   -66.3874     6.8176     7.0821   179.4494
  178.5000   -66.2629     6.8276     6.6367   178.3857
  179.0000   -66.3751     6.8268     6.5635   177.3220
  179.5000   -66.4865     6.8251     6.8317   176.2583
  180.0000   -66.6072     6.8267     7.0714   175.1945
  180.5000   -66.7273     6.8260     7.1907   175.1945
  181.0000   -66.8394     6.8261     7.1579   176.9893
  181.5000   -66.9529     6.8262     7.1064   178.7622
  182.0000   -66.8609     6.8262     7.0598   180.4475
  182.5000   -66.7598     6.8263     7.0101   179.5173
  183.0000   -66.6500     6.8260     6.9617   178.6965
  183.5000   -66.5458     6.8262     6.9123   179.9659
  184.0000   -66.4394     6.8266     6.8642   181.1479
  184.5000   -66.3334     6.8249     6.8138   182.1984
  185.0000   -66.2283     6.8423     6.7847   180.4475
  185.5000   -66.1197     6.8803     6.8362   180.4475
  186.0000   -66.0187     6.9150     6.9416   179.4407
  186.5000   -65.9015     6.9495     7.0389   178.5542
  187.0000   -65.8938     6.9902     7.1363   177.6678
  187.5000   -65.8909     6.9756     7.2473   176.9455
  188.0000   -65.8935     6.9061     7.2357   176.9455
  188.5000   -65.8924     6.8425     7.1028   178.6440
  189.0000   -65.8926     6.7785     6.9838   180.0623
  189.5000   -65.8929     6.7133     6.8619   181.4805
  190.0000   -65.8928     6.6490     6.7397   182.8988
  190.5000   -65.8929     6.5846     6.6211   184.3171
  191.0000   -65.8929     6.5196     6.4876   185.7354
  191.5000   -65.8929     6.4554     6.4786   187.1537
  192.0000   -65.8930     6.3915     6.6015   188.5720
  192.5000   -65.8928     6.3239     6.6560   189.9903
  193.0000   -65.8932     6.2914     6.6145   190.9533
  193.5000   -65.8930     6.2951     6.5431   190.9533
  194.0000   -65.8922     6.2943     6.4687   191.6464
  194.5000   -65.8958     6.2935     6.4339   193.6515
  195.0000   -65.8644     6.2972     6.4369   195.6565
  195.5000   -65.8101     6.2648     6.4353   197.6616
  196.0000   -65.7600     6.1971     6.4409   199.6667
  196.5000   -65.7101     6.1332     6.3834   201.6717
  197.0000   -65.6589     6.0690     6.2620   203.6768
  197.5000   -65.6094     6.0041     6.1490   205.6819
  198.0000   -65.5574     5.9396     6.0300   207.6869
  198.5000   -65.5309     5.8751     5.9516   209.6920
  199.0000   -65.5645     5.8105     5.9418   211.6971
  199.5000   -65.6266     5.7455     5.9066   213.7021
  200.0000   -65.6851     5.6821     5.8326   215.7072
  200.5000   -65.7442     5.6153     5.7604   217.7122
  201.0000   -65.8036     5.5771     5.7171   219.7173
  201.5000   -65.8629     5.6395     5.8009   220.7198
  202.0000   -65.9224     5.7631     5.9704   218.4217
  202.5000   -65.9809     5.8802     6.1306   213.8254
  203.0000   -66.0418     5.9984     6.2922   209.2291
  203.5000   -66.0995     6.1169     6.4527   204.6328
  204.0000   -66.1571     6.2356     6.6183   200.0365
  204.5000   -66.2290     6.3535     6.7755   195.4402
  205.0000   -66.1639     6.4708     6.9343   190.8439
  205.5000   -65.9383     6.5950     7.1569   186.2476
  206.0000   -65.7278     6.6540     7.0109   183.9494
  206.5000   -65.5151     6.6482     6.8048   183.2928
  207.0000   -65.2999     6.6488     6.8564   181.9796
  207.5000   -65.0884     6.6496     6.9171   180.6663
  208.0000   -64.8721     6.6491     6.9739   179.3531
  208.5000   -64.6613     6.6472     7.0076   180.0097
  209.0000   -64.4496     6.6692     6.9999   182.6362
  209.5000   -64.2169     6.7158     7.0336   183.9494
  210.0000   -64.1458     6.7600     7.1042   183.0739
  210.5000   -64.2974     6.8037     7.1701   181.3230
  211.0000   -64.4267     6.8492     7.2358   179.5720
  211.5000   -64.5583     6.8928     7.3041   177.8210
  212.0000   -64.6958     6.9361     7.3694   176.0700
  212.5000   -64.8259     6.9872     7.4342   174.3191
  213.0000   -64.9591     6.9651     7.5118   175.1945
  213.5000   -65.1063     6.8696     7.4680   178.6965
  214.0000   -65.1456     6.7818     7.3033   182.1984
  214.5000   -65.0147     6.6938     7.1505   185.7004
  215.0000   -64.8997     6.6041     6.9986   189.2023
  215.5000   -64.7816     6.5151     6.8431   192.7043
  216.0000   -64.6617     6.4278     6.6858   196.2062
  216.5000   -64.5439     6.3360     6.5892   197.9572
  217.0000   -64.4248     6.2827     6.5832   197.9572
  217.5000   -64.3068     6.3758     6.7382   195.6809
  218.0000   -64.1866     6.5616     7.0179   191.1284
  218.5000   -64.0702     6.7373     7.2837   186.5759
  219.0000   -63.9518     6.9137     7.5542   182.0233
  219.5000   -63.8211     7.0936     7.8221   177.4708
  220.0000   -63.7686     7.2694     8.0866   171.6926
  220.5000   -63.8681     7.4450     8.3773   164.6887
  221.0000   -63.9536     7.6351     8.4314   157.6848
  221.5000   -64.0423     7.6872     8.2505   150.6809
  222.0000   -64.1323     7.6016     8.0951   149.2802
  222.5000   -64.2203     7.5305     7.9331   153.4825
  223.0000   -64.3097     7.4587     7.8138   157.6848
  223.5000   -64.3988     7.3840     7.7461   161.8872
  224.0000   -64.4867     7.3117     7.6716   166.0895
  224.5000   -64.5783     7.2384     7.5976   169.0661
  225.0000   -64.6638     7.1652     7.5249   170.8171
  225.5000   -64.7517     7.0922     7.4514   172.5681
  226.0000   -64.9141     7.0192     7.3782   174.3315
  226.5000   -65.1793     6.9461     7.3050   176.0768
  227.0000   -65.1765     6.8730     7.2316   177.8242
  227.5000   -65.1395     6.8000     7.1582   179.5732
  228.0000   -64.9594     6.7268     7.0848   181.3238
  228.5000   -64.7842     6.6534     7.0117   183.0783
  229.0000   -64.6059     6.5815     6.9376   184.8351
  229.5000   -64.4272     6.5057     6.8653   186.5961
  230.0000   -64.2508     6.4633     6.7914   188.3613
  230.5000   -64.0712     6.5261     6.7288   190.1285
  231.0000   -63.8926     6.6497     6.7761   191.8936
  231.5000   -63.7529     6.7666     6.9100   192.7753
  232.0000   -63.7507     6.8847     7.0347   190.7275
  232.5000   -63.7487     7.0035     7.1604   186.6263
