~VERSION INFORMATION
 VERS.                2.0:   CWLS LOG ASCII STANDARD - VERSION 2.0
 WRAP.                 NO:   ONE LINE PER DEPTH STEP
~WELL INFORMATION
#MNEM.UNIT      DATA TYPE    INFORMATION
#----------   ------------   ------------------------------
 STRT.F           80.0000:   START DEPTH
 STOP.F          930.0000:   STOP DEPTH
 STEP.F            0.5000:   STEP LENGTH
 NULL.          -999.2500:   NO VALUE
 COMP. U S NAVY-INTEX OIL:   COMPANY
 WELL. RES 3 TEAPOT DOM #56-S-2:   WELL
 FLD .             TEAPOT:   FIELD
 LOC .       S2 T38N R78W:   LOCATION
 CNTY.            NATRONA:   COUNTY
 STAT.            WYOMING:   STATE
 CTRY. UNITED STATES OF AMERICA:   COUNTRY
 SRVC.       Schlumberger:   SERVICE COMPANY
 DATE.        24-JUN-1962:   LOGDATE
 API .       490250641900:   API NUMBER
~CURVE INFORMATION
#MNEM.UNIT       API CODE    CURVE DESCRIPTION
#----------   ------------   ------------------------------
 DEPT.F                  :   
 ASN .OHMM   05 041 16 00:   AMPLIFIED SHORT NORMAL 16"
 ILD .OHMM   05 120 46 00:   INDUCTION LOG DEEP
 CILD.MMHO   05 110 46 00:   CONDUCTIVITY INDUCTION LOG DEEP
 SPR .MV     05 010 01 00:   SPONTANEOUS POTENTIAL FROM RES.
 GR  .GAPI   30 310 01 00:   GAMMA RAY
~PARAMETER INFORMATION
#MNEM.UNIT          VALUE    DESCRIPTION
#----------   ------------   ------------------------------
 PD  .                 KB:   PERMANENT DATUM
 LMF .                 KB:   LOG MEASURED FROM
 DMF .                 KB:   DRILLING MEASURED FROM
 EKB .F              5179:   KELLING BUSHING
 EGL .F              5174:   GROUND LEVEL
 DATE.        24-JUN-1962:   RUN DATE
 RUN .                  1:   RUN NUMBER
 DD  .F               942:   DEPTH DRILLER
 DL  .F               931:   DEPTH LOGGER
 BLI .F               930:   BOTTOM LOG INTERVAL
 TLI .F                80:   TOP LOG INTERVAL
 BS  .IN             6.75:   BIT SIZE
 BSD .F               942:   BIT SIZE AT DEPTH
 DFT .       OIL EMULSION:   DRILLING FLUID TYPE
 DFD .                9.9:   DRILLING FLUID DENSITY
 DFV .                 55:   DRILLING FLUID VISCOSITY
 DFL .                3.7:   DRILLING FLUID LOSS
 RMS .OHMM            4.2:   RESISTIVITY MUD SAMPLE
 MST .F                79:   MUD SAMPLE TEMPERATURE
 RMF .OHMM            3.7:   RESISTIVITY MUD FILTRATE SAMPLE
 MFST.F                79:   MUD FILTRATE SAMPLE TEMPERATURE
 RMC .OHMM            4.0:   RESISTIVITY MUD CAKE
 MCST.F                79:   MUD CAKE SAMPLE TEMPERATURE
 TCS .HRS               1:   TIME CURCULATED STOPPED
 LUN .               2503:   LOGGING UNIT NUMBER
 LUL .               CSPR:   LOGGING UNIT LOCATION
 ENGI.             DANNER:   RECORDING ENGINEER
 WITN.          JORGENSEN:   WITNESSED BY
 CLNT.            A2DTECH:   CLIENT CODE
 ORIG.           5" PRINT:   ORIGIN OF DATA
 UWI .       490250641900:   UNIQUE WELL ID
 DICO. A2D Technologies, Inc.:   DIGITIZING COMPANY
~OTHER INFORMATION
~A   DEPT        ASN        ILD      CILD       SPR         GR   
# ...
  385.0000    12.7430    12.8983    80.5071   -63.2136  -999.2500
  385.5000    12.7442    12.9763    79.7724   -62.7607  -999.2500
  386.0000    12.8201    13.0544    79.0376   -62.7563  -999.2500
  386.5000    13.0493    13.2075    77.5563   -63.0508  -999.2500
  387.0000    13.2710    13.2856    76.8216   -63.6442  -999.2500
  387.5000    13.4220    13.4387    76.8369   -63.9387  -999.2500
  388.0000    13.5727    13.5167    75.3524   -64.2332  -999.2500
  388.5000    13.5739    13.6699    73.8681   -64.5277  -999.2500
  389.0000    13.6499    13.8230    73.1333   -64.6845  -999.2500
  389.5000    13.8753    13.9761    72.3315   -65.1325  -999.2500
  390.0000    14.0260    14.2043    71.5641   -66.1586  -999.2500
  390.5000    14.3262    14.4325    70.1793   -66.1539  -999.2500
  391.0000    14.6264    14.7358    68.6948   -66.1216  -999.2500
  391.5000    14.7771    15.0390    67.9600   -65.8452  -999.2500
  392.0000    14.9278    15.3423    66.4756   -67.0365  -999.2500
  392.5000    15.0785    15.5755    64.2453   -67.4805  -999.2500
  393.0000    15.4534    15.9570    62.7609   -67.4760  -999.2500
  393.5000    15.9123    16.4996    61.2727   -67.4716  -999.2500
  394.0000    16.7364    17.0341    59.7883   -68.3640  -999.2500
  394.5000    17.0269    17.5351    58.3039   -69.5554  -999.2500
  395.0000    17.3271    17.5381    56.0736   -69.4014  -999.2500
  395.5000    17.5525    17.3158    54.5854   -68.6496  -999.2500
  396.0000    17.2548    17.5440    53.8507   -66.7019  -999.2500
  396.5000    17.7792    17.9975    53.8692   -66.8481  -999.2500
  397.0000    18.1541    18.5260    53.8840   -67.5899  -999.2500
  397.5000    18.5287    18.5289    53.8989   -69.3792  -999.2500
  398.0000    18.2310    18.3817    53.9137   -70.4210  -999.2500
  398.5000    18.1575    18.2338    53.9285   -71.4629  -999.2500
  399.0000    18.0842    18.0123    53.9433   -72.2070  -999.2500
  399.5000    18.0107    17.9395    53.9582   -72.6509  -999.2500
  400.0000    17.9372    17.7928    53.9730   -73.1573  -999.2500
  400.5000    17.8637    17.6449    54.7039   -73.5339  -999.2500
  401.0000    17.7047    17.5721    55.4275   -73.8447  -999.2500
  401.5000    17.5672    17.4977    54.6552   -73.5472  -999.2500
  402.0000    17.4189    17.3513    54.6327   -72.5023  -999.2500
  402.5000    17.3454    17.2034    54.6102   -71.6066  -999.2500
  403.0000    17.2719    17.1306    54.6775   -71.9074  -999.2500
  403.5000    17.1987    17.0578    56.0653   -72.5068  -999.2500
  404.0000    17.1252    16.9850    56.7925   -72.8072  -999.2500
  404.5000    17.0517    16.9076    56.7691   -72.6592  -999.2500
  405.0000    16.9782    16.7642    56.7422   -71.3154  -999.2500
  405.5000    16.8299    16.6859    57.4750   -70.1211  -999.2500
  406.0000    16.6069    16.5435    59.7015   -70.2721  -999.2500
  406.5000    16.1597    16.1081    61.1728   -70.7220  -999.2500
  407.0000    15.5621    15.4143    62.6552   -70.8730  -999.2500
  407.5000    14.8045    14.7204    67.1250   -70.5755  -999.2500
  408.0000    14.1106    13.1745    76.0981   -70.1286  -999.2500
  408.5000    12.7269    12.1257    86.5705   -69.6806  -999.2500
  409.0000    10.8597    11.0018   100.7910   -68.9278  -999.2500
  409.5000     9.9239     9.8029   111.2634   -67.8770  -999.2500
  410.0000     9.5804     9.1294   122.4854   -65.6003  -999.2500
  410.5000     8.8630     8.4560   132.2081   -62.4478  -999.2500
  411.0000     8.0209     7.7826   145.6790   -59.3112  -999.2500
  411.5000     7.6093     7.0341   154.6521   -58.0313  -999.2500
  412.0000     7.2196     6.6609   165.8742   -58.0329  -999.2500
  412.5000     6.9245     6.5876   168.8503   -58.1839  -999.2500
  413.0000     6.6999     6.8156   169.5831   -58.1854  -999.2500
  413.5000     6.6190     6.8929   168.0559   -58.3366  -999.2500
  414.0000     6.6345     6.8952   166.5343   -58.3381  -999.2500
  414.5000     6.6798     6.8974   163.5134   -58.3396  -999.2500
  415.0000     6.7998     6.8997   158.9933   -58.3411  -999.2500
  415.5000     6.8002     6.9019   159.7205   -58.3426  -999.2500
  416.0000     6.8156     6.8285   159.6981   -58.1942  -999.2500
  416.5000     6.7862     6.8313   160.4310   -57.8971  -999.2500
  417.0000     6.7566     6.8336   160.4030   -57.7487  -999.2500
  417.5000     6.6824     6.8358   161.1302   -57.7506  -999.2500
  418.0000     6.5185     6.7624   161.1079   -57.7521  -999.2500
  418.5000     6.3694     6.7653   161.0855   -57.9031  -999.2500
  419.0000     6.3399     6.8426   161.0631   -57.9045  -999.2500
  419.5000     6.3703     6.8448   161.0407   -57.9060  -999.2500
  420.0000     6.4156     6.9221   159.5191   -57.9075  -999.2500
  420.5000     6.5207     6.9995   157.2479   -58.0585  -999.2500
  421.0000     6.6706     7.0768   154.9766   -58.2095  -999.2500
  421.5000     6.7009     7.0790   154.2046   -58.5099  -999.2500
  422.0000     6.7163     7.0813   154.1822   -58.6609  -999.2500
  422.5000     6.7018     7.0079   154.9101   -58.3634  -999.2500
  423.0000     6.6574     6.9351   157.1360   -58.3649  -999.2500
  423.5000     6.5981     6.8622   160.1121   -58.3664  -999.2500
  424.0000     6.5388     6.8651   162.3386   -58.5173  -999.2500
  424.5000     6.4794     6.7917   164.5651   -58.5188  -999.2500
  425.0000     6.4350     6.7945   166.7916   -58.0719  -999.2500
  425.5000     6.3757     6.7967   167.5188   -57.9235  -999.2500
  426.0000     6.3162     6.7990   168.2461   -57.9254  -999.2500
  426.5000     6.3017     6.8763   165.9292   -58.0763  -999.2500
  427.0000     6.3322     6.9536   163.6435   -58.0778  -999.2500
  427.5000     6.4223     7.0309   161.4317   -58.0793  -999.2500
  428.0000     6.5872     7.1083   160.5699   -58.2303  -999.2500
  428.5000     6.6474     7.1105   158.3883   -58.5307  -999.2500
  429.0000     6.6777     7.1878   156.8666   -58.6817  -999.2500
  429.5000     6.7679     7.2652   155.9595   -58.2347  -999.2500
  430.0000     6.8879     7.3425   153.8186   -58.0867  -999.2500
  430.5000     6.7837     7.4198   150.7977   -58.0882  -999.2500
  431.0000     6.7543     7.4971   149.2761   -58.0897  -999.2500
  431.5000     6.7547     7.5745   147.7545   -58.0912  -999.2500
  432.0000     6.8448     7.6518   146.2328   -58.0927  -999.2500
  432.5000     6.9798     7.7291   143.9616   -58.0942  -999.2500
  433.0000     7.1297     7.8064   141.6903   -58.2451  -999.2500
  433.5000     7.2200     7.8087   139.4191   -58.5456  -999.2500
  434.0000     7.2805     7.8109   137.1478   -58.5471  -999.2500
  434.5000     7.3254     7.8132   135.6262   -58.5486  -999.2500
  435.0000     7.3259     7.8154   135.6038   -58.5501  -999.2500
  435.5000     7.3575     7.7425   136.3367   -58.5515  -999.2500
  436.0000     7.4031     7.7448   137.0639   -58.2541  -999.2500
  436.5000     7.4019     7.6719   138.5408   -58.1061  -999.2500
  437.0000     7.4002     7.6743   139.2681   -58.1076  -999.2500
  437.5000     7.3530     7.6013   139.9953   -58.2585  -999.2500
  438.0000     7.2305     7.5285   142.9658   -58.1105  -999.2500
  438.5000     7.0451     7.4557   148.9405   -58.1124  -999.2500
  439.0000     7.0007     7.3829   149.6733   -57.9640  -999.2500
  439.5000     6.9861     7.2351   146.6468   -58.1154  -999.2500
  440.0000     6.8969     7.2373   145.8748   -58.1169  -999.2500
  440.5000     6.7627     7.3146   145.8524   -58.1184  -999.2500
  441.0000     6.7783     7.3920   146.5853   -58.1198  -999.2500
  441.5000     6.9730     7.3190   149.5558   -58.1213  -999.2500
  442.0000     7.3322     7.3214   151.7823   -58.2723  -999.2500
  442.5000     7.1682     7.2486   150.2607   -58.8717  -999.2500
  443.0000     7.2883     7.2508   147.2398   -59.0223  -999.2500
  443.5000     7.3035     7.3281   145.7182   -58.2764  -999.2500
  444.0000     7.0160     7.3304   146.4510   -58.2782  -999.2500
  444.5000     6.7215     7.3328   147.9279   -58.1299  -999.2500
  445.0000     6.7220     7.3349   149.4048   -58.1317  -999.2500
  445.5000     6.7524     7.4122   149.3768   -58.1332  -999.2500
