~VERSION INFORMATION
 VERS.                2.0:   CWLS LOG ASCII STANDARD - VERSION 2.0
 WRAP.                 NO:   ONE LINE PER DEPTH STEP
~WELL INFORMATION
#MNEM.UNIT      DATA TYPE    INFORMATION
#----------   ------------   ------------------------------
 STRT.F           78.5000:   START DEPTH
 STOP.F         1021.0000:   STOP DEPTH
 STEP.F            0.5000:   STEP LENGTH
 NULL.          -999.2500:   NO VALUE
 COMP. U S NAVY/INTEX OIL CO:   COMPANY
 WELL.     NRR 3 ##65S-11:   WELL
 FLD .             TEAPOT:   FIELD
 LOC .      S11 T38N R78W:   LOCATION
 CNTY.            NATRONA:   COUNTY
 STAT.            WYOMING:   STATE
 CTRY. UNITED STATES OF AMERICA:   COUNTRY
 SRVC.       Schlumberger:   SERVICE COMPANY
 DATE.        09-MAR-1960:   LOGDATE
 API .       490250634100:   API NUMBER
~CURVE INFORMATION
#MNEM.UNIT       API CODE    CURVE DESCRIPTION
#----------   ------------   ------------------------------
 DEPT.F                  :   
 SPR .MV     05 010 01 00:   SPONTANEOUS POTENTIAL FROM RES.
 ILD .OHMM   05 120 46 00:   INDUCTION LOG DEEP
 CILD.MMHO   05 110 00 00:   CONDUCTIVITY INDUCTION LOG
 ASN .OHMM   05 041 16 00:   AMPLIFIED SHORT NORMAL 16"
~PARAMETER INFORMATION
#MNEM.UNIT          VALUE    DESCRIPTION
#----------   ------------   ------------------------------
 PD  .                 GL:   PERMANENT DATUM
 EPD .F              5227:   ELEVATION PERMANENT DATUM
 LMF .                 KB:   LOG MEASURED FROM
 DAPD.F                 5:   FEET ABOVE PERMANENT DATUM
 DMF .                 KB:   DRILLING MEASURED FROM
 EKB .F              5232:   KELLING BUSHING
 EGL .F              5227:   GROUND LEVEL
 DATE.             3-9-60:   RUN DATE
 RUN .                  1:   RUN NUMBER
 DD  .F              1025:   DEPTH DRILLER
 DL  .F              1026:   DEPTH LOGGER
 BLI .F              1021:   BOTTOM LOG INTERVAL
 TLI .F                80:   TOP LOG INTERVAL
 CBD .F                12:   CASING BOTTOM DRILLER
 BS  .IN            7.875:   BIT SIZE
 BSD .F              1025:   BIT SIZE AT DEPTH
 DFT .          OIL EMULS:   DRILLING FLUID TYPE
 DFD .               10.2:   DRILLING FLUID DENSITY
 DFV .                 36:   DRILLING FLUID VISCOSITY
 DFPH.                7.5:   DRILLING FLUID PH
 DFL .                  4:   DRILLING FLUID LOSS
 MSS .          FLOW LINE:   MUD SAMPLE SOURCE
 RMS .OHMM           2.18:   RESISTIVITY MUD SAMPLE
 MST .F                64:   MUD SAMPLE TEMPERATURE
 RMF .OHMM           1.17:   RESISTIVITY MUD FILTRATE SAMPLE
 MFST.F                63:   MUD FILTRATE SAMPLE TEMPERATURE
 RMC .OHMM           2.02:   RESISTIVITY MUD CAKE
 MCST.F                64:   MUD CAKE SAMPLE TEMPERATURE
 MFSS.                  M:   MUD FILTRATE SAMPLE SOURCE
 MCSS.                  M:   MUD CAKE SAMPLE SOURCE
 TCS .HRS             .75:   TIME CURCULATED STOPPED
 LUN .               2795:   LOGGING UNIT NUMBER
 LUL .               CSPR:   LOGGING UNIT LOCATION
 ENGI.              SCOTT:   RECORDING ENGINEER
 WITN.          JORGENSEN:   WITNESSED BY
 CLNT.            A2DTECH:   CLIENT CODE
 ORIG.           2" PRINT:   ORIGIN OF DATA
 UWI .       490250634100:   UNIQUE WELL ID
 DICO. A2D Technologies, Inc.:   DIGITIZING COMPANY
~OTHER INFORMATION
~A   DEPT      SPR        ILD       CILD        ASN   
# ...
  881.5000   -53.8658    20.4519    47.2791    25.9018
  882.0000   -53.9224    19.8636    49.1142    25.0813
  882.5000   -53.9744    19.0239    50.9494    24.3608
  883.0000   -54.0351    18.2704    52.9729    23.6356
  883.5000   -53.8926    17.4801    55.1006    22.9023
  884.0000   -53.2311    16.7083    57.2284    22.1671
  884.5000   -52.0374    15.9282    59.3561    21.4380
  885.0000   -50.5802    15.1462    61.4838    20.7168
  885.5000   -49.6416    14.4004    63.6116    19.9961
  886.0000   -49.5071    13.9780    65.7393    19.4511
  886.5000   -49.2013    13.6994    67.8670    18.9980
  887.0000   -48.9976    13.4267    69.9948    18.5449
  887.5000   -48.7012    13.1578    72.1225    18.0917
  888.0000   -48.6368    12.8797    74.2502    17.7856
  888.5000   -48.8414    12.6115    75.6256    17.6535
  889.0000   -49.0142    12.4877    75.5505    17.4949
  889.5000   -49.2038    12.5028    75.4754    17.3363
  890.0000   -49.3847    12.6072    75.4002    17.1609
  890.5000   -49.5661    12.6980    75.3251    17.0900
  891.0000   -49.7541    12.7962    75.2500    17.1329
  891.5000   -49.9259    12.8906    75.1748    17.1680
  892.0000   -50.1307    12.9864    75.0997    17.1603
  892.5000   -50.1175    13.0834    75.0246    17.0897
  893.0000   -49.8780    13.1681    74.9494    17.0312
  893.5000   -49.6983    13.1571    74.8743    16.9660
  894.0000   -49.4606    13.1344    74.7992    16.9051
  894.5000   -49.5084    13.1137    74.7240    16.8400
  895.0000   -49.7817    13.0922    74.6489    16.7885
  895.5000   -50.0026    13.0712    74.5738    16.7984
  896.0000   -50.2588    13.0499    74.4986    16.8139
  896.5000   -50.4794    13.0287    74.4235    16.8281
  897.0000   -50.7478    13.0074    74.3484    16.8436
  897.5000   -50.6602    12.9863    74.2732    16.8566
  898.0000   -50.3451    12.9651    74.1981    16.8748
  898.5000   -50.0877    12.9441    74.1229    16.8719
  899.0000   -49.8085    12.9226    74.0478    16.7761
  899.5000   -49.5323    12.9020    73.9727    16.6851
  900.0000   -49.2710    12.8816    73.8975    16.5954
  900.5000   -48.9599    12.9008    73.8224    16.4960
  901.0000   -48.7689    12.9391    73.7473    16.5138
  901.5000   -48.7951    12.9740    73.6721    16.5660
  902.0000   -48.8415    13.0106    73.5970    16.6094
  902.5000   -48.9330    13.0463    73.5219    16.6586
  903.0000   -49.0094    13.0825    73.4467    16.7019
  903.5000   -49.0936    13.1185    73.3716    16.7559
  904.0000   -49.1739    13.1547    73.2965    16.7795
  904.5000   -49.2566    13.1907    73.2213    16.7500
  905.0000   -49.3375    13.2269    73.1462    16.7280
  905.5000   -49.4206    13.2627    73.0711    16.6989
  906.0000   -49.4993    13.2992    72.9959    16.6952
  906.5000   -49.5861    13.3349    72.9208    16.7598
  907.0000   -49.6580    13.3720    72.8456    16.7467
  907.5000   -49.7613    13.3460    72.7705    16.6163
  908.0000   -49.7214    13.3036    72.6954    16.4937
  908.5000   -49.4548    13.2411    72.7572    16.3657
  909.0000   -49.2052    13.1382    73.0928    16.2409
  909.5000   -48.9435    13.0342    73.4285    16.1143
  910.0000   -48.6889    12.9296    73.9396    15.9886
  910.5000   -48.4301    12.8255    74.7787    15.8624
  911.0000   -48.1740    12.7211    75.6179    15.7365
  911.5000   -47.9159    12.6169    76.4571    15.6103
  912.0000   -47.6581    12.5126    77.2963    15.4845
  912.5000   -47.4074    12.4083    78.1354    15.3577
  913.0000   -47.5241    12.3040    78.9471    15.2331
  913.5000   -47.7206    12.1996    79.6767    15.1042
  914.0000   -47.9008    12.0953    80.4033    14.9834
  914.5000   -48.0883    11.9912    81.1290    14.8448
  915.0000   -48.2723    11.8861    81.8565    14.7772
  915.5000   -48.4583    11.7837    82.6570    14.8709
  916.0000   -48.6436    11.7700    82.3360    14.9691
  916.5000   -48.8293    11.7832    81.9829    15.0729
  917.0000   -49.0140    11.8087    81.6327    15.1715
  917.5000   -49.2006    11.8338    81.2773    15.2749
  918.0000   -49.3791    11.8598    80.9218    15.2508
  918.5000   -49.4027    11.8841    80.5664    15.1647
  919.0000   -49.3741    11.9114    80.2110    15.0872
  919.5000   -49.0714    11.9335    79.8556    15.0045
  920.0000   -48.7116    11.9657    80.0293    14.9251
  920.5000   -48.3606    11.9421    80.8556    14.8288
  921.0000   -48.0091    11.8556    81.6818    14.7153
  921.5000   -47.6522    11.7780    82.5081    14.6022
  922.0000   -47.3083    11.6956    83.3344    14.4883
  922.5000   -46.9362    11.6159    84.1606    14.3756
  923.0000   -46.7099    11.5348    84.9869    14.2613
  923.5000   -46.6385    11.4543    85.8132    14.1495
  924.0000   -46.5396    11.3736    86.6394    14.0328
  924.5000   -46.4545    11.2929    87.4657    13.9423
  925.0000   -46.3619    11.2124    88.2920    13.8785
  925.5000   -46.2732    11.1315    89.1182    13.8097
  926.0000   -46.1825    11.0514    89.9445    13.7435
  926.5000   -46.0927    10.9698    90.7708    13.6756
  927.0000   -46.0023    10.8908    91.5970    13.6093
  927.5000   -45.9121    10.8071    92.4233    13.5407
  928.0000   -45.8214    10.7570    93.2496    13.4757
  928.5000   -45.7319    10.7379    94.0754    13.4043
  929.0000   -45.6393    10.7143    94.9007    13.3740
  929.5000   -45.5638    10.6923    95.6898    13.3762
  930.0000   -45.5895    10.6729    95.9002    13.3781
  930.5000   -45.6248    10.6707    96.1025    13.3715
  931.0000   -45.6593    10.6728    96.3055    13.4357
  931.5000   -45.6927    10.6697    96.5081    13.5712
  932.0000   -45.7286    10.6764    96.7099    13.6623
  932.5000   -45.7552    10.6263    96.9088    13.6047
  933.0000   -45.7636    10.5289    97.1102    13.5315
  933.5000   -45.7291    10.4425    97.3116    13.4617
  934.0000   -45.4284    10.3512    97.5130    13.3908
  934.5000   -45.1248    10.2620    97.6954    13.3201
  935.0000   -44.8126    10.1727    97.4505    13.2496
  935.5000   -44.5607    10.0815    97.2267    13.1781
  936.0000   -44.5447     9.9944    97.0029    13.1087
  936.5000   -44.5436     9.9003    96.7791    13.0350
  937.0000   -44.5483     9.8776    96.5159    12.9840
  937.5000   -44.5397     9.9066    96.2282    13.0312
  938.0000   -44.5573     9.9267    95.9405    13.0819
  938.5000   -44.4210     9.9485    95.6527    13.1325
  939.0000   -44.1695     9.9806    95.3650    13.1829
  939.5000   -43.9570    10.1005    95.0773    13.2336
  940.0000   -43.7177    10.2155    94.7896    13.2841
  940.5000   -43.5495    10.3320    94.5019    13.3350
  941.0000   -43.5855    10.4459    94.2141    13.3850
  941.5000   -43.6313    10.5639    93.9264    13.4367
  942.0000   -43.6769    10.6746    93.6387    13.4850
  942.5000   -43.7222    10.7925    93.3510    13.5407
  943.0000   -43.7675    10.8834    93.0633    13.5623
  943.5000   -43.8139    10.8531    92.7756    13.4405
  944.0000   -43.8575    10.7107    92.6854    13.3244
  944.5000   -43.9074    10.5700    92.6854    13.2067
  945.0000   -43.9271    10.4314    94.6529    13.0904
  945.5000   -43.8274    10.2937    96.3008    12.9730
  946.0000   -43.7346    10.1523    97.9486    12.8568
  946.5000   -43.6394    10.0185    99.5965    12.7388
  947.0000   -43.5470     9.8692   101.2443    12.6233
  947.5000   -43.4506     9.7791   102.0666    12.5068
  948.0000   -43.3635     9.7428   102.5701    12.4707
  948.5000   -43.2871     9.6649   103.0736    12.4744
  949.0000   -43.2143     9.6026   103.5771    12.4741
  949.5000   -43.1493     9.4888   104.0807    12.4708
  950.0000   -43.1277     9.5039   104.5842    12.5030
  950.5000   -43.1316     9.5388   104.4933    12.6140
  951.0000   -43.1310     9.5656   104.2056    12.7242
  951.5000   -43.1987     9.6028   103.9178    12.8371
  952.0000   -43.2945     9.6215   103.3631    12.9626
  952.5000   -43.3877     9.6900   102.0814    13.1268
  953.0000   -43.4798     9.7683   100.7998    13.3302
  953.5000   -43.5759     9.8472    99.5181    13.5319
  954.0000   -43.6647    10.1432    98.2365    13.7335
