~VERSION INFORMATION
 VERS.                2.0:   CWLS LOG ASCII STANDARD - VERSION 2.0
 WRAP.                 NO:   ONE LINE PER DEPTH STEP
~WELL INFORMATION
#MNEM.UNIT      DATA TYPE    INFORMATION
#----------   ------------   ------------------------------
 STRT.F            7.0000:   START DEPTH
 STOP.F          690.0000:   STOP DEPTH
 STEP.F            0.5000:   STEP LENGTH
 NULL.          -999.2500:   NO VALUE
 COMP. FENIX & SCISSON INC:   COMPANY
 WELL.  NPR#3 #26-46 SX11:   WELL
 FLD .             TEAPOT:   FIELD
 LOC .      S11 T38N R78W:   LOCATION
 CNTY.            NATRONA:   COUNTY
 STAT.            WYOMING:   STATE
 CTRY. UNITED STATES OF AMERICA:   COUNTRY
 SRVC.      Dresser Atlas:   SERVICE COMPANY
 DATE.        13-AUG-1985:   LOGDATE
 API .       490251083600:   API NUMBER
~CURVE INFORMATION
#MNEM.UNIT       API CODE    CURVE DESCRIPTION
#----------   ------------   ------------------------------
 DEPT.F                  :   
 DPHI.DEC    45 890 12 00:   DENSITY POROSITY SANDSTONE
 NPHI.DEC    42 890 03 00:   NEUTRON POROSITY SANDSTONE
 RHOB.G/C3   45 350 01 00:   BULK DENSITY
 CORR.G/C3   45 356 01 00:   DENSITY CORRECTION
 CALD.IN     45 280 60 00:   CALIPER
 SPR .MV     07 010 01 00:   SPONTANEOUS POTENTIAL
 ILD .OHMM   07 120 46 00:   INDUCTION LOG DEEP
 ILM .OHMM   07 120 44 00:   INDUCTION LOG MEDIUM
 SFL .OHMM   07 220 01 00:   SHALLOW FOCUSED LOG RESISTIVITY
 GRR .GAPI   07 310 01 00:   GAMMA RAY FROM RES. LOG.
~PARAMETER INFORMATION
#MNEM.UNIT          VALUE    DESCRIPTION
#----------   ------------   ------------------------------
 PD  .                 GL:   PERMANENT DATUM
 EPD .F              5193:   ELEVATION PERMANENT DATUM
 LMF .                 KB:   LOG MEASURED FROM
 DAPD.F                 5:   FEET ABOVE PERMANENT DATUM
 DMF .                 KB:   DRILLING MEASURED FROM
 EKB .F              5198:   KELLING BUSHING
 EGL .F              5193:   GROUND LEVEL
 DATE.          8-13-1985:   RUN DATE
 RUN .                  8:   RUN NUMBER
 DD  .F               664:   DEPTH DRILLER
 BLI .F               635:   BOTTOM LOG INTERVAL
 TLI .F               340:   TOP LOG INTERVAL
 CBL .F               340:   CASING BOTTOM LOGGER
 BS  .IN             8.75:   BIT SIZE
 BSD .F               664:   BIT SIZE AT DEPTH
 DFT .          KPC WATER:   DRILLING FLUID TYPE
 LUN .           HL- 6274:   LOGGING UNIT NUMBER
 LUL .           GILLETTE:   LOGGING UNIT LOCATION
 ENGI.             RAUTIO:   RECORDING ENGINEER
 WITN.            SCHULTE:   WITNESSED BY
 CLNT.            A2DTECH:   CLIENT CODE
 ORIG.        2" 5" PRINT:   ORIGIN OF DATA
 UWI .       490251083600:   UNIQUE WELL ID
 DICO. A2D Technologies, Inc.:   DIGITIZING COMPANY
~OTHER INFORMATION
~A    DEPT    DPHI       NPHI       RHOB       CORR       CALD         SPR       ILD        ILM        SFL        GRR   
# ...
  208.0000  -999.2500  -999.2500  -999.2500  -999.2500  -999.2500   -35.4993     7.1364     6.9421     8.6567    70.4457
  208.5000  -999.2500  -999.2500  -999.2500  -999.2500  -999.2500   -37.9637     7.1364     6.9421     8.5103    67.7462
  209.0000  -999.2500  -999.2500  -999.2500  -999.2500  -999.2500   -37.8338     7.1364     6.9420     8.3627    67.7070
  209.5000  -999.2500  -999.2500  -999.2500  -999.2500  -999.2500   -37.9422     7.1365     6.9421     8.1925    72.3228
  210.0000  -999.2500  -999.2500  -999.2500  -999.2500  -999.2500   -38.1156     7.1366     6.9408     8.2120    76.9382
  210.5000  -999.2500  -999.2500  -999.2500  -999.2500  -999.2500   -37.9570     7.1353     6.9774     8.2437    79.8350
  211.0000  -999.2500  -999.2500  -999.2500  -999.2500  -999.2500   -39.1179     7.2126     7.0347     8.2756    80.7313
  211.5000  -999.2500  -999.2500  -999.2500  -999.2500  -999.2500   -39.5138     7.2755     7.0924     8.3076    81.7783
  212.0000  -999.2500  -999.2500  -999.2500  -999.2500  -999.2500   -39.1829     7.3368     7.1725     8.3375    85.5410
  212.5000  -999.2500  -999.2500  -999.2500  -999.2500  -999.2500   -38.8558     7.5069     7.3235     8.5661    86.0836
  213.0000  -999.2500  -999.2500  -999.2500  -999.2500  -999.2500   -37.9733     7.6756     7.4776     8.8328    85.3775
  213.5000  -999.2500  -999.2500  -999.2500  -999.2500  -999.2500   -37.1568     7.8476     7.6350     9.0588    84.9153
  214.0000  -999.2500  -999.2500  -999.2500  -999.2500  -999.2500   -37.9940     8.0230     7.7824     9.2281    84.7097
  214.5000  -999.2500  -999.2500  -999.2500  -999.2500  -999.2500   -39.1312     8.1530     7.8958     9.4005    83.1709
  215.0000  -999.2500  -999.2500  -999.2500  -999.2500  -999.2500   -38.7954     8.2288     8.0108     9.4919    80.4373
  215.5000  -999.2500  -999.2500  -999.2500  -999.2500  -999.2500   -38.9077     8.3053     8.1181     9.3433    78.3137
  216.0000  -999.2500  -999.2500  -999.2500  -999.2500  -999.2500   -38.6966     8.3825     8.1886     9.2335    77.1925
  216.5000  -999.2500  -999.2500  -999.2500  -999.2500  -999.2500   -38.0139     8.4605     8.2550     9.3062    77.9124
  217.0000  -999.2500  -999.2500  -999.2500  -999.2500  -999.2500   -37.8709     8.5392     8.3216     9.4059    78.3498
  217.5000  -999.2500  -999.2500  -999.2500  -999.2500  -999.2500   -37.9148     8.6221     8.3889     9.4055    77.9126
  218.0000  -999.2500  -999.2500  -999.2500  -999.2500  -999.2500   -37.6008     8.7093     8.4329     9.4320    76.5587
  218.5000  -999.2500  -999.2500  -999.2500  -999.2500  -999.2500   -38.1767     8.7973     8.4546     9.6700    71.4590
  219.0000  -999.2500  -999.2500  -999.2500  -999.2500  -999.2500   -38.4808     8.8863     8.4764     9.9141    72.7940
  219.5000  -999.2500  -999.2500  -999.2500  -999.2500  -999.2500   -38.2635     8.9821     8.4997    10.1234    74.8144
  220.0000  -999.2500  -999.2500  -999.2500  -999.2500  -999.2500   -38.0469     8.8353     8.5332     9.7292    76.3799
  220.5000  -999.2500  -999.2500  -999.2500  -999.2500  -999.2500   -37.9777     8.6809     8.5692     9.4919    76.3917
  221.0000  -999.2500  -999.2500  -999.2500  -999.2500  -999.2500   -37.9714     8.5292     8.6055     9.5289    74.5813
  221.5000  -999.2500  -999.2500  -999.2500  -999.2500  -999.2500   -38.3237     8.3801     8.6575     9.5565    72.6140
  222.0000  -999.2500  -999.2500  -999.2500  -999.2500  -999.2500   -38.7538     8.3133     8.6295     9.5796    71.3288
  222.5000  -999.2500  -999.2500  -999.2500  -999.2500  -999.2500   -38.3674     8.2722     8.5797     9.1489    75.6080
  223.0000  -999.2500  -999.2500  -999.2500  -999.2500  -999.2500   -37.5785     8.2312     8.5302     9.1787    79.8877
  223.5000  -999.2500  -999.2500  -999.2500  -999.2500  -999.2500   -36.3566     8.1906     8.4810     9.2174    79.3702
  224.0000  -999.2500  -999.2500  -999.2500  -999.2500  -999.2500   -34.2108     8.1500     8.4321     9.2335    78.1654
  224.5000  -999.2500  -999.2500  -999.2500  -999.2500  -999.2500   -33.8732     8.1030     8.3834     9.2161    76.9532
  225.0000  -999.2500  -999.2500  -999.2500  -999.2500  -999.2500   -36.9399     8.0283     8.3351     9.2036    75.7161
  225.5000  -999.2500  -999.2500  -999.2500  -999.2500  -999.2500   -36.8357     7.9544     8.2870     9.1910    75.5487
  226.0000  -999.2500  -999.2500  -999.2500  -999.2500  -999.2500   -36.5718     7.8935     8.2334     9.1785    76.5901
  226.5000  -999.2500  -999.2500  -999.2500  -999.2500  -999.2500   -36.4085     7.8795     8.1764     9.1661    76.2918
  227.0000  -999.2500  -999.2500  -999.2500  -999.2500  -999.2500   -34.9217     7.8655     8.1199     9.1533    75.9846
  227.5000  -999.2500  -999.2500  -999.2500  -999.2500  -999.2500   -35.1694     7.8515     8.0637     9.1369    75.0334
  228.0000  -999.2500  -999.2500  -999.2500  -999.2500  -999.2500   -36.3139     7.8375     8.0374     9.1087    75.5060
  228.5000  -999.2500  -999.2500  -999.2500  -999.2500  -999.2500   -36.3726     7.8242     8.0283     9.0807    76.4640
  229.0000  -999.2500  -999.2500  -999.2500  -999.2500  -999.2500   -36.7876     7.8241     8.0193     9.0275    77.4192
  229.5000  -999.2500  -999.2500  -999.2500  -999.2500  -999.2500   -37.0846     7.8241     8.0102     8.9447    78.3181
  230.0000  -999.2500  -999.2500  -999.2500  -999.2500  -999.2500   -36.7871     7.8245     8.0012     8.8620    82.0188
  230.5000  -999.2500  -999.2500  -999.2500  -999.2500  -999.2500   -36.6895     7.8047     7.9923     8.7779    82.9915
  231.0000  -999.2500  -999.2500  -999.2500  -999.2500  -999.2500   -36.5723     7.7762     7.9832     8.7399    81.7036
  231.5000  -999.2500  -999.2500  -999.2500  -999.2500  -999.2500   -36.2850     7.7474     7.9741     9.1835    80.4851
  232.0000  -999.2500  -999.2500  -999.2500  -999.2500  -999.2500   -35.9873     7.7188     7.8962     9.4122    81.6636
  232.5000  -999.2500  -999.2500  -999.2500  -999.2500  -999.2500   -36.1047     7.6903     7.7462     8.7548    82.5614
  233.0000  -999.2500  -999.2500  -999.2500  -999.2500  -999.2500   -35.9921     7.6437     7.5989     8.1947    80.8566
  233.5000  -999.2500  -999.2500  -999.2500  -999.2500  -999.2500   -35.4724     7.5895     7.4545     7.7519    79.2476
  234.0000  -999.2500  -999.2500  -999.2500  -999.2500  -999.2500   -35.3717     7.5257     7.3128     7.5420    79.5871
  234.5000  -999.2500  -999.2500  -999.2500  -999.2500  -999.2500   -35.3667     7.3804     7.1738     8.1831    80.0979
  235.0000  -999.2500  -999.2500  -999.2500  -999.2500  -999.2500   -35.7240     7.2380     7.0374     8.7444    82.6509
  235.5000  -999.2500  -999.2500  -999.2500  -999.2500  -999.2500   -36.3268     7.0983     6.9026     8.4382    85.2634
  236.0000  -999.2500  -999.2500  -999.2500  -999.2500  -999.2500   -36.3715     7.0016     6.8120     8.1247    86.1974
  236.5000  -999.2500  -999.2500  -999.2500  -999.2500  -999.2500   -35.1833     6.9875     6.7983     8.0431    77.9376
  237.0000  -999.2500  -999.2500  -999.2500  -999.2500  -999.2500   -35.2123     6.9735     6.7861     8.0431    73.7250
  237.5000  -999.2500  -999.2500  -999.2500  -999.2500  -999.2500   -35.2862     6.9595     6.7736     8.0431    76.0192
  238.0000  -999.2500  -999.2500  -999.2500  -999.2500  -999.2500   -35.1008     6.9455     6.7611     8.0431    74.2266
  238.5000  -999.2500  -999.2500  -999.2500  -999.2500  -999.2500   -35.3041     6.9296     6.7486     8.0431    75.3946
  239.0000  -999.2500  -999.2500  -999.2500  -999.2500  -999.2500   -35.7315     6.9132     6.7361     8.0431    73.1565
  239.5000  -999.2500  -999.2500  -999.2500  -999.2500  -999.2500   -34.2928     6.8968     6.7236     8.1651    72.8570
  240.0000  -999.2500  -999.2500  -999.2500  -999.2500  -999.2500   -33.4273     6.8804     6.7112     8.5026    74.5301
  240.5000  -999.2500  -999.2500  -999.2500  -999.2500  -999.2500   -32.7957     6.8641     6.6988     8.5782    73.7908
  241.0000  -999.2500  -999.2500  -999.2500  -999.2500  -999.2500   -30.8918     6.8479     6.6864     8.4230    73.0712
