~VERSION INFORMATION
 VERS.                2.0:   CWLS LOG ASCII STANDARD - VERSION 2.0
 WRAP.                 NO:   ONE LINE PER DEPTH STEP
~WELL INFORMATION
#MNEM.UNIT      DATA TYPE    INFORMATION
#----------   ------------   ------------------------------
 STRT.F           32.0000:   START DEPTH
 STOP.F          697.0000:   STOP DEPTH
 STEP.F            0.5000:   STEP LENGTH
 NULL.          -999.2500:   NO VALUE
 COMP.    FENIX & SCISSON:   COMPANY
 WELL.      NPR-3 #81S3-3:   WELL
 FLD .        TEAPOT DOME:   FIELD
 LOC .       S3 T38N R78W:   LOCATION
 CNTY.            NATRONA:   COUNTY
 STAT.            WYOMING:   STATE
 CTRY. UNITED STATES OF AMERICA:   COUNTRY
 SRVC.           BIRDWELL:   SERVICE COMPANY
 DATE.        11-JAN-1978:   LOGDATE
 API .       490251055400:   API NUMBER
~CURVE INFORMATION
#MNEM.UNIT       API CODE    CURVE DESCRIPTION
#----------   ------------   ------------------------------
 DEPT.F                  :   
 ILD .OHMM   05 120 46 00:   INDUCTION LOG DEEP
 SN  .OHMM   05 040 16 00:   SHORT NORMAL 16"
 SPR .MV     05 010 01 00:   SPONTANEOUS POTENTIAL FROM RES.
 CALD.IN     45 280 60 00:   CALIPER FROM DENSITY LOG
 DPHI.DEC    45 890 12 00:   DENSITY POROSITY SANDSTONE
 DRHO.G/C3   45 356 01 00:   DENSITY CORRECTION
 GRD .GAPI   45 310 01 00:   GAMMA RAY FROM DENSITY LOG
 RHOB.G/C3   45 350 01 00:   BULK DENSITY
~PARAMETER INFORMATION
#MNEM.UNIT          VALUE    DESCRIPTION
#----------   ------------   ------------------------------
 PD  .                 GL:   PERMANENT DATUM
 EPD .F              5119:   ELEVATION PERMANENT DATUM
 LMF .                 KB:   LOG MEASURED FROM
 DAPD.F                 4:   FEET ABOVE PERMANENT DATUM
 DMF .                 KB:   DRILLING MEASURED FROM
 EKB .F              5123:   KELLING BUSHING
 EGL .F              5119:   GROUND LEVEL
 DATE.        11-JAN-1978:   RUN DATE
 RUN .                  1:   RUN NUMBER
 DD  .F               695:   DEPTH DRILLER
 DL  .F               704:   DEPTH LOGGER
 BLI .F               697:   BOTTOM LOG INTERVAL
 TLI .F                40:   TOP LOG INTERVAL
 CS  .IN            8.625:   CASING SIZE
 CBD .F                40:   CASING BOTTOM DRILLER
 CBL .F                40:   CASING BOTTOM LOGGER
 BS  .IN            7.875:   BIT SIZE
 BSD .F               695:   BIT SIZE AT DEPTH
 DFT .                KCL:   DRILLING FLUID TYPE
 DFD .                8.6:   DRILLING FLUID DENSITY
 DFV .                 31:   DRILLING FLUID VISCOSITY
 DFPH.                9.5:   DRILLING FLUID PH
 DFL .                7.6:   DRILLING FLUID LOSS
 MSS .           FLOWLINE:   MUD SAMPLE SOURCE
 RMS .OHMM           0.32:   RESISTIVITY MUD SAMPLE
 MST .F                62:   MUD SAMPLE TEMPERATURE
 RMF .OHMM           0.32:   RESISTIVITY MUD FILTRATE SAMPLE
 MFST.F                62:   MUD FILTRATE SAMPLE TEMPERATURE
 RMC .OHMM            0.8:   RESISTIVITY MUD CAKE
 MCST.F                63:   MUD CAKE SAMPLE TEMPERATURE
 MFSS.               MEAS:   MUD FILTRATE SAMPLE SOURCE
 MCSS.               MEAS:   MUD CAKE SAMPLE SOURCE
 TCS .HRS               2:   TIME CURCULATED STOPPED
 LUN .               2958:   LOGGING UNIT NUMBER
 LUL .             CASPER:   LOGGING UNIT LOCATION
 ENGI.           REYNOLDS:   RECORDING ENGINEER
 WITN.         HARRINGTON:   WITNESSED BY
 CLNT.            A2DTECH:   CLIENT CODE
 ORIG.           5" PRINT:   ORIGIN OF DATA
 UWI .       490251055400:   UNIQUE WELL ID
 DICO. A2D Technologies, Inc.:   DIGITIZING COMPANY
~OTHER INFORMATION
~A   DEPT      ILD         SN        SPR       CALD       DPHI       DRHO         GRD      RHOB   
# ...
  639.5000     8.3105    10.2134   -42.8909     8.7064     0.1203     0.0392   102.0417     2.4532
  640.0000     8.1407     9.5996   -43.1048     8.7030     0.1098     0.0393   101.5052     2.4675
  640.5000     8.3140     9.2761   -42.7988     8.6996     0.0944     0.0393    94.0780     2.4908
  641.0000     8.5496     9.0258   -42.6437     8.6961     0.0707     0.0393    87.5499     2.5126
  641.5000     8.6708     9.2825   -42.4885     8.6927     0.0615     0.0394    87.1562     2.5284
  642.0000     8.7938     9.8828   -42.9303     8.6893     0.0694     0.0396    86.1203     2.5345
  642.5000     8.9184    10.9684   -43.2243     8.6859     0.0639     0.0397    81.5062     2.5255
  643.0000     9.2351    12.0892   -43.2169     8.6825     0.0600     0.0399    81.2141     2.5383
  643.5000    10.9858    12.9605   -42.6140     8.6790     0.0588     0.0401    78.9845     2.5406
  644.0000    13.3431    13.5150   -42.0110     8.6756     0.0591     0.0402    78.3928     2.5383
  644.5000    14.0098    13.6136   -42.0051     8.6723     0.0588     0.0404    78.2511     2.5399
  645.0000    14.0127    13.7129   -41.9992     8.6727     0.0579     0.0406    75.7235     2.5438
  645.5000    14.0156    13.7176   -41.9932     8.6731     0.0561     0.0407    74.8352     2.5468
  646.0000    14.1161    13.8177   -41.8380     8.6735     0.0534     0.0409    75.8843     2.5512
  646.5000    14.1190    13.8225   -41.5336     8.6739     0.0546     0.0411    77.0825     2.5528
  647.0000    14.2202    14.0201   -41.2291     8.6743     0.0573     0.0382    80.9632     2.5468
  647.5000    14.4218    14.1224   -40.7755     8.6747     0.0561     0.0337    82.0123     2.5430
  648.0000    14.7281    14.3242   -40.6203     8.6751     0.0548     0.0367    84.8498     2.5468
  648.5000    14.9369    14.5290   -40.1666     8.6755     0.0578     0.0398    86.7931     2.5484
  649.0000    15.3603    14.7367   -40.4591     8.6759     0.0597     0.0398    87.6931     2.5461
  649.5000    15.6865    14.9474   -41.3502     8.6763     0.0572     0.0398    85.0165     2.5424
  650.0000    16.0196    15.0564   -41.0443     8.6767     0.0533     0.0398    80.4024     2.5507
  650.5000    16.3598    15.2745   -40.8891     8.6771     0.0518     0.0399    81.9127     2.5530
  651.0000    16.7072    15.4900   -40.7339     8.6775     0.0503     0.0399    83.1108     2.5530
  651.5000    16.9441    15.6118   -40.5802     8.6783     0.0490     0.0399    82.5932     2.5561
  652.0000    17.1843    15.8262   -41.3205     8.6792     0.0487     0.0400    80.2215     2.5606
  652.5000    17.3075    15.9417   -41.3131     8.6801     0.0502     0.0400    79.5377     2.5531
  653.0000    17.4316    15.9472   -41.0087     8.6810     0.0508     0.0400    79.6941     2.5539
  653.5000    17.5565    16.0636   -40.5550     8.6818     0.0502     0.0401    79.5503     2.5547
  654.0000    17.6824    16.0702   -40.1013     8.6827     0.0493     0.0397    80.0034     2.5562
  654.5000    17.7021    16.1875   -40.6924     8.6836     0.0486     0.0345    78.9661     2.5571
  655.0000    17.7422    16.1930   -40.8358     8.6845     0.0483     0.0376    80.6114     2.5600
  655.5000    17.7823    16.3098   -40.6805     8.6856     0.0573     0.0422    82.5547     2.5361
  656.0000    17.8224    16.2872   -40.2268     8.6865     0.0621     0.0453    82.1136     2.5331
  656.5000    17.8563    16.2661   -39.9223     8.6874     0.0615     0.0469    80.1821     2.5407
  657.0000    17.7389    16.2451   -39.9582     8.7031     0.0600     0.0469    80.9332     2.5437
  657.5000    17.7450    16.2209   -40.2612     8.7187     0.0570     0.0470    81.3863     2.5445
  658.0000    17.5698    16.2161   -40.2507     8.7186     0.0500     0.0471    81.5412     2.5543
  658.5000    17.3915    16.2057   -39.9487     8.7184     0.0533     0.0472    81.8453     2.5574
  659.0000    17.2772    16.1953   -39.6472     8.7183     0.0530     0.0472    82.1493     2.5476
  659.5000    17.1636    16.1850   -39.9428     8.7182     0.0515     0.0473    78.2804     2.5514
  660.0000    16.9344    16.0691   -40.0898     8.7181     0.0505     0.0474    76.2098     2.5522
  660.5000    16.9402    15.9604   -40.0862     8.7180     0.0508     0.0475    80.5277     2.5493
  661.0000    16.8274    15.8524   -40.2325     8.7179     0.0514     0.0475    82.0240     2.5478
  661.5000    16.8346    15.7452   -40.5281     8.7178     0.0526     0.0416    82.1790     2.5501
  662.0000    16.7226    15.6386   -40.8236     8.7176     0.0538     0.0371    84.4204     2.5524
  662.5000    16.4993    15.5328   -41.1200     8.7175     0.0556     0.0372    86.6741     2.5471
  663.0000    16.3894    15.4277   -41.1163     8.7174     0.0583     0.0358    84.1342     2.5404
  663.5000    16.0588    15.3233   -41.1134     8.7173     0.0622     0.0344    83.5346     2.5329
  664.0000    15.8430    15.2197   -41.4090     8.7172     0.0649     0.0329    84.1461     2.5397
  664.5000    15.6287    15.1167   -41.5552     8.7171     0.0561     0.0330    84.7482     2.5413
  665.0000    15.5260    15.0144   -41.5522     8.7169     0.0576     0.0331    88.0328     2.5406
  665.5000    15.3187    14.8104   -41.6986     8.7167     0.0570     0.0332    89.9762     2.5504
  666.0000    15.1128    14.7102   -41.8450     8.7164     0.0527     0.0332    90.1312     2.5534
  666.5000    15.0135    14.6107   -42.1405     8.7162     0.0506     0.0331    89.9881     2.5535
  667.0000    14.8078    14.5118   -41.9876     8.7160     0.0518     0.0330    87.4503     2.5520
  667.5000    14.6127    14.4137   -41.6862     8.7157     0.0536     0.0329    85.3800     2.5490
  668.0000    14.4164    14.4090   -41.2355     8.7155     0.0529     0.0329    85.5350     2.5506
  668.5000    14.3216    14.2128   -41.8296     8.7153     0.0508     0.0328    85.6955     2.5536
  669.0000    14.1304    14.0256   -41.9766     8.7150     0.0512     0.0327    86.6112     2.5559
  669.5000    14.0363    13.8350   -41.8237     8.7148     0.0569     0.0326    88.1032     2.5454
  670.0000    13.9440    13.6466   -41.6715     8.7145     0.0571     0.0325    89.4436     2.5432
  670.5000    13.8524    13.5538   -41.9671     8.7143     0.0556     0.0324    88.9124     2.5432
  671.0000    13.6662    13.4621   -41.8149     8.7141     0.0556     0.0280    86.0178     2.5433
  671.5000    13.5776    13.3715   -41.6627     8.7139     0.0558     0.0220    87.3939     2.5433
  672.0000    13.4872    13.3733   -41.9821     8.7150     0.0568     0.0206    87.6690     2.5403
  672.5000    13.3060    13.2824   -42.7016     8.7159     0.0686     0.0207    87.0616     2.5231
  673.0000    13.2185    13.2846   -42.8479     8.7168     0.0724     0.0208    86.3210     2.5209
  673.5000    13.0420    13.1037   -42.9942     8.7026     0.0650     0.0193    86.0475     2.5307
  674.0000    12.9561    13.0150   -43.2891     8.7037     0.0627     0.0104    86.7373     2.5352
  674.5000    12.8711    12.9270   -43.5847     8.7046     0.0604     0.0029    91.1177     2.5383
  675.0000    12.7865    12.9287   -43.7317     8.7054     0.0575     0.0015    93.5916     2.5421
  675.5000    12.7025    12.8413   -43.8780     8.7064     0.0662     0.0016    95.0397     2.5331
  676.0000    12.6190    12.6664   -44.0243     8.7073     0.0639     0.0032    93.8369     2.5309
  676.5000    12.6235    12.5807   -44.0207     8.7043     0.0574     0.0017    91.5973     2.5384
  677.0000    12.5404    12.4956   -44.0177     8.7010     0.0520     0.0003    92.6480     2.5445
  677.5000    12.4579    12.4977   -44.1642     8.6976     0.0514     0.0004    95.4855     2.5505
  678.0000    12.3761    12.4127   -44.4597     8.6943     0.0523    -0.0011    96.9818     2.5476
  678.5000    12.2947    12.3287   -44.1582     8.6909     0.0547    -0.0025    97.2858     2.5453
  679.0000    12.2139    12.2453   -44.0060     8.6875     0.0565    -0.0024    95.0563     2.5446
  679.5000    12.1337    12.2474   -43.8538     8.6842     0.0577    -0.0038    90.7403     2.5454
