~VERSION INFORMATION
 VERS.                2.0:   CWLS LOG ASCII STANDARD - VERSION 2.0
 WRAP.                 NO:   ONE LINE PER DEPTH STEP
~WELL INFORMATION
#MNEM.UNIT      DATA TYPE    INFORMATION
#----------   ------------   ------------------------------
 STRT.F           34.0000:   START DEPTH
 STOP.F          604.0000:   STOP DEPTH
 STEP.F            0.5000:   STEP LENGTH
 NULL.          -999.2500:   NO VALUE
 COMP. FENIX & SCISSON INC:   COMPANY
 WELL.       NPR #17 SX-2:   WELL
 FLD .             TEAPOT:   FIELD
 LOC .       S2 T38N R78W:   LOCATION
 CNTY.            NATRONA:   COUNTY
 STAT.            WYOMING:   STATE
 CTRY. UNITED STATES OF AMERICA:   COUNTRY
 SRVC.       Schlumberger:   SERVICE COMPANY
 DATE.        18-MAR-1977:   LOGDATE
 API .       490251032700:   API NUMBER
~CURVE INFORMATION
#MNEM.UNIT       API CODE    CURVE DESCRIPTION
#----------   ------------   ------------------------------
 DEPT.F                  :   
 SPR .MV     07 010 01 00:   SPONTANEOUS POTENTIAL
 ILD .OHMM   07 120 46 00:   INDUCTION LOG DEEP
 ILM .OHMM   07 120 44 00:   INDUCTION LOG MEDIUM
 LL8 .OHMM   07 220 08 00:   LATEROLOG-8 RES.
 CALD.IN     45 280 60 00:   CALIPER FROM DENSITY LOG
 GRD .GAPI   45 310 01 00:   GAMMA RAY FROM DENSITY LOG
 CORR.G/C3   45 356 01 00:   DENSITY CORRECTION
 DPHI.DEC    45 890 12 00:   DENSITY POROSITY SANDSTONE
 RHOB.G/C3   45 350 01 00:   BULK DENSITY
~PARAMETER INFORMATION
#MNEM.UNIT          VALUE    DESCRIPTION
#----------   ------------   ------------------------------
 PD  .                 GL:   PERMANENT DATUM
 EPD .F              5122:   ELEVATION PERMANENT DATUM
 LMF .                 KB:   LOG MEASURED FROM
 DAPD.F                 4:   FEET ABOVE PERMANENT DATUM
 DMF .                 KB:   DRILLING MEASURED FROM
 EKB .F              5126:   KELLING BUSHING
 EGL .F              5122:   GROUND LEVEL
 DATE.        18-MAR-1977:   RUN DATE
 RUN .                  1:   RUN NUMBER
 DD  .F               600:   DEPTH DRILLER
 DL  .F               605:   DEPTH LOGGER
 BLI .F               604:   BOTTOM LOG INTERVAL
 TLI .F                44:   TOP LOG INTERVAL
 CS  .IN            8.625:   CASING SIZE
 CBD .F                40:   CASING BOTTOM DRILLER
 CBL .F                44:   CASING BOTTOM LOGGER
 BS  .IN            7.875:   BIT SIZE
 BSD .F               600:   BIT SIZE AT DEPTH
 DFT .            KCL MUD:   DRILLING FLUID TYPE
 DFD .                8.9:   DRILLING FLUID DENSITY
 DFV .                 39:   DRILLING FLUID VISCOSITY
 DFPH.                8.5:   DRILLING FLUID PH
 DFL .                6.1:   DRILLING FLUID LOSS
 MSS .                PIT:   MUD SAMPLE SOURCE
 RMS .OHMM           0.26:   RESISTIVITY MUD SAMPLE
 MST .F                52:   MUD SAMPLE TEMPERATURE
 RMF .OHMM           0.24:   RESISTIVITY MUD FILTRATE SAMPLE
 MFST.F                52:   MUD FILTRATE SAMPLE TEMPERATURE
 MFSS.               MEAS:   MUD FILTRATE SAMPLE SOURCE
 TCS .HRS            0230:   TIME CURCULATED STOPPED
 LUN .               7711:   LOGGING UNIT NUMBER
 LUL .               CSPR:   LOGGING UNIT LOCATION
 ENGI.             SAYLER:   RECORDING ENGINEER
 WITN.         STUEBINGER:   WITNESSED BY
 CLNT.            A2DTECH:   CLIENT CODE
 ORIG.           5" PRINT:   ORIGIN OF DATA
 UWI .       490251032700:   UNIQUE WELL ID
 DICO. A2D Technologies, Inc.:   DIGITIZING COMPANY
~OTHER INFORMATION
~A   DEPT      SPR        ILD        ILM        LL8       CALD        GRD       CORR       DPHI       RHOB   
# ...
  508.5000   -35.0914    38.0067    34.5858    34.7990     8.0380    79.3171     0.0238     0.1372     2.3922
  509.0000   -34.7799    35.9967    32.0528    29.8849     8.0095    80.3753     0.0201     0.1772     2.3512
  509.5000   -34.6174    35.0225    30.9667    28.4785     7.9959    81.8791     0.0209     0.1966     2.3311
  510.0000   -34.7530    34.5509    30.1286    27.7065     7.9822    82.0294     0.0390     0.1921     2.3394
  510.5000   -34.8885    33.3832    29.5200    27.5245     7.9537    79.1926     0.0346     0.1950     2.3304
  511.0000   -35.1731    31.9529    28.5219    27.5364     7.9549    77.6020     0.0384     0.1962     2.3290
  511.5000   -35.3121    29.9388    28.7310    27.3531     7.9264    76.5783     0.0408     0.1971     2.3291
  512.0000   -35.5967    29.1331    28.9412    26.9880     7.9127    78.4346     0.0408     0.1967     2.3292
  512.5000   -35.8812    28.7453    29.7669    26.0771     7.9152    79.9136     0.0394     0.1919     2.3389
  513.0000   -36.0168    28.7592    30.1937    25.7246     7.9300    81.2939     0.0372     0.1886     2.3419
  513.5000   -36.1524    28.7731    30.8401    25.3789     7.9312    83.1840     0.0351     0.1919     2.3396
  514.0000   -36.1355    28.9875    31.9410    25.2122     7.9472    84.8298     0.0343     0.1906     2.3427
  514.5000   -35.8240    29.4069    33.0835    25.2231     7.9486    85.4386     0.0322     0.1828     2.3480
  515.0000   -35.3634    29.6260    33.3234    25.2318     7.9646    84.2696     0.0135     0.1980     2.3250
  515.5000   -35.0519    29.8468    32.6219    25.5931     7.9658    81.7673     0.0128     0.2058     2.3131
  516.0000   -34.5914    29.0436    29.9489    25.9573     7.9670    78.9687     0.0152     0.2111     2.3071
  516.5000   -34.2798    28.0665    27.2720    24.7379     7.9530    77.2072     0.0220     0.2090     2.3102
  517.0000   -33.9683    27.4981    27.2817    23.9030     7.8803    76.7749     0.0273     0.1982     2.3274
  517.5000   -33.8058    27.5147    27.2912    22.9366     7.7331    77.3877     0.0282     0.1940     2.3342
  518.0000   -33.6433    27.7197    27.3007    21.8572     7.5859    79.7743     0.0290     0.1913     2.3387
  518.5000   -33.3318    27.7331    27.1207    22.0169     7.6910    83.0498     0.0418     0.1850     2.3507
  519.0000   -33.0202    27.5546    26.5728    22.0245     7.8405    83.0660     0.0464     0.1748     2.3620
  519.5000   -32.8577    26.4435    26.0338    21.8780     7.9159    82.3415     0.0547     0.1700     2.3717
  520.0000   -32.6952    25.3771    25.3292    21.8874     7.7390    79.6911     0.0601     0.1855     2.3486
  520.5000   -32.6818    25.3894    24.8154    21.2959     7.7251    79.4069     0.0466     0.1809     2.3524
  521.0000   -32.6683    25.4016    23.8107    21.1557     7.7414    81.7976     0.0467     0.1737     2.3644
  521.5000   -32.6548    25.4139    22.6885    21.0168     7.7574    83.8878     0.0445     0.1642     2.3794
  522.0000   -32.9428    25.4252    21.7699    20.8788     7.7882    87.1633     0.0401     0.1605     2.3847
  522.5000   -33.2274    25.6156    21.3265    20.8862     7.8042    91.4758     0.0319     0.1647     2.3855
  523.0000   -33.5120    25.4477    20.8939    20.7490     7.8351    93.4180     0.0350     0.1560     2.3930
  523.5000   -33.7932    24.9383    20.9029    20.3287     7.8956    94.3231     0.0388     0.1524     2.4005
  524.0000   -33.9321    23.9327    21.3504    18.5825     7.9710    91.3763     0.0381     0.1583     2.3983
  524.5000   -34.0677    22.6510    21.5067    18.5889     8.0167    89.1703     0.0375     0.1637     2.3812
  525.0000   -34.2275    21.8885    21.5141    18.7247     8.0475    90.0754     0.0323     0.1687     2.3753
  525.5000   -34.3607    21.8995    21.8226    18.9929     8.0487    90.9805     0.0218     0.1675     2.3753
  526.0000   -34.6429    21.9101    22.1355    19.1317     8.0647    90.7004     0.0174     0.1639     2.3776
  526.5000   -34.9080    21.9207    22.1431    19.1383     8.0659    90.7167     0.0280     0.1629     2.3822
  527.0000   -34.8793    21.7794    21.8433    18.8708     8.0671    91.0292     0.0342     0.1728     2.3703
  527.5000   -34.7193    21.1935    21.7015    18.4734     8.0534    91.3417     0.0236     0.1811     2.3576
  528.0000   -34.5693    20.9114    21.2613    17.8744     8.0694    90.1727     0.0230     0.1831     2.3509
  528.5000   -34.4069    20.4904    20.5427    17.8807     8.0706    90.1889     0.0193     0.1783     2.3555
  529.0000   -34.3885    19.9362    19.8483    17.3783     8.0570    90.5264     0.0201     0.1786     2.3593
  529.5000   -34.2311    19.3909    19.0447    16.7895     8.0418    89.9251     0.0179     0.1768     2.3611
  530.0000   -34.3666    18.6115    18.6584    16.4697     8.0148    88.3117     0.0195     0.1699     2.3730
  530.5000   -34.6513    17.9826    18.2799    16.3615     8.0309    88.4760     0.0148     0.1642     2.3807
  531.0000   -34.7869    17.5093    17.7852    16.7127     8.0498    88.3441     0.0122     0.1617     2.3874
  531.5000   -34.9225    17.3966    17.5443    16.7185     8.0631    88.2119     0.0137     0.1605     2.3894
  532.0000   -34.9089    17.4054    17.3095    16.8406     8.0643    87.0432     0.0063     0.1660     2.3820
  532.5000   -34.8954    17.4138    17.3158    16.7286     8.0655    87.0594     0.0034     0.1733     2.3664
  533.0000   -34.8819    17.4240    17.3217    16.5052     8.0667    87.9645     0.0057     0.1742     2.3657
  533.5000   -34.7194    17.1921    17.2076    16.0592     8.0678    88.5733     0.0110     0.1708     2.3784
  534.0000   -34.7060    17.0793    17.0944    15.1977     8.0690    87.4043     0.0164     0.1583     2.3971
  534.5000   -34.8415    17.0897    16.7478    15.0965     8.0702    87.4207     0.0202     0.1463     2.4136
  535.0000   -34.9776    16.8622    16.5224    14.9974     8.0565    87.1309     0.0248     0.1409     2.4204
  535.5000   -35.2617    16.4084    16.4138    15.0038     8.0429    86.2554     0.0241     0.1450     2.4130
  536.0000   -35.3972    16.0761    16.4194    15.1135     8.0441    85.3324     0.0152     0.1498     2.4048
  536.5000   -35.6818    15.9726    16.3114    14.7050     8.0452    84.2262     0.0115     0.1515     2.4034
  537.0000   -35.8208    15.9823    16.2041    14.3076     8.0613    84.3082     0.0123     0.1518     2.4064
  537.5000   -36.1054    15.8794    15.9861    14.2124     8.0624    85.9629     0.0131     0.1467     2.4109
  538.0000   -36.5356    15.6681    15.9799    14.2185     8.0636    87.9693     0.0117     0.1454     2.4111
  538.5000   -36.9692    15.3526    15.7764    14.2235     8.0497    90.5132     0.0110     0.1478     2.4103
  539.0000   -37.2572    15.0435    15.5478    14.1300     8.0511    89.7928     0.0104     0.1448     2.4178
  539.5000   -37.6875    14.4369    15.3547    13.7482     8.0375    89.6568     0.0104     0.1397     2.4201
  540.0000   -38.1211    14.3422    15.2537    13.5623     8.0235    89.6770     0.0135     0.1390     2.4241
  540.5000   -38.5547    14.1513    15.0498    13.3812     8.0250    88.8044     0.0271     0.1345     2.4307
  541.0000   -38.9883    14.0602    14.9508    13.2015     7.9668    87.0428     0.0347     0.1333     2.4300
  541.5000   -39.2763    13.9697    14.9559    13.1136     7.8641    87.5035     0.0430     0.1357     2.4251
  542.0000   -39.7066    13.8798    14.6525    13.1193     7.8060    89.0012     0.0499     0.1398     2.4187
  542.5000   -39.9945    13.9849    14.6576    12.9419     7.7923    89.7581     0.0469     0.1434     2.4167
  543.0000   -39.6796    14.0891    14.6627    12.8580     7.7935    89.7743     0.0462     0.1436     2.4152
  543.5000   -39.2191    14.1941    14.6677    12.8624     7.7650    89.6384     0.0553     0.1433     2.4228
  544.0000   -38.9075    14.2010    14.3702    12.8669     7.6920    89.3623     0.0704     0.1355     2.4363
  544.5000   -38.8941    13.9151    14.3752    12.9609     7.6190    87.1563     0.0953     0.1223     2.4475
