~VERSION INFORMATION
 VERS.                2.0:   CWLS LOG ASCII STANDARD - VERSION 2.0
 WRAP.                 NO:   ONE LINE PER DEPTH STEP
~WELL INFORMATION
#MNEM.UNIT      DATA TYPE    INFORMATION
#----------   ------------   ------------------------------
 STRT.F           80.0000:   START DEPTH
 STOP.F          808.0000:   STOP DEPTH
 STEP.F            0.5000:   STEP LENGTH
 NULL.          -999.2500:   NO VALUE
 COMP.           U S NAVY:   COMPANY
 WELL.     NRP #3 #38-S-2:   WELL
 FLD .             TEAPOT:   FIELD
 LOC .       S2 T38N R78W:   LOCATION
 CNTY.            NATRONA:   COUNTY
 STAT.            WYOMING:   STATE
 CTRY. UNITED STATES OF AMERICA:   COUNTRY
 SRVC.       Schlumberger:   SERVICE COMPANY
 DATE.        18-JUN-1962:   LOGDATE
 API .       490250639100:   API NUMBER
~CURVE INFORMATION
#MNEM.UNIT       API CODE    CURVE DESCRIPTION
#----------   ------------   ------------------------------
 DEPT.F                  :   
 GR  .GAPI   30 310 01 00:   GAMMA RAY
 SPR .MV     05 010 01 00:   SPONTANEOUS POTENTIAL FROM RES.
 ASN .OHMM   05 041 16 00:   AMPLIFIED SHORT NORMAL 16"
 ILD .OHMM   05 120 46 00:   INDUCTION LOG DEEP
 CILD.MMHO   05 110 46 00:   CONDUCTIVITY INDUCTION LOG DEEP
 CALM.IN     15 280 01 00:   CALIPER FROM MICRO LOG
~PARAMETER INFORMATION
#MNEM.UNIT          VALUE    DESCRIPTION
#----------   ------------   ------------------------------
 PD  .                 GL:   PERMANENT DATUM
 EPD .F              5146:   ELEVATION PERMANENT DATUM
 LMF .                 KB:   LOG MEASURED FROM
 DAPD.F                 5:   FEET ABOVE PERMANENT DATUM
 DMF .                 KB:   DRILLING MEASURED FROM
 EKB .F              5151:   KELLING BUSHING
 EGL .F              5146:   GROUND LEVEL
 DATE.          6-18-1962:   RUN DATE
 RUN .                  1:   RUN NUMBER
 DD  .F              1000:   DEPTH DRILLER
 DL  .F               808:   DEPTH LOGGER
 BLI .F               807:   BOTTOM LOG INTERVAL
 TLI .F                80:   TOP LOG INTERVAL
 BS  .IN             8.75:   BIT SIZE
 BSD .F              1000:   BIT SIZE AT DEPTH
 DFT .       OIL EMULSION:   DRILLING FLUID TYPE
 DFD .                8.7:   DRILLING FLUID DENSITY
 DFV .                 58:   DRILLING FLUID VISCOSITY
 DFL .                  4:   DRILLING FLUID LOSS
 RMS .OHMM           3.77:   RESISTIVITY MUD SAMPLE
 MST .F                79:   MUD SAMPLE TEMPERATURE
 RMF .OHMM           2.47:   RESISTIVITY MUD FILTRATE SAMPLE
 MFST.F                79:   MUD FILTRATE SAMPLE TEMPERATURE
 RMC .OHMM           3.29:   RESISTIVITY MUD CAKE
 MCST.F                79:   MUD CAKE SAMPLE TEMPERATURE
 TCS .HRS               1:   TIME CURCULATED STOPPED
 LUN .               2503:   LOGGING UNIT NUMBER
 LUL .               CSPR:   LOGGING UNIT LOCATION
 ENGI.             DANNER:   RECORDING ENGINEER
 WITN.          JORGENSEN:   WITNESSED BY
 CLNT.            A2DTECH:   CLIENT CODE
 ORIG.   1", 2", 5" PRINT:   ORIGIN OF DATA
 UWI .       490250639100:   UNIQUE WELL ID
 DICO. A2D Technologies, Inc.:   DIGITIZING COMPANY
~OTHER INFORMATION
~A   DEPT       GR        SPR          ASN        ILD      CILD      CALM   
# ...
  288.0000  -999.2500   -71.2761    10.4685     8.8075   109.9775  -999.2500
  288.5000  -999.2500   -71.2315    10.4268     8.7836   110.4579  -999.2500
  289.0000  -999.2500   -71.1868    10.3852     8.7596   110.9384  -999.2500
  289.5000  -999.2500   -71.1418    10.3435     8.7357   111.4189  -999.2500
  290.0000  -999.2500   -71.0969    10.3019     8.7117   111.8996  -999.2500
  290.5000  -999.2500   -71.0950    10.2602     8.6878   112.3805  -999.2500
  291.0000  -999.2500   -71.0953    10.2186     8.6638   112.8615  -999.2500
  291.5000  -999.2500   -71.0953    10.2747     8.6398   113.1791  -999.2500
  292.0000  -999.2500   -71.0953    10.1642     8.6159   113.1791  -999.2500
  292.5000  -999.2500   -71.0953    10.1016     8.5921   113.1791  -999.2500
  293.0000  -999.2500   -71.0953    10.0573     8.5754   113.1791  -999.2500
  293.5000  -999.2500   -71.0953    10.0174     8.5757   113.1791  -999.2500
  294.0000  -999.2500   -71.0953     9.9767     8.5757   113.1791  -999.2500
  294.5000  -999.2500   -71.0953     9.9807     8.5757   113.1791  -999.2500
  295.0000  -999.2500   -71.0953     9.9939     8.5757   113.1791  -999.2500
  295.5000  -999.2500   -71.0953    10.0075     8.5758   113.1791  -999.2500
  296.0000  -999.2500   -71.0953    10.0202     8.5757   113.1791  -999.2500
  296.5000  -999.2500   -71.0953    10.0111     8.5758   113.1791  -999.2500
  297.0000  -999.2500   -71.0953     9.9337     8.5786   113.1791  -999.2500
  297.5000  -999.2500   -71.0953     9.8587     8.4866   114.0454  -999.2500
  298.0000  -999.2500   -71.0953     9.7840     8.3733   115.1576  -999.2500
  298.5000  -999.2500   -71.0953     9.7197     8.2588   116.2698  -999.2500
  299.0000  -999.2500   -71.0953     9.6885     8.1399   117.3821  -999.2500
  299.5000  -999.2500   -71.0953     9.6566     8.0029   119.0381  -999.2500
  300.0000  -999.2500   -71.0953     9.6186     7.8668   122.2721  -999.2500
  300.5000  -999.2500   -71.0953     9.5836     7.7307   125.5061  -999.2500
  301.0000  -999.2500   -71.0953     9.3595     7.5946   128.7401  -999.2500
  301.5000  -999.2500   -71.0953     9.0811     7.4585   131.9742  -999.2500
  302.0000  -999.2500   -71.0953     8.8012     7.3224   135.2082  -999.2500
  302.5000  -999.2500   -71.0953     8.5212     7.1863   138.4422  -999.2500
  303.0000  -999.2500   -71.0953     8.2343     7.0500   140.3018  -999.2500
  303.5000  -999.2500   -71.0953     8.1288     6.9132   141.6365  -999.2500
  304.0000  -999.2500   -71.0953     8.0797     6.7787   142.9712  -999.2500
  304.5000  -999.2500   -71.0953     8.0559     6.6947   141.4258  -999.2500
  305.0000  -999.2500   -71.0954     8.1366     6.8470   138.6958  -999.2500
  305.5000  -999.2500   -71.0956     8.3539     6.9946   135.9658  -999.2500
  306.0000  -999.2500   -71.0952     8.6231     7.1414   133.2358  -999.2500
  306.5000  -999.2500   -71.0749     8.8651     7.2886   130.5058  -999.2500
  307.0000  -999.2500   -70.9723     8.9274     7.4357   127.9592  -999.2500
  307.5000  -999.2500   -70.8709     8.9961     7.5828   126.2432  -999.2500
  308.0000  -999.2500   -70.7698     9.0653     7.7297   124.5272  -999.2500
  308.5000  -999.2500   -70.6686     9.1342     7.8766   122.8111  -999.2500
  309.0000  -999.2500   -70.5674     9.2061     8.0307   122.8974  -999.2500
  309.5000  -999.2500   -70.4663     9.2353     8.0237   123.8984  -999.2500
  310.0000  -999.2500   -70.3648     9.2365     7.9507   124.8994  -999.2500
  310.5000  -999.2500   -70.2629     9.1600     7.8755   125.9004  -999.2500
  311.0000  -999.2500   -70.1633     9.0837     7.8004   126.9014  -999.2500
  311.5000  -999.2500   -70.1184     9.0076     7.7255   127.9024  -999.2500
  312.0000  -999.2500   -70.3439     8.9317     7.6506   128.9034  -999.2500
  312.5000  -999.2500   -70.5654     8.8656     7.5759   129.9079  -999.2500
  313.0000  -999.2500   -70.7856     8.8646     7.4998   129.4525  -999.2500
  313.5000  -999.2500   -71.0064     8.9076     7.5141   128.1167  -999.2500
  314.0000  -999.2500   -71.2355     8.9753     7.5800   126.7816  -999.2500
  314.5000  -999.2500   -71.2806     9.0433     7.6465   125.4460  -999.2500
  315.0000  -999.2500   -71.2590     9.1112     7.7131   124.1113  -999.2500
  315.5000  -999.2500   -71.2347     9.1796     7.7797   122.7767  -999.2500
  316.0000  -999.2500   -71.2106     9.2174     7.8464   121.4420  -999.2500
  316.5000  -999.2500   -71.1868     9.2352     7.9134   120.2213  -999.2500
  317.0000  -999.2500   -71.1630     9.2530     7.9714   120.2213  -999.2500
  317.5000  -999.2500   -71.1392     9.2711     7.9250   120.2213  -999.2500
  318.0000  -999.2500   -71.1155     9.2853     7.8782   121.2978  -999.2500
  318.5000  -999.2500   -71.0894     9.2410     7.8320   122.2988  -999.2500
  319.0000  -999.2500   -71.0564     9.1969     7.7859   123.2998  -999.2500
  319.5000  -999.2500   -71.0226     9.1533     7.7400   124.3008  -999.2500
  320.0000  -999.2500   -70.9888     9.1098     7.6938   125.3018  -999.2500
  320.5000  -999.2500   -70.9548     9.0659     7.6731   126.2576  -999.2500
  321.0000  -999.2500   -70.9212     9.0458     7.6734   126.2576  -999.2500
  321.5000  -999.2500   -70.9038     9.0272     7.6833   126.2576  -999.2500
  322.0000  -999.2500   -70.9846     9.0481     7.6933   126.2576  -999.2500
  322.5000  -999.2500   -71.0659     9.0705     7.7034   126.2576  -999.2500
  323.0000  -999.2500   -71.1468     9.0924     7.7133   126.2576  -999.2500
  323.5000  -999.2500   -71.2278     9.1139     7.7233   126.2576  -999.2500
  324.0000  -999.2500   -71.3087     9.1355     7.7333   126.2576  -999.2500
  324.5000  -999.2500   -71.3897     9.1192     7.7433   126.2576  -999.2500
  325.0000  -999.2500   -71.4707     9.0662     7.7533   126.4811  -999.2500
  325.5000  -999.2500   -71.5520     9.0133     7.7636   126.9260  -999.2500
  326.0000  -999.2500   -71.6329     8.9826     7.7722   127.3706  -999.2500
  326.5000  -999.2500   -71.6890     8.9752     7.7388   127.8151  -999.2500
  327.0000  -999.2500   -71.5690     8.9678     7.7033   128.2687  -999.2500
  327.5000  -999.2500   -71.4468     8.9606     7.6680   128.6152  -999.2500
  328.0000  -999.2500   -71.3251     8.9536     7.6328   128.9691  -999.2500
  328.5000  -999.2500   -71.2036     8.9449     7.5976   129.3224  -999.2500
  329.0000  -999.2500   -71.0960     8.8909     7.5623   129.6757  -999.2500
  329.5000  -999.2500   -71.0948     8.8338     7.5271   130.0290  -999.2500
  330.0000  -999.2500   -71.0953     8.7772     7.4919   130.3823  -999.2500
  330.5000  -999.2500   -71.0953     8.7554     7.4567   130.7356  -999.2500
  331.0000  -999.2500   -71.0954     8.7782     7.4214   131.0889  -999.2500
  331.5000  -999.2500   -71.0955     8.8012     7.3862   131.4422  -999.2500
  332.0000  -999.2500   -71.0950     8.8239     7.3510   131.7955  -999.2500
  332.5000  -999.2500   -71.0948     8.7885     7.3158   132.1488  -999.2500
  333.0000  -999.2500   -71.0240     8.7483     7.2806   132.5021  -999.2500
  333.5000  -999.2500   -70.9063     8.7082     7.2453   132.8554  -999.2500
  334.0000  -999.2500   -70.7877     8.6679     7.2097   133.2087  -999.2500
  334.5000  -999.2500   -70.6685     8.6260     7.1727   133.5620  -999.2500
  335.0000  -999.2500   -70.5495     8.6000     7.1716   133.9153  -999.2500
  335.5000  -999.2500   -70.4304     8.5732     7.2410   134.2686  -999.2500
  336.0000  -999.2500   -70.3109     8.5476     7.3188   133.2053  -999.2500
  336.5000  -999.2500   -70.1906     8.6216     7.3965   131.9732  -999.2500
  337.0000  -999.2500   -70.0881     8.7091     7.4742   130.7404  -999.2500
  337.5000  -999.2500   -70.2358     8.7967     7.5518   129.5075  -999.2500
  338.0000  -999.2500   -70.3848     8.8842     7.6295   128.2758  -999.2500
  338.5000  -999.2500   -70.5323     8.9716     7.7071   127.0438  -999.2500
  339.0000  -999.2500   -70.6792     9.0590     7.7850   126.0966  -999.2500
  339.5000  -999.2500   -70.8267     9.1467     7.8627   125.6517  -999.2500
