~VERSION INFORMATION
 VERS.                2.0:   CWLS LOG ASCII STANDARD - VERSION 2.0
 WRAP.                 NO:   ONE LINE PER DEPTH STEP
~WELL INFORMATION
#MNEM.UNIT      DATA TYPE    INFORMATION
#----------   ------------   ------------------------------
 STRT.F            2.5000:   START DEPTH
 STOP.F         1003.0000:   STOP DEPTH
 STEP.F            0.5000:   STEP LENGTH
 NULL.          -999.2500:   NO VALUE
 COMP. U S NAVY-INTEX OIL:   COMPANY
 WELL.   NPR #3 #87-SX-27:   WELL
 FLD .             TEAPOT:   FIELD
 LOC .      S27 T39N R78W:   LOCATION
 CNTY.            NATRONA:   COUNTY
 STAT.            WYOMING:   STATE
 CTRY. UNITED STATES OF AMERICA:   COUNTRY
 SRVC. Schlumberger Well Surveying Corp:   SERVICE COMPANY
 DATE.        13-AUG-1961:   LOGDATE
 API .       490250659000:   API NUMBER
~CURVE INFORMATION
#MNEM.UNIT       API CODE    CURVE DESCRIPTION
#----------   ------------   ------------------------------
 DEPT.F                  :   
 ASN .OHMM   05 041 16 00:   AMPLIFIER SHORT NORMAL
 SPR .MV     05 010 01 00:   SPONTANEOUS POTENSIAL
 CILD.MMHO   05 110 46 00:   CONDUCTIVITY INDUCTION LOG DEEP
 ILD .OHMM   05 120 46 00:   INDUCTION LOG DEEP
 GRN .MG/TON 35 310 30 00:   GAMMA RAY
 NEUT.NAPI   35 330 01 00:   NEUTRON
~PARAMETER INFORMATION
#MNEM.UNIT          VALUE    DESCRIPTION
#----------   ------------   ------------------------------
 PD  .                 GL:   PERMANENT DATUM
 EPD .F              5082:   ELEVATION PERMANENT DATUM
 LMF .                 KB:   LOG MEASURED FROM
 DAPD.F                 5:   FEET ABOVE PERMANENT DATUM
 DMF .                 KB:   DRILLING MEASURED FROM
 EKB .F              5087:   KELLING BUSHING
 EGL .F              5082:   GROUND LEVEL
 DATE.        13-AUG-1961:   RUN DATE
 RUN .                  1:   RUN NUMBER
 DD  .F              1000:   DEPTH DRILLER
 DL  .F              1003:   DEPTH LOGGER
 BLI .F              1002:   BOTTOM LOG INTERVAL
 TLI .F                90:   TOP LOG INTERVAL
 BS  .IN             6.75:   BIT SIZE
 BSD .F              1000:   BIT SIZE AT DEPTH
 DFT . OIL EMUL (12% OIL):   DRILLING FLUID TYPE
 DFD .                9.3:   DRILLING FLUID DENSITY
 DFV .                 60:   DRILLING FLUID VISCOSITY
 DFL .                  4:   DRILLING FLUID LOSS
 MSS .           FLOWLINE:   MUD SAMPLE SOURCE
 RMS .OHMM           1.29:   RESISTIVITY MUD SAMPLE
 MST .F                80:   MUD SAMPLE TEMPERATURE
 TCS .HRS               1:   TIME CURCULATED STOPPED
 LUN .               2523:   LOGGING UNIT NUMBER
 LUL .               CSPR:   LOGGING UNIT LOCATION
 ENGI.              SCOTT:   RECORDING ENGINEER
 WITN.          JORGENSEN:   WITNESSED BY
 CLNT.            A2DTECH:   CLIENT CODE
 ORIG.       2", 5" PRINT:   ORIGIN OF DATA
 UWI .       490250659000:   UNIQUE WELL ID
 DICO. A2D Technologies, Inc.:   DIGITIZING COMPANY
~OTHER INFORMATION
~A    DEPT     ASN        SPR       CILD        ILD          GRN     NEUT   
# ...
  522.5000     7.7211   -13.8276   143.3171     6.6095     6.5251   298.7603
  523.0000     7.7629   -14.1141   143.3354     6.6092     6.5145   306.0868
  523.5000     7.8273   -14.4677   141.8468     6.6841     6.4304   311.8387
  524.0000     7.9205   -14.7147   141.8619     6.6837     6.3212   319.2338
  524.5000     8.0238   -14.8649   140.3782     6.7587     6.2208   324.6884
  525.0000     8.0668   -15.0150   140.3904     6.7583     6.1671   330.6069
  525.5000     8.0122   -14.8649   140.4056     6.8056     6.0495   343.7175
  526.0000     7.9592   -14.7147   138.9189     6.8529     5.8993   348.0532
  526.5000     7.9319   -14.4144   137.0522     6.9078     5.8156   322.9920
  527.0000     7.9170   -14.1141   135.9459     6.9475     5.8295   318.0056
  527.5000     7.9332   -14.0528   133.6586     6.9823     5.9583   315.3802
  528.0000     7.9772   -13.8078   131.2112     7.0572     6.0037   314.1440
  528.5000     8.0477   -13.5628   129.9850     7.0569     6.0069   312.3500
  529.0000     8.2026   -13.3178   130.0000     7.1368     6.0228   297.1436
  529.5000     8.4069   -12.9129   130.1551     7.2067     6.1843   279.9274
  530.0000     8.4384   -12.6777   131.5340     7.1561     6.3719   260.4625
  530.5000     8.5031   -12.4625   133.6087     6.9047     6.7569   256.1263
  531.0000     8.4694   -12.6126   136.0661     6.6634     6.8718   253.0760
  531.5000     8.3246   -12.9822   138.0430     6.5099     6.9075   257.6306
  532.0000     8.0979   -13.2272   141.0410     6.3012     6.8772   259.9006
  532.5000     7.8746   -13.5135   143.6192     6.1879     6.8011   256.8882
  533.0000     7.5397   -13.5671   147.4976     6.0745     6.6625   250.0157
  533.5000     7.3929   -13.8138   149.9748     5.9988     6.4594   258.8994
  534.0000     7.3238   -13.8138   152.6740     5.9985     6.4053   269.1570
  534.5000     7.2574   -13.9640   154.1892     5.9228     6.4093   274.2825
  535.0000     7.2425   -14.1141   155.7057     5.9224     6.5741   276.5576
  535.5000     7.2630   -14.1141   157.2243     5.8995     6.7267   257.5696
  536.0000     7.3177   -14.2643   157.8580     5.8464     6.7406   249.9710
  536.5000     7.3328   -14.4144   158.8340     5.8460     6.7538   250.1734
  537.0000     7.3005   -14.4144   160.2731     5.7553     6.8008   252.2321
  537.5000     7.2279   -14.4144   160.2853     5.6946     6.8449   246.6276
  538.0000     7.1778   -14.4144   158.7990     5.6943     6.8795   211.2243
  538.5000     7.1529   -14.3686   158.8138     5.6939     6.8983   196.3658
  539.0000     7.1049   -14.2643   158.8288     5.7688     6.9021   189.9530
  539.5000     7.0444   -14.1141   158.8448     5.8714     6.8939   207.4051
  540.0000     7.0180   -13.9339   158.0581     6.0693     6.7623   220.4551
  540.5000     7.1455   -13.8138   156.8517     6.3626     6.5322   238.0290
  541.0000     7.3869   -13.5941   152.8846     6.5605     6.2420   260.5217
  541.5000     7.7840   -13.3491   150.7155     6.7458     6.0807   269.5719
  542.0000     8.0748   -13.2132   148.2680     6.8961     5.9956   274.9314
  542.5000     8.1607   -13.2670   145.4229     6.9710     6.0155   279.6559
  543.0000     8.2244   -13.3634   143.3736     6.9706     6.3491   283.2679
  543.5000     8.1872   -13.5135   142.4473     6.9376     6.4996   283.2585
  544.0000     8.0246   -13.7017   141.4816     6.8896     6.4825   280.7924
  544.5000     8.0247   -13.9640   140.9733     6.7435     6.2250   277.9305
  545.0000     8.0275   -14.0415   142.4931     6.7432     5.9396   283.1605
  545.5000     8.0399   -14.1364   143.3684     6.6675     5.8964   286.2670
  546.0000     8.0115   -14.2643   145.8460     6.5919     5.8611   281.7027
  546.5000     7.9626   -14.2643   148.5449     6.4986     5.8186   279.4107
  547.0000     7.8900   -14.1141   150.8010     6.4405     5.7056   277.7052
  547.5000     7.7842   -14.1141   153.2783     6.2895     5.6300   276.3653
  548.0000     7.6499   -14.0681   156.0982     6.2038     5.7580   277.4519
  548.5000     7.5626   -13.8138   158.2330     6.0628     5.8907   286.9792
  549.0000     7.4742   -13.7282   159.2091     5.9872     6.1346   295.3094
  549.5000     7.4098   -13.5135   160.6485     5.9843     6.3449   299.8706
  550.0000     7.3574   -13.5135   158.6586     5.9111     6.4133   283.9191
  550.5000     7.3349   -13.5135   154.6699     5.9861     6.2323   276.0515
  551.0000     7.3500   -13.5135   150.7606     6.0610     6.1852   272.3583
  551.5000     7.3829   -13.5135   146.8116     6.1786     6.1385   270.2311
  552.0000     7.4731   -13.7177   144.2052     6.3916     6.0140   275.8828
  552.5000     7.6644   -13.9640   141.9169     6.6622     5.9639   284.6408
  553.0000     7.8613   -14.2077   137.9680     6.8828     5.9378   290.4913
  553.5000     8.0261   -14.4144   135.2420     7.2037     5.9262   291.4590
  554.0000     8.2360   -14.4144   131.5717     7.4894     5.9225   275.5076
  554.5000     8.4755   -14.4144   129.1242     7.6673     6.0429   271.1006
  555.0000     8.5969   -14.4144   126.2787     7.7146     6.3540   270.1795
  555.5000     8.6989   -14.2643   126.2913     7.7142     6.4498   284.5113
  556.0000     8.7634   -14.1141   127.8481     7.6938     6.1104   298.4646
  556.5000     8.7472   -13.8138   131.8068     7.5629     6.1743   304.3175
  557.0000     8.6967   -13.5135   135.7857     7.4069     6.2610   297.9114
  557.5000     8.5672   -13.5135   141.3670     7.1480     5.9357   281.9980
  558.0000     8.3502   -13.5135   146.9671     6.7334     5.7004   254.9498
  558.5000     8.1448   -13.5135   152.5477     6.4452     5.7104   238.6603
  559.0000     7.8767   -13.5288   157.9293     6.1202     5.8125   227.6065
  559.5000     7.7040   -13.6637   160.9460     5.9039     5.9363   220.7128
  560.0000     7.5836   -13.7371   160.9610     5.8283     6.0915   215.2934
  560.5000     7.5016   -13.8212   160.9781     5.8279     6.2936   215.4367
  561.0000     7.5226   -13.9640   159.4895     5.9029     6.3882   221.3531
  561.5000     7.5648   -13.9640   157.8431     6.1058     6.4288   240.6322
  562.0000     7.7859   -14.0137   152.0148     6.4292     6.4729   265.0972
  562.5000     8.0086   -14.0953   148.5235     6.6547     6.4827   279.9656
  563.0000     8.1326   -14.2085   144.5348     6.9004     6.4331   286.7587
  563.5000     8.1944   -14.4144   141.2060     7.2563     6.3349   289.8310
  564.0000     8.3183   -14.4144   138.1781     7.4669     6.2237   292.6143
  564.5000     8.6393   -14.4372   134.0700     7.6347     6.0926   303.4365
  565.0000     8.9737   -14.5646   131.7818     7.7071     5.9727   320.2949
  565.5000     9.3591   -14.6269   129.3343     7.7067     5.9434   329.9972
  566.0000     9.4435   -14.7147   128.1081     7.7063     5.9095   333.4920
  566.5000     9.5746   -14.7147   128.1231     7.6306     5.7839   328.8921
  567.0000     9.6869   -14.5646   128.2782     7.6152     5.6639   314.0269
  567.5000     9.4246   -14.4144   129.6571     7.4793     5.7913   255.5332
  568.0000     9.1648   -14.4144   131.1712     7.4438     5.9742   216.8424
  568.5000     8.8141   -14.3836   132.6877     7.3204     6.0247   218.3513
  569.0000     8.6140   -14.2643   132.7027     7.1769     6.0020   217.5937
  569.5000     8.5850   -13.9735   134.2192     7.0737     5.9562   208.4684
  570.0000     8.5526   -13.4835   135.7363     6.9503     5.9030   182.5254
  570.5000     8.5241   -13.2132   137.6827     6.8746     5.8761   172.7745
  571.0000     8.5037   -13.2678   139.0889     6.7789     5.8734   187.1888
  571.5000     8.4792   -13.5135   140.2866     6.7232     5.9110   177.3505
  572.0000     8.4060   -13.7578   142.5425     6.6074     5.9687   171.9919
  572.5000     8.3137   -14.0028   143.3183     6.5594     6.1345   180.7768
  573.0000     8.2092   -14.1141   144.8369     6.4962     6.4156   194.9929
  573.5000     8.0872   -14.3426   145.4706     6.4206     6.5872   209.1665
  574.0000     7.9622   -14.4374   146.3664     6.4202     6.7477   213.7545
