~VERSION INFORMATION
 VERS.                2.0:   CWLS LOG ASCII STANDARD - VERSION 2.0
 WRAP.                 NO:   ONE LINE PER DEPTH STEP
~WELL INFORMATION
#MNEM.UNIT      DATA TYPE    INFORMATION
#----------   ------------   ------------------------------
 STRT.F           70.0000:   START DEPTH
 STOP.F          990.0000:   STOP DEPTH
 STEP.F            0.5000:   STEP LENGTH
 NULL.          -999.2500:   NO VALUE
 COMP. U S NAVY/INTEX OIL CO:   COMPANY
 WELL.      NPR 3 #55 S-2:   WELL
 FLD .            WILDCAT:   FIELD
 LOC .       S2 T38N R78W:   LOCATION
 CNTY.            NATRONA:   COUNTY
 STAT.            WYOMING:   STATE
 CTRY. UNITED STATES OF AMERICA:   COUNTRY
 SRVC.         Lane Wells:   SERVICE COMPANY
 DATE.        23-MAR-1960:   LOGDATE
 API .       490250968000:   API NUMBER
~CURVE INFORMATION
#MNEM.UNIT       API CODE    CURVE DESCRIPTION
#----------   ------------   ------------------------------
 DEPT.F                  :   
 SPR .MV     05 010 01 00:   SPONTANEOUS POTENTIAL FROM RES.
 ASN .OHMM   05 041 16 00:   AMPLIFIED SHORT NORMAL 16"
 ILD .OHMM   05 120 46 00:   INDUCTION LOG DEEP
 CILD.MMHO   05 110 46 00:   CONDUCTIVITY INDUCTION LOG DEEP
~PARAMETER INFORMATION
#MNEM.UNIT          VALUE    DESCRIPTION
#----------   ------------   ------------------------------
 PD  .                 GL:   PERMANENT DATUM
 EPD .F              5163:   ELEVATION PERMANENT DATUM
 LMF .                 KB:   LOG MEASURED FROM
 DAPD.F                 5:   FEET ABOVE PERMANENT DATUM
 DMF .                 KB:   DRILLING MEASURED FROM
 EKB .F              5168:   KELLING BUSHING
 EGL .F              5163:   GROUND LEVEL
 DATE.        23-MAR-1960:   RUN DATE
 RUN .                  1:   RUN NUMBER
 DD  .F              1010:   DEPTH DRILLER
 DL  .F               992:   DEPTH LOGGER
 BLI .F               990:   BOTTOM LOG INTERVAL
 TLI .F                70:   TOP LOG INTERVAL
 CS  .IN            8.625:   CASING SIZE
 CBD .F                12:   CASING BOTTOM DRILLER
 BS  .IN            7.875:   BIT SIZE
 BSD .F              1010:   BIT SIZE AT DEPTH
 DFT .   GEL-OIL EMULSION:   DRILLING FLUID TYPE
 DFD .                9.5:   DRILLING FLUID DENSITY
 DFV .                 40:   DRILLING FLUID VISCOSITY
 MSS .           FLOWLINE:   MUD SAMPLE SOURCE
 RMS .OHMM            2.8:   RESISTIVITY MUD SAMPLE
 MST .F                74:   MUD SAMPLE TEMPERATURE
 RMF .OHMM            2.0:   RESISTIVITY MUD FILTRATE SAMPLE
 MFST.F                74:   MUD FILTRATE SAMPLE TEMPERATURE
 RMC .OHMM            3.9:   RESISTIVITY MUD CAKE
 MCST.F                74:   MUD CAKE SAMPLE TEMPERATURE
 MFSS.          MUD PRESS:   MUD FILTRATE SAMPLE SOURCE
 MCSS.          MUD PRESS:   MUD CAKE SAMPLE SOURCE
 RMB .OHMM            2.8:   RESISTIVITY MUD AT BHT
 BHT .F                74:   BOTTOM HOLE TEMPERATURE
 MRT .F                74:   MAXIMUM RECORDED TEMPERATURE
 LUN .             L-4474:   LOGGING UNIT NUMBER
 LUL .             CASPER:   LOGGING UNIT LOCATION
 ENGI.             NELSON:   RECORDING ENGINEER
 WITN.          JORGENSEN:   WITNESSED BY
 CLNT.            A2DTECH:   CLIENT CODE
 ORIG.       2", 5" PRINT:   ORIGIN OF DATA
 UWI .       490250968000:   UNIQUE WELL ID
 DICO. A2D Technologies, Inc.:   DIGITIZING COMPANY
~OTHER INFORMATION
~A   DEPT      SPR          ASN        ILD      CILD  
# ...
  143.0000   -44.1653     6.6646     5.0530   200.7051
  143.5000   -44.1498     6.8080     5.1197   196.8502
  144.0000   -44.0328     6.8196     5.1991   194.9268
  144.5000   -43.8982     6.8243     5.2531   192.6807
  145.0000   -43.7637     6.8190     5.3198   190.0412
  145.5000   -43.6835     6.7806     5.3902   188.3197
  146.0000   -43.6309     6.7279     5.5208   184.5894
  146.5000   -43.6334     6.6685     5.5880   183.9147
  147.0000   -43.7718     6.7674     5.6544   181.8802
  147.5000   -43.7841     6.8636     5.7585   180.5322
  148.0000   -43.9130     6.9806     5.7996   179.1758
  148.5000   -44.0938     7.0705     5.9223   177.8230
  149.0000   -44.3266     7.1026     5.9782   177.0239
  149.5000   -44.4652     7.1023     6.0587   175.1140
  150.0000   -44.6038     7.1225     6.1225   173.7658
  150.5000   -44.6061     7.2106     6.2089   173.1640
  151.0000   -44.6079     7.2867     6.3237   172.3352
  151.5000   -44.7466     7.3881     6.3905   171.0783
  152.0000   -44.7486     7.4759     6.4000   169.7214
  152.5000   -44.7507     7.5089     6.4558   168.3732
  153.0000   -44.8895     7.4677     6.5225   167.6465
  153.5000   -44.9590     7.3726     6.5891   167.0378
  154.0000   -45.0300     7.3009     6.5878   165.6896
  154.5000   -45.1691     7.2628     6.5864   164.3338
  155.0000   -45.2186     7.2537     6.5850   164.3542
  155.5000   -45.3095     7.3031     6.5837   163.0013
  156.0000   -45.3916     7.3836     6.5823   163.0220
  156.5000   -45.4501     7.4934     6.5808   163.0442
  157.0000   -45.4524     7.5880     6.5116   163.0632
  157.5000   -45.4542     7.6150     6.4411   164.4574
  158.0000   -45.4481     7.5995     6.3728   165.8552
  158.5000   -45.1855     7.5055     6.2855   167.7197
  159.0000   -45.0100     7.3778     6.0979   171.3878
  159.5000   -44.7795     7.1377     6.0272   175.7529
  160.0000   -44.6448     6.8671     5.8821   179.9451
  160.5000   -44.6469     6.6205     5.7535   182.4404
  161.0000   -44.6492     6.3069     5.6585   184.4321
  161.5000   -44.7876     6.2976     5.6150   183.7775
  162.0000   -44.7896     6.6345     5.6562   181.5751
  162.5000   -44.7916     6.9405     5.7653   180.7464
  163.0000   -44.7937     7.0406     5.8150   178.4214
  163.5000   -44.7959     7.0266     5.9154   177.7153
  164.0000   -44.9344     6.9927     6.0845   175.5128
  164.5000   -44.9500     7.0056     6.1508   174.3612
  165.0000   -45.0755     7.1619     6.3106   172.4818
  165.5000   -45.0772     7.2660     6.4204   170.2794
  166.0000   -45.0793     7.3790     6.5288   168.0768
  166.5000   -45.0813     7.4857     6.6220   165.5473
  167.0000   -45.0574     7.5845     6.6883   162.1034
  167.5000   -44.8124     7.7319     6.8560   159.4434
  168.0000   -44.7559     7.8093     6.8971   156.5203
  168.5000   -44.5430     7.8971     7.0923   153.9254
  169.0000   -44.5451     7.9850     7.1152   151.6618
  169.5000   -44.5471     8.0592     7.1578   148.4690
  170.0000   -44.5493     8.1524     7.2653   146.3370
  170.5000   -44.6929     8.2347     7.3594   144.1344
  171.0000   -44.9817     8.3052     7.4257   141.6646
  171.5000   -45.2387     8.3284     7.4245   141.6827
  172.0000   -45.2915     8.3282     7.3551   141.7033
  172.5000   -45.5157     8.3279     7.2855   142.6281
  173.0000   -45.5178     8.2974     7.2612   144.4917
  173.5000   -45.5198     8.2500     7.2149   145.8874
  174.0000   -45.5221     8.1638     7.1456   147.9852
  174.5000   -45.3238     8.0775     7.0762   150.0481
  175.0000   -45.0934     7.9671     7.0067   151.4454
  175.5000   -44.7087     7.8636     6.9063   151.9688
  176.0000   -44.5301     7.8498     6.8680   152.8574
  176.5000   -44.4392     7.9039     6.8664   152.8777
  177.0000   -44.4413     7.9596     6.8653   152.8984
  177.5000   -44.4433     7.9987     6.8639   152.9210
  178.0000   -44.5822     8.0119     6.8626   152.9396
  178.5000   -44.7769     7.9981     6.8746   151.5856
  179.0000   -44.8634     7.9978     6.9279   150.2374
  179.5000   -45.0865     8.0064     6.9265   148.4477
  180.0000   -45.1366     8.0589     6.9251   147.5275
  180.5000   -45.1388     8.0922     6.9235   149.6794
  181.0000   -45.1407     8.0852     6.8544   150.5495
  181.5000   -45.1428     8.0459     6.8530   153.0864
  182.0000   -45.1451     7.9553     6.8136   153.6629
  182.5000   -44.9613     7.8024     6.7823   155.9066
  183.0000   -44.7391     7.6419     6.7128   158.1503
  183.5000   -44.5232     7.5548     6.6436   159.0204
  184.0000   -44.3331     7.4995     6.5742   161.4300
  184.5000   -44.3356     7.4506     6.5725   162.1338
  185.0000   -44.2008     7.4503     6.5510   163.0040
  185.5000   -44.2122     7.4501     6.5020   164.2410
  186.0000   -44.4785     7.4497     6.4327   164.2583
  186.5000   -44.5219     7.4495     6.4197   164.2792
  187.0000   -44.7556     7.4492     6.3617   165.6730
  187.5000   -44.9681     7.4416     6.3606   164.3174
  188.0000   -45.0546     7.4013     6.3592   164.3428
  188.5000   -45.1717     7.3259     6.3578   164.3613
  189.0000   -45.1735     7.2551     6.3565   164.3818
  189.5000   -45.1755     7.1758     6.3550   164.4066
  190.0000   -45.1776     7.2286     6.3538   164.4230
  190.5000   -45.0086     7.3148     6.4205   163.0710
  191.0000   -44.7720     7.4471     6.4189   163.0907
  191.5000   -44.7739     7.5278     6.4177   162.8983
  192.0000   -44.7759     7.6141     6.4163   161.7583
  192.5000   -44.7784     7.6911     6.4830   160.4052
  193.0000   -44.8269     7.7181     6.5003   159.0520
  193.5000   -44.9188     7.7042     6.5483   159.0728
  194.0000   -45.0000     7.6236     6.5824   157.7166
  194.5000   -45.1961     7.4996     6.6914   156.3684
  195.0000   -45.1983     7.5673     6.8161   155.7235
  195.5000   -45.3962     7.7410     6.8680   153.6594
  196.0000   -45.6194     8.0109     7.0186   153.6848
  196.5000   -45.7507     8.2475     7.0843   151.8636
  197.0000   -45.8893     8.3321     7.1687   149.6022
  197.5000   -46.0281     8.3279     7.2177   148.2486
  198.0000   -46.0301     8.2997     7.3189   146.6302
  198.5000   -45.8757     8.2593     7.3511   144.1714
  199.0000   -45.7609     8.2454     7.3495   143.5987
  199.5000   -45.5742     8.2691     7.3483   142.8360
  200.0000   -45.3552     8.3265     7.3469   142.2423
  200.5000   -45.2601     8.4352     7.2994   140.7708
  201.0000   -45.2157     8.4623     7.2775   140.1098
  201.5000   -45.0779     8.4622     7.3449   140.1098
  202.0000   -45.0765     8.4620     7.3379   141.4836
  202.5000   -45.0752     8.4383     7.2754   141.4836
  203.0000   -45.2106     8.4073     7.2540   141.9321
  203.5000   -45.3455     8.3642     7.2061   142.8572
  204.0000   -45.5464     8.3017     7.1374   142.8572
  204.5000   -45.9116     8.2028     7.0687   144.4458
  205.0000   -46.4342     8.1837     7.0679   146.9780
  205.5000   -46.8431     8.1617     6.9762   148.8690
  206.0000   -46.5682     8.1397     6.7945   151.0990
  206.5000   -46.2270     7.9909     6.7939   153.2921
  207.0000   -45.9945     7.8484     6.7143   155.5037
  207.5000   -45.6077     7.7957     6.5883   159.3406
  208.0000   -45.2933     7.7366     6.5198   161.3003
  208.5000   -44.9220     7.6272     6.4510   164.8856
  209.0000   -44.7842     7.5279     6.3424   167.9855
  209.5000   -44.7828     7.3716     6.2456   170.6821
  210.0000   -44.9178     7.2118     6.1768   173.0770
  210.5000   -44.5610     7.0680     6.1081   173.7317
  211.0000   -44.2322     6.9766     6.0395   174.5696
  211.5000   -44.2999     6.9493     5.9966   175.8242
  212.0000   -44.5173     6.9491     5.9701   175.8242
  212.5000   -44.9110     6.9626     5.9693   175.8242
  213.0000   -45.2254     7.0047     5.9007   175.8242
  213.5000   -45.5915     7.0303     5.8288   177.3854
  214.0000   -45.7268     6.9986     5.7188   179.9450
  214.5000   -45.5574     6.9348     5.6769   181.8087
  215.0000   -45.1774     6.7742     5.5578   185.4396
  215.5000   -44.8160     6.5617     5.4569   188.3973
