~VERSION INFORMATION
 VERS.                2.0:   CWLS LOG ASCII STANDARD - VERSION 2.0
 WRAP.                 NO:   ONE LINE PER DEPTH STEP
~WELL INFORMATION
#MNEM.UNIT      DATA TYPE    INFORMATION
#----------   ------------   ------------------------------
 STRT.F           20.0000:   START DEPTH
 STOP.F         1363.5000:   STOP DEPTH
 STEP.F            0.5000:   STEP LENGTH
 NULL.          -999.2500:   NO VALUE
 COMP.   FLUOR DANIEL INC:   COMPANY
 WELL.   NPR 3 "S" #83-14:   WELL
 FLD .             TEAPOT:   FIELD
 LOC .      S14 T38N R78W:   LOCATION
 CNTY.            NATRONA:   COUNTY
 STAT.            WYOMING:   STATE
 CTRY. UNITED STATES OF AMERICA:   COUNTRY
 SRVC. Schlumberger Well Surveying Corp:   SERVICE COMPANY
 DATE.        22-AUG-1966:   LOGDATE
 API .       490250971000:   API NUMBER
~CURVE INFORMATION
#MNEM.UNIT       API CODE    CURVE DESCRIPTION
#----------   ------------   ------------------------------
 DEPT.F                  :   
 SPR .MV     05 010 01 00:   SPONTANEOUS POTENTIAL FROM RES.
 ASN .OHMM   05 041 16 00:   AMPLIFIED SHORT NORMAL 16"
 CILD.MMHO   05 110 00 00:   CONDUCTIVITY INDUCTION LOG
 ILD .OHMM   05 120 46 00:   INDUCTION LOG DEEP
 CALD.IN     45 280 60 00:   CALIPER
 GRD .GAPI   45 310 01 00:   GAMMA RAY FROM DENSITY LOG
 CORR.G/C3   45 356 01 00:   DENSITY CORRECTION
 RHOB.G/C3   45 350 01 00:   BULK DENSITY
 DPOR.DEC    45 890 12 00:   DENSITY POROSITY SANDSTONE
~PARAMETER INFORMATION
#MNEM.UNIT          VALUE    DESCRIPTION
#----------   ------------   ------------------------------
 PD  .                 GL:   PERMANENT DATUM
 EPD .F              5300:   ELEVATION PERMANENT DATUM
 LMF .                 KB:   LOG MEASURED FROM
 DAPD.F                 5:   FEET ABOVE PERMANENT DATUM
 DMF .                 KB:   DRILLING MEASURED FROM
 EKB .F              5305:   KELLING BUSHING
 EGL .F              5300:   GROUND LEVEL
 DATE.          8-22-1966:   RUN DATE
 RUN .                  1:   RUN NUMBER
 DD  .F              1365:   DEPTH DRILLER
 DL  .F              1363:   DEPTH LOGGER
 BLI .F              1362:   BOTTOM LOG INTERVAL
 TLI .F                20:   TOP LOG INTERVAL
 CS  .IN            8.625:   CASING SIZE
 CBD .F                15:   CASING BOTTOM DRILLER
 CBL .F                20:   CASING BOTTOM LOGGER
 BS  .IN            7.875:   BIT SIZE
 BSD .F              1365:   BIT SIZE AT DEPTH
 DFT .           GEL-CHEM:   DRILLING FLUID TYPE
 DFD .                 10:   DRILLING FLUID DENSITY
 DFV .                 55:   DRILLING FLUID VISCOSITY
 DFL .                  8:   DRILLING FLUID LOSS
 MSS .          FLOW LINE:   MUD SAMPLE SOURCE
 RMS .OHMM           1.86:   RESISTIVITY MUD SAMPLE
 MST .F                73:   MUD SAMPLE TEMPERATURE
 RMF .OHMM           1.13:   RESISTIVITY MUD FILTRATE SAMPLE
 MFST.F                70:   MUD FILTRATE SAMPLE TEMPERATURE
 MFSS.                  M:   MUD FILTRATE SAMPLE SOURCE
 RMB .OHMM           1.32:   RESISTIVITY MUD AT BHT
 BHT .F               102:   BOTTOM HOLE TEMPERATURE
 TCS .HRS               1:   TIME CURCULATED STOPPED
 MRT .F               102:   MAXIMUM RECORDED TEMPERATURE
 LUN .               3527:   LOGGING UNIT NUMBER
 LUL .               CSPR:   LOGGING UNIT LOCATION
 ENGI.          TOLLEFSON:   RECORDING ENGINEER
 WITN.         MAY/TUTTLE:   WITNESSED BY
 CLNT.            A2DTECH:   CLIENT CODE
 ORIG.       2", 5" PRINT:   ORIGIN OF DATA
 UWI .       490250971000:   UNIQUE WELL ID
 DICO. A2D Technologies, Inc.:   DIGITIZING COMPANY
~OTHER INFORMATION
~A   DEPT       SPR       ASN         CILD      ILD         CALD       GRD       CORR        RHOB     DPOR   
# ...
  385.0000   -58.1841     6.4460   197.5195     5.7111     7.9278   111.2995     0.0283     2.4772     0.1340
  385.5000   -57.9594     6.5337   190.7972     5.8917     7.9258   112.6076     0.0534     2.4841     0.1224
  386.0000   -57.7356     6.7774   182.8499     6.1658     7.9239   112.6190     0.0797     2.4771     0.1127
  386.5000   -57.6033     7.1470   174.4764     6.4402     7.9219   111.1254     0.0908     2.4714     0.1012
  387.0000   -58.1839     7.5179   166.1557     6.7140     7.9199   108.9348     0.0847     2.4648     0.1288
  387.5000   -58.1406     7.8911   161.8237     6.7689     7.9179   106.8631     0.0673     2.4692     0.1272
  388.0000   -57.9892     8.1449   157.3361     6.7893     7.9159   104.7706     0.0407     2.4808     0.1229
  388.5000   -57.8401     8.2925   153.2422     6.8099     7.9139   102.4619     0.0485     2.4927     0.1185
  389.0000   -57.9282     8.2117   151.6568     6.8321     7.9120    98.8921     0.0571     2.5036     0.1142
  389.5000   -58.2523     7.9601   153.6714     6.8414     7.9100    94.8715     0.0404     2.5192     0.1098
  390.0000   -58.3790     7.7043   157.3473     6.6404     7.9080    92.1291     0.0558     2.5150     0.1055
  390.5000   -58.3338     7.6630   162.5251     6.4383     7.9060    90.6828     0.0712     2.4995     0.1032
  391.0000   -58.2834     7.6209   167.7355     6.3071     7.9040    88.8308     0.0653     2.4865     0.1098
  391.5000   -58.2306     7.5758   170.8417     6.2265     7.9020    87.7732     0.0574     2.4724     0.1159
  392.0000   -58.4148     7.5065   171.8437     6.1475     7.9001    87.2862     0.0499     2.4584     0.1221
  392.5000   -58.6180     7.3610   174.4960     6.0685     7.8979    90.1659     0.0481     2.4477     0.1282
  393.0000   -58.4389     7.2175   177.5610     5.9893     7.8993    94.9081     0.0567     2.4465     0.1324
  393.5000   -58.2229     7.1419   180.6260     5.9102     7.9060    99.2851     0.0598     2.4617     0.1281
  394.0000   -58.2567     7.0538   183.6909     5.8311     7.9126    99.9277     0.0552     2.4770     0.1224
  394.5000   -58.4504     6.9734   186.7559     5.7520     7.9194    97.6667     0.0512     2.4928     0.1168
  395.0000   -58.6228     6.8963   189.8393     5.6695     7.9261    95.1184     0.0515     2.5081     0.1112
  395.5000   -58.4044     6.8114   193.8726     5.6500     7.9328    94.9275     0.0662     2.5243     0.1056
  396.0000   -58.0237     6.7261   193.9106     5.6497     7.9395    99.0958     0.0826     2.5391     0.1000
  396.5000   -58.1529     6.6410   193.8855     5.6501     7.9462   100.6309     0.0872     2.5530     0.0944
  397.0000   -58.3291     6.5743   192.8545     5.6491     7.9530    98.7206     0.0841     2.5348     0.1011
  397.5000   -58.4989     6.5877   191.2262     5.7141     7.9597    97.2541     0.0584     2.5157     0.1078
  398.0000   -58.4918     6.6261   189.5979     5.8068     7.9664    97.9641     0.0299     2.4954     0.1145
  398.5000   -58.0868     6.6901   187.4343     5.9009     7.9731   102.0868     0.0171     2.4762     0.1212
  399.0000   -58.1425     6.8054   183.5427     5.9949     7.9799   105.1371     0.0196     2.4634     0.1279
  399.5000   -58.3465     6.9209   179.6176     6.0888     7.9863   106.3226     0.0327     2.4544     0.1304
  400.0000   -58.2317     7.0364   175.7139     6.1827     7.9939   107.1909     0.0370     2.4495     0.1281
  400.5000   -57.8555     7.1523   172.7245     6.2766     7.9984   108.2560     0.0321     2.4550     0.1245
  401.0000   -57.6167     7.2690   170.5766     6.3706     7.9944   108.8597     0.0264     2.4606     0.1208
  401.5000   -57.8306     7.3600   168.4287     6.4648     7.9902   108.7326     0.0200     2.4659     0.1164
  402.0000   -58.3541     7.4722   166.2807     6.5494     7.9856   107.7241     0.0226     2.4694     0.1185
  402.5000   -58.5142     7.5853   164.8297     6.5504     7.9812   106.3853     0.0312     2.4654     0.1234
  403.0000   -58.1607     7.5877   165.1641     6.5504     7.9768   105.5586     0.0375     2.4587     0.1283
  403.5000   -57.8145     7.5785   165.7240     6.5536     7.9724   108.9531     0.0323     2.4527     0.1350
  404.0000   -57.6818     7.5721   168.2972     6.4259     7.9679   110.6608     0.0247     2.4508     0.1310
  404.5000   -58.0148     7.5097   174.2153     6.2779     7.9635   108.4634     0.0218     2.4547     0.1236
  405.0000   -58.3475     7.3580   177.8543     6.1298     7.9591   105.0540     0.0330     2.4625     0.1162
  405.5000   -58.3131     7.0974   181.9618     5.9819     7.9547   102.1127     0.0512     2.4690     0.1076
  406.0000   -58.1295     6.8404   185.9097     5.8340     7.9503    98.6047     0.0728     2.4767     0.0984
  406.5000   -57.9453     6.6866   189.8514     5.6859     7.9458    96.8198     0.0632     2.4847     0.1244
  407.0000   -57.8516     6.6802   193.7833     5.5400     7.9414    98.0051     0.0349     2.4950     0.1198
  407.5000   -57.9945     6.6727   196.9120     5.4905     7.9370   101.9408     0.0439     2.5045     0.1145
  408.0000   -57.7968     6.6359   196.1664     5.5971     7.9326   103.7788     0.0616     2.5218     0.1091
  408.5000   -57.5079     6.5875   193.1780     5.7013     7.9281   102.9684     0.0930     2.5440     0.1012
  409.0000   -57.5038     6.6439   190.2317     5.8071     7.9238   100.2329     0.0766     2.5622     0.1062
  409.5000   -57.6340     6.7179   187.8757     5.8236     7.9192    98.4995     0.0600     2.5223     0.1153
  410.0000   -57.7513     6.7928   190.0301     5.7811     7.9181    99.6334     0.0410     2.4845     0.1247
  410.5000   -57.9742     6.8512   192.6553     5.7373     7.9195   101.5389     0.0269     2.4326     0.1368
  411.0000   -57.8294     6.7949   193.7958     5.6935     7.9204   102.6372     0.0322     2.4350     0.1332
  411.5000   -57.7029     6.7519   193.1781     5.6498     7.9216   101.6958     0.0426     2.4439     0.1289
  412.0000   -57.6140     6.7654   192.5604     5.6062     7.9226    99.6442     0.0418     2.4513     0.1263
  412.5000   -57.6153     6.7286   191.8746     5.5625     7.9237    98.5330     0.0386     2.4586     0.1242
  413.0000   -57.6148     6.5552   194.9179     5.5188     7.9248    96.1631     0.0360     2.4642     0.1350
  413.5000   -57.6156     6.4253   199.1870     5.4752     7.9259   108.5765     0.0324     2.4548     0.1314
  414.0000   -57.6589     6.3533   203.5013     5.4315     7.9269   107.8581     0.0376     2.4509     0.1273
  414.5000   -57.8032     6.2753   205.8857     5.3878     7.9280   102.8738     0.0480     2.4515     0.1231
  415.0000   -57.9466     6.1981   206.5127     5.3442     7.9291    98.8000     0.0640     2.4743     0.1190
  415.5000   -58.0904     6.1199   207.1594     5.3005     7.9302    99.2931     0.0585     2.4986     0.1149
  416.0000   -58.1819     6.0763   207.8130     5.2568     7.9313   101.5306     0.0261     2.5051     0.1096
  416.5000   -57.8710     6.0350   208.4689     5.2132     7.9323   102.8968     0.0302     2.4887     0.1153
  417.0000   -57.6207     6.0252   209.1257     5.1695     7.9334   102.4781     0.0560     2.4746     0.1233
  417.5000   -57.6983     6.0197   209.7821     5.1258     7.9345   102.0564     0.0453     2.4604     0.1315
  418.0000   -57.7662     6.0128   211.5968     5.0822     7.9356   101.4921     0.0217     2.4446     0.1442
  418.5000   -57.7175     5.9958   214.6994     5.0384     7.9366    99.8936     0.0243     2.4382     0.1424
  419.0000   -57.3847     5.9252   217.8020     4.9941     7.9377    96.1575     0.0284     2.4447     0.1370
  419.5000   -57.0591     5.8352   220.9045     4.9528     7.9388    97.7629     0.0329     2.4493     0.1316
  420.0000   -56.8442     5.7432   223.9479     5.0115     7.9399   109.7252     0.0364     2.4548     0.1262
  420.5000   -57.0222     5.6504   223.5348     5.0760     7.9409   108.6212     0.0449     2.4600     0.1208
  421.0000   -57.1900     5.5519   221.9192     5.1400     7.9420   106.1293     0.0552     2.4650     0.1160
