~VERSION INFORMATION
 VERS.                2.0:   CWLS LOG ASCII STANDARD - VERSION 2.0
 WRAP.                 NO:   ONE LINE PER DEPTH STEP
~WELL INFORMATION
#MNEM.UNIT      DATA TYPE    INFORMATION
#----------   ------------   ------------------------------
 STRT.F           48.0000:   START DEPTH
 STOP.F          539.0000:   STOP DEPTH
 STEP.F            0.5000:   STEP LENGTH
 NULL.          -999.2500:   NO VALUE
 COMP. LAWRENCE/ALLISON INC:   COMPANY
 WELL.   57-21 SHX #10-10:   WELL
 FLD .             TEAPOT:   FIELD
 LOC .      S10 T38N R78W:   LOCATION
 CNTY.            NATRONA:   COUNTY
 STAT.            WYOMING:   STATE
 CTRY. UNITED STATES OF AMERICA:   COUNTRY
 SRVC.           Gearhart:   SERVICE COMPANY
 DATE.        12-JUN-1986:   LOGDATE
 API .       490251108700:   API NUMBER
~CURVE INFORMATION
#MNEM.UNIT       API CODE    CURVE DESCRIPTION
#----------   ------------   ------------------------------
 DEPT.F                  :   
 GRR .GAPI   11 310 01 00:   GAMMA RAY FROM RES.
 LLA .OHMM   11 220 00 00:   LATEROLOG AVERAGE RES.
 RILD.OHMM   07 120 46 00:   INDUCTION LOG DEEP RESISTIVITY
 RILM.OHMM   07 120 44 00:   INDUCTION LOG MEDIUM RESISTIVITY
~PARAMETER INFORMATION
#MNEM.UNIT          VALUE    DESCRIPTION
#----------   ------------   ------------------------------
 PD  .                 GL:   PERMANENT DATUM
 EPD .F              5196:   ELEVATION PERMANENT DATUM
 LMF .                 KB:   LOG MEASURED FROM
 DAPD.F                 5:   FEET ABOVE PERMANENT DATUM
 DMF .                 KB:   DRILLING MEASURED FROM
 EKB .F              5201:   KELLING BUSHING
 EGL .F              5196:   GROUND LEVEL
 DATE.           61-12-86:   RUN DATE
 RUN .                  1:   RUN NUMBER
 DD  .F               545:   DEPTH DRILLER
 DL  .F             543.5:   DEPTH LOGGER
 BLI .F             539.5:   BOTTOM LOG INTERVAL
 TLI .F                48:   TOP LOG INTERVAL
 CS  .IN            8.625:   CASING SIZE
 CBD .F                47:   CASING BOTTOM DRILLER
 BS  .IN            7.875:   BIT SIZE
 BSD .F               545:   BIT SIZE AT DEPTH
 DFT .          FRESH-MUD:   DRILLING FLUID TYPE
 DFD .                9.3:   DRILLING FLUID DENSITY
 DFV .                 38:   DRILLING FLUID VISCOSITY
 MSS .           FLOWLINE:   MUD SAMPLE SOURCE
 RMS .OHMM            .51:   RESISTIVITY MUD SAMPLE
 MST .F                82:   MUD SAMPLE TEMPERATURE
 RMF .OHMM            .38:   RESISTIVITY MUD FILTRATE SAMPLE
 MFST.F                78:   MUD FILTRATE SAMPLE TEMPERATURE
 RMC .OHMM            .65:   RESISTIVITY MUD CAKE
 MCST.F                79:   MUD CAKE SAMPLE TEMPERATURE
 MFSS.                  M:   MUD FILTRATE SAMPLE SOURCE
 MCSS.                  M:   MUD CAKE SAMPLE SOURCE
 RMB .OHMM            .49:   RESISTIVITY MUD AT BHT
 BHT .F                85:   BOTTOM HOLE TEMPERATURE
 TCS .HRS            1800:   TIME CURCULATED STOPPED
 TLAB.HRS            2000:   TIME LOGGER AT BOTTOM
 MRT .F                85:   MAXIMUM RECORDED TEMPERATURE
 LUN .               7609:   LOGGING UNIT NUMBER
 LUL .           GILLETTE:   LOGGING UNIT LOCATION
 ENGI.              BAUER:   RECORDING ENGINEER
 WITN.              FIVAS:   WITNESSED BY
 CLNT.            A2DTECH:   CLIENT CODE
 ORIG.       2", 5" PRINT:   ORIGIN OF DATA
 UWI .       490251108700:   UNIQUE WELL ID
 DICO. A2D Technologies, Inc.:   DIGITIZING COMPANY
~OTHER INFORMATION
~A   DEPT       GRR       LLA       RILD       RILM   
# ...
  486.0000    93.9864    10.1431    12.8230    12.6282
  486.5000    91.0844     9.9502    12.6311    12.4132
  487.0000    90.1346     9.7633    12.4421    12.2018
  487.5000    92.7580     9.5797    12.2559    12.0456
  488.0000    97.6335     9.3995    12.0724    11.8468
  488.5000   102.6679     9.2227    11.9009    11.6606
  489.0000   103.1252     9.1972    11.7346    11.4772
  489.5000    98.0012     9.1972    11.5700    11.2968
  490.0000    92.3670     9.1179    11.4077    11.1192
  490.5000    90.7851     8.9963    11.2477    10.9444
  491.0000    92.2923     8.8773    11.0899    10.7723
  491.5000    93.9516     8.7598    10.9755    10.6027
  492.0000    96.2632     8.6440    10.8310    10.4358
  492.5000    99.8481     8.5375    10.6973    10.2836
  493.0000   102.8926     8.5856    10.5742    10.2626
  493.5000   105.2903     8.5493    10.5376    10.2398
  494.0000   101.8025     8.5375    10.5035    10.2166
  494.5000    98.0719     8.6449    10.4694    10.1934
  495.0000    95.4858     8.6979    10.4355    10.1703
  495.5000    95.7230     8.6173    10.4016    10.1472
  496.0000    96.4112     8.5201    10.3679    10.1241
  496.5000    96.5621     8.4113    10.3342    10.0939
  497.0000    96.6575     8.3038    10.3006    10.1883
  497.5000    99.9839     8.1978    10.2325     9.9802
  498.0000   103.6732     8.0930    10.0578     9.8427
  498.5000   104.7412     7.9993     9.8869     9.7071
  499.0000    99.8969     7.9643     9.7194     9.5733
  499.5000    94.0039     7.9253     9.5822     9.4414
  500.0000    88.1012     7.8865     9.4766     9.3113
  500.5000    89.2747     7.8245     9.3722     9.1830
  501.0000    92.9113     7.6090     9.2689     9.0565
  501.5000    94.0724     7.5209     9.1588     8.9441
  502.0000    91.7292     7.4339     9.0319     8.7737
  502.5000    92.5850     7.4255     8.9067     8.5881
  503.0000    95.6578     7.4255     8.7833     8.4065
  503.5000    98.9128     7.4048     8.6279     8.2288
  504.0000   101.1282     7.1718     8.3987     8.0548
  504.5000   100.6309     6.6408     8.1753     7.8844
  505.0000   100.1796     6.3184     7.9575     7.7177
  505.5000    99.7075     6.2246     7.7783     7.5641
  506.0000   100.4650     6.2769     7.9203     7.5645
  506.5000   101.6933     6.6959     8.0513     7.7705
  507.0000   102.9367     7.1896     8.1849     7.9173
  507.5000   104.1311     7.7197     8.4038     8.1416
  508.0000   104.5468     8.0423     8.7725     8.4188
  508.5000   101.7478     8.1296     9.1578     8.8201
  509.0000    99.2038     8.2168     9.5596     9.2401
  509.5000    98.5007     8.4349     9.9790     9.6801
  510.0000    97.7531     8.6740    10.3428    10.0333
  510.5000    97.0178     8.9198    10.5428    10.1438
  511.0000    94.9909     8.9446    10.7467    10.2554
  511.5000    92.5568     8.9209    10.9761    10.3726
  512.0000    90.8773     8.9026    10.9419    10.3131
  512.5000    90.6532     8.8846    10.8934    10.2394
  513.0000    93.1379     8.8666    10.8450    10.1880
  513.5000    96.5891     8.8201    10.7971    10.2498
  514.0000   100.0576     8.7617    10.7732    10.3060
  514.5000   103.5266     8.7019    10.7732    10.3796
  515.0000   106.4731     8.7344    10.7731    10.3395
  515.5000   107.4659     8.7751    10.7732    10.2596
  516.0000   104.2639     8.8160    10.7732    10.1883
  516.5000    99.8688     8.8574    10.7732    10.1883
  517.0000    96.7535     8.7232    10.7736    10.1883
  517.5000    96.9669     8.6174    10.7744    10.1883
  518.0000    97.1391     8.6924    10.7481    10.1880
  518.5000    96.2946     8.5519    10.6404    10.2453
  519.0000  -999.2500     8.3465    10.3154    10.4388
  519.5000  -999.2500     8.1462    10.0005    10.5549
  520.0000  -999.2500     7.9509     9.6951    10.1275
  520.5000  -999.2500     7.7791     9.3990     9.7965
  521.0000  -999.2500     7.4157     9.1136     9.4769
  521.5000  -999.2500     7.0317     8.4293     9.1324
  522.0000  -999.2500     6.6721     7.6402     8.4992
  522.5000  -999.2500     6.3211     6.9253     7.9085
  523.0000  -999.2500     5.9835     6.2726     7.1835
  523.5000  -999.2500     5.3920     5.6425     6.4015
  524.0000  -999.2500     4.7571     5.0756     5.4901
  524.5000  -999.2500     4.1977     4.5656     4.8583
  525.0000  -999.2500     3.7040     4.1066     4.1897
  525.5000  -999.2500     3.2670     3.6945     3.6126
  526.0000  -999.2500     2.8459     3.4306     3.4943
  526.5000  -999.2500     3.0122     3.4752     3.4152
  527.0000  -999.2500     3.6394     3.5662     3.3867
  527.5000  -999.2500     4.3970     3.7330     3.3674
  528.0000  -999.2500     5.3107     4.0273     3.7576
  528.5000  -999.2500     6.0343     4.3449     4.1288
  529.0000  -999.2500     6.1853     4.6875     4.6954
  529.5000  -999.2500     6.2224  -999.2500     5.3399
  530.0000  -999.2500     6.4128  -999.2500     6.0700
  530.5000  -999.2500     6.6312  -999.2500     6.8716
  531.0000  -999.2500     6.8571  -999.2500     7.6196
  531.5000  -999.2500     7.0907  -999.2500     8.0502
  532.0000  -999.2500     7.3327  -999.2500     8.4597
  532.5000  -999.2500     7.3571  -999.2500     8.6385
  533.0000  -999.2500     7.3570  -999.2500     8.8413
  533.5000  -999.2500     7.3568  -999.2500  -999.2500
  534.0000  -999.2500     7.3568  -999.2500  -999.2500
  534.5000  -999.2500     7.4255  -999.2500  -999.2500
  535.0000  -999.2500     7.3041  -999.2500  -999.2500
  535.5000  -999.2500     7.3973  -999.2500  -999.2500
  536.0000  -999.2500     7.5554  -999.2500  -999.2500
  536.5000  -999.2500     7.6357  -999.2500  -999.2500
  537.0000  -999.2500     7.4083  -999.2500  -999.2500
  537.5000  -999.2500     7.2971  -999.2500  -999.2500
  538.0000  -999.2500     7.3997  -999.2500  -999.2500
  538.5000  -999.2500     7.4862  -999.2500  -999.2500
  539.0000  -999.2500     7.5738  -999.2500  -999.2500
