~VERSION INFORMATION
 VERS.                2.0:   CWLS LOG ASCII STANDARD - VERSION 2.0
 WRAP.                 NO:   ONE LINE PER DEPTH STEP
~WELL INFORMATION
#MNEM.UNIT      DATA TYPE    INFORMATION
#----------   ------------   ------------------------------
 STRT.F           65.0000:   START DEPTH
 STOP.F          860.0000:   STOP DEPTH
 STEP.F            0.5000:   STEP LENGTH
 NULL.          -999.2500:   NO VALUE
 COMP.          U.S. NAVY:   COMPANY
 WELL. NPR 3 TEAPOT DOM #71-S-34:   WELL
 FLD .             TEAPOT:   FIELD
 LOC .      S34 T39N R78W:   LOCATION
 CNTY.            NATRONA:   COUNTY
 STAT.            WYOMING:   STATE
 CTRY. UNITED STATES OF AMERICA:   COUNTRY
 SRVC. Schlumberger Well Surveying Corp:   SERVICE COMPANY
 DATE.        22-FEB-1961:   LOGDATE
 API .       490250657300:   API NUMBER
~CURVE INFORMATION
#MNEM.UNIT       API CODE    CURVE DESCRIPTION
#----------   ------------   ------------------------------
 DEPT.F                  :   
 GR  .GAPI   30 310 01 00:   GAMMA RAY
 ASN .OHMM   05 041 16 00:   AMPLIFIED SHORT NORMAL 16"
 CILD.MMHO   05 110 46 00:   CONDUCTIVITY INDUCTION LOG DEEP
 ILD .OHMM   05 120 46 00:   INDUCTION LOG DEEP
 SPR .MV     05 010 01 00:   SPONTANEOUS POTENTIAL FROM RES.
~PARAMETER INFORMATION
#MNEM.UNIT          VALUE    DESCRIPTION
#----------   ------------   ------------------------------
 LMF .                 KB:   LOG MEASURED FROM
 DMF .                 KB:   DRILLING MEASURED FROM
 EKB .F              5067:   KELLING BUSHING
 EGL .F              5063:   GROUND LEVEL
 DATE.        22-FEB-1961:   RUN DATE
 RUN .                  1:   RUN NUMBER
 DD  .F               861:   DEPTH DRILLER
 DL  .F               861:   DEPTH LOGGER
 BLI .F               860:   BOTTOM LOG INTERVAL
 TLI .F                80:   TOP LOG INTERVAL
 CBD .F                12:   CASING BOTTOM DRILLER
 BS  .IN            7.875:   BIT SIZE
 BSD .F               861:   BIT SIZE AT DEPTH
 DFT .       GEL-OIL EMUL:   DRILLING FLUID TYPE
 DFD .                9.6:   DRILLING FLUID DENSITY
 DFV .                 38:   DRILLING FLUID VISCOSITY
 DFPH.                  9:   DRILLING FLUID PH
 DFL .               15.4:   DRILLING FLUID LOSS
 MSS .           FLOWLINE:   MUD SAMPLE SOURCE
 RMS .OHMM           0.86:   RESISTIVITY MUD SAMPLE
 MST .F                68:   MUD SAMPLE TEMPERATURE
 RMF .OHMM           0.52:   RESISTIVITY MUD FILTRATE SAMPLE
 MFST.F                68:   MUD FILTRATE SAMPLE TEMPERATURE
 RMC .OHMM           1.98:   RESISTIVITY MUD CAKE
 MCST.F                68:   MUD CAKE SAMPLE TEMPERATURE
 MFSS.               MEAS:   MUD FILTRATE SAMPLE SOURCE
 MCSS.               MEAS:   MUD CAKE SAMPLE SOURCE
 RMB .OHMM           0.77:   RESISTIVITY MUD AT BHT
 BHT .F                78:   BOTTOM HOLE TEMPERATURE
 TCS .HRS               1:   TIME CURCULATED STOPPED
 MRT .F                78:   MAXIMUM RECORDED TEMPERATURE
 LUN .               2523:   LOGGING UNIT NUMBER
 LUL .               CSPR:   LOGGING UNIT LOCATION
 ENGI.             KNOBEL:   RECORDING ENGINEER
 WITN.          JORGENSEN:   WITNESSED BY
 CLNT.            A2DTECH:   CLIENT CODE
 ORIG.      2" , 5" PRINT:   ORIGIN OF DATA
 UWI .       490250657300:   UNIQUE WELL ID
 DICO. A2D Technologies, Inc.:   DIGITIZING COMPANY
~OTHER INFORMATION
~A   DEPT       GR          ASN       CILD        ILD      SPR   
# ...
  492.0000  -999.2500     9.6502   133.8197     7.2842   -21.1599
  492.5000  -999.2500     9.4781   136.9230     6.9741   -21.4734
  493.0000  -999.2500     9.3843   138.4630     6.8053   -21.4734
  493.5000  -999.2500     9.3063   141.5547     6.6617   -21.4734
  494.0000  -999.2500     9.1812   143.8706     6.7409   -21.4734
  494.5000  -999.2500     9.1188   143.0369     6.6632   -21.4734
  495.0000  -999.2500     9.1505   142.6509     6.6641   -21.4420
  495.5000  -999.2500     9.1675   140.5821     6.7009   -21.3166
  496.0000  -999.2500     9.2002   138.1732     6.9147   -21.3166
  496.5000  -999.2500     9.2470   136.5512     7.1374   -21.3166
  497.0000  -999.2500     9.3085   134.1323     7.2952   -21.3166
  497.5000  -999.2500     9.3872   133.2986     7.4530   -21.3166
  498.0000  -999.2500     9.4816   130.8901     7.6107   -21.3103
  498.5000  -999.2500     9.6073   130.0564     7.7685   -21.1599
  499.0000  -999.2500     9.7486   129.2226     7.9262   -21.1599
  499.5000  -999.2500     9.8587   128.3889     8.0840   -21.1599
  500.0000  -999.2500     9.9373   126.7678     8.1633   -21.4734
  500.5000  -999.2500    10.1884   125.9341     8.0855   -21.4734
  501.0000  -999.2500    10.2671   125.1004     8.0863   -21.4734
  501.5000  -999.2500    10.3458   125.0540     7.9945   -21.4734
  502.0000  -999.2500    10.2677   125.7951     7.9309   -21.4734
  502.5000  -999.2500    10.2568   125.7480     7.9318   -21.5204
  503.0000  -999.2500    10.1888   126.4899     7.9326   -21.6813
  503.5000  -999.2500    10.1209   126.4320     7.9333   -21.7868
  504.0000  -999.2500    10.0529   128.7479     7.9342   -21.6301
  504.5000  -999.2500     9.9849   129.5005     7.8564   -21.6301
  505.0000  -999.2500     9.8778   130.2416     7.7785   -21.6301
  505.5000  -999.2500     9.8467   130.9827     7.8838   -21.6301
  506.0000  -999.2500     9.9254   130.1374     7.9373   -21.6301
  506.5000  -999.2500     9.9100   129.3037     8.0950   -21.6280
  507.0000  -999.2500     9.8163   128.4700     8.0958   -21.4734
  507.5000  -999.2500     9.7695   127.6362     8.0965   -21.4734
  508.0000  -999.2500     9.9737   126.0157     8.1758   -21.3485
  508.5000  -999.2500    10.0672   124.9116     8.2552   -21.3005
  509.0000  -999.2500    10.1673   123.5171     8.2841   -21.1599
  509.5000  -999.2500    10.2674   121.9276     8.4192   -21.1599
  510.0000  -999.2500    10.3511   120.3065     8.5716   -21.1599
  510.5000  -999.2500    10.5082   119.3438     8.7293   -21.1599
  511.0000  -999.2500    10.6652   117.0434     8.8870   -21.1599
  511.5000  -999.2500    10.8223   114.6557     9.0646   -21.1599
  512.0000  -999.2500    11.0577   112.5774     9.2510   -21.1599
  512.5000  -999.2500    11.2147   109.8387     9.4388   -21.1599
  513.0000  -999.2500    11.4528   107.4301     9.6185   -21.1599
  513.5000  -999.2500    11.6960   105.0216     9.8329   -21.1599
  514.0000  -999.2500    11.9211   102.6131     9.9906   -21.1599
  514.5000  -999.2500    12.2349   100.2046    10.2269   -21.0031
  515.0000  -999.2500    12.5486    97.3753    10.4121   -21.0031
  515.5000  -999.2500    12.8624    94.4831    10.6209   -21.0031
  516.0000  -999.2500    13.1762    91.3926    10.8721   -21.0031
  516.5000  -999.2500    13.4900    88.9841    11.1719   -21.0031
  517.0000  -999.2500    13.6471    87.3630    11.4113   -20.9133
  517.5000  -999.2500    13.7257    84.9545    11.6523   -20.8464
  518.0000  -999.2500    13.8044    84.1207    11.8148   -21.0031
  518.5000  -999.2500    13.8047    85.6608    11.8816   -21.0031
  519.0000  -999.2500    13.8050    85.6029    11.7964   -21.0031
  519.5000  -999.2500    13.7270    86.6561    11.6477   -21.0031
  520.0000  -999.2500    13.6097    87.3140    11.4966   -21.0031
  520.5000  -999.2500    13.4089    88.6142    11.3353   -20.8464
  521.0000  -999.2500    13.2577    90.1629    11.2576   -20.8464
  521.5000  -999.2500    13.1639    91.6705    11.2582   -20.8464
  522.0000  -999.2500    13.0127    92.4095    11.2590   -20.8464
  522.5000  -999.2500    12.8667    93.2545    11.1931   -20.8464
  523.0000  -999.2500    12.7104    94.0262    11.1036   -20.8464
  523.5000  -999.2500    12.7107    94.6349    10.9474   -20.8464
  524.0000  -999.2500    12.6326    94.5770    10.8697   -20.8464
  524.5000  -999.2500    12.5545    94.3814    10.7135   -20.8464
  525.0000  -999.2500    12.6333    93.6969    10.7143   -20.8464
  525.5000  -999.2500    12.6335    92.8661    10.7936   -20.8464
  526.0000  -999.2500    12.6339    91.7061    10.7943   -20.8464
  526.5000  -999.2500    12.6342    91.1958    10.7951   -20.8464
  527.0000  -999.2500    12.5561    90.3620    10.7961   -20.8464
  527.5000  -999.2500    12.5564    90.3150    10.7967   -20.8464
  528.0000  -999.2500    12.4758    92.7453    10.7189   -20.8464
  528.5000  -999.2500    12.3968    95.7233    10.6414   -20.8464
  529.0000  -999.2500    12.2439    98.0392    10.6034   -21.1599
  529.5000  -999.2500    12.1162    99.5152    10.4647   -21.1849
  530.0000  -999.2500    11.8527   101.2861    10.3297   -21.3166
  530.5000  -999.2500    11.6179   101.8425    10.1735   -21.3166
  531.0000  -999.2500    11.3047   103.3658    10.0959   -21.3166
  531.5000  -999.2500    10.9915   103.6011     9.9874   -21.4734
  532.0000  -999.2500    10.8351   104.8595     9.8619   -21.4734
  532.5000  -999.2500    10.8354   105.2931     9.7841   -21.4734
  533.0000  -999.2500    10.9141   106.3307     9.5495   -21.4734
  533.5000  -999.2500    11.0712   107.8586     9.3932   -21.4734
  534.0000  -999.2500    11.0715   107.8123     9.3155   -21.4734
  534.5000  -999.2500    11.0718   109.3292     9.1931   -21.4734
  535.0000  -999.2500    10.9937   110.4112     9.1170   -21.4734
  535.5000  -999.2500    10.9888   110.9554     9.0039   -21.3856
  536.0000  -999.2500    10.8376   112.3398     8.9263   -21.3166
  536.5000  -999.2500    10.6813   114.0735     8.8484   -21.3166
  537.0000  -999.2500    10.6032   115.4084     8.8493   -21.1599
  537.5000  -999.2500    10.5251   116.9369     8.8502   -21.1599
  538.0000  -999.2500    10.5254   117.6693     8.7724   -21.1599
  538.5000  -999.2500    10.4291   118.7349     8.7732   -21.1599
  539.0000  -999.2500    10.3692   119.1496     8.6953   -21.1599
  539.5000  -999.2500    10.2912   119.1022     8.6963   -21.1599
  540.0000  -999.2500    10.2916   119.8433     8.6184   -21.0972
  540.5000  -999.2500    10.2134   119.0079     8.6978   -21.0031
  541.0000  -999.2500    10.2138   118.9517     8.6986   -21.0031
  541.5000  -999.2500    10.2141   118.9054     8.6994   -21.0031
  542.0000  -999.2500    10.1361   119.2302     8.6970   -21.0031
  542.5000  -999.2500    10.1364   119.6117     8.6224   -21.0031
  543.0000  -999.2500    10.1181   120.7524     8.6232   -21.0031
  543.5000  -999.2500    10.0939   122.9081     8.4672   -21.1062
  544.0000  -999.2500    10.0696   124.9730     8.3110   -21.1599
  544.5000  -999.2500    10.0453   127.2889     8.0628   -21.1599
  545.0000  -999.2500    10.0210   129.8338     7.8414   -21.1599
  545.5000  -999.2500     9.9951   131.9206     7.6069   -21.3166
  546.0000  -999.2500     9.7676   134.2570     7.4506   -21.3166
  546.5000  -999.2500     9.4179   137.4229     7.3727   -21.2267
  547.0000  -999.2500     9.2145   142.0063     7.2165   -21.1599
  547.5000  -999.2500     8.9953   144.3338     7.0603   -21.1599
  548.0000  -999.2500     8.7762   145.0749     6.9826   -21.0031
  548.5000  -999.2500     8.6511   144.2296     6.9050   -21.0031
  549.0000  -999.2500     8.6357   143.3959     6.9058   -21.0031
  549.5000  -999.2500     8.7771   141.7747     6.9066   -21.0031
  550.0000  -999.2500     9.1066   140.1536     7.0644   -21.0031
  550.5000  -999.2500     9.0442   139.3199     7.1483   -20.9580
  551.0000  -999.2500     9.0062   138.6565     7.2597   -20.8908
  551.5000  -999.2500     9.0909   137.5718     7.3308   -20.8318
  552.0000  -999.2500     9.2476   137.5031     7.3912   -20.9851
  552.5000  -999.2500     9.2633   137.4409     7.3942   -20.9793
