~VERSION INFORMATION
 VERS.                2.0:   CWLS LOG ASCII STANDARD - VERSION 2.0
 WRAP.                 NO:   ONE LINE PER DEPTH STEP
~WELL INFORMATION
#MNEM.UNIT      DATA TYPE    INFORMATION
#----------   ------------   ------------------------------
 STRT.F            4.0000:   START DEPTH
 STOP.F          578.0000:   STOP DEPTH
 STEP.F            0.5000:   STEP LENGTH
 NULL.          -999.2500:   NO VALUE
 COMP.              FENIX:   COMPANY
 WELL.   NPR-3 #14SX11-11:   WELL
 FLD .             TEAPOT:   FIELD
 LOC .      S11 T38N R78W:   LOCATION
 CNTY.            NATRONA:   COUNTY
 STAT.            WYOMING:   STATE
 CTRY. UNITED STATES OF AMERICA:   COUNTRY
 SRVC.           BIRDWELL:   SERVICE COMPANY
 DATE.        14-FEB-1978:   LOGDATE
 API .       490251057100:   API NUMBER
~CURVE INFORMATION
#MNEM.UNIT       API CODE    CURVE DESCRIPTION
#----------   ------------   ------------------------------
 DEPT.F                  :   
 ILD .OHMM   05 120 46 00:   INDUCTION LOG DEEP
 SN  .OHMM   05 040 16 00:   SHORT NORMAL 16"
 SPR .MV     05 010 01 00:   SPONTANEOUS POTENTIAL FROM RES.
 CALD.IN     45 280 60 00:   CALIPER FROM DENSITY LOG
 CORR.G/C3   45 356 01 00:   DENSITY CORRECTION
 DPHI.DEC    45 890 12 00:   DENSITY POROSITY SANDSTONE
 GRD .GAPI   45 310 01 00:   GAMMA RAY FROM DENSITY LOG
 RHOB.G/C3   45 350 01 00:   BULK DENSITY
~PARAMETER INFORMATION
#MNEM.UNIT          VALUE    DESCRIPTION
#----------   ------------   ------------------------------
 PD  .                 GL:   PERMANENT DATUM
 EPD .F              5183:   ELEVATION PERMANENT DATUM
 LMF .                 KB:   LOG MEASURED FROM
 DAPD.F                 4:   FEET ABOVE PERMANENT DATUM
 DMF .                 KB:   DRILLING MEASURED FROM
 EKB .F              5187:   KELLING BUSHING
 EGL .F              5183:   GROUND LEVEL
 DATE.        14-FEB-1978:   RUN DATE
 RUN .                  1:   RUN NUMBER
 DD  .F               580:   DEPTH DRILLER
 DL  .F               580:   DEPTH LOGGER
 BLI .F               578:   BOTTOM LOG INTERVAL
 TLI .F                20:   TOP LOG INTERVAL
 CS  .IN            8.625:   CASING SIZE
 CBD .F                15:   CASING BOTTOM DRILLER
 CBL .F                39:   CASING BOTTOM LOGGER
 BS  .IN            7.875:   BIT SIZE
 BSD .F               580:   BIT SIZE AT DEPTH
 DFT .         LIGNO-SULF:   DRILLING FLUID TYPE
 DFD .                8.6:   DRILLING FLUID DENSITY
 DFV .                 33:   DRILLING FLUID VISCOSITY
 DFPH.                 11:   DRILLING FLUID PH
 DFL .                  4:   DRILLING FLUID LOSS
 MSS .           FLOWLINE:   MUD SAMPLE SOURCE
 RMS .OHMM            1.3:   RESISTIVITY MUD SAMPLE
 MST .F                62:   MUD SAMPLE TEMPERATURE
 RMF .OHMM            1.2:   RESISTIVITY MUD FILTRATE SAMPLE
 MFST.F                64:   MUD FILTRATE SAMPLE TEMPERATURE
 RMC .OHMM            1.6:   RESISTIVITY MUD CAKE
 MCST.F                62:   MUD CAKE SAMPLE TEMPERATURE
 MFSS.               MEAS:   MUD FILTRATE SAMPLE SOURCE
 BHT .F                70:   BOTTOM HOLE TEMPERATURE
 TCS .HRS               3:   TIME CURCULATED STOPPED
 MRT .F                70:   MAXIMUM RECORDED TEMPERATURE
 LUN .               2958:   LOGGING UNIT NUMBER
 LUL .               CASP:   LOGGING UNIT LOCATION
 ENGI.            POINTER:   RECORDING ENGINEER
 WITN.           MCGINLEY:   WITNESSED BY
 CLNT.            A2DTECH:   CLIENT CODE
 ORIG.           5" PRINT:   ORIGIN OF DATA
 UWI .       490251057100:   UNIQUE WELL ID
 DICO. A2D Technologies, Inc.:   DIGITIZING COMPANY
~OTHER INFORMATION
~A    DEPT     ILD         SN        SPR       CALD       CORR       DPHI         GRD      RHOB   
# ...
   44.5000     6.2568  -999.2500  -999.2500     8.0023     0.0572     0.1546   107.5334     2.4072
   45.0000     6.2547  -999.2500  -999.2500     7.9862     0.0886     0.1505   105.7281     2.4019
   45.5000     6.2578  -999.2500  -999.2500     7.9855     0.1607     0.1408   105.1128     2.3966
   46.0000     6.2075  -999.2500  -999.2500     7.9847     0.2128     0.1360   106.9292     2.4056
   46.5000     6.1635  -999.2500  -999.2500     7.9994     0.1723     0.1206   110.8732     2.4455
   47.0000     6.1189  -999.2500  -999.2500     7.9225     0.1212     0.1168   110.5620     2.4799
   47.5000     6.0749  -999.2500  -999.2500     7.8153     0.0852     0.1216   110.5546     2.4889
   48.0000     6.0313  -999.2500  -999.2500     7.7994     0.0461     0.1329   110.5471     2.4603
   48.5000     5.9880  -999.2500  -999.2500     7.7985     0.0295     0.1433   110.5381     2.4362
   49.0000     5.9864  -999.2500  -999.2500     7.8586     0.0248     0.1463   108.8590     2.4189
   49.5000     5.9848  -999.2500  -999.2500     7.9186     0.0218     0.1448   105.0523     2.4151
   50.0000     6.1090  -999.2500  -999.2500     7.9636     0.0202     0.1418   102.4614     2.4158
   50.5000     6.2411  -999.2500  -999.2500     7.9933     0.0232     0.1409   105.3416     2.4196
   51.0000     6.4985  -999.2500  -999.2500     8.0228     0.0290     0.1397   107.6211     2.4217
   51.5000     6.6338  -999.2500  -999.2500     8.0372     0.0350     0.1382   104.4934     2.4194
   52.0000     6.8181  -999.2500  -999.2500     8.0211     0.0514     0.1359   102.1263     2.4209
   52.5000     6.9596  -999.2500  -999.2500     8.0052     0.0738     0.1335   102.8788     2.4246
   53.0000     7.0554  -999.2500  -999.2500     7.9589     0.0857     0.1302   106.0630     2.4283
   53.5000     7.1515  -999.2500  -999.2500     7.9125     0.0826     0.1426   109.8550     2.4321
   54.0000     7.1994  -999.2500  -999.2500     7.8814     0.0975     0.1528   112.1273     2.4312
   54.5000     7.1974  -999.2500  -999.2500     7.8351     0.0914     0.1537   108.1686     2.4095
   55.0000     7.1950  -999.2500  -999.2500     7.7888     0.0823     0.1474   104.1186     2.3959
   55.5000     7.1931  -999.2500  -999.2500     7.7398     0.0732     0.1388    97.9697     2.4033
   56.0000     7.2417  -999.2500  -999.2500     7.6807     0.0581     0.1363    98.7223     2.4161
   56.5000     7.2901  -999.2500  -999.2500     7.6800     0.0233     0.1445   103.1222     2.4258
   57.0000     7.3389  -999.2500  -999.2500     7.6946     0.0070     0.1559   108.4334     2.4235
   57.5000     7.3875  -999.2500  -999.2500     7.6785     0.0009     0.1590   112.3775     2.4062
   58.0000     7.3344  -999.2500  -999.2500     7.6626    -0.0022     0.1635   110.5464     2.3896
   58.5000     7.3324  -999.2500  -999.2500     7.6315    -0.0023     0.1629   106.8917     2.3835
   59.0000     7.2290  -999.2500  -999.2500     7.5832     0.0006     0.1659   107.9482     2.3798
   59.5000     7.0783  -999.2500  -999.2500     7.4626     0.0035     0.1687   109.9422     2.3760
   60.0000     7.0274  -999.2500  -999.2500     7.4011     0.0124     0.1660   113.5548     2.3744
   60.5000     7.0256  -999.2500  -999.2500     7.3852     0.0262     0.1480   115.2210     2.3759
   61.0000     7.0237  -999.2500  -999.2500     7.3388     0.0347     0.1338   113.5401     2.3879
   61.5000     7.0218  -999.2500  -999.2500     7.1405     0.0377     0.1270   111.5571     2.4277
   62.0000     7.0688  -999.2500  -999.2500     7.1550     0.0361     0.1189   109.1181     2.4489
   62.5000     7.0668  -999.2500  -999.2500     7.2315     0.0300     0.1150   107.1351     2.4601
   63.0000     7.1136  -999.2500  -999.2500     7.2599     0.0194     0.1243   104.3374     2.4584
   63.5000     7.1117  -999.2500  -999.2500     7.2438     0.0161     0.1312   102.1034     2.4486
   64.0000     7.1598  -999.2500  -999.2500     7.3495     0.0297     0.1277   102.0961     2.4426
   64.5000     7.1574  -999.2500  -999.2500     7.5159     0.0266     0.1199   102.2425     2.4440
   65.0000     7.1554  -999.2500  -999.2500     7.7431     0.0280     0.1169   102.3872     2.4538
   65.5000     7.1041  -999.2500  -999.2500     7.8944     0.0384     0.1241   101.9221     2.4561
   66.0000     7.1022  -999.2500  -999.2500     7.9702     0.0938     0.1262   100.8509     2.4385
   66.5000     7.1002  -999.2500  -999.2500     8.0145     0.1282     0.1218    98.5350     2.4401
   67.0000     7.1481  -999.2500  -999.2500     8.0289     0.1476     0.1200    97.3408     2.4536
   67.5000     7.1560  -999.2500  -999.2500     7.9976     0.1655     0.1173   100.0672     2.4573
   68.0000     7.1638  -999.2500  -999.2500     7.9665     0.1804     0.1104   103.0994     2.4633
   68.5000     7.1717  -999.2500  -999.2500     7.8746     0.1113     0.1065   105.9796     2.4753
   69.0000     7.1796  -999.2500  -999.2500     7.7978     0.1068     0.1140   105.6683     2.4805
   69.5000     7.1789  -999.2500  -999.2500     7.7211     0.1052     0.1589   104.5971     2.4429
   70.0000     7.2256  -999.2500  -999.2500     7.6727     0.1006     0.1546   103.3740     2.4035
   70.5000     7.2213  -999.2500  -999.2500     7.6131     0.0915     0.1400   104.7326     2.4082
   71.0000     7.2690  -999.2500  -999.2500     7.5972     0.0539     0.1346   106.2450     2.4232
   71.5000     7.2647  -999.2500  -999.2500     7.5812     0.0222     0.1511   108.8213     2.4300
   72.0000     7.2613  -999.2500  -999.2500     7.5653     0.0058     0.1578   110.3337     2.4171
   72.5000     7.2077  -999.2500  -999.2500     7.5646     0.0042     0.1629   109.2625     2.4028
   73.0000     7.2043  -999.2500  -999.2500     7.5638     0.0116     0.1692   105.4558     2.3817
   73.5000     7.1511  -999.2500  -999.2500     7.5631     0.0160     0.1590   103.6140     2.3734
   74.0000     7.0982  -999.2500  -999.2500     7.5775     0.0084     0.1600   104.2235     2.3821
   74.5000     6.9964  -999.2500  -999.2500     7.5766     0.0008     0.1636   109.3833     2.3959
   75.0000     6.9448  -999.2500  -999.2500     7.5911    -0.0007     0.1663   114.2392     2.3936
   75.5000     6.9415  -999.2500  -999.2500     7.6056     0.0009     0.1687   115.1456     2.3808
   76.0000     6.8426  -999.2500  -999.2500     7.6048     0.0066     0.1652   114.2245     2.3747
   76.5000     6.7921  -999.2500  -999.2500     7.6193     0.0080     0.1612   108.7461     2.3732
   77.0000     6.6491  -999.2500  -999.2500     7.6033     0.0079     0.1631   106.1327     2.3754
   77.5000     6.5092  -999.2500  -999.2500     7.6024     0.0078     0.1604   105.5399     2.3784
   78.0000     6.4165  -999.2500  -999.2500     7.6017     0.0137     0.1520   106.1386     2.3885
   78.5000     6.3690  -999.2500  -999.2500     7.5858     0.0151     0.1490   107.8030     2.4009
   79.0000     6.3654  -999.2500  -999.2500     7.5850     0.0135     0.1481   109.3155     2.4061
   79.5000     6.3623  -999.2500  -999.2500     7.5843     0.0149     0.1464   111.4358     2.4053
   80.0000     6.3593  -999.2500  -999.2500     7.5988     0.0148     0.1434   115.5318     2.4075
   80.5000     6.3567  -999.2500  -999.2500     7.6132     0.0178     0.1332   114.2036     2.4173
   81.0000     6.3533  -999.2500  -999.2500     7.6125     0.0192     0.1295   110.8040     2.4247
   81.5000     6.3953  -999.2500  -999.2500     7.6270     0.0251     0.1284   110.1888     2.4285
   82.0000     6.3473  -999.2500  -999.2500     7.6414     0.0310     0.1239   109.5736     2.4460
   82.5000     6.3443  -999.2500  -999.2500     7.6709     0.0219     0.1170   109.5662     2.4600
   83.0000     6.3919  -999.2500  -999.2500     7.7007     0.0049     0.1152   109.5589     2.4622
   83.5000     6.4269  -999.2500  -999.2500     7.7456     0.0127     0.1255   109.5516     2.4539
   84.0000     6.5136  -999.2500  -999.2500     7.8055     0.0246     0.1243   107.2704     2.4441
   84.5000     6.6466  -999.2500  -999.2500     7.8518     0.0290     0.1197   104.6737     2.4470
