~VERSION INFORMATION
 VERS.                2.0:   CWLS LOG ASCII STANDARD - VERSION 2.0
 WRAP.                 NO:   ONE LINE PER DEPTH STEP
~WELL INFORMATION
#MNEM.UNIT      DATA TYPE    INFORMATION
#----------   ------------   ------------------------------
 STRT.F           20.0000:   START DEPTH
 STOP.F          541.0000:   STOP DEPTH
 STEP.F            0.5000:   STEP LENGTH
 NULL.          -999.2500:   NO VALUE
 COMP. LAWRENCE/ALLISON INC:   COMPANY
 WELL.   NPR3 #58-66SHX10:   WELL
 FLD .             TEAPOT:   FIELD
 LOC .      S10 T38N R78W:   LOCATION
 CNTY.            NATRONA:   COUNTY
 STAT.            WYOMING:   STATE
 CTRY. UNITED STATES OF AMERICA:   COUNTRY
 SRVC.           Gearhart:   SERVICE COMPANY
 DATE.        15-JUN-1986:   LOGDATE
 API .       490251108800:   API NUMBER
~CURVE INFORMATION
#MNEM.UNIT       API CODE    CURVE DESCRIPTION
#----------   ------------   ------------------------------
 DEPT.F                  :   
 GRR .GAPI   07 310 01 00:   GAMMA RAY FROM RES. LOG.
 RILD.OHMM   07 120 46 00:   INDUCTION LOG DEEP RESISTIVITY
 RILM.OHMM   07 120 44 00:   INDUCTION LOG MEDIUM
~PARAMETER INFORMATION
#MNEM.UNIT          VALUE    DESCRIPTION
#----------   ------------   ------------------------------
 PD  .                 GL:   PERMANENT DATUM
 EPD .F              5196:   ELEVATION PERMANENT DATUM
 LMF .                 KB:   LOG MEASURED FROM
 DAPD.F                 5:   FEET ABOVE PERMANENT DATUM
 DMF .                 KB:   DRILLING MEASURED FROM
 EKB .F              5201:   KELLING BUSHING
 EGL .F              5196:   GROUND LEVEL
 DATE.          6-15-1986:   RUN DATE
 RUN .                  1:   RUN NUMBER
 DD  .F               554:   DEPTH DRILLER
 DL  .F               550:   DEPTH LOGGER
 BLI .F               549:   BOTTOM LOG INTERVAL
 TLI .F                47:   TOP LOG INTERVAL
 CS  .IN            8.625:   CASING SIZE
 CBD .F                47:   CASING BOTTOM DRILLER
 BS  .IN            7.875:   BIT SIZE
 BSD .F               554:   BIT SIZE AT DEPTH
 DFT .        AIR DRILLED:   DRILLING FLUID TYPE
 TLAB.HRS            0600:   TIME LOGGER AT BOTTOM
 MRT .F                65:   MAXIMUM RECORDED TEMPERATURE
 LUN .               7609:   LOGGING UNIT NUMBER
 LUL .           GILLETTE:   LOGGING UNIT LOCATION
 ENGI.         WEATHERMON:   RECORDING ENGINEER
 WITN.              FIVAS:   WITNESSED BY
 CLNT.            A2DTECH:   CLIENT CODE
 ORIG.       2", 5" PRINT:   ORIGIN OF DATA
 UWI .       490251108800:   UNIQUE WELL ID
 DICO. A2D Technologies, Inc.:   DIGITIZING COMPANY
~OTHER INFORMATION
~A   DEPT       GRR      RILD       RILM   
# ...
  202.0000   106.3934     8.3397     8.4968
  202.5000   104.5468     8.1461     8.2994
  203.0000   105.7130     7.9570     8.1067
  203.5000   107.4322     7.7724     7.9185
  204.0000   109.1716     7.5909     7.7346
  204.5000   110.8989     7.4511     7.5909
  205.0000   112.6312     7.3228     7.4603
  205.5000   114.4333     7.1972     7.3315
  206.0000   114.1293     7.0732     7.2069
  206.5000   113.3035     7.1869     7.3211
  207.0000   113.5757     7.3029     7.4404
  207.5000   113.6563     7.4209     7.5605
  208.0000   111.5008     7.5407     7.6826
  208.5000   107.3427     7.6624     7.8066
  209.0000   104.9618     7.7861     7.9327
  209.5000   104.3246     7.9119     8.0609
  210.0000   105.1484     8.0396     8.1909
  210.5000   107.4223     8.1347     8.2878
  211.0000   109.6325     8.1267     8.2796
  211.5000   111.1510     8.0973     8.2497
  212.0000   111.3828     8.0681     8.2200
  212.5000   110.6650     8.0390     8.1903
  213.0000   110.8926     8.0100     8.1608
  213.5000   110.8916     7.9629     8.1127
  214.0000   108.9884     7.8006     7.9474
  214.5000   105.6786     7.6887     7.8334
  215.0000   103.4811     7.5783     7.7209
  215.5000   105.0114     7.3552     7.6033
  216.0000   106.5813     7.1006     7.4801
  216.5000   107.8728     6.8547     7.1794
  217.0000   107.4571     6.6174     6.8779
  217.5000   107.0759     6.3882     6.5891
  218.0000   106.6703     6.1671     6.3124
  218.5000   105.3939     6.0304     6.1439
  219.0000   102.1990     5.9990     6.1119
  219.5000   101.0395     5.9805     6.0931
  220.0000   103.1806     6.0239     6.1372
  220.5000   108.9723     6.1501     6.2659
  221.0000   112.7782     6.4087     6.5293
  221.5000   110.8869     6.6708     6.7963
  222.0000   109.3649     6.9435     7.0742
  222.5000   108.4724     7.2274     7.3635
  223.0000   107.5725     7.5230     7.6645
  223.5000   108.1274     7.8306     7.9779
  224.0000   110.6757     8.0592     8.2109
  224.5000   113.4063     8.1624    10.0011
  225.0000   115.1358     8.2589    11.3786
  225.5000   115.8569     8.3565    12.7301
  226.0000   116.5758     8.4552    12.7364
  226.5000   117.3233     8.5545    12.0501
  227.0000   118.1986     8.6461    11.1042
  227.5000   119.4306     8.7270    10.1752
  228.0000   120.7044     8.8095     9.4499
  228.5000   119.8157     8.8926     9.3604
  229.0000   117.2807     8.9766     9.2511
  229.5000   116.2348     9.0163     9.1828
  230.0000   116.5827     9.0352     9.2227
  230.5000   119.3413     9.0541     9.2570
  231.0000   122.0158     9.0730     9.2914
  231.5000   122.3795     9.0920     9.3259
  232.0000   118.9660     9.1110     9.3606
  232.5000   115.6015     9.1300     9.3955
  233.0000   112.4144     9.1492     9.4303
  233.5000   112.0181     9.1681     9.4432
  234.0000   112.6815     9.1824     9.3696
  234.5000   113.8233     9.0917     9.3186
  235.0000   113.3897     9.0191     9.2678
  235.5000   112.7155     8.9470     9.2173
  236.0000   112.4706     8.8755     9.1671
  236.5000   112.7315     8.8046     9.1171
  237.0000   112.2286     8.7343     9.0674
  237.5000   109.6832     8.6645     9.0131
  238.0000   107.2113     8.5229     8.8378
  238.5000   104.9767     8.4073     8.6471
  239.0000   106.1249     8.2472     8.4605
  239.5000   108.3827     8.0902     8.2779
  240.0000   110.6800     7.9362     8.0993
  240.5000   113.8920     7.6843     7.8757
  241.0000   117.2460     7.1630     7.6437
  241.5000   120.4423     6.6738     7.4106
  242.0000   117.9286     6.0884     6.8961
  242.5000   113.5097     5.5180     6.4003
  243.0000   109.4427     5.0010     5.9401
  243.5000   110.4331     4.5325     5.3277
  244.0000   113.9304     4.1078     4.6670
  244.5000   117.4489     3.7230     4.1189
  245.0000   117.9162     3.4337     3.6831
  245.5000   115.0034     3.2455     3.4927
  246.0000   111.9918     3.0676     3.2742
  246.5000   109.5420     2.9447     3.0694
  247.0000   107.9433     2.9146     2.9723
  247.5000   107.0576     2.9183     2.9723
  248.0000   108.2658     2.9428     2.9723
  248.5000   111.6165     3.3112     3.0852
  249.0000   114.8842     3.6327     3.4453
  249.5000   117.5523     3.9854     3.7847
  250.0000   118.4371     4.3724     4.1576
  250.5000   118.4181     4.7969     4.5672
  251.0000   118.5905     5.2626     5.0172
  251.5000   120.3588     5.7309     5.5471
  252.0000   122.6471     5.9190     5.8168
  252.5000   125.3674     6.1133     6.1150
  253.0000   126.6244     6.3273     6.4419
  253.5000   128.2200     6.3236     6.4436
  254.0000   131.3498     6.1288     6.2663
  254.5000   134.4803     5.9635     6.1167
  255.0000   137.1024     5.8030     5.9707
  255.5000   135.9007     5.6468     5.8281
  256.0000   132.3283     5.4949     5.6890
  256.5000   126.5815     5.3476     5.5532
  257.0000   121.3271     5.3829     5.3976
  257.5000   118.0591     5.4416     5.3476
  258.0000   117.2709     5.4992     5.3982
  258.5000   119.5770     5.7005     5.4932
  259.0000   120.9294     5.9330     5.7223
  259.5000   121.2706     6.1751     5.9950
  260.0000   121.6133     6.4270     6.2834
  260.5000   121.9531     6.6892     6.5857
  261.0000   122.3031     6.9621     6.9025
  261.5000   122.9587     7.2461     7.2345
  262.0000   123.7099     7.5417     7.5826
  262.5000   123.5885     7.8494     7.9473
  263.0000   121.9844     8.1347     8.2878
  263.5000   121.7944     8.1347     8.2878
  264.0000   123.2549     8.1349     8.2878
  264.5000   127.0451     8.1367     8.2878
  265.0000   131.0999     8.1325     8.2878
  265.5000   132.7998     8.0638     8.2109
  266.0000   127.1387     7.9042     8.0592
  266.5000   122.0768     7.6464     7.8802
  267.0000   117.9940     7.3760     7.6972
  267.5000   117.3948     7.1170     7.5185
  268.0000   117.1904     6.8671     7.2597
  268.5000   118.9129     6.6259     6.9873
  269.0000   122.1940     6.3932     6.7252
  269.5000   127.1063     6.1687     6.4728
  270.0000   130.5114     5.9521     6.2300
  270.5000   127.3884     5.7431     5.9962
  271.0000   124.2373     5.5515     5.7710
  271.5000   122.0118     5.4482     5.5543
  272.0000   120.9726     5.5682     5.3976
  272.5000   118.8051     5.7619     5.3976
  273.0000   115.2257     5.9946     5.6920
  273.5000   114.8101     6.2721     5.9843
  274.0000   116.9450     6.5624     6.2922
  274.5000   121.5428     6.8661     6.6157
  275.0000   123.7559     7.1822     6.9555
  275.5000   125.1635     7.5001     7.3013
  276.0000   127.5826     7.6516     7.5631
  276.5000   130.5697     7.8131     7.8344
  277.0000   128.4761     7.9799     8.1347
  277.5000   123.0197     8.0642     8.2129
  278.0000   119.3865     8.0670     8.2188
  278.5000   120.3880     8.0729     8.2248
  279.0000   121.6572     8.0787     8.2307
  279.5000   122.3671     8.0845     8.2367
  280.0000   122.0720     8.0904     8.2426
  280.5000   122.5556     8.0962     8.2486
  281.0000   125.4437     8.1021     8.2545
  281.5000   127.7048     8.1079     8.2605
  282.0000   127.2225     8.1138     8.2665
  282.5000   128.4151     8.1197     8.2725
  283.0000   132.0894     8.1255     8.2785
  283.5000   134.6864     8.1314     8.2844
  284.0000   133.8787     8.1343     8.2874
  284.5000   131.3591     8.1184     8.2711
  285.0000   129.6593     8.1052     8.2577
  285.5000   128.0419     8.0921     8.2444
  286.0000   125.4342     8.0790     8.2310
  286.5000   122.8176     8.0659     8.2177
  287.0000   122.0422     8.0582     8.2109
  287.5000   123.7416     7.9679     8.1180
  288.0000   127.5824     7.8567     8.0056
  288.5000   132.8503     7.6838     7.8284
  289.0000   136.3293     7.5147     7.6562
  289.5000   138.2130     7.3493     7.4876
  290.0000   140.9171     7.1876     7.3228
  290.5000   144.4092     7.0293     7.1616
  291.0000   147.1506     6.8746     7.0040
  291.5000   146.7090     6.7233     6.8499
  292.0000   143.0701     6.5753     6.6991
  292.5000   140.8504     6.4305     6.5516
