~VERSION INFORMATION
 VERS.                2.0:   CWLS LOG ASCII STANDARD - VERSION 2.0
 WRAP.                 NO:   ONE LINE PER DEPTH STEP
~WELL INFORMATION
#MNEM.UNIT      DATA TYPE    INFORMATION
#----------   ------------   ------------------------------
 STRT.F           30.0000:   START DEPTH
 STOP.F          691.0000:   STOP DEPTH
 STEP.F            0.5000:   STEP LENGTH
 NULL.          -999.2500:   NO VALUE
 COMP. U.S. DEPARTMENT OF ENERGY:   COMPANY
 WELL. NAVAL PETROLEUM RESERVE #3 #77-S-34:   WELL
 FLD .        TEAPOT DOME:   FIELD
 LOC .      S34 T39N R78W:   LOCATION
 CNTY.            NATRONA:   COUNTY
 STAT.            WYOMING:   STATE
 CTRY. UNITED STATES OF AMERICA:   COUNTRY
 SRVC.              Welex:   SERVICE COMPANY
 DATE.        26-APR-1977:   LOGDATE
 API .       490251034700:   API NUMBER
~CURVE INFORMATION
#MNEM.UNIT       API CODE    CURVE DESCRIPTION
#----------   ------------   ------------------------------
 DEPT.F                  :   
 CALD.IN     45 280 60 00:   CALIPER FROM DENSITY LOG
 CORR.G/C3   45 356 01 00:   DENSITY CORRECTION
 DPHI.DEC    45 890 12 00:   DENSITY POROSITY SANDSTONE
 RHOB.G/C3   45 350 01 00:   BULK DENSITY
 GRD .GAPI   45 310 01 00:   GAMMA RAY FROM DENSITY LOG
 ILD .OHMM   07 120 46 00:   INDUCTION LOG DEEP
 ILM .OHMM   07 120 44 00:   INDUCTION LOG MEDIUM
 SGRD.OHMM   07 220 05 00:   SHALLOW GUARD RESISTIVITY
 SPR .MV     07 010 01 00:   SPONTANEOUS POTENTIAL FROM RES.
~PARAMETER INFORMATION
#MNEM.UNIT          VALUE    DESCRIPTION
#----------   ------------   ------------------------------
 PD  .                 GL:   PERMANENT DATUM
 EPD .F              5075:   ELEVATION PERMANENT DATUM
 LMF .                 GL:   LOG MEASURED FROM
 DMF .                 GL:   DRILLING MEASURED FROM
 EGL .F              5075:   GROUND LEVEL
 DATE.          4-26-1977:   RUN DATE
 RUN .                  1:   RUN NUMBER
 DD  .F               700:   DEPTH DRILLER
 DL  .F               693:   DEPTH LOGGER
 BLI .F               691:   BOTTOM LOG INTERVAL
 TLI .F                35:   TOP LOG INTERVAL
 CS  .IN            8.625:   CASING SIZE
 CBD .F                40:   CASING BOTTOM DRILLER
 CBL .F                39:   CASING BOTTOM LOGGER
 BS  .IN            7.875:   BIT SIZE
 BSD .F               700:   BIT SIZE AT DEPTH
 DFT .            KCL MUD:   DRILLING FLUID TYPE
 DFD .                9.5:   DRILLING FLUID DENSITY
 DFV .                 35:   DRILLING FLUID VISCOSITY
 DFPH.               10.5:   DRILLING FLUID PH
 DFL .                 12:   DRILLING FLUID LOSS
 MSS .           FLOWLINE:   MUD SAMPLE SOURCE
 RMS .OHMM            .32:   RESISTIVITY MUD SAMPLE
 MST .F                66:   MUD SAMPLE TEMPERATURE
 RMF .OHMM            .28:   RESISTIVITY MUD FILTRATE SAMPLE
 MFST.F                66:   MUD FILTRATE SAMPLE TEMPERATURE
 RMC .OHMM            .49:   RESISTIVITY MUD CAKE
 MCST.F                66:   MUD CAKE SAMPLE TEMPERATURE
 RMB .OHMM            .28:   RESISTIVITY MUD AT BHT
 BHT .F                74:   BOTTOM HOLE TEMPERATURE
 TCS .HRS             1.5:   TIME CURCULATED STOPPED
 MRT .F                74:   MAXIMUM RECORDED TEMPERATURE
 LUN .               8611:   LOGGING UNIT NUMBER
 LUL .           GILLETTE:   LOGGING UNIT LOCATION
 ENGI.            C. DOAK:   RECORDING ENGINEER
 WITN.       MR. ROB LYON:   WITNESSED BY
 CLNT.            A2DTECH:   CLIENT CODE
 ORIG.           5" PRINT:   ORIGIN OF DATA
 UWI .       490251034700:   UNIQUE WELL ID
 DICO. A2D Technologies, Inc.:   DIGITIZING COMPANY
~OTHER INFORMATION
~A   DEPT       CALD      CORR      DPHI         RHOB       GRD       ILD        ILM       SGRD        SPR   
# ...
  468.0000     7.9092     0.0381     0.1001     2.5134   131.2736     6.3455     7.2443     9.7845   -47.1683
  468.5000     7.9094     0.0381     0.0978     2.5179   132.6224     6.4288     7.2457     9.1347   -47.1627
  469.0000     7.9097     0.0366     0.0990     2.5210   134.8674     6.4737     7.1974     9.1359   -47.3066
  469.5000     7.9101     0.0321     0.1039     2.5095   137.8598     6.4741     7.0962     9.4585   -47.4504
  470.0000     7.9103     0.0276     0.1115     2.4919   139.6563     6.3800     6.8615     9.9257   -47.5929
  470.5000     7.9106     0.0231     0.1211     2.4769   140.1081     6.0855     6.8158     9.3950   -47.7369
  471.0000     7.9109     0.0171     0.1283     2.4665   140.8586     5.8393     6.7703     9.1406   -47.8806
  471.5000     7.9112     0.0112     0.1346     2.4545   141.9077     5.5263     6.5349     9.3999   -48.0244
  472.0000     7.9115     0.0037     0.1419     2.4376   142.6573     5.2249     6.0664     9.6613   -48.0174
  472.5000     7.9118    -0.0023     0.1588     2.4142   141.1660     5.0186     5.5861     8.5950   -48.1614
  473.0000     7.9121    -0.0053     0.1648     2.4060   139.2108     4.9162     5.2153     6.1334   -48.0060
  473.5000     7.9124    -0.0008     0.1588     2.4195   135.6418     4.8159     5.1449     4.4207   -47.8497
  474.0000     7.9127     0.0082     0.1301     2.4517   132.8046     4.8832     5.2900     4.7877   -47.6946
  474.5000     7.9130     0.0173     0.1102     2.4848   130.5653     5.0897     5.6294     6.1360   -47.5395
  475.0000     7.9133     0.0263     0.0921     2.5191   129.0734     5.3417     5.9906     7.7032   -47.2335
  475.5000     7.8987     0.0293     0.0906     2.5348   128.9267     5.6840     6.3386     9.2907   -47.0784
  476.0000     7.8990     0.0293     0.0924     2.5311   131.6209     6.1747     6.8314     9.7391   -46.9233
  476.5000     7.8993     0.0293     0.0951     2.5192   133.2672     6.5252     7.2198     9.7404   -46.6187
  477.0000     7.8996     0.0263     0.0947     2.5102   130.8792     6.8957     7.6831     9.8090   -46.4622
  477.5000     7.8999     0.0241     0.0927     2.5282   129.8357     7.2371     8.1294    10.1622   -46.1577
  478.0000     7.9002     0.0204     0.0927     2.5305   129.2406     7.6480     8.5232    10.5116   -46.1521
  478.5000     7.9004     0.0174     0.0942     2.5253   129.2442     7.7015     8.7630    10.6588   -46.1464
  479.0000     7.9008     0.0144     0.0972     2.5171   129.5460     7.7020     8.9478    10.5143   -45.9899
  479.5000     7.9011     0.0144     0.1018     2.5149   130.4457     7.7025     8.9495    10.3718   -45.9843
  480.0000     7.9163     0.0114     0.1079     2.5111   131.6443     7.6500     9.0136    10.2312   -45.9787
  480.5000     7.9166     0.0084     0.1097     2.5052   132.2451     7.5980     9.2036    10.3748   -45.9731
  481.0000     7.9319     0.0054     0.1097     2.4933   128.0633     7.5986     9.3331    10.6660   -45.9661
  481.5000     7.9322     0.0039     0.1121     2.4797   123.8808     7.5469     9.5353    10.8157   -45.9604
  482.0000     7.9474     0.0025     0.1224     2.4612   120.8941     7.4955     9.6644    10.8171   -45.9548
  482.5000     7.9477     0.0025     0.1295     2.4537   119.5517     7.4961     9.6662    10.7443   -45.9492
  483.0000     7.9630     0.0040     0.1328     2.4590   121.2895     7.4966     9.6681    10.5258   -45.9422
  483.5000     7.9633     0.0055     0.1265     2.4665   126.5835     7.4971     9.6700    10.4549   -45.9366
  484.0000     7.9636     0.0070     0.1238     2.4688   129.5758     7.4977     9.6723    10.2428   -45.7815
  484.5000     7.9639     0.0070     0.1255     2.4658   131.5219     7.4467     9.6073     9.8293   -45.7758
  485.0000     7.9491     0.0071     0.1292     2.4613   131.5845     7.3452     9.5437     9.4325   -45.7688
  485.5000     7.9495     0.0071     0.1221     2.4644   128.8062     7.2952     9.4800     9.3690   -45.9141
  486.0000     7.9348     0.0101     0.1190     2.4726   129.5879     7.2455     9.7473     9.4353   -45.9071
  486.5000     7.9201     0.0146     0.1172     2.4779   131.8329     7.1962     9.9527    10.1095   -45.9013
  487.0000     7.9205     0.0191     0.1150     2.4824   133.3298     7.0495    10.1625    10.5374   -46.0453
  487.5000     7.9208     0.0222     0.1154     2.4854   129.5965     6.8111    10.3768    11.2908   -45.8888
  488.0000     7.9061     0.0237     0.1190     2.4854   127.0045     6.5356    10.4510    11.2922   -45.8832
  488.5000     7.9064     0.0237     0.1226     2.4787   126.1642     6.1853    10.3100    11.2937   -45.7279
  489.0000     7.9067     0.0237     0.1265     2.4449   129.1573     5.7737     9.2358    11.2952   -45.5716
  489.5000     7.9070     0.0237     0.1326     2.4152   128.8612     5.4632     7.9709    10.1180   -45.5660
  490.0000     7.9073     0.0237     0.1435     2.3861   127.3693     5.1359     6.5475     8.3441   -45.4109
  490.5000     7.9076     0.0222     0.1791     2.3734   124.5117     4.9622     5.4749     5.1171   -45.4051
  491.0000     7.8930     0.0207     0.1833     2.3742   125.7314     5.1013     5.8262     5.3075   -45.0993
  491.5000     7.8933     0.0208     0.1749     2.3840   126.1827     5.4677     6.9469     4.6161   -44.7947
  492.0000     7.8936     0.0208     0.1406     2.4311   124.6908     5.8968     8.1130    11.6205   -44.4901
  492.5000     7.8789     0.0208     0.0966     2.5082   125.1420     6.2316     8.9979    12.7987   -44.1842
  493.0000     7.8643     0.0208     0.0894     2.5291   127.0075     6.5853     9.7082    12.8889   -43.8796
  493.5000     7.8646     0.0238     0.0882     2.5426   129.0348     6.9152    10.1957    12.9800   -43.7245
  494.0000     7.8649     0.0268     0.0918     2.5127   129.9346     7.4052    10.7697    13.1618   -43.5694
  494.5000     7.8652     0.0300     0.0960     2.5225   129.4890     7.8256    11.2263    13.2545   -42.9645
  495.0000     7.8655     0.0359     0.0942     2.5277   128.5950     8.2130    11.7833    13.1652   -42.5104
  495.5000     7.8658     0.0404     0.0963     2.5046   130.2428     8.6261    11.6243    13.1673   -42.0564
  496.0000     7.8661     0.0449     0.1010     2.5069   129.9466     9.1722    11.5467    13.1691   -41.7518
  496.5000     7.8664     0.0509     0.0978     2.5196   125.6147     9.4945    11.6294    13.0803   -41.1469
  497.0000     7.8667     0.0556     0.0960     2.5211   123.8238     9.8961    11.6316    12.9030   -41.1412
  497.5000     7.8520     0.0600     0.0978     2.5152   122.1824    10.3956    11.5409    12.6412   -40.8367
  498.0000     7.8373     0.0600     0.1055     2.4973   117.4027    11.0517    11.3982    12.4694   -40.5321
  498.5000     7.8227     0.0600     0.1148     2.4799   111.7254    11.7599    11.9642    12.3007   -39.9272
  499.0000     7.8080     0.0570     0.1259     2.4577   102.0123    12.4275    12.7319    13.3630   -39.1742
  499.5000     7.8084     0.0523     0.1394     2.4256    90.8043    13.2386    13.8478    16.8920   -38.4212
  500.0000     7.8236     0.0480     0.1591     2.3966    72.8703    13.9746    14.7200    30.7959   -37.6672
  500.5000     7.8239     0.0450     0.1719     2.3789    77.6578    14.3708    15.3470    26.2588   -36.9142
  501.0000     7.8093     0.0420     0.1881     2.3575    81.9132    14.7774    15.9998    19.9370   -36.3107
  501.5000     7.8096     0.0390     0.1998     2.3380    84.2443    14.9993    16.6803    17.8586   -35.7070
  502.0000     7.8099     0.0360     0.2005     2.3486    84.6970    15.5193    17.1551    18.2474   -35.1023
  502.5000     7.7803     0.0360     0.1904     2.3620    83.8043    15.9584    17.6382    19.1378   -34.6482
  503.0000     7.7507     0.0406     0.1782     2.3770    82.2660    16.2971    18.1369    19.2720   -34.0447
  503.5000     7.7510     0.0449     0.1716     2.3905    80.5254    16.6444    18.3945    19.1421   -33.2903
  504.0000     7.7363     0.0449     0.1734     2.3942    78.8853    16.9978    18.5277    19.2919   -32.6868
