~VERSION INFORMATION
 VERS.                2.0:   CWLS LOG ASCII STANDARD - VERSION 2.0
 WRAP.                 NO:   ONE LINE PER DEPTH STEP
~WELL INFORMATION
#MNEM.UNIT      DATA TYPE    INFORMATION
#----------   ------------   ------------------------------
 STRT.F           34.0000:   START DEPTH
 STOP.F          445.0000:   STOP DEPTH
 STEP.F            0.5000:   STEP LENGTH
 NULL.          -999.2500:   NO VALUE
 COMP. FENIX & SCISSON U.S. NAVY:   COMPANY
 WELL.       NPR #64-S-10:   WELL
 FLD .             TEAPOT:   FIELD
 LOC .      S10 T38N R78W:   LOCATION
 CNTY.            NATRONA:   COUNTY
 STAT.            WYOMING:   STATE
 CTRY. UNITED STATES OF AMERICA:   COUNTRY
 SRVC.              Welex:   SERVICE COMPANY
 DATE.        08-APR-1977:   LOGDATE
 API .       490251033400:   API NUMBER
~CURVE INFORMATION
#MNEM.UNIT       API CODE    CURVE DESCRIPTION
#----------   ------------   ------------------------------
 DEPT.F                  :   
 SPR .MV     07 010 01 00:   SPONTANEOUS POTENTIAL
 ILD .OHMM   07 120 46 00:   INDUCTION LOG DEEP
 ILM .OHMM   07 120 44 00:   INDUCTION LOG MEDIUM
 SGRD.OHMM   07 221 05 00:   SHALLOW SHORT GUARD RESISTIVITY
 CALD.IN     45 280 60 00:   CALIPER FROM DENSITY LOG
 GRD .GAPI   45 310 01 00:   GAMMA RAY FROM DENSITY LOG
 CORR.G/C3   45 356 01 00:   DENSITY CORRECTION
 RHOB.G/C3   45 350 01 00:   BULK DENSITY
 DPHI.DEC    45 890 12 00:   DENSITY POROSITY SANDSTONE
~PARAMETER INFORMATION
#MNEM.UNIT          VALUE    DESCRIPTION
#----------   ------------   ------------------------------
 PD  .                 GL:   PERMANENT DATUM
 EPD .F              5183:   ELEVATION PERMANENT DATUM
 LMF .                 GL:   LOG MEASURED FROM
 DMF .                 GL:   DRILLING MEASURED FROM
 EGL .F              5183:   GROUND LEVEL
 DATE.        08-APR-1977:   RUN DATE
 RUN .                  1:   RUN NUMBER
 DD  .F               455:   DEPTH DRILLER
 DL  .F               447:   DEPTH LOGGER
 BLI .F               445:   BOTTOM LOG INTERVAL
 TLI .F                34:   TOP LOG INTERVAL
 CS  .IN            8.625:   CASING SIZE
 BS  .IN            7.875:   BIT SIZE
 BSD .F               455:   BIT SIZE AT DEPTH
 DFT .           KCL- GEL:   DRILLING FLUID TYPE
 DFD .                8.3:   DRILLING FLUID DENSITY
 TCS .HRS            0100:   TIME CURCULATED STOPPED
 MRT .F                62:   MAXIMUM RECORDED TEMPERATURE
 ENGI.        E. CALLAHAN:   RECORDING ENGINEER
 WITN.            R. LYON:   WITNESSED BY
 CLNT.            A2DTECH:   CLIENT CODE
 ORIG.           5" PRINT:   ORIGIN OF DATA
 UWI .       490251033400:   UNIQUE WELL ID
 DICO. A2D Technologies, Inc.:   DIGITIZING COMPANY
~OTHER INFORMATION
~A   DEPT      SPR        ILD        ILM       SGRD       CALD        GRD        CORR        RHOB     DPHI   
# ...
  326.0000   -34.9715    23.6943    36.9328    43.0015     7.6329    71.3476     0.0785     2.3119     0.1998
  326.5000   -34.9759    23.3632    36.6702    37.9533     7.6362    74.9576     0.0833     2.3195     0.1963
  327.0000   -34.9812    23.1971    36.1192    35.9016     7.6216    73.4855     0.0872     2.3256     0.1931
  327.5000   -34.9856    22.7143    35.8989    35.8927     7.6084    69.6160     0.0889     2.3302     0.1908
  328.0000   -34.9899    22.0879    35.3973    38.5463     7.5654    73.8296     0.0905     2.3258     0.1944
  328.5000   -34.9943    21.7793    34.9027    40.9365     7.5074    75.6460     0.0922     2.3281     0.1937
  329.0000   -34.9986    21.3265    34.1772    41.5037     7.4494    70.1323     0.0939     2.3365     0.1866
  329.5000   -35.1534    21.0286    33.6997    37.1414     7.4060    74.1964     0.0941     2.3447     0.1842
  330.0000   -35.1588    20.7347    33.1980    33.9370     7.4680    76.3117     0.0943     2.3513     0.1809
  330.5000   -35.1631    20.5868    32.7629    31.8807     7.5745    75.2880     0.0960     2.3607     0.1766
  331.0000   -35.1675    20.2986    32.3051    31.2204     7.6958    71.2747     0.0961     2.3657     0.1712
  331.5000   -35.0214    20.1543    32.0754    32.9949     7.7574    72.9416     0.0963     2.3668     0.1700
  332.0000   -35.0258    20.0110    31.8474    35.8514     7.6397    74.3647     0.0965     2.3621     0.1736
  332.5000   -35.0301    20.0070    31.4024    37.3686     7.5518    75.5481     0.0982     2.3602     0.1741
  333.0000   -35.0346    19.8647    31.1545    35.8418     7.5984    75.3562     0.0984     2.3603     0.1756
  333.5000   -34.8895    19.7235    30.9559    32.9773     7.6750    74.1928     0.0971     2.3574     0.1777
  334.0000   -34.8939    19.7191    30.5234    30.3416     7.7366    73.6469     0.0972     2.3530     0.1777
  334.5000   -34.8982    19.7146    30.3063    31.6247     7.7384    74.5815     0.0959     2.3493     0.1839
  335.0000   -34.9025    19.7107    30.3003    32.9641     7.6954    76.6816     0.0796     2.3246     0.1935
  335.5000   -34.9069    19.7067    30.0848    32.0575     7.6523    78.0495     0.0647     2.3096     0.2055
  336.0000   -34.9112    19.5666    30.0787    30.9616     7.6093    78.9690     0.0619     2.2992     0.2094
  336.5000   -34.9167    19.5627    29.2485    30.3205     7.5663    79.2906     0.0771     2.3113     0.2016
  337.0000   -34.9210    19.4231    27.6644    30.9719     7.5377    78.4163     0.0833     2.3301     0.1919
  337.5000   -35.0757    19.4188    24.5827    31.8181     7.5246    77.6906     0.0835     2.3430     0.1865
  338.0000   -35.0801    19.4149    22.7725    30.3074     7.5414    77.8636     0.0731     2.3446     0.1837
  338.5000   -35.0844    19.4110    21.8399    29.8872     7.5731    78.9326     0.0673     2.3364     0.1870
  339.0000   -35.0888    19.4071    21.5347    30.5110     7.6197    79.4036     0.0630     2.3327     0.1906
  339.5000   -35.0932    19.4032    22.2891    30.7182     7.6514    78.8283     0.0616     2.3313     0.1936
  340.0000   -34.9482    19.3318    23.0709    30.6998     7.6532    77.5056     0.0618     2.3381     0.1878
  340.5000   -34.9525    19.1273    23.5513    30.0770     7.6550    77.3731     0.0620     2.3472     0.1821
  341.0000   -34.8054    18.8601    23.8755    29.0488     7.6571    77.9993     0.0622     2.3518     0.1788
  341.5000   -34.6594    18.5966    23.8707    29.6551     7.6589    79.6661     0.0639     2.3548     0.1745
  342.0000   -34.5144    18.2100    23.0439    30.2741     7.6604    80.5856     0.0663     2.3703     0.1650
  342.5000   -34.5188    17.8314    21.5025    29.8534     7.6622    81.6545     0.0695     2.3910     0.1540
  343.0000   -34.3727    17.5819    20.3379    29.4385     7.6490    82.2920     0.0727     2.4024     0.1456
  343.5000   -34.3782    17.3358    19.9151    29.2304     7.6344    82.7429     0.0736     2.4107     0.1367
  344.0000   -34.3825    17.3323    18.9676    28.8242     7.5918    82.9148     0.0738     2.4243     0.1297
  344.5000   -34.3868    17.3288    18.8327    25.9748     7.5498    82.7876     0.0709     2.4357     0.1245
  345.0000   -34.2397    17.3254    19.2292    23.8989     7.5516    82.0628     0.0696     2.4575     0.1185
  345.5000   -34.2452    17.3219    20.0367    22.9224     7.5982    80.8896     0.0683     2.4674     0.1112
  346.0000   -34.2496    17.4389    20.5962    24.4127     7.6299    79.2679     0.0700     2.4735     0.1055
  346.5000   -34.1035    17.5564    20.7364    28.2113     7.6616    75.7031     0.0747     2.4803     0.1000
  347.0000   -34.1089    17.5524    20.5890    29.4062     7.6784    73.9320     0.0809     2.4841     0.0988
  347.5000   -34.1133    17.4276    21.9096    29.6068     7.7101    74.8515     0.0856     2.4842     0.1000
  348.0000   -33.9672    17.4241    22.0577    29.6018     7.7119    75.6215     0.0887     2.4775     0.1102
  348.5000   -33.9716    17.5419    21.4488    29.5979     7.6988    76.5409     0.0889     2.4558     0.1174
  349.0000   -33.8255    17.5384    18.0308    27.4192     7.6707    77.6099     0.0891     2.4334     0.1254
  349.5000   -33.8310    17.2929    17.1729    24.3701     7.5977    78.3799     0.0848     2.4147     0.1362
  350.0000   -33.8342    16.9405    17.1910    22.8714     7.5543    78.6983     0.0714     2.3959     0.1497
  350.5000   -33.8028    16.3843    17.3196    22.5867     7.6015    78.5658     0.0662     2.3833     0.1602
  351.0000   -33.7737    15.8281    17.4050    22.2614     7.6483    77.8319     0.0612     2.3781     0.1638
  351.5000   -33.7446    15.2719    17.4021    22.1047     7.6801    77.0980     0.0538     2.3752     0.1653
  352.0000   -33.7155    14.7236    17.5209    21.9492     7.7269    76.8091     0.0494     2.3760     0.1655
  352.5000   -33.6865    14.5169    17.7633    21.9463     7.7438    76.8260     0.0450     2.3769     0.1640
  353.0000   -33.6574    14.5131    17.8846    21.9427     7.6860    76.8395     0.0422     2.3800     0.1613
  353.5000   -33.6283    14.5087    17.1528    21.6378     7.6281    77.1519     0.0438     2.3853     0.1582
  354.0000   -33.5992    14.5044    16.2248    21.4855     7.5703    77.7633     0.0500     2.3937     0.1519
  354.5000   -33.5701    14.2020    15.5615    21.1870     7.5419    78.6736     0.0576     2.4058     0.1458
  355.0000   -33.5411    14.0027    15.4519    20.7483     7.5742    79.5839     0.0638     2.4195     0.1380
  355.5000   -33.5120    13.9990    15.3425    20.0383     7.6210    80.7932     0.0684     2.4188     0.1419
  356.0000   -33.4829    13.7543    15.3405    19.6234     7.6528    81.8530     0.0685     2.4144     0.1403
  356.5000   -33.4538    13.4204    15.2325    19.4853     7.6847    82.6139     0.0657     2.4160     0.1385
  357.0000   -33.4247    13.3242    15.1252    19.4827     7.6717    83.5242     0.0523     2.4198     0.1379
  357.5000   -33.4059    13.2286    15.0187    19.3456     7.5989    84.1356     0.0449     2.4094     0.1414
  358.0000   -33.4077    13.1337    14.9128    19.0762     7.5410    84.2986     0.0390     2.3975     0.1519
  358.5000   -33.4091    13.1298    14.7050    18.9420     7.5275    84.3120     0.0376     2.3916     0.1537
  359.0000   -33.4105    13.1259    14.3008    18.6787     7.5599    84.1727     0.0393     2.3969     0.1506
  359.5000   -33.4120    13.0317    14.4986    18.2920     7.5917    84.1895     0.0439     2.4031     0.1473
  360.0000   -33.4138    12.9382    14.6992    17.7895     7.6534    84.3797     0.0486     2.4084     0.1440
  360.5000   -33.4152    12.8454    14.5956    17.5418     7.6554    85.1684     0.0532     2.4123     0.1415
  361.0000   -33.4166    12.7528    14.3923    17.5395     7.6419    86.3757     0.0564     2.4176     0.1388
  361.5000   -33.4181    12.7491    14.3904    17.5371     7.6443    87.8550     0.0565     2.4222     0.1358
  362.0000   -33.4195    12.7457    14.2890    17.5348     7.6463    88.7643     0.0551     2.4276     0.1336
