~VERSION INFORMATION
 VERS.                2.0:   CWLS LOG ASCII STANDARD - VERSION 2.0
 WRAP.                 NO:   ONE LINE PER DEPTH STEP
~WELL INFORMATION
#MNEM.UNIT      DATA TYPE    INFORMATION
#----------   ------------   ------------------------------
 STRT.F          283.5000:   START DEPTH
 STOP.F         3026.0000:   STOP DEPTH
 STEP.F            0.5000:   STEP LENGTH
 NULL.          -999.2500:   NO VALUE
 COMP. DEPARTMENT OF ENERGY:   COMPANY
 WELL. RES 3 TEAPOT DOM "AX" #62-29:   WELL
 FLD .        TEAPOT DOME:   FIELD
 LOC .      S29 T39N R78W:   LOCATION
 CNTY.            NATRONA:   COUNTY
 STAT.            WYOMING:   STATE
 CTRY. UNITED STATES OF AMERICA:   COUNTRY
 SRVC.       Schlumberger:   SERVICE COMPANY
 DATE.        27-JUL-1971:   LOGDATE
 API .       490250659800:   API NUMBER
~CURVE INFORMATION
#MNEM.UNIT       API CODE    CURVE DESCRIPTION
#----------   ------------   ------------------------------
 DEPT.F                  :   
 GRD .GAPI   45 310 01 00:   GAMMA RAY FROM DENSITY LOG
 CALD.IN     45 280 60 00:   CALIPER FROM DENSITY LOG
 RHOB.G/C3   45 350 01 00:   BULK DENSITY
 DPHI.DEC    45 890 12 00:   DENSITY POROSITY SANDSTONE
 CORR.G/C3   45 356 01 00:   DENSITY CORRECTION
 SPR .MV     05 010 01 00:   SPONTANEOUS POTENTIAL FROM RES.
 ASN .OHMM   05 041 16 00:   AMPLIFIED SHORT NORMAL 16"
 ILD .OHMM   05 120 46 00:   INDUCTION LOG DEEP
 CILD.MMHO   05 110 46 00:   CONDUCTIVITY INDUCTION LOG DEEP
~PARAMETER INFORMATION
#MNEM.UNIT          VALUE    DESCRIPTION
#----------   ------------   ------------------------------
 PD  .                 GL:   PERMANENT DATUM
 EPD .F              4998:   ELEVATION PERMANENT DATUM
 LMF .                 KB:   LOG MEASURED FROM
 DAPD.F                11:   FEET ABOVE PERMANENT DATUM
 DMF .                 KB:   DRILLING MEASURED FROM
 EKB .F              5009:   KELLING BUSHING
 EGL .F              4998:   GROUND LEVEL
 DATE.            7-27-71:   RUN DATE
 RUN .                  1:   RUN NUMBER
 DD  .F              3023:   DEPTH DRILLER
 DL  .F              3024:   DEPTH LOGGER
 BLI .F              3023:   BOTTOM LOG INTERVAL
 TLI .F               286:   TOP LOG INTERVAL
 CS  .IN            10.75:   CASING SIZE
 CBD .F               287:   CASING BOTTOM DRILLER
 CBL .F               286:   CASING BOTTOM LOGGER
 BS  .IN                9:   BIT SIZE
 BSD .F              3023:   BIT SIZE AT DEPTH
 DFT .      FRESH GEL MUD:   DRILLING FLUID TYPE
 DFD .                 10:   DRILLING FLUID DENSITY
 DFV .                 90:   DRILLING FLUID VISCOSITY
 DFPH.                7.6:   DRILLING FLUID PH
 DFL .                5.8:   DRILLING FLUID LOSS
 MSS .          FLOW LINE:   MUD SAMPLE SOURCE
 RMS .OHMM           1.74:   RESISTIVITY MUD SAMPLE
 MST .F                75:   MUD SAMPLE TEMPERATURE
 RMF .OHMM            1.5:   RESISTIVITY MUD FILTRATE SAMPLE
 MFST.F                75:   MUD FILTRATE SAMPLE TEMPERATURE
 MFSS.                  C:   MUD FILTRATE SAMPLE SOURCE
 RMB .OHMM           1.12:   RESISTIVITY MUD AT BHT
 BHT .F               116:   BOTTOM HOLE TEMPERATURE
 TCS .HRS               5:   TIME CURCULATED STOPPED
 MRT .F               116:   MAXIMUM RECORDED TEMPERATURE
 LUN .               7041:   LOGGING UNIT NUMBER
 LUL .               CSPR:   LOGGING UNIT LOCATION
 ENGI.             KNOBEL:   RECORDING ENGINEER
 WITN.                MAY:   WITNESSED BY
 CLNT.            A2DTECH:   CLIENT CODE
 ORIG.     1", 2.5" PRINT:   ORIGIN OF DATA
 UWI .       490250659800:   UNIQUE WELL ID
 DICO. A2D Technologies, Inc.:   DIGITIZING COMPANY
~OTHER INFORMATION
~A   DEPT      GRD       CALD       RHOB       DPHI       CORR        SPR        ASN        ILD       CILD   
# ...
 2875.0000   123.1272     8.7814     2.4952     0.0972     0.0880   -28.6537     3.4457     2.8382   331.6832
 2875.5000   123.2569     8.8102     2.4762     0.1012     0.0765   -28.9459     3.4130     2.7761   331.6832
 2876.0000   123.7774     8.7661     2.4670     0.1029     0.0694   -29.1373     3.3809     2.7122   331.6832
 2876.5000   124.3173     8.7180     2.4630     0.1022     0.0754   -29.1604     3.3532     2.6328   337.3465
 2877.0000   125.1569     8.6685     2.4402     0.1154     0.0636   -29.0564     3.3225     2.5656   343.0558
 2877.5000   125.9007     8.6221     2.4257     0.1380     0.0378   -28.9250     3.2925     2.5645   348.7650
 2878.0000   126.8562     8.6198     2.4289     0.1255     0.0180   -28.8253     3.2673     2.6264   354.4742
 2878.5000   127.4564     8.7071     2.4208     0.1256     0.0222   -28.7425     3.2279     2.6825   360.1834
 2879.0000   131.4501     8.8307     2.4565     0.1214     0.0362   -28.6439     3.1496     2.6876   365.8926
 2879.5000   131.9399     8.9585     2.4723     0.1040     0.0528   -28.5320     3.0457     2.6673   371.6019
 2880.0000   129.8230     9.0165     2.4607     0.0984     0.0677   -28.4368     2.9660     2.6647   375.2475
 2880.5000   127.6331     9.0078     2.5179     0.0909     0.0870   -28.3824     2.9423     2.6785   379.2079
 2881.0000   126.0759     8.9981     2.5071     0.0842     0.0925   -28.3675     2.9601     2.6798   381.1881
 2881.5000   124.9857     8.9886     2.4894     0.0977     0.0750   -28.3719     2.9883     2.6662   381.1881
 2882.0000   124.8275     8.9776     2.4611     0.1100     0.0608   -28.3755     3.0114     2.6655   378.3564
 2882.5000   125.9871     8.9676     2.4306     0.1238     0.0443   -28.3732     3.0245     2.6856   375.8911
 2883.0000   127.7362     8.9572     2.4229     0.1245     0.0421   -28.3714     3.0222     2.6860   373.4258
 2883.5000   126.8768     8.9469     2.4485     0.1258     0.0392   -28.3725     3.0042     2.6255   371.2871
 2884.0000   126.1490     8.9366     2.4334     0.1269     0.0370   -28.3733     2.9763     2.5233   383.9445
 2884.5000   126.0551     8.9331     2.4377     0.1240     0.0353   -28.3724     2.9363     2.4415   395.1208
 2885.0000   126.5220     8.9454     2.4488     0.1198     0.0378   -28.3720     2.8746     2.4084   406.2970
 2885.5000   128.8886     8.9600     2.4420     0.1239     0.0389   -28.3727     2.7939     2.3927   417.4733
 2886.0000   133.3940     8.9748     2.4323     0.1253     0.0454   -28.3729     2.7127     2.3574   428.6495
 2886.5000   136.1521     8.9894     2.4423     0.1249     0.0592   -28.3723     2.6457     2.3065   438.6139
 2887.0000   133.9330     9.0040     2.3849     0.1299     0.0420   -28.3725     2.5933     2.2732   450.4951
 2887.5000   133.2236     9.0188     2.4317     0.1380     0.0518   -28.3734     2.5575     2.2822   450.4951
 2888.0000   135.0772     9.0331     2.4257     0.1349     0.0710   -28.3729     2.5577     2.3357   445.0693
 2888.5000   138.0639     9.0479     2.4280     0.1285     0.0604   -28.3714     2.6170     2.4195   440.1386
 2889.0000   135.6282     9.0516     2.4263     0.1388     0.0496   -28.3741     2.7337     2.5137   436.6337
 2889.5000   129.8082     9.0566     2.4296     0.1287     0.0357   -28.3863     2.8793     2.6024   411.9142
 2890.0000   125.3492     9.0618     2.4830     0.1110     0.0497   -28.4076     3.0252     2.6829   392.7393
 2890.5000   123.2520     9.0674     2.5078     0.0891     0.0715   -28.4326     3.1635     2.7690   373.5644
 2891.0000   124.2679     9.0728     2.5039     0.0903     0.0706   -28.4558     3.3030     2.8834   354.3894
 2891.5000   123.6844     9.0782     2.5051     0.0885     0.0708   -28.4770     3.4481     3.0476   335.2145
 2892.0000   122.5486     9.0836     2.5069     0.0843     0.0701   -28.5000     3.6016     3.2618   316.0396
 2892.5000   121.2248     9.0893     2.4938     0.0964     0.0497   -28.5258     3.7686     3.4922   298.0198
 2893.0000   119.0101     9.0868     2.4775     0.1040     0.0359   -28.5488     3.9572     3.6957   279.2000
 2893.5000   117.3547     9.0745     2.4825     0.1063     0.0380   -28.5664     4.1715     3.8819   261.4495
 2894.0000   116.7376     9.0622     2.4981     0.0979     0.0354   -28.5893     4.4129     4.1089   243.6990
 2894.5000   116.6593     9.0501     2.5122     0.0904     0.0394   -28.6220     4.6694     4.3669   226.7327
 2895.0000   115.3725     9.0296     2.5266     0.0815     0.0503   -28.6453     4.9091     4.5157   215.5776
 2895.5000   114.3936     9.0123     2.5412     0.0692     0.0550   -28.6505     5.1102     4.4187   200.9901
 2896.0000   117.3978     9.0189     2.5512     0.0628     0.0523   -28.6719     5.2950     4.1029   213.5049
 2896.5000   119.8457     9.0448     2.5443     0.0620     0.0599   -28.7301     5.4551     3.6993   240.5941
 2897.0000   123.4194     9.0709     2.5402     0.0667     0.0521   -28.7572     5.4381     3.2813   265.9934
 2897.5000   134.2448     9.0968     2.5287     0.0715     0.0363   -28.6610     5.0377     2.8744   306.5346
 2898.0000   148.5613     9.1228     2.5062     0.1047     0.0259   -28.4594     4.3010     2.5624   347.0759
 2898.5000   181.4525     9.1496     2.4850     0.1135     0.0419   -28.2698     3.4757     2.4305   387.1287
 2899.0000   200.3222     9.1687     2.4718     0.1112     0.0596   -28.1593     3.0097     2.4248   395.5947
 2899.5000   218.3481     9.1674     2.4841     0.1076     0.0971   -28.0846     2.8552     2.4027   403.9600
 2900.0000   188.3227     9.1399     2.4541     0.1178     0.0842   -27.9885     2.7668     2.3248   412.3252
 2900.5000   146.8902     9.1107     2.4407     0.1239     0.0474   -27.8712     2.8343     2.2964   420.7921
 2901.0000   140.0112     9.0816     2.4716     0.1060     0.0534   -27.7564     3.2687     2.4229   412.8713
 2901.5000   142.7399     9.0531     2.5014     0.0878     0.0653   -27.6585     3.9302     2.7046   356.6881
 2902.0000   137.4566     9.0522     2.5244     0.0724     0.0729   -27.5977     4.4848     3.0745   309.0000
 2902.5000   126.0224     9.0612     2.5223     0.0826     0.0591   -27.5935     4.8502     3.4805   258.4158
 2903.0000   116.0786     9.0702     2.5331     0.0732     0.0490   -27.6310     5.1918     3.9110   218.8119
 2903.5000   115.0825     9.0791     2.5541     0.0469     0.0833   -27.6725     5.5829     4.3526   199.0099
 2904.0000   113.6546     9.0879     2.5703     0.0542     0.0723   -27.7017     5.9223     4.7487   194.9794
 2904.5000   109.5919     9.0968     2.5498     0.0636     0.0784   -27.7285     6.1705     5.0369   187.0784
 2905.0000   105.9663     9.1055     2.5560     0.0723     0.0649   -27.7613     6.4048     5.2331   179.1775
 2905.5000   105.0303     9.1146     2.5178     0.0897     0.0416   -27.7969     6.6337     5.4218   171.2765
 2906.0000   105.7925     9.1237     2.5389     0.0750     0.0412   -27.8293     6.8337     5.6352   163.3755
 2906.5000   105.3899     9.1240     2.5327     0.0703     0.0483   -27.8581     7.0817     5.8054   157.4257
 2907.0000   102.6822     9.0993     2.5469     0.0740     0.0460   -27.8878     7.4020     5.8675   159.4588
 2907.5000    99.5851     9.0817     2.5377     0.0596     0.0454   -27.9247     7.7506     5.8523   161.0891
 2908.0000    99.7181     9.0452     2.5274     0.0761     0.0289   -27.9608     7.9780     5.8336   163.3663
 2908.5000   103.0774     9.0102     2.5176     0.0807     0.0237   -27.9710     7.9611     5.8385   163.3663
 2909.0000   107.8050     8.9744     2.5401     0.0757     0.0370   -27.9392     7.7578     5.8501   161.4257
 2909.5000   112.0219     8.9728     2.5332     0.0689     0.0483   -27.8794     7.5621     5.8525   159.4059
 2910.0000   116.4485     8.9720     2.5306     0.0700     0.0451   -27.8131     7.5054     5.8350   160.5347
 2910.5000   118.4734     8.9726     2.5436     0.0715     0.0417   -27.7425     7.5544     5.7809   162.0020
 2911.0000   120.4859     8.9724     2.5635     0.0517     0.0419   -27.6647     7.6016     5.6864   163.4693
