~VERSION INFORMATION
 VERS.                2.0:   CWLS LOG ASCII STANDARD - VERSION 2.0
 WRAP.                 NO:   ONE LINE PER DEPTH STEP
~WELL INFORMATION
#MNEM.UNIT      DATA TYPE    INFORMATION
#----------   ------------   ------------------------------
 STRT.F           80.0000:   START DEPTH
 STOP.F          782.0000:   STOP DEPTH
 STEP.F            0.5000:   STEP LENGTH
 NULL.          -999.2500:   NO VALUE
 COMP.            US NAVY:   COMPANY
 WELL. NPR 3 TEAPOT DOM #87-S-34:   WELL
 FLD .             TEAPOT:   FIELD
 LOC .      S34 T39N R78W:   LOCATION
 CNTY.            NATRONA:   COUNTY
 STAT.            WYOMING:   STATE
 CTRY. UNITED STATES OF AMERICA:   COUNTRY
 SRVC.       Schlumberger:   SERVICE COMPANY
 DATE.        07-AUG-1961:   LOGDATE
 API .       490250651100:   API NUMBER
~CURVE INFORMATION
#MNEM.UNIT       API CODE    CURVE DESCRIPTION
#----------   ------------   ------------------------------
 DEPT.F                  :   
 GR  .GAPI   30 310 01 00:   GAMMA RAY
 SPR .MV     05 010 01 00:   SPONTANEOUS POTENTIAL FROM RES.
 ASN .OHMM   05 041 16 00:   AMPLIFIED SHORT NORMAL 16"
 ILD .OHMM   05 120 46 00:   INDUCTION LOG DEEP
 CILD.MMHO   05 110 46 00:   CONDUCTIVITY INDUCTION LOG DEEP
~PARAMETER INFORMATION
#MNEM.UNIT          VALUE    DESCRIPTION
#----------   ------------   ------------------------------
 PD  .                 KB:   PERMANENT DATUM
 EPD .F                  :   ELEVATION PERMANENT DATUM
 LMF .                 KB:   LOG MEASURED FROM
 DAPD.F                  :   FEET ABOVE PERMANENT DATUM
 DMF .                 KB:   DRILLING MEASURED FROM
 EKB .F              5102:   KELLING BUSHING
 EDF .F                  :   DRILLING FLOOR
 EGL .F              5097:   GROUND LEVEL
 DATE.        07-AUG-1961:   RUN DATE
 RUN .                  1:   RUN NUMBER
 DD  .F               770:   DEPTH DRILLER
 DL  .F               783:   DEPTH LOGGER
 BLI .F               782:   BOTTOM LOG INTERVAL
 TLI .F               100:   TOP LOG INTERVAL
 CS  .IN                 :   CASING SIZE
 CBD .F                  :   CASING BOTTOM DRILLER
 CBL .F                  :   CASING BOTTOM LOGGER
 BS  .IN             6.75:   BIT SIZE
 BSD .F               770:   BIT SIZE AT DEPTH
 DFT .       OIL EMULSION:   DRILLING FLUID TYPE
 DFD .               10.4:   DRILLING FLUID DENSITY
 DFV .                 45:   DRILLING FLUID VISCOSITY
 DFPH.                   :   DRILLING FLUID PH
 DFL .                   :   DRILLING FLUID LOSS
 MSS .                   :   MUD SAMPLE SOURCE
 RMS .OHMM           0.95:   RESISTIVITY MUD SAMPLE
 MST .F                72:   MUD SAMPLE TEMPERATURE
 RMF .OHMM               :   RESISTIVITY MUD FILTRATE SAMPLE
 MFST.F                  :   MUD FILTRATE SAMPLE TEMPERATURE
 RMC .OHMM               :   RESISTIVITY MUD CAKE
 MCST.F                  :   MUD CAKE SAMPLE TEMPERATURE
 MFSS.                   :   MUD FILTRATE SAMPLE SOURCE
 MCSS.                   :   MUD CAKE SAMPLE SOURCE
 RMB .OHMM               :   RESISTIVITY MUD AT BHT
 BHT .F                  :   BOTTOM HOLE TEMPERATURE
 TCS .HRS               1:   TIME CURCULATED STOPPED
 TLAB.HRS                :   TIME LOGGER AT BOTTOM
 MRT .F                  :   MAXIMUM RECORDED TEMPERATURE
 LUN .               2544:   LOGGING UNIT NUMBER
 LUL .                   :   LOGGING UNIT LOCATION
 ENGI.             QUINBY:   RECORDING ENGINEER
 WITN.          JORGENSON:   WITNESSED BY
 CLNT.            A2DTECH:   CLIENT CODE
 ORIG.       2", 5" PRINT:   ORIGIN OF DATA
 UWI .       490250651100:   UNIQUE WELL ID
 DICO. A2D Technologies, Inc.:   DIGITIZING COMPANY
 OS  .                   :   OTHER SERVICES
 PWI .                   :   PRIMARY WELL IDENTIFIER
 R1  .                   :   REMARKS 1
 R2  .                   :   REMARKS 2
~OTHER INFORMATION
~A   DEPT       GR        SPR         ASN         ILD      CILD  
# ...
  446.0000  -999.2500   -26.6092    12.3369    11.2030    91.1393
  446.5000  -999.2500   -26.6151    12.4113    11.4259    91.2122
  447.0000  -999.2500   -26.3197    12.3352    11.4985    89.7632
  447.5000  -999.2500   -25.8738    12.3345    11.4955    89.8545
  448.0000  -999.2500   -25.5784    12.4089    11.4919    88.4210
  448.5000  -999.2500   -25.2831    12.4834    11.4889    88.4967
  449.0000  -999.2500   -25.1205    12.5580    11.4860    88.5714
  449.5000  -999.2500   -24.9936    12.4819    11.4075    90.1647
  450.0000  -999.2500   -25.0010    12.3308    11.3291    91.7415
  450.5000  -999.2500   -25.0068    12.0205    11.2506    93.3183
  451.0000  -999.2500   -24.8606    11.6525    11.0966    96.3988
  451.5000  -999.2500   -24.8680    11.4262    10.7160    99.4793
  452.0000  -999.2500   -25.1751    11.2751    10.4109   104.0636
  452.5000  -999.2500   -25.4821    11.2744    10.2562   105.6403
  453.0000  -999.2500   -25.7892    11.2736    10.1022   105.7948
  453.5000  -999.2500   -25.9458    11.1977    10.0238   107.2933
  454.0000  -999.2500   -25.9530    11.1218     9.9453   107.3813
  454.5000  -999.2500   -25.6562    11.0459     9.8668   108.9581
  455.0000  -999.2500   -25.6635    10.8823     9.7883   109.0311
  455.5000  -999.2500   -25.8200    10.5931     9.7099   109.1041
  456.0000  -999.2500   -25.6738    10.4422     9.6314   107.6551
  456.5000  -999.2500   -25.5291    10.5916     9.5528   107.7463
  457.0000  -999.2500   -25.2349    10.6663     9.3982   109.3233
  457.5000  -999.2500   -25.0904    10.7407     9.3197   109.5993
  458.0000  -999.2500   -25.1024    10.6646     9.1657   110.9911
  458.5000  -999.2500   -25.2528    10.5135     9.0873   112.5678
  459.0000  -999.2500   -24.8083    10.3624     9.0088   112.6408
  459.5000  -999.2500   -24.6621    10.2863     9.0821   112.7138
  460.0000  -999.2500   -24.8201    10.2104     9.1540   111.2648
  460.5000  -999.2500   -24.9765    10.2097     9.1510   111.3561
  461.0000  -999.2500   -25.2836    10.2841     9.2236   111.4291
  461.5000  -999.2500   -25.7413    10.2834     9.2200   111.5038
  462.0000  -999.2500   -26.0483    10.4330     9.2170   111.5933
  462.5000  -999.2500   -26.0542    10.4323     9.1385   110.1443
  463.0000  -999.2500   -26.0603    10.4316     9.0601   111.7393
  463.5000  -999.2500   -26.0674    10.4309     8.9816   113.3161
  464.0000  -999.2500   -26.0733    10.4299     8.6010   116.3966
  464.5000  -999.2500   -25.7765    10.1241     8.3715   120.9808
  465.0000  -999.2500   -25.7838     9.8571     7.9154   125.5651
  465.5000  -999.2500   -25.6376     9.4653     7.3836   131.6542
  466.0000  -999.2500   -25.1931     9.0135     7.0780   136.2406
  466.5000  -999.2500   -24.8978     8.7571     6.9995   140.8400
  467.0000  -999.2500   -24.6024     8.4105     6.9965   142.4167
  467.5000  -999.2500   -24.4577     8.3045     7.0699   143.9935
  468.0000  -999.2500   -24.4639     8.3339     7.0662   144.0601
  468.5000  -999.2500   -24.6215     8.4232     7.0633   144.1353
  469.0000  -999.2500   -24.9286     8.6179     7.2114   142.7209
  469.5000  -999.2500   -25.2357     8.6924     7.2840   138.2826
  470.0000  -999.2500   -25.5428     8.7069     7.3565   136.8336
  470.5000  -999.2500   -25.8498     8.7210     7.3535   136.9248
  471.0000  -999.2500   -26.1569     8.8105     7.3499   136.9978
  471.5000  -999.2500   -26.0121     8.8852     7.4225   135.5671
  472.0000  -999.2500   -25.8674     8.9293     7.5706   134.1363
  472.5000  -999.2500   -25.7227     8.9587     7.6440   132.6066
  473.0000  -999.2500   -25.5780     8.9578     7.7921   128.2855
  473.5000  -999.2500   -25.2841     8.9721     7.9396   125.3327
  474.0000  -999.2500   -25.1379     9.0014     8.1631   123.9020
  474.5000  -999.2500   -24.8440     9.2112     8.2357   120.9675
  475.0000  -999.2500   -24.6978     9.4210     8.3083   119.5367
  475.5000  -999.2500   -24.4025     9.5105     8.4564   119.6280
  476.0000  -999.2500   -24.2582     9.5098     8.4527   119.7010
  476.5000  -999.2500   -24.2656     9.5089     8.4498   119.7744
  477.0000  -999.2500   -24.4220     9.5234     8.4468   121.3534
  477.5000  -999.2500   -24.4279     9.5377     8.3684   121.4420
  478.0000  -999.2500   -24.4338     9.5217     8.2899   121.5150
  478.5000  -999.2500   -24.4517     9.5210     8.2114   123.0917
  479.0000  -999.2500   -24.5976     9.5052     8.2049   123.1647
  479.5000  -999.2500   -25.0553     9.4895     8.1299   123.2377
  480.0000  -999.2500   -25.3623     9.4586     8.0508   124.8145
  480.5000  -999.2500   -25.5188     9.3323     7.9724   124.8875
  481.0000  -999.2500   -25.6753     9.1563     7.9694   126.4661
  481.5000  -999.2500   -25.6811     9.1706     7.9665   126.5555
  482.0000  -999.2500   -25.8376     9.2151     7.9635   125.1065
  482.5000  -999.2500   -25.8435     9.2443     7.9606   125.1977
  483.0000  -999.2500   -25.8494     9.2588     7.9577   125.2707
  483.5000  -999.2500   -25.6827     9.2729     8.0302   125.3437
  484.0000  -999.2500   -25.4093     9.3022     8.0272   125.4167
  484.5000  -999.2500   -24.9648     9.3323     8.0236   126.9935
  485.0000  -999.2500   -24.6680     9.3459     8.0207   127.0677
  485.5000  -999.2500   -24.3727     9.2999     7.9422   128.6615
  486.0000  -999.2500   -24.2279     9.1788     7.9393   130.2382
  486.5000  -999.2500   -24.3859     9.1482     7.8608   131.8150
  487.0000  -999.2500   -24.5423     9.2075     7.7823   131.8880
  487.5000  -999.2500   -24.6988     9.2368     7.7039   131.9610
  488.0000  -999.2500   -24.7048     9.1458     7.6989   133.5377
  488.5000  -999.2500   -24.8626     9.0098     7.6224   133.6107
  489.0000  -999.2500   -25.1697     8.9474     7.5433   133.6842
  489.5000  -999.2500   -25.1755     8.8578     7.6166   133.7594
  490.0000  -999.2500   -25.0308     8.7969     7.5374   133.8480
  490.5000  -999.2500   -25.0367     8.7059     7.5344   135.4247
  491.0000  -999.2500   -24.8905     8.5849     7.4560   135.4977
  491.5000  -999.2500   -24.7470     8.4939     7.3020   138.5782
  492.0000  -999.2500   -24.7531     8.4045     6.9969   146.1700
  492.5000  -999.2500   -24.6083     8.2954     6.6906   152.2581
  493.0000  -999.2500   -24.4378     8.1734     6.2069   161.3536
  493.5000  -999.2500   -24.1697     7.9233     5.4768   166.0999
  494.0000  -999.2500   -24.1756     7.6329     5.3983   172.0442
  494.5000  -999.2500   -24.0294     7.4217     5.2443   175.1247
  495.0000  -999.2500   -24.0367     7.1954     5.2414   175.1977
  495.5000  -999.2500   -24.0426     7.0593     5.1636   175.2707
  496.0000  -999.2500   -24.0485     7.0135     5.2362   175.3437
  496.5000  -999.2500   -24.0543     7.0278     5.3081   173.9129
  497.0000  -999.2500   -24.0602     7.1624     5.3812   170.9784
  497.5000  -999.2500   -24.2369     7.4085     5.5288   166.4411
  498.0000  -999.2500   -24.6758     7.7773     5.7517   160.5981
  498.5000  -999.2500   -24.9829     7.9721     5.8998   156.1598
  499.0000  -999.2500   -24.9888     8.0916     6.0479   150.2360
  499.5000  -999.2500   -25.2958     8.1212     6.1213   147.2833
  500.0000  -999.2500   -25.6024     8.1505     6.1938   144.3487
  500.5000  -999.2500   -25.3066     8.1353     5.8897   145.1361
  501.0000  -999.2500   -25.1603     8.1957     5.5841   145.8647
  501.5000  -999.2500   -25.1647     8.2406     5.3577   145.8647
  502.0000  -999.2500   -25.0173     8.2406     5.3563   145.8647
  502.5000  -999.2500   -24.7214     8.1053     5.4307   145.8647
  503.0000  -999.2500   -24.2741     8.0451     5.4289   145.8647
  503.5000  -999.2500   -23.9772     8.0000     5.3519   148.8722
  504.0000  -999.2500   -23.8309     7.9382     5.4260   150.3759
  504.5000  -999.2500   -23.8363     7.7744     5.3487   153.3835
  505.0000  -999.2500   -23.9913     7.6541     5.0451   159.3985
  505.5000  -999.2500   -24.1462     7.5338     4.5905   169.9248
  506.0000  -999.2500   -24.3133     7.4135     3.8338   180.4511
  506.5000  -999.2500   -24.7583     7.2481     3.2276   207.5188
