~VERSION INFORMATION
 VERS.                2.0:   CWLS LOG ASCII STANDARD - VERSION 2.0
 WRAP.                 NO:   ONE LINE PER DEPTH STEP
~WELL INFORMATION
#MNEM.UNIT      DATA TYPE    INFORMATION
#----------   ------------   ------------------------------
 STRT.F            0.0000:   START DEPTH
 STOP.F          539.0000:   STOP DEPTH
 STEP.F            0.5000:   STEP LENGTH
 NULL.          -999.2500:   NO VALUE
 COMP. FENIX & SCISSON INC:   COMPANY
 WELL.     NPR 3 SX #23-3:   WELL
 FLD .             TEAPOT:   FIELD
 LOC .       S3 T38N R78W:   LOCATION
 CNTY.            NATRONA:   COUNTY
 STAT.            WYOMING:   STATE
 CTRY. UNITED STATES OF AMERICA:   COUNTRY
 SRVC.           BIRDWELL:   SERVICE COMPANY
 DATE.        27-JUL-1978:   LOGDATE
 API .       490251067500:   API NUMBER
~CURVE INFORMATION
#MNEM.UNIT       API CODE    CURVE DESCRIPTION
#----------   ------------   ------------------------------
 DEPT.F                  :   
 ILD .OHMM   05 120 40 00:   INDUCTION LOG DEEP
 SPR .MV     05 010 01 00:   SPONTANEOUS POTENTIAL
 SN  .OHMM   05 040 16 00:   SHORT NORMAL 16"
 CALD.IN     45 280 60 00:   CALIPER FROM DENSITY LOG
 CORR.G/C3   45 356 01 00:   DENSITY CORRECTION
 DPHI.DEC    45 890 12 00:   DENSITY POROSITY SANDSTONE
 GRD .GAPI   45 310 01 00:   GAMMA RAY FROM DENSITY LOG
 RHOB.G/C3   45 350 01 00:   BULK DENSITY
~PARAMETER INFORMATION
#MNEM.UNIT          VALUE    DESCRIPTION
#----------   ------------   ------------------------------
 PD  .                 GL:   PERMANENT DATUM
 EPD .F              5787:   ELEVATION PERMANENT DATUM
 LMF .                 KB:   LOG MEASURED FROM
 DAPD.F                 4:   FEET ABOVE PERMANENT DATUM
 DMF .                 KB:   DRILLING MEASURED FROM
 EKB .F              5191:   KELLING BUSHING
 EGL .F              5187:   GROUND LEVEL
 DATE.         7-JUL-1978:   RUN DATE
 RUN .                  1:   RUN NUMBER
 DD  .F               540:   DEPTH DRILLER
 DL  .F               540:   DEPTH LOGGER
 BLI .F               539:   BOTTOM LOG INTERVAL
 CS  .IN            8.625:   CASING SIZE
 CBD .F                40:   CASING BOTTOM DRILLER
 BS  .IN            7.875:   BIT SIZE
 BSD .F               540:   BIT SIZE AT DEPTH
 DFT .                KCL:   DRILLING FLUID TYPE
 DFD .                8.6:   DRILLING FLUID DENSITY
 DFV .                 30:   DRILLING FLUID VISCOSITY
 DFPH.                  9:   DRILLING FLUID PH
 MSS .           FLOWLINE:   MUD SAMPLE SOURCE
 MRT .F                74:   MAXIMUM RECORDED TEMPERATURE
 LUN .               2958:   LOGGING UNIT NUMBER
 LUL .               CASP:   LOGGING UNIT LOCATION
 ENGI.            POINTER:   RECORDING ENGINEER
 WITN.              AMEND:   WITNESSED BY
 CLNT.            A2DTECH:   CLIENT CODE
 ORIG.           5" PRINT:   ORIGIN OF DATA
 UWI .       490251067500:   UNIQUE WELL ID
 DICO. A2D Technologies, Inc.:   DIGITIZING COMPANY
~OTHER INFORMATION
~A    DEPT     ILD        SPR         SN         CALD     CORR       DPHI         GRD      RHOB   
# ...
  324.0000     6.1787   -27.0952     6.5379     8.6578     0.1493     0.2230    88.8722     2.2857
  324.5000     6.0146   -27.2375     6.3645     8.6871     0.1611     0.2042    89.9248     2.2602
  325.0000     5.9357   -27.2319     6.1964     8.6857     0.1534     0.1823    89.9248     2.2661
  325.5000     5.9388   -27.3751     6.1996     8.7148     0.0889     0.1275    89.9248     2.4692
  326.0000     6.0662   -27.5183     6.3317     8.7438     0.0752     0.0996    84.2105     2.5194
  326.5000     6.4120   -27.5379     6.5558     8.8031     0.0661     0.1008    82.7068     2.5224
  327.0000     7.0140   -27.6558     7.6276     8.8470     0.0600     0.1032    82.1053     2.5103
  327.5000     8.1056   -27.6488     8.6335     8.8612     0.0568     0.1069    82.5564     2.4968
  328.0000     9.1136   -27.6418     9.2507     8.8749     0.0521     0.1072    81.5038     2.4891
  328.5000     9.6341   -27.6361     9.5127     8.9190     0.0460     0.1081    80.9023     2.4809
  329.0000     9.9074   -27.4817     9.6490     8.9629     0.0383     0.1093    80.7519     2.4786
  329.5000     9.9126   -27.0296     9.6553     9.0071     0.0322     0.1129    80.3008     2.4794
  330.0000     9.9178   -26.4286     9.6603     9.0815     0.0215     0.1231    79.6992     2.4771
  330.5000     9.9231   -26.2729     9.6654     9.1407     0.0214     0.1298    76.6917     2.4680
  331.0000     9.9294   -25.9697     9.6704     9.2151     0.0275     0.1398    76.2406     2.4544
  331.5000    10.2111   -26.1128     9.8778     9.2744     0.0450     0.1553    76.0902     2.4140
  332.0000    10.5731   -26.1072    10.2274     9.3334     0.0568     0.1694    73.5338     2.3967
  332.5000    11.0992   -25.8026    11.1098     9.3322     0.0686     0.1769    71.1278     2.3741
  333.0000    12.0599   -24.6065    11.7420     9.3008     0.0745     0.1838    68.2707     2.3628
  333.5000    13.1020   -24.0056    12.7550     9.2695     0.0758     0.1925    61.6541     2.3416
  334.0000    14.6303   -23.5535    13.8658     9.2683     0.0568     0.2079    55.3383     2.3238
  334.5000    16.7917   -22.2072    14.6459     9.3273     0.0380     0.2187    50.8271     2.3087
  335.0000    19.2723   -22.3504    14.8557     9.3261     0.0379     0.2211    49.3233     2.2877
  335.5000    20.3733   -22.7912    14.9657     9.3857     0.0377     0.2181    49.0226     2.2667
  336.0000    20.5243   -22.6368    15.0764     9.3692     0.0375     0.2128    49.4817     2.2749
  336.5000    20.3919   -22.1845    15.1025     9.3361     0.0359     0.2079    50.2256     2.2908
  337.0000    20.4052   -21.7312    15.5136     9.3213     0.0312     0.2116    52.0301     2.2935
  337.5000    20.4161   -21.5768    15.7359     9.3201     0.0280     0.2227    53.9850     2.2785
  338.0000    20.4292   -21.5712    15.9614     9.4096     0.0309     0.2125    55.6391     2.2694
  338.5000    20.4398   -21.5655    15.9697     9.4991     0.0352     0.2003    55.7895     2.2739
  339.0000    20.4505   -21.5585    16.1014     9.5130     0.0366     0.1906    56.2406     2.2875
  339.5000    20.3210   -21.5529    16.2091     9.4814     0.0364     0.1781    57.4436     2.3083
  340.0000    20.3322   -21.5472    16.2175     9.4651     0.0362     0.1721    57.8947     2.3435
  340.5000    20.3674   -21.0952    16.2254     9.5244     0.0241     0.1707    57.5940     2.3592
  341.0000    20.4959   -20.6417    16.2343     9.4930     0.0119     0.1701    57.4436     2.3651
  341.5000    20.5066   -20.9337    16.2432     9.4314     0.0178     0.1758    56.9925     2.3666
  342.0000    20.5173   -21.5247    16.2535     9.4904     0.0236     0.1963    56.8421     2.3600
  342.5000    20.6720   -22.1131    16.2620     9.5497     0.0294     0.1986    56.3910     2.3065
  343.0000    20.9687   -22.1071    16.2705     9.5939     0.0352     0.2020    56.2406     2.3050
  343.5000    21.1241   -21.5050    16.2789     9.6079     0.0380     0.2083    56.2406     2.3019
  344.0000    21.1351   -20.9042    16.2878     9.6369     0.0439     0.2179    56.6917     2.2944
  344.5000    21.5381   -20.4521    16.2981     9.6659     0.0527     0.2272    56.8421     2.2808
  345.0000    21.7489   -20.2976    16.3066     9.6425     0.0600     0.2335    56.6917     2.2568
  345.5000    21.7587   -20.2906    16.3151     9.6331     0.0703     0.2371    56.6917     2.2418
  346.0000    21.9215   -20.4352    16.3236     9.6320     0.0762     0.2273    56.8421     2.2387
  346.5000    22.3892   -20.4282    16.3325     9.6308     0.0760     0.2192    56.8421     2.2447
  347.0000    22.4011   -20.2737    16.3427     9.6296     0.0758     0.2147    57.4436     2.2581
  347.5000    22.7253   -20.2667    16.3512     9.6282     0.0757     0.2058    57.4436     2.2869
  348.0000    23.0514   -20.2611    16.3598     9.6272     0.0755     0.2031    57.4436     2.2955
  348.5000    23.0635   -20.2555    16.3684     9.6259     0.0818     0.2055    58.0451     2.2955
  349.0000    23.0755   -20.3986    16.3790     9.6399     0.0872     0.2061    58.6466     2.2924
  349.5000    23.2667   -20.5570    16.3864     9.6387     0.0870     0.2061    58.0451     2.2909
  350.0000    23.5832   -20.8338    16.3961     9.6526     0.0868     0.2043    58.0451     2.2954
  350.5000    23.7580   -20.8268    16.4043     9.6512     0.0867     0.1894    58.1955     2.3133
  351.0000    23.7704   -20.8211    16.4133     9.6501     0.0865     0.1894    58.6466     2.3223
  351.5000    23.7828   -20.8155    16.4239     9.6489     0.0908     0.2005    59.8496     2.3132
  352.0000    23.7983   -20.5109    16.4324     9.6477     0.0922     0.2050    61.0526     2.3064
  352.5000    23.8107   -20.5052    16.4410     9.6312     0.0950     0.1994    61.6541     2.3011
  353.0000    23.1750   -20.3508    16.3372     9.6301     0.0948     0.1966    60.9637     2.3073
  353.5000    22.5622   -20.3452    16.2341     9.6138     0.0962     0.1931    59.9130     2.3190
  354.0000    22.2642   -20.1893    16.1337     9.6126     0.0960     0.1973    59.1438     2.3205
  354.5000    21.8267   -20.1204    15.8116     9.6115     0.0973     0.1988    58.6806     2.3159
  355.0000    21.3902   -19.9375    15.3941     9.5801     0.0971     0.1971    59.5752     2.3091
  355.5000    20.8219   -20.2246    14.9856     9.5786     0.0970     0.1932    60.4727     2.3039
  356.0000    20.2712   -20.5081    14.9938     9.5170     0.0953     0.1753    61.0909     2.3222
  356.5000    20.2818   -20.4904    15.0033     9.4857     0.0907     0.1747    61.6616     2.3457
  357.0000    19.7429   -20.6251    15.0111     9.4543     0.0845     0.1744    61.6471     2.3525
  357.5000    19.7558   -21.0574    15.0189     9.4682     0.0783     0.1756    62.3325     2.3515
  358.0000    19.6283   -21.0398    15.0267     9.5124     0.0757     0.1843    63.3872     2.3447
  358.5000    19.6411   -21.3233    15.0365     9.5112     0.0755     0.1901    63.5344     2.3364
  359.0000    19.6902   -21.6071    15.0444     9.4946     0.0754     0.1916    63.6788     2.3259
  359.5000    19.6953   -21.5923    15.2393     9.4482     0.0738     0.1910    63.5212     2.3183
  360.0000    20.2488   -21.5750    15.2479     9.4319     0.0736     0.1922    62.9079     2.3183
  360.5000    20.5473   -21.5609    15.2548     9.3854     0.0750     0.1986    62.5991     2.3212
  361.0000    21.1123   -20.9516    15.2618     9.3842     0.0749     0.2055    62.2902     2.3212
  361.5000    21.4097   -20.3422    15.2687     9.3529     0.0747     0.2091    62.1329     2.3061
  362.0000    21.4153   -20.4734    15.2757     9.3366     0.0776     0.2055    62.1270     2.2911
  362.5000    21.7169   -20.9092    15.0746     9.3200     0.0790     0.2040    62.2727     2.2903
  363.0000    21.7239   -21.1892    15.0824     9.3189     0.0803     0.2020    62.5939     2.2940
  363.5000    21.7296   -21.3244    15.0900     9.3177     0.0802     0.2008    63.1687     2.3022
  364.0000    21.7352   -21.1607    14.8914     9.3165     0.0800     0.2044    63.4674     2.3089
