~VERSION INFORMATION
 VERS.                2.0:   CWLS LOG ASCII STANDARD - VERSION 2.0
 WRAP.                 NO:   ONE LINE PER DEPTH STEP
~WELL INFORMATION
#MNEM.UNIT      DATA TYPE    INFORMATION
#----------   ------------   ------------------------------
 STRT.F           32.0000:   START DEPTH
 STOP.F          501.0000:   STOP DEPTH
 STEP.F            0.5000:   STEP LENGTH
 NULL.          -999.2500:   NO VALUE
 COMP. FENIX & SCISSON, INC., U.S. NAVY:   COMPANY
 WELL.     NPR-3 #82-S-10:   WELL
 FLD .             TEAPOT:   FIELD
 LOC .      S10 T38N R78W:   LOCATION
 CNTY.            NATRONA:   COUNTY
 STAT.            WYOMING:   STATE
 CTRY. UNITED STATES OF AMERICA:   COUNTRY
 SRVC.              Welex:   SERVICE COMPANY
 DATE.        10-MAY-1977:   LOGDATE
 API .       490251035300:   API NUMBER
~CURVE INFORMATION
#MNEM.UNIT       API CODE    CURVE DESCRIPTION
#----------   ------------   ------------------------------
 DEPT.F                  :   
 GURD.OHMM   07 220 05 00:   SHALLOW SHORT GUARD RESISTIVITY
 ILD .OHMM   07 120 46 00:   INDUCTION LOG DEEP
 ILM .OHMM   07 120 44 00:   INDUCTION LOG MEDIUM
 SPR .MV     07 010 01 00:   SPONTANEOUS POTENTIAL
 CALD.IN     45 280 60 00:   CALIPER FROM DENSITY LOG
 CORR.G/C3   45 356 01 00:   DENSITY CORRECTION
 DPHI.DEC    45 890 12 00:   DENSITY POROSITY SANDSTONE
 GRD .GAPI   45 310 01 00:   GAMMA RAY FROM DENSITY LOG
 RHOB.G/C3   45 350 01 00:   BULK DENSITY
~PARAMETER INFORMATION
#MNEM.UNIT          VALUE    DESCRIPTION
#----------   ------------   ------------------------------
 PD  .                 GL:   PERMANENT DATUM
 EPD .F              5134:   ELEVATION PERMANENT DATUM
 LMF .                 GL:   LOG MEASURED FROM
 DMF .                 GL:   DRILLING MEASURED FROM
 EGL .F              5134:   GROUND LEVEL
 DATE.        10-MAY-1977:   RUN DATE
 RUN .                  1:   RUN NUMBER
 DD  .F               505:   DEPTH DRILLER
 DL  .F               504:   DEPTH LOGGER
 BLI .F               502:   BOTTOM LOG INTERVAL
 TLI .F                30:   TOP LOG INTERVAL
 CS  .IN            8.625:   CASING SIZE
 CBD .F                40:   CASING BOTTOM DRILLER
 CBL .F                41:   CASING BOTTOM LOGGER
 BS  .IN            7.875:   BIT SIZE
 BSD .F               505:   BIT SIZE AT DEPTH
 DFT .            KCL MUD:   DRILLING FLUID TYPE
 DFD .                8.7:   DRILLING FLUID DENSITY
 DFV .                 29:   DRILLING FLUID VISCOSITY
 DFPH.                7.5:   DRILLING FLUID PH
 DFL .                6.6:   DRILLING FLUID LOSS
 MSS .           FLOWLINE:   MUD SAMPLE SOURCE
 RMS .OHMM           0.26:   RESISTIVITY MUD SAMPLE
 MST .F                72:   MUD SAMPLE TEMPERATURE
 RMF .OHMM           0.22:   RESISTIVITY MUD FILTRATE SAMPLE
 MFST.F                72:   MUD FILTRATE SAMPLE TEMPERATURE
 RMC .OHMM           0.42:   RESISTIVITY MUD CAKE
 MCST.F                72:   MUD CAKE SAMPLE TEMPERATURE
 MFSS.           FANN KIT:   MUD FILTRATE SAMPLE SOURCE
 MCSS.           FANN KIT:   MUD CAKE SAMPLE SOURCE
 RMB .OHMM           0.24:   RESISTIVITY MUD AT BHT
 BHT .F                78:   BOTTOM HOLE TEMPERATURE
 TCS .HRS               1:   TIME CURCULATED STOPPED
 MRT .F                78:   MAXIMUM RECORDED TEMPERATURE
 LUN .               8611:   LOGGING UNIT NUMBER
 LUL .             CASPER:   LOGGING UNIT LOCATION
 ENGI.            C. DOAK:   RECORDING ENGINEER
 WITN.         D. RHOADES:   WITNESSED BY
 CLNT.            A2DTECH:   CLIENT CODE
 ORIG.           5" PRINT:   ORIGIN OF DATA
 UWI .       490251035300:   UNIQUE WELL ID
 DICO. A2D Technologies, Inc.:   DIGITIZING COMPANY
~OTHER INFORMATION
~A   DEPT     GURD        ILD        ILM         SPR      CALD       CORR       DPHI        GRD       RHOB   
# ...
  397.0000    33.8334    24.1934    21.2872   -32.9750     7.6753     0.0623     0.1799    86.3907     2.3732
  397.5000    33.6124    24.2065    20.7182   -32.7034     7.6764     0.0580     0.1873    84.3817     2.3590
  398.0000    34.3369    24.2197    21.1636   -32.3671     7.6923     0.0533     0.1912    81.7112     2.3471
  398.5000    33.1867    24.2329    25.8731   -32.0381     7.7380     0.0477     0.1968    81.1281     2.3449
  399.0000    32.2703    24.0786    29.1137   -31.6597     7.7836     0.0418     0.2004    80.5449     2.3427
  399.5000    33.4487    23.9261    31.2135   -31.5623     7.7996     0.0389     0.1986    81.4454     2.3405
  400.0000    32.5524    23.9391    29.7559   -31.2488     7.8304     0.0360     0.1932    83.0878     2.3488
  400.5000    31.4620    23.9524    27.3921   -31.0079     7.8612     0.0317     0.1935    84.5818     2.3549
  401.0000    33.3499    23.9656    26.8556   -30.8070     7.8771     0.0273     0.1916    86.0758     2.3594
  401.5000    34.4516    23.9815    26.8709   -30.7510     7.8930     0.0274     0.1880    87.8665     2.3647
  402.0000    31.5107    24.6675    26.1556   -30.5924     7.9089     0.0275     0.1871    89.3605     2.3588
  402.5000    30.4516    25.1982    25.8071   -30.5175     7.9100     0.0276     0.1895    90.7061     2.3633
  403.0000    31.3236    25.3869    26.7325   -30.2679     7.9112     0.0262     0.1856    91.6066     2.3679
  403.5000    30.6956    25.2222    27.8792   -30.1019     7.9123     0.0234     0.1844    88.7979     2.3672
  404.0000    28.4592    24.7212    27.3221   -30.0872     7.9133     0.0190     0.1903    87.0278     2.3583
  404.5000    30.3032    24.3916    26.2269   -30.0744     7.8843     0.0191     0.1954    88.9669     2.3516
  405.0000    30.7395    24.2367    25.1755   -29.9107     7.8704     0.0192     0.1978    91.0544     2.3501
  405.5000    29.7063    23.9201    25.5397   -29.8943     7.8420     0.0193     0.2016    91.8065     2.3448
  406.0000    30.3466    23.4418    24.5159   -29.9792     7.8279     0.0135     0.2073    89.4429     2.3329
  406.5000    29.7382    22.3463    22.7341   -30.0174     7.7991     0.0076     0.2082    88.2663     2.3316
  407.0000    27.7660    20.8647    21.8227   -30.2967     7.7707     0.0092     0.2034    88.8701     2.3380
  407.5000    25.3928    20.1666    19.9589   -30.5796     7.7566     0.0153     0.1938    91.9961     2.3552
  408.0000    28.5714    19.9005    21.5467   -30.7143     7.7427     0.0229     0.1809    94.6770     2.3752
  408.5000    27.4092    19.9113    20.6661   -30.9970     7.7440     0.0246     0.1797    96.7645     2.3700
  409.0000    25.9477    19.6308    18.7862   -31.1310     7.7450     0.0187     0.1862    93.4592     2.3656
  409.5000    26.4507    19.3591    21.5544   -31.1915     7.7461     0.0143     0.1889    98.2988     2.3582
  410.0000    27.7709    19.1865    24.0854   -31.2527     7.7319     0.0144     0.1919    96.5302     2.3493
  410.5000    29.1570    19.4619    29.0389   -31.2351     7.7312     0.0145     0.1954    93.5746     2.3486
  411.0000    28.9660    19.6035    27.8374   -31.2202     7.7306     0.0131     0.1984    91.8060     2.3456
  411.5000    26.1231    19.7462    24.6215   -31.2054     7.7300     0.0130     0.2011    91.6665     2.3528
  412.0000    23.7225    19.8900    21.4593   -31.1905     7.7293     0.0190     0.1927    92.8682     2.3695
  412.5000    24.5647    19.7594    20.5976   -31.1731     7.7287     0.0237     0.1677    94.5121     2.3933
  413.0000    24.6011    19.6301    20.3222   -31.3073     7.7281     0.0253     0.1659    94.8177     2.3999
  413.5000    23.7466    19.5014    21.6389   -31.4598     7.6990     0.0284     0.1662    92.1619     2.3969
  414.0000    23.2673    19.3752    21.3495   -31.5792     7.6853     0.0300     0.1686    89.0580     2.3923
  414.5000    23.4367    19.5162    20.6367   -31.5608     7.6713     0.0301     0.1733    87.1410     2.3871
  415.0000    23.4448    19.7947    19.5362   -31.5462     7.6726     0.0302     0.1793    85.3724     2.3821
  415.5000    23.1325    19.9388    19.4086   -31.6815     7.6887     0.0303     0.1746    85.9777     2.3904
  416.0000    22.6656    19.8064    20.1028   -31.6667     7.7049     0.0304     0.1712    87.6216     2.3919
  416.5000    22.2082    19.5426    20.1160   -31.6509     7.7117     0.0305     0.1712    88.9687     2.3920
  417.0000    21.9108    19.2808    19.0398   -31.7857     7.7220     0.0306     0.1718    89.7223     2.3883
  417.5000    21.4667    18.8897    19.7187   -31.7703     7.7233     0.0307     0.1739    86.9152     2.3853
  418.0000    21.3262    18.5096    18.9289   -31.7662     7.7245     0.0263     0.1766    85.2950     2.3823
  418.5000    21.6320    18.2617    18.0437   -31.9073     7.7257     0.0234     0.1792    84.4166     2.3786
  419.0000    21.4904    18.0170    17.9258   -32.0459     7.7268     0.0235     0.1798    83.9803     2.3824
  419.5000    21.3495    17.8773    17.8108   -32.2264     7.7281     0.0266     0.1761    86.5174     2.3892
  420.0000    21.0637    17.5388    17.4558   -32.6207     7.7292     0.0267     0.1681    89.7933     2.3960
  420.5000    20.6269    17.3038    17.2244   -32.7568     7.7153     0.0298     0.1645    91.7339     2.4027
  421.0000    20.2220    16.9542    16.8790   -32.8090     7.7066     0.0314     0.1614    94.2680     2.4065
  421.5000    20.0896    16.4973    17.2407   -32.8854     7.7028     0.0315     0.1656    97.0988     2.4021
  422.0000    19.9580    16.1641    17.3859   -33.0238     7.6893     0.0362     0.1611    99.7812     2.4141
  422.5000    19.4222    15.9475    16.5563   -33.0909     7.6754     0.0423     0.1482    98.7544     2.4328
  423.0000    18.7690    15.8416    15.4526   -33.1518     7.6769     0.0514     0.1354    95.5022     2.4531
  423.5000    18.2620    15.6306    13.9165   -33.1395     7.6629     0.0590     0.1291    93.5852     2.4658
  424.0000    19.7125    15.4212    13.5693   -33.2922     7.6643     0.0621     0.1273    93.8938     2.4569
  424.5000    18.9183    15.2145    15.2697   -33.4192     7.6655     0.0607     0.1320    94.6474     2.4479
  425.0000    18.0312    14.9936    16.7126   -33.4635     7.6667     0.0593     0.1431    95.5495     2.4405
  425.5000    17.7896    14.8095    17.0687   -33.5476     7.6381     0.0564     0.1482    96.0282     2.4308
  426.0000    17.6733    14.7124    15.1861   -33.5349     7.6393     0.0505     0.1493    93.6443     2.4316
  426.5000    18.3114    14.6160    15.4047   -33.5247     7.6703     0.0461     0.1451    93.9529     2.4436
  427.0000    18.5619    14.8258    16.0644   -33.6637     7.7012     0.0523     0.1349    96.6353     2.4549
  427.5000    18.4400    15.0373    16.6370   -33.6987     7.7024     0.0584     0.1280   101.5433     2.4639
  428.0000    17.9450    15.3577    17.2279   -33.7917     7.6887     0.0629     0.1223   104.6708     2.4699
  428.5000    17.4602    15.6849    16.6525   -33.8846     7.6899     0.0630     0.1184   104.8310     2.4849
  429.0000    18.0816    16.0191    17.1275   -33.9201     7.6911     0.0632     0.1163   103.5075     2.4857
  429.5000    18.5946    16.2477    17.8611   -33.9092     7.6774     0.0617     0.1199    99.5134     2.4738
  430.0000    18.9905    15.9049    17.5922   -33.8988     7.6786     0.0573     0.1256    95.0742     2.4551
  430.5000    18.9969    15.2450    15.7871   -34.0357     7.6798     0.0530     0.1393    93.1548     2.4409
  431.0000    18.4853    14.5620    16.5793   -34.1198     7.6656     0.0453     0.1483    93.6291     2.4305
  431.5000    17.9875    14.2678    14.5465   -34.3155     7.6524     0.0380     0.1447    95.1320     2.4327
  432.0000    17.5031    14.0754    16.2546   -34.4515     7.6387     0.0368     0.1393    96.7834     2.4455
  432.5000    16.9049    13.7911    17.0682   -34.5927     7.6845     0.0369     0.1351    98.4223     2.4545
  433.0000    16.4403    13.5137    15.5000   -34.7287     7.7021     0.0370     0.1324    99.9228     2.4628
