~VERSION INFORMATION
 VERS.                2.0:   CWLS LOG ASCII STANDARD - VERSION 2.0
 WRAP.                 NO:   ONE LINE PER DEPTH STEP
~WELL INFORMATION
#MNEM.UNIT      DATA TYPE    INFORMATION
#----------   ------------   ------------------------------
 STRT.F            0.0000:   START DEPTH
 STOP.F          400.0000:   STOP DEPTH
 STEP.F            0.5000:   STEP LENGTH
 NULL.          -999.2500:   NO VALUE
 COMP. DEPARTMENT OF ENERGY:   COMPANY
 WELL. NPR 3 #55-56 SX 3 C5:   WELL
 FLD .        TEAPOT EAST:   FIELD
 LOC .       S3 T38N R78W:   LOCATION
 CNTY.            NATRONA:   COUNTY
 STAT.            WYOMING:   STATE
 CTRY. UNITED STATES OF AMERICA:   COUNTRY
 SRVC.      Dresser Atlas:   SERVICE COMPANY
 DATE.        03-JUL-1985:   LOGDATE
 API .       490251134300:   API NUMBER
~CURVE INFORMATION
#MNEM.UNIT       API CODE    CURVE DESCRIPTION
#----------   ------------   ------------------------------
 DEPT.F                  :   
 GRR .GAPI   07 310 01 00:   GAMMA RAY
 RILD.OHMM   07 120 46 00:   INDUCTION LOG DEEP RESISTIVITY
 RILM.OHMM   07 120 44 00:   INDUCTION LOG DEEP RESISTIVITY
 CALD.IN     45 280 60 00:   CALIPER FROM DENSITY LOG
 CORR.G/C3   45 356 01 00:   DENSITY CORRECTION
 DEN .G/C3   45 350 01 00:   COMPENSATED BULK DENSTIY
 NPOR.DEC    42 890 03 00:   NEUTRON POROSITY SANDSTONE
 PORD.DEC    45 890 12 00:   POROSITY DENSITY SANDSTONE
~PARAMETER INFORMATION
#MNEM.UNIT          VALUE    DESCRIPTION
#----------   ------------   ------------------------------
 PD  .                 GL:   PERMANENT DATUM
 EPD .F              5168:   ELEVATION PERMANENT DATUM
 LMF .                 GL:   LOG MEASURED FROM
 DMF .                 GL:   DRILLING MEASURED FROM
 EGL .F              5168:   GROUND LEVEL
 DATE.        03-JUL-1985:   RUN DATE
 RUN .                  1:   RUN NUMBER
 DD  .F               402:   DEPTH DRILLER
 DL  .F               402:   DEPTH LOGGER
 BLI .F               394:   BOTTOM LOG INTERVAL
 CS  .IN                7:   CASING SIZE
 CBD .F                80:   CASING BOTTOM DRILLER
 CBL .F                84:   CASING BOTTOM LOGGER
 BS  .IN            4.875:   BIT SIZE
 BSD .F               402:   BIT SIZE AT DEPTH
 DFT .                OIL:   DRILLING FLUID TYPE
 TCS .HRS               3:   TIME CURCULATED STOPPED
 MRT .F               148:   MAXIMUM RECORDED TEMPERATURE
 LUN .               6274:   LOGGING UNIT NUMBER
 LUL .               GLTE:   LOGGING UNIT LOCATION
 ENGI.             RAUTIO:   RECORDING ENGINEER
 WITN.             GROOMS:   WITNESSED BY
 CLNT.            A2DTECH:   CLIENT CODE
 ORIG.           5" PRINT:   ORIGIN OF DATA
 UWI .       490251134300:   UNIQUE WELL ID
 DICO. A2D Technologies, Inc.:   DIGITIZING COMPANY
~OTHER INFORMATION
~A    DEPT      GRR      RILD       RILM       CALD       CORR        DEN       NPOR       PORD   
# ...
  364.5000    81.8748     9.1158     9.3778     5.1063    -0.0447     2.3052     0.2545     0.2056
  365.0000    80.9668     8.9274     9.1187     5.1051    -0.0493     2.3014     0.2533     0.2080
  365.5000    80.6529     8.6825     8.8666     5.1039    -0.0434     2.3074     0.2636     0.2089
  366.0000    80.9477     8.5032     8.6216     5.0939     0.0210     2.3164     0.2889     0.2062
  366.5000    78.8207     8.2700     8.3833     5.0865     0.0330     2.3246     0.2913     0.2002
  367.0000    76.0920     8.1555     8.3235     5.0853     0.0089     2.3321     0.2871     0.1941
  367.5000    75.1343     8.0426     8.2641     5.0839     0.0014     2.3373     0.2865     0.1905
  368.0000    76.9789     7.9865     8.2620     5.0828     0.0044     2.3432     0.2865     0.1863
  368.5000    78.5213     7.9859     8.2603     5.0817     0.0148     2.3508     0.2811     0.1829
  369.0000    80.2802     7.9853     8.2587     5.0955     0.0237     2.3589     0.2714     0.1796
  369.5000    81.4790     8.0404     8.2570     5.0943     0.0282     2.3656     0.2583     0.1766
  370.0000    80.8650     8.0398     8.2553     5.0931     0.0237     2.3686     0.2572     0.1730
  370.5000    78.4383     8.0392     8.2537     5.0917     0.0277     2.3648     0.2711     0.1696
  371.0000    76.6159     8.0387     8.2520     5.0755     0.0625     2.3595     0.2741     0.1705
  371.5000    76.5979     7.9826     8.2503     5.0743     0.0849     2.3617     0.2656     0.1736
  372.0000    80.3559     7.9791     8.1911     5.0885     0.0983     2.3640     0.2605     0.1741
  372.5000    84.1372     7.9262     8.1326     5.0870     0.0414     2.3647     0.2584     0.1720
  373.0000    83.5232     7.8709     8.0186     5.0858     0.0264     2.3608     0.2698     0.1729
  373.5000    80.7944     7.8160     8.0170     5.0847     0.0233     2.3497     0.2756     0.1768
  374.0000    78.3678     7.7078     7.9598     5.0835     0.0293     2.3345     0.2695     0.1856
  374.5000    77.1496     7.7073     7.9030     5.0974     0.0291     2.3292     0.2532     0.1901
  375.0000    77.7441     7.7068     7.9014     5.0959     0.0107     2.3375     0.2516     0.1919
  375.5000    82.6687     7.6530     7.8998     5.1098    -0.0023     2.3502     0.2508     0.1889
  376.0000    86.6197     7.6525     7.8979     5.1086    -0.0068     2.3554     0.2508     0.1801
  376.5000  -999.2500     7.7051     7.8963     5.0924    -0.0084     2.3591     0.2508     0.1756
  377.0000  -999.2500     7.7046     7.8947     5.0912     0.0051     2.3621     0.2586     0.1741
  377.5000  -999.2500     7.7578     7.9486     5.0751     0.0260     2.3666     0.2752     0.1729
  378.0000  -999.2500     7.9202     8.0024     5.0739     0.0409     2.3744     0.2852     0.1695
  378.5000  -999.2500     8.0303     8.2262     5.0877     0.0483     2.3815     0.2870     0.1635
  379.0000  -999.2500     8.1986     8.4566     5.0863     0.0467     2.3815     0.2858     0.1599
  379.5000  -999.2500     8.3127     8.6934     5.0851     0.0308     2.3784     0.2756     0.1611
  380.0000  -999.2500     8.3776     8.8134     5.0839     0.0108     2.3754     0.2649     0.1635
  380.5000  -999.2500     8.4275     8.7501     5.0828     0.0182     2.3851     0.2592     0.1665
  381.0000  -999.2500     8.3107     8.5677     5.0816     0.0406     2.4128     0.2534     0.1560
  381.5000  -999.2500     8.1957     8.3309     5.0804     0.0526     2.4593     0.2447     0.1424
  382.0000  -999.2500     8.0264     8.1006     5.0793     0.0256     2.5241     0.2253     0.0998
  382.5000  -999.2500     7.7523     7.8767     5.0781     0.0076     2.5361     0.2187     0.0678
  383.0000  -999.2500     7.4876     7.6045     5.0767     0.0045     2.5155     0.2211     0.0656
  383.5000  -999.2500     7.2779     7.3288     5.0755     0.0015     2.4727     0.2271     0.0801
  384.0000  -999.2500     7.0656     7.0916     5.0593     0.0017     2.4141     0.2332     0.1142
  384.5000  -999.2500     6.9361     6.9922     5.0581     0.0164     2.3885     0.2394     0.1511
  385.0000  -999.2500     6.8877     6.9423     5.0570     0.0313     2.3810     0.2440     0.1601
  385.5000  -999.2500     6.7924     6.9409     5.0558     0.0252     2.3915     0.2449     0.1595
  386.0000  -999.2500     6.7919     6.9395     5.0396     0.0072     2.4020     0.2425     0.1507
  386.5000  -999.2500     6.7445     6.9381     5.0384     0.0012     2.4140     0.2392     0.1408
  387.0000  -999.2500     6.7441     6.8886     5.0370    -0.0003     2.4231     0.2355     0.1353
  387.5000  -999.2500     6.7905     6.9353     5.0358    -0.0019     2.4289  -999.2500     0.1320
  388.0000  -999.2500     6.7900     6.9335     5.0348    -0.0079     2.4318  -999.2500     0.1296
  388.5000  -999.2500     6.7895     6.9425     5.0335    -0.0154     2.4355  -999.2500     0.1278
  389.0000  -999.2500     6.7891     6.9795     5.0323     0.0249     2.4385  -999.2500     0.1262
  389.5000  -999.2500     6.7886     6.9777     5.0312     0.0488     2.4437  -999.2500     0.1238
  390.0000  -999.2500     6.8086     6.9763     5.0300     0.0563     2.4497  -999.2500     0.1211
  390.5000  -999.2500     6.8825     6.9749     5.0438     0.0353     2.4527  -999.2500     0.1184
  391.0000  -999.2500     6.8820     6.9734     5.0426     0.0038     2.4473  -999.2500     0.1201
  391.5000  -999.2500     6.8816     6.9717     5.0412    -0.0082     2.4434  -999.2500     0.1241
  392.0000  -999.2500     6.8810     6.9703     5.0401    -0.0143     2.4450  -999.2500     0.1250
  392.5000  -999.2500     6.8805     6.9206     5.0542    -0.0112     2.4540  -999.2500     0.1187
  393.0000  -999.2500     6.8801     6.9192     5.0681     0.0025     2.4615  -999.2500     0.1135
  393.5000  -999.2500     6.9276     6.9178     5.0666     0.0155     2.4659  -999.2500     0.1099
  394.0000  -999.2500     6.9270     6.9164     5.0654     0.0424     2.4689  -999.2500     0.1075
  394.5000  -999.2500  -999.2500  -999.2500     5.0643     0.0843     2.4704  -999.2500     0.1069
  395.0000  -999.2500  -999.2500  -999.2500     5.0631     0.1172     2.4703  -999.2500     0.1075
  395.5000  -999.2500  -999.2500  -999.2500     5.0616     0.1292     2.4711  -999.2500     0.1071
  396.0000  -999.2500  -999.2500  -999.2500     5.0605     0.0572     2.4765  -999.2500     0.1049
  396.5000  -999.2500  -999.2500  -999.2500     5.0595     0.0258     2.4860  -999.2500     0.0990
  397.0000  -999.2500  -999.2500  -999.2500     5.0581     0.0077     2.4912  -999.2500     0.0941
  397.5000  -999.2500  -999.2500  -999.2500     5.0570    -0.0028     2.4957  -999.2500     0.0911
  398.0000  -999.2500  -999.2500  -999.2500     5.0558     0.0316     2.4987  -999.2500     0.0899
  398.5000  -999.2500  -999.2500  -999.2500     5.0396     0.0391     2.4896  -999.2500     0.0996
  399.0000  -999.2500  -999.2500  -999.2500     5.0234     0.0270     2.4918  -999.2500     0.0947
  399.5000  -999.2500  -999.2500  -999.2500     5.0220     0.0150     2.4955  -999.2500     0.0935
  400.0000  -999.2500  -999.2500  -999.2500     5.0060     0.0070     2.4985  -999.2500     0.0938
