~VERSION INFORMATION
 VERS.                2.0:   CWLS LOG ASCII STANDARD - VERSION 2.0
 WRAP.                 NO:   ONE LINE PER DEPTH STEP
~WELL INFORMATION
#MNEM.UNIT      DATA TYPE    INFORMATION
#----------   ------------   ------------------------------
 STRT.F           80.0000:   START DEPTH
 STOP.F          808.0000:   STOP DEPTH
 STEP.F            0.5000:   STEP LENGTH
 NULL.          -999.2500:   NO VALUE
 COMP.           U S NAVY:   COMPANY
 WELL.     NRP #3 #38-S-2:   WELL
 FLD .             TEAPOT:   FIELD
 LOC .       S2 T38N R78W:   LOCATION
 CNTY.            NATRONA:   COUNTY
 STAT.            WYOMING:   STATE
 CTRY. UNITED STATES OF AMERICA:   COUNTRY
 SRVC.       Schlumberger:   SERVICE COMPANY
 DATE.        18-JUN-1962:   LOGDATE
 API .       490250639100:   API NUMBER
~CURVE INFORMATION
#MNEM.UNIT       API CODE    CURVE DESCRIPTION
#----------   ------------   ------------------------------
 DEPT.F                  :   
 GR  .GAPI   30 310 01 00:   GAMMA RAY
 SPR .MV     05 010 01 00:   SPONTANEOUS POTENTIAL FROM RES.
 ASN .OHMM   05 041 16 00:   AMPLIFIED SHORT NORMAL 16"
 ILD .OHMM   05 120 46 00:   INDUCTION LOG DEEP
 CILD.MMHO   05 110 46 00:   CONDUCTIVITY INDUCTION LOG DEEP
 CALM.IN     15 280 01 00:   CALIPER FROM MICRO LOG
~PARAMETER INFORMATION
#MNEM.UNIT          VALUE    DESCRIPTION
#----------   ------------   ------------------------------
 PD  .                 GL:   PERMANENT DATUM
 EPD .F              5146:   ELEVATION PERMANENT DATUM
 LMF .                 KB:   LOG MEASURED FROM
 DAPD.F                 5:   FEET ABOVE PERMANENT DATUM
 DMF .                 KB:   DRILLING MEASURED FROM
 EKB .F              5151:   KELLING BUSHING
 EGL .F              5146:   GROUND LEVEL
 DATE.          6-18-1962:   RUN DATE
 RUN .                  1:   RUN NUMBER
 DD  .F              1000:   DEPTH DRILLER
 DL  .F               808:   DEPTH LOGGER
 BLI .F               807:   BOTTOM LOG INTERVAL
 TLI .F                80:   TOP LOG INTERVAL
 BS  .IN             8.75:   BIT SIZE
 BSD .F              1000:   BIT SIZE AT DEPTH
 DFT .       OIL EMULSION:   DRILLING FLUID TYPE
 DFD .                8.7:   DRILLING FLUID DENSITY
 DFV .                 58:   DRILLING FLUID VISCOSITY
 DFL .                  4:   DRILLING FLUID LOSS
 RMS .OHMM           3.77:   RESISTIVITY MUD SAMPLE
 MST .F                79:   MUD SAMPLE TEMPERATURE
 RMF .OHMM           2.47:   RESISTIVITY MUD FILTRATE SAMPLE
 MFST.F                79:   MUD FILTRATE SAMPLE TEMPERATURE
 RMC .OHMM           3.29:   RESISTIVITY MUD CAKE
 MCST.F                79:   MUD CAKE SAMPLE TEMPERATURE
 TCS .HRS               1:   TIME CURCULATED STOPPED
 LUN .               2503:   LOGGING UNIT NUMBER
 LUL .               CSPR:   LOGGING UNIT LOCATION
 ENGI.             DANNER:   RECORDING ENGINEER
 WITN.          JORGENSEN:   WITNESSED BY
 CLNT.            A2DTECH:   CLIENT CODE
 ORIG.   1", 2", 5" PRINT:   ORIGIN OF DATA
 UWI .       490250639100:   UNIQUE WELL ID
 DICO. A2D Technologies, Inc.:   DIGITIZING COMPANY
~OTHER INFORMATION
~A   DEPT       GR        SPR          ASN        ILD      CILD      CALM   
# ...
  548.0000    62.4991   -69.2734     7.2148     9.9160   195.7543     8.9189
  548.5000    58.4199   -69.0763     7.2957    10.0339   194.5238     8.8147
  549.0000    70.7882   -69.2168     7.4004    10.1538   189.2460     8.8221
  549.5000    87.9915   -69.3876     8.0609    10.3462   178.3386     8.8280
  550.0000    85.1013   -69.5559     9.0733    10.8877   158.8088     8.8306
  550.5000    82.2448   -69.6676    10.0464    11.8880   136.5100     8.8215
  551.0000    94.3503   -69.6231    11.0921    12.8642   115.3471     8.8132
  551.5000   103.7619   -69.5823    13.0559    13.8374   104.3605     8.8410
  552.0000   100.6788   -69.5415    14.9978    14.4527    98.0159     8.8723
  552.5000   101.9011   -69.5029    16.0958    14.4884    98.2497     8.9037
  553.0000   104.9534   -69.5259    16.2187    14.4089    98.4669     8.9350
  553.5000    91.6247   -69.7491    16.3402    14.3284    98.6842     8.9672
  554.0000    92.0767   -69.9656    16.4580    14.2486    98.9014     8.9739
  554.5000    76.6216   -70.1815    16.5790    14.3705    98.2146     8.9754
  555.0000    66.8537   -70.3981    16.7125    14.5333    96.4122     8.9107
  555.5000    51.7653   -70.6174    16.9974    14.9114    93.3483     8.8284
  556.0000    36.7666   -71.0202    17.8651    15.6114    86.2002     8.7931
  556.5000    17.1844   -71.5274    18.7177    16.3357    79.0446     8.7683
  557.0000    17.3087   -72.0313    20.3300    17.2727    71.9070     8.7438
  557.5000    17.1502   -72.4678    21.9056    18.3216    64.7695     8.7191
  558.0000    23.7151   -73.5552    23.4824    19.4078    57.6319     8.6945
  558.5000    27.8902   -74.7745    25.0603    21.4349    50.4943     8.6699
  559.0000    21.4046   -76.0100    26.6381    23.5033    43.6095     8.6505
  559.5000    21.8953   -77.2436    28.2159    25.5292    37.6984     8.6449
  560.0000    24.4647   -78.4703    29.7936    26.0496    37.8409     8.6390
  560.5000    31.5493   -79.6901    31.0952    25.9529    37.9690     8.6321
  561.0000    29.5950   -80.6281    31.2335    25.8190    38.0999     8.6780
  561.5000    26.1884   -81.1416    31.3810    25.7510    38.2364     8.7604
  562.0000    30.7950   -81.6271    31.0961    25.7150    38.3717     8.8628
  562.5000    34.8071   -81.4582    30.7936    25.6802    38.5067     8.9635
  563.0000    31.3124   -81.2641    30.4932    25.4523    38.6418     9.0434
  563.5000    30.5248   -81.0725    30.1929    25.0692    39.4924     8.9655
  564.0000    28.2639   -81.0013    29.8893    24.6845    40.9497     8.8692
  564.5000    25.9442   -80.9589    29.5894    24.2978    42.4069     8.7724
  565.0000    27.8655   -80.9178    29.7159    23.9116    43.8642     8.6715
  565.5000    31.2391   -80.8796    29.8800    23.5733    45.3214     8.7067
  566.0000    27.0086   -80.8168    30.4090    23.6285    45.7407     8.7808
  566.5000    21.4156   -80.0318    31.1493    23.6943    45.7407     8.8577
  567.0000    15.7439   -79.1865    30.8170    23.7596    45.7407     8.8740
  567.5000    11.8462   -79.0099    30.4735    23.8250    44.7207     8.8287
  568.0000    16.8878   -79.1437    29.9735    24.0109    43.2512     8.7713
  568.5000    26.9408   -79.5531    30.2509    24.3231    41.7817     8.7136
  569.0000    37.5344   -79.9561    30.8411    24.6359    40.3122     8.6562
  569.5000    35.8153   -80.3680    31.4404    25.1905    38.8427     8.6039
  570.0000    35.5344   -80.9045    32.0399    25.7306    37.3732     8.5732
  570.5000    37.9349   -81.8346    32.6376    26.2675    35.9037     8.5422
  571.0000    39.0691   -82.3468    33.2325    26.8046    35.1066     8.5112
  571.5000    37.1022   -82.5355    33.5692    27.3432    34.4253     8.4802
  572.0000    32.5781   -82.8252    33.5698    27.8475    33.7440     8.4490
  572.5000    36.2184   -83.4128    33.8120    27.8607    33.0626     8.4179
  573.0000    40.5019   -83.9817    34.1888    27.8588    32.7937     8.3898
  573.5000    31.3649   -84.4820    34.3091    27.8542    33.0792     8.4075
  574.0000    35.3776   -84.4178    34.1269    27.7380    33.3646     8.4474
  574.5000    38.1555   -83.8275    34.0021    27.5359    33.6500     8.4875
  575.0000    38.2640   -83.2309    33.2929    27.2074    33.9354     8.5278
  575.5000    32.4207   -82.6175    32.4762    26.8852    34.2212     8.4565
  576.0000    29.7575   -82.4603    32.0489    26.6076    34.5068     8.3738
  576.5000    26.0968   -82.4480    31.7913    26.5014    35.1092     8.2889
  577.0000    38.9354   -82.2397    31.5352    26.2525    36.2195     8.2487
  577.5000    41.3369   -81.3859    31.0196    25.7187    37.8142     8.2478
  578.0000    41.5920   -80.6398    30.0386    25.0864    39.7693     8.2526
  578.5000    47.1401   -81.2407    29.0619    24.4554    41.7244     8.2869
  579.0000    55.8481   -81.9322    28.1109    23.8241    43.6795     8.3431
  579.5000    48.5188   -82.2376    27.4578    23.1932    45.6345     8.4412
  580.0000    43.4255   -81.2398    26.7891    22.5620    47.5897     8.5388
  580.5000    42.8700   -80.2787    26.1185    21.9238    49.5457     8.6364
  581.0000    44.2532   -79.3299    25.5385    21.4408    51.5027     8.7332
  581.5000    36.4600   -78.5373    25.1382    20.9953    53.4607     8.7847
  582.0000    33.7423   -78.5035    24.7281    20.5396    54.7956     8.7628
  582.5000    36.2178   -78.6093    24.5377    20.4287    54.7939     8.7419
  583.0000    43.6814   -78.7251    24.3503    20.4242    54.7920     8.7208
  583.5000    45.9739   -78.8417    24.1620    20.5445    54.7884     8.6998
  584.0000    40.6424   -78.9574    24.2036    20.7085    54.3892     8.6788
  584.5000    36.3944   -79.0726    24.2910    20.8734    53.8159     8.6578
  585.0000    30.8208   -79.1828    24.3792    21.0378    53.2425     8.6368
  585.5000    34.5952   -79.3869    24.4674    21.1927    52.6692     8.6157
  586.0000    36.2239   -79.6021    24.5538    21.3002    52.0958     8.5948
  586.5000    36.9096   -79.8196    24.5957    21.4028    51.5225     8.5729
  587.0000    37.8479   -80.0375    24.4862    21.5052    50.9491     8.5500
  587.5000    35.5975   -80.2511    24.3809    21.6075    50.3758     8.5859
  588.0000    34.0210   -80.3667    24.2747    21.7099    49.8024     8.5822
  588.5000    49.6913   -80.0035    24.2318    21.8121    49.2291     8.5780
  589.0000    51.1084   -79.6479    24.2160    21.9155    48.6558     8.5714
  589.5000    54.2943   -79.2970    24.2007    21.9521    48.0861     8.5785
  590.0000    62.3338   -78.9803    24.1857    21.9526    48.0253     8.5336
  590.5000    65.2413   -78.8990    24.1707    21.9524    48.6637     8.4910
  591.0000    74.1872   -78.7991    24.1549    21.9537    49.3031     8.4480
  591.5000    68.0995   -78.4473    24.1117    21.8443    49.9436     8.4362
  592.0000    62.0053   -78.0747    23.9487    21.6675    50.5842     8.4786
  592.5000    58.7621   -77.9115    23.7868    21.4899    51.2247     8.5220
  593.0000    48.3391   -77.8036    23.6252    21.2900    51.8653     8.5303
  593.5000    42.9913   -77.6970    23.4635    21.0528    52.5058     8.5304
  594.0000    40.5359   -77.5896    23.3019    20.8162    53.4312     8.5299
  594.5000    46.8601   -77.5673    23.1403    20.5794    54.5667     8.5064
  595.0000    43.4313   -77.5489    22.9786    20.3417    55.7037     8.4467
  595.5000    47.1820   -77.5300    22.8170    20.1495    56.8393     8.3875
  596.0000    51.9744   -77.5110    22.6554    19.9922    57.8679     8.3282
  596.5000    50.9400   -77.4919    22.4937    19.8346    58.2836     8.2683
  597.0000    55.0836   -77.4728    22.3321    19.6768    58.6989     8.2526
  597.5000    56.1102   -77.4538    22.1705    19.5192    59.1153     8.2588
  598.0000    52.0921   -77.4350    22.0088    19.3615    59.5317     8.2655
  598.5000    53.5489   -77.4166    21.8474    19.1997    59.9480     8.2721
  599.0000    56.6769   -77.3951    21.6857    19.0160    60.3644     8.2787
  599.5000    60.6591   -77.3062    21.5181    19.0250    60.8201     8.2854
