~VERSION INFORMATION
 VERS.                2.0:   CWLS LOG ASCII STANDARD - VERSION 2.0
 WRAP.                 NO:   ONE LINE PER DEPTH STEP
~WELL INFORMATION
#MNEM.UNIT      DATA TYPE    INFORMATION
#----------   ------------   ------------------------------
 STRT.F           86.5000:   START DEPTH
 STOP.F         1282.0000:   STOP DEPTH
 STEP.F            0.5000:   STEP LENGTH
 NULL.          -999.2500:   NO VALUE
 COMP.      UNITED STATES:   COMPANY
 WELL.             NPR #3:   WELL
 FLD .        TEAPOT DOME:   FIELD
 LOC .      S14 T38N R78W:   LOCATION
 CNTY.            NATRONA:   COUNTY
 STAT.            WYOMING:   STATE
 CTRY. UNITED STATES OF AMERICA:   COUNTRY
 SRVC.       Schlumberger:   SERVICE COMPANY
 DATE.        06-JUL-1962:   LOGDATE
 API .       490250631800:   API NUMBER
~CURVE INFORMATION
#MNEM.UNIT       API CODE    CURVE DESCRIPTION
#----------   ------------   ------------------------------
 DEPT.F                  :   
 SPR .MV     05 010 01 00:   SPONTANEOUS POTENTIAL FROM RES.
 CILD.MMHO   05 110 00 00:   CONDUCTIVITY INDUCTION LOG
 ASN .OHMM   05 041 16 00:   AMPLIFIED SHORT NORMAL 16"
 ILD .OHMM   05 120 46 00:   INDUCTION LOG DEEP
 GR  .GAPI   30 310 01 00:   GAMMA RAY
~PARAMETER INFORMATION
#MNEM.UNIT          VALUE    DESCRIPTION
#----------   ------------   ------------------------------
 PD  .                 GL:   PERMANENT DATUM
 EPD .F              5288:   ELEVATION PERMANENT DATUM
 LMF .                 KB:   LOG MEASURED FROM
 DAPD.F                 5:   FEET ABOVE PERMANENT DATUM
 DMF .                 KB:   DRILLING MEASURED FROM
 EKB .F              5293:   KELLING BUSHING
 EGL .F              5288:   GROUND LEVEL
 DATE.             7-6-62:   RUN DATE
 RUN .                  1:   RUN NUMBER
 DD  .F              1286:   DEPTH DRILLER
 DL  .F              1283:   DEPTH LOGGER
 BLI .F              1282:   BOTTOM LOG INTERVAL
 TLI .F                87:   TOP LOG INTERVAL
 CBD .F                10:   CASING BOTTOM DRILLER
 BS  .IN             6.75:   BIT SIZE
 BSD .F              1286:   BIT SIZE AT DEPTH
 DFT .            GEL-OIL:   DRILLING FLUID TYPE
 DFD .               10.3:   DRILLING FLUID DENSITY
 DFV .                 53:   DRILLING FLUID VISCOSITY
 DFL .                3.6:   DRILLING FLUID LOSS
 MSS .           FLOWLINE:   MUD SAMPLE SOURCE
 RMS .OHMM           5.66:   RESISTIVITY MUD SAMPLE
 MST .F                78:   MUD SAMPLE TEMPERATURE
 RMF .OHMM           5.59:   RESISTIVITY MUD FILTRATE SAMPLE
 MFST.F                78:   MUD FILTRATE SAMPLE TEMPERATURE
 RMC .OHMM           4.47:   RESISTIVITY MUD CAKE
 MCST.F                78:   MUD CAKE SAMPLE TEMPERATURE
 MFSS.                  M:   MUD FILTRATE SAMPLE SOURCE
 MCSS.                  M:   MUD CAKE SAMPLE SOURCE
 RMB .OHMM           5.08:   RESISTIVITY MUD AT BHT
 BHT .F                88:   BOTTOM HOLE TEMPERATURE
 TCS .HRS               1:   TIME CURCULATED STOPPED
 MRT .F                88:   MAXIMUM RECORDED TEMPERATURE
 LUN .               2503:   LOGGING UNIT NUMBER
 LUL .               CSPR:   LOGGING UNIT LOCATION
 ENGI.             KNOBEL:   RECORDING ENGINEER
 WITN.          JORGENSEN:   WITNESSED BY
 CLNT.            A2DTECH:   CLIENT CODE
 ORIG.       2", 5" PRINT:   ORIGIN OF DATA
 UWI .       490250631800:   UNIQUE WELL ID
 DICO. A2D Technologies, Inc.:   DIGITIZING COMPANY
~OTHER INFORMATION
~A   DEPT      SPR       CILD        ASN        ILD         GR   
# ...
  452.5000   -38.2290   170.6513     6.3909     6.1041  -999.2500
  453.0000   -38.5061   166.4518     6.4981     6.2109  -999.2500
  453.5000   -38.4206   162.6116     6.4958     6.3176  -999.2500
  454.0000   -37.9230   158.7516     6.5166     6.4248  -999.2500
  454.5000   -37.7768   154.8917     6.5211     6.5322  -999.2500
  455.0000   -38.5684   153.6617     6.5617     6.6378  -999.2500
  455.5000   -38.0975   153.6617     6.6707     6.6901  -999.2500
  456.0000   -38.2307   150.3002     6.7821     6.7414  -999.2500
  456.5000   -38.5680   146.4705     6.9253     6.9215  -999.2500
  457.0000   -38.6233   142.6408     7.0875     7.1699  -999.2500
  457.5000   -38.6746   138.8111     7.2487     7.4201  -999.2500
  458.0000   -38.7687   134.9814     7.4099     7.6712  -999.2500
  458.5000   -39.3125   131.1517     7.4921     7.9180  -999.2500
  459.0000   -38.3026   128.7155     7.4037     8.1628  -999.2500
  459.5000   -37.9654   126.6333     7.3765     8.1539  -999.2500
  460.0000   -38.3680   126.6333     7.5553     8.1531  -999.2500
  460.5000   -38.7865   127.7795     7.7152     8.0763  -999.2500
  461.0000   -38.9428   130.0426     7.6960     7.9863  -999.2500
  461.5000   -38.9794   132.1834     7.6621     7.8962  -999.2500
  462.0000   -39.0666   134.3242     7.6290     7.8063  -999.2500
  462.5000   -39.1527   136.4651     7.5191     7.7164  -999.2500
  463.0000   -39.2369   138.6059     7.3685     7.6264  -999.2500
  463.5000   -39.3231   140.7482     7.2821     7.5365  -999.2500
  464.0000   -39.0392   142.8932     7.2274     7.4466  -999.2500
  464.5000   -38.5588   145.0406     7.1733     7.3564  -999.2500
  465.0000   -38.5431   146.6675     7.1190     7.2663  -999.2500
  465.5000   -38.5482   146.6544     7.0644     7.2524  -999.2500
  466.0000   -38.4490   146.6544     7.0586     7.2585  -999.2500
  466.5000   -38.3261   145.3605     7.1324     7.2734  -999.2500
  467.0000   -38.2019   144.1117     7.1759     7.2882  -999.2500
  467.5000   -38.1915   142.8629     7.1639     7.3029  -999.2500
  468.0000   -38.3166   141.6141     7.1368     7.3176  -999.2500
  468.5000   -38.4402   140.3652     7.1376     7.3322  -999.2500
  469.0000   -38.5461   139.6587     7.1788     7.3475  -999.2500
  469.5000   -38.5473   140.8813     7.2210     7.3246  -999.2500
  470.0000   -38.5088   142.0744     7.2250     7.2804  -999.2500
  470.5000   -38.4596   143.2719     7.1979     7.2361  -999.2500
  471.0000   -38.4098   144.4713     7.1765     7.1916  -999.2500
  471.5000   -38.3586   145.6701     7.1270     7.1472  -999.2500
  472.0000   -38.3473   146.8690     7.0474     7.1028  -999.2500
  472.5000   -38.3900   148.0679     6.9676     7.0584  -999.2500
  473.0000   -38.4373   149.2662     6.8869     7.0140  -999.2500
  473.5000   -38.4847   150.4626     6.8565     6.9693  -999.2500
  474.0000   -38.5353   151.6555     6.8643     6.9522  -999.2500
  474.5000   -38.4673   151.6567     6.9076     6.9522  -999.2500
  475.0000   -38.3581   152.0601     6.9507     6.9389  -999.2500
  475.5000   -38.2476   152.7261     6.9755     6.9173  -999.2500
  476.0000   -38.1372   153.3921     6.9338     6.8955  -999.2500
  476.5000   -38.0270   153.6617     6.8908     6.8737  -999.2500
  477.0000   -37.9167   153.6617     6.8479     6.8528  -999.2500
  477.5000   -37.8066   153.0653     6.8050     6.8769  -999.2500
  478.0000   -37.6962   151.5390     6.7619     6.9431  -999.2500
  478.5000   -37.5799   150.0126     6.7373     7.0085  -999.2500
  479.0000   -37.5560   148.4863     6.8096     7.0741  -999.2500
  479.5000   -37.7326   146.9600     6.9029     7.1396  -999.2500
  480.0000   -37.9104   145.4336     7.0269     7.2051  -999.2500
  480.5000   -37.9542   143.9073     7.1508     7.2706  -999.2500
  481.0000   -37.9767   142.6502     7.2752     7.3361  -999.2500
  481.5000   -38.0943   142.6502     7.3548     7.4016  -999.2500
  482.0000   -38.2115   141.0864     7.3574     7.4672  -999.2500
  482.5000   -38.3304   139.4807     7.3567     7.5327  -999.2500
  483.0000   -38.2262   137.8751     7.3546     7.5980  -999.2500
  483.5000   -38.0396   136.2695     7.4237     7.6700  -999.2500
  484.0000   -37.8517   134.6639     7.5271     7.7636  -999.2500
  484.5000   -37.6638   133.6407     7.7009     7.8588  -999.2500
  485.0000   -37.4759   132.4605     7.8485     7.9540  -999.2500
  485.5000   -37.2876   130.3572     7.9332     8.0525  -999.2500
  486.0000   -37.1007   128.2540     8.0067     8.1899  -999.2500
  486.5000   -36.9448   126.1507     8.0797     8.3326  -999.2500
  487.0000   -36.9608   124.0474     8.1589     8.4754  -999.2500
  487.5000   -37.2946   121.9442     8.3771     8.6182  -999.2500
  488.0000   -37.6399   119.8409     8.6078     8.7606  -999.2500
  488.5000   -37.9837   117.6238     8.8963     8.8562  -999.2500
  489.0000   -38.3281   116.4426     8.7744     8.9124  -999.2500
  489.5000   -38.6781   115.1938     8.5628     9.0167  -999.2500
  490.0000   -38.7377   113.9449     8.4742     9.1217  -999.2500
  490.5000   -38.4369   112.6186     9.1715     9.2329  -999.2500
  491.0000   -38.1171   114.1194     9.0721     9.1308  -999.2500
  491.5000   -37.7982   116.1545     8.8670     8.9658  -999.2500
  492.0000   -37.4799   118.1896     8.8009     8.7987  -999.2500
  492.5000   -37.1635   120.2247     8.6664     8.6323  -999.2500
  493.0000   -37.3993   122.2598     8.4796     8.4604  -999.2500
  493.5000   -37.8394   123.6301     8.4188     8.5629  -999.2500
  494.0000   -38.2840   123.6301     8.4485     8.5537  -999.2500
  494.5000   -38.7264   123.7202     8.4267     8.5081  -999.2500
  495.0000   -38.5624   124.4476     8.3164     8.4596  -999.2500
  495.5000   -38.3585   125.1758     8.2095     8.4106  -999.2500
  496.0000   -38.1550   125.9044     8.1584     8.3616  -999.2500
  496.5000   -38.1457   126.6331     8.1570     8.3126  -999.2500
  497.0000   -38.1474   127.3616     8.0846     8.2636  -999.2500
  497.5000   -38.1468   128.0900     8.0040     8.2147  -999.2500
  498.0000   -38.1198   128.8186     7.9212     8.1657  -999.2500
  498.5000   -38.0187   129.5443     7.9157     8.1168  -999.2500
  499.0000   -37.9212   130.2657     7.8739     8.0679  -999.2500
  499.5000   -37.8237   130.6168     7.7090     7.9862  -999.2500
  500.0000   -37.7261   131.3896     7.5437     7.8912  -999.2500
  500.5000   -37.6285   133.8915     7.5358     7.7955  -999.2500
  501.0000   -37.5309   136.9235     7.5361     7.6998  -999.2500
  501.5000   -37.4332   141.1927     7.4665     7.5210  -999.2500
  502.0000   -37.3355   145.4574     7.3879     7.2592  -999.2500
  502.5000   -37.2380   149.7310     7.3058     6.9975  -999.2500
  503.0000   -37.1515   154.0006     7.1762     6.7353  -999.2500
  503.5000   -37.1504   158.2675     6.9828     6.5024  -999.2500
  504.0000   -37.0714   162.5387     6.7899     6.3332  -999.2500
  504.5000   -36.9172   166.0209     6.6123     6.1577  -999.2500
  505.0000   -36.7612   168.7161     6.5186     6.0475  -999.2500
  505.5000   -36.7476   171.4112     6.5200     5.9347  -999.2500
  506.0000   -36.4092   174.1064     6.6261     5.8212  -999.2500
  506.5000   -36.0340   176.8015     6.7130     5.7093  -999.2500
  507.0000   -35.6482   178.6881     6.6047     5.6528  -999.2500
  507.5000   -35.5640   177.8434     6.1680     5.8494  -999.2500
  508.0000   -35.8651   175.0280     6.0709     5.9908  -999.2500
  508.5000   -36.1544   172.2125     6.5869     5.7623  -999.2500
  509.0000   -36.1562   169.6786     6.6293     5.7479  -999.2500
  509.5000   -36.1548   169.6786     6.5065     5.9446  -999.2500
  510.0000   -36.1568   168.2034     6.4139     6.0186  -999.2500
  510.5000   -36.2157   166.0959     6.4148     6.1506  -999.2500
  511.0000   -36.4237   163.9884     6.3558     6.1509  -999.2500
  511.5000   -36.6234   161.6702     6.2366     6.1516  -999.2500
  512.0000   -36.8202   160.8867     6.2993     6.1823  -999.2500
  512.5000   -36.9496   160.0163     6.5507     6.2167  -999.2500
  513.0000   -36.9897   159.1458     6.6097     6.2513  -999.2500
