~VERSION INFORMATION
 VERS.                2.0:   CWLS LOG ASCII STANDARD - VERSION 2.0
 WRAP.                 NO:   ONE LINE PER DEPTH STEP
~WELL INFORMATION
#MNEM.UNIT      DATA TYPE    INFORMATION
#----------   ------------   ------------------------------
 STRT.F           48.0000:   START DEPTH
 STOP.F          539.0000:   STOP DEPTH
 STEP.F            0.5000:   STEP LENGTH
 NULL.          -999.2500:   NO VALUE
 COMP. LAWRENCE/ALLISON INC:   COMPANY
 WELL.   57-21 SHX #10-10:   WELL
 FLD .             TEAPOT:   FIELD
 LOC .      S10 T38N R78W:   LOCATION
 CNTY.            NATRONA:   COUNTY
 STAT.            WYOMING:   STATE
 CTRY. UNITED STATES OF AMERICA:   COUNTRY
 SRVC.           Gearhart:   SERVICE COMPANY
 DATE.        12-JUN-1986:   LOGDATE
 API .       490251108700:   API NUMBER
~CURVE INFORMATION
#MNEM.UNIT       API CODE    CURVE DESCRIPTION
#----------   ------------   ------------------------------
 DEPT.F                  :   
 GRR .GAPI   11 310 01 00:   GAMMA RAY FROM RES.
 LLA .OHMM   11 220 00 00:   LATEROLOG AVERAGE RES.
 RILD.OHMM   07 120 46 00:   INDUCTION LOG DEEP RESISTIVITY
 RILM.OHMM   07 120 44 00:   INDUCTION LOG MEDIUM RESISTIVITY
~PARAMETER INFORMATION
#MNEM.UNIT          VALUE    DESCRIPTION
#----------   ------------   ------------------------------
 PD  .                 GL:   PERMANENT DATUM
 EPD .F              5196:   ELEVATION PERMANENT DATUM
 LMF .                 KB:   LOG MEASURED FROM
 DAPD.F                 5:   FEET ABOVE PERMANENT DATUM
 DMF .                 KB:   DRILLING MEASURED FROM
 EKB .F              5201:   KELLING BUSHING
 EGL .F              5196:   GROUND LEVEL
 DATE.           61-12-86:   RUN DATE
 RUN .                  1:   RUN NUMBER
 DD  .F               545:   DEPTH DRILLER
 DL  .F             543.5:   DEPTH LOGGER
 BLI .F             539.5:   BOTTOM LOG INTERVAL
 TLI .F                48:   TOP LOG INTERVAL
 CS  .IN            8.625:   CASING SIZE
 CBD .F                47:   CASING BOTTOM DRILLER
 BS  .IN            7.875:   BIT SIZE
 BSD .F               545:   BIT SIZE AT DEPTH
 DFT .          FRESH-MUD:   DRILLING FLUID TYPE
 DFD .                9.3:   DRILLING FLUID DENSITY
 DFV .                 38:   DRILLING FLUID VISCOSITY
 MSS .           FLOWLINE:   MUD SAMPLE SOURCE
 RMS .OHMM            .51:   RESISTIVITY MUD SAMPLE
 MST .F                82:   MUD SAMPLE TEMPERATURE
 RMF .OHMM            .38:   RESISTIVITY MUD FILTRATE SAMPLE
 MFST.F                78:   MUD FILTRATE SAMPLE TEMPERATURE
 RMC .OHMM            .65:   RESISTIVITY MUD CAKE
 MCST.F                79:   MUD CAKE SAMPLE TEMPERATURE
 MFSS.                  M:   MUD FILTRATE SAMPLE SOURCE
 MCSS.                  M:   MUD CAKE SAMPLE SOURCE
 RMB .OHMM            .49:   RESISTIVITY MUD AT BHT
 BHT .F                85:   BOTTOM HOLE TEMPERATURE
 TCS .HRS            1800:   TIME CURCULATED STOPPED
 TLAB.HRS            2000:   TIME LOGGER AT BOTTOM
 MRT .F                85:   MAXIMUM RECORDED TEMPERATURE
 LUN .               7609:   LOGGING UNIT NUMBER
 LUL .           GILLETTE:   LOGGING UNIT LOCATION
 ENGI.              BAUER:   RECORDING ENGINEER
 WITN.              FIVAS:   WITNESSED BY
 CLNT.            A2DTECH:   CLIENT CODE
 ORIG.       2", 5" PRINT:   ORIGIN OF DATA
 UWI .       490251108700:   UNIQUE WELL ID
 DICO. A2D Technologies, Inc.:   DIGITIZING COMPANY
~OTHER INFORMATION
~A   DEPT       GRR       LLA       RILD       RILM   
# ...
  194.0000    93.1400     6.7723     8.5159     7.9483
  194.5000    94.0009     6.6536     8.3880     7.9637
  195.0000    95.7670     6.6191     8.3672     7.9791
  195.5000    96.2225     6.5737     8.2942     7.9972
  196.0000    94.1432     6.5152     8.2540     7.9263
  196.5000    92.9630     6.4572     8.2050     7.9259
  197.0000    93.8939     6.3997     8.1357     7.9256
  197.5000    94.0520     6.3428     8.0574     7.7706
  198.0000    93.3869     6.2863     7.8925     7.6023
  198.5000    92.5985     6.1764     7.6780     7.4381
  199.0000    94.8834     6.0626     7.3503     7.1748
  199.5000    98.3478     5.9513     7.0367     6.8236
  200.0000   100.1431     5.7963     6.7305     6.4893
  200.5000    97.5844     5.5691     6.3874     6.1716
  201.0000    95.0701     5.1108     6.0617     5.8695
  201.5000    94.3407     4.6902     5.7527     5.5822
  202.0000    94.3880     4.4567     5.6631     5.3081
  202.5000    91.1862     4.5393     5.6171     5.0478
  203.0000    89.6374     4.7510     5.7280     5.0226
  203.5000    91.5599     5.0556     5.8901     5.3334
  204.0000    93.8901     5.4935     6.1428     5.6999
  204.5000    93.9125     5.9693     6.4453     6.0756
  205.0000    91.3399     6.2530     6.7627     6.3255
  205.5000    89.4902     6.3145     7.0957     6.5858
  206.0000    90.1780     6.3766     7.4451     6.8567
  206.5000    90.8270     6.4394     7.8123     7.1389
  207.0000    91.4790     6.5028     8.0296     7.4327
  207.5000    92.1290     6.5668     8.1802     7.7211
  208.0000    92.5849     6.6314     8.3335     7.8564
  208.5000    89.1733     6.6966     8.4900     7.9344
  209.0000    87.9425     6.7737     8.5873     7.9652
  209.5000    88.0882     6.8530     8.6878     7.9959
  210.0000    89.7992     6.9331     8.7894     8.2640
  210.5000    92.9081     7.0142     8.8922     8.5407
  211.0000    95.9150     7.0963     8.9442     8.5688
  211.5000    96.9891     7.1793     8.9442     8.5973
  212.0000    94.2142     7.2632     8.9503     8.6240
  212.5000    92.9466     7.3570     8.9711     8.6911
  213.0000    94.1939     7.3428     8.9920     8.7588
  213.5000    95.6575     7.3227     9.0130     8.8270
  214.0000    96.9569     7.3025     9.0347     8.8647
  214.5000    96.2135     7.2905     9.0580     8.8991
  215.0000    94.7645     7.3496     9.0814     8.9337
  215.5000    93.6034     7.3970     9.1051     8.9684
  216.0000    92.8409     7.4446     9.1122     9.0032
  216.5000    92.7201     7.4925     9.0689     9.0383
  217.0000    92.7642     7.5606     9.0211     9.0736
  217.5000    93.7479     7.4845     8.9734     9.1085
  218.0000    93.9728     7.3253     8.9261     9.0172
  218.5000    93.1684     7.1695     8.8791     8.9129
  219.0000    93.6855     7.1059     8.8322     8.8099
  219.5000    94.2262     7.0525     8.7857     8.7080
  220.0000    95.2439     6.9995     8.7394     8.6073
  220.5000    99.2171     6.9469     8.6980     8.5078
  221.0000   101.8651     6.8947     8.6075     8.4095
  221.5000   102.7753     6.8429     8.5079     8.3093
  222.0000   100.2242     6.7914     8.3932     8.2091
  222.5000    97.7283     6.6747     8.2378     8.1100
  223.0000    97.2940     6.4960     8.0385     8.0122
  223.5000    98.5783     6.3155     7.8441     7.8811
  224.0000    98.2370     6.0797     7.6544     7.4532
  224.5000    97.6232     5.8526     7.3299     7.0486
  225.0000    98.2401     5.5444     6.8815     6.6659
  225.5000    98.6773     5.2434     6.4605     6.2689
  226.0000    97.9929     5.0005     6.0231     5.6067
  226.5000    98.9904     4.6634     5.5401     5.0144
  227.0000   100.6668     4.2459     4.9728     4.4847
  227.5000   102.1208     3.8388     4.4635     4.0110
  228.0000    99.3714     3.4707     4.0064     3.5873
  228.5000    96.0114     3.1379     3.5961     3.2293
  229.0000    92.6457     2.8365     3.2279     3.0097
  229.5000    89.4151     2.6000     2.9330     2.7970
  230.0000    87.3011     2.4543     2.9753     2.6340
  230.5000    85.8423     2.6691     3.0182     2.7627
  231.0000    88.7258     3.0090     3.0825     2.7892
  231.5000    92.3997     3.3922     3.3758     2.9907
  232.0000    95.4156     3.8242     3.9373     3.2519
  232.5000    97.1169     4.3112     4.5922     3.6602
  233.0000    97.8207     4.6012     4.9259     4.1783
  233.5000    99.6005     4.8453     5.2348     4.7422
  234.0000    99.2054     5.0238     5.5110     5.1086
  234.5000    98.4295     5.0040     6.0203     5.4971
  235.0000   101.1996     4.9790     6.5187     5.8491
  235.5000   104.1932     5.0527     6.7032     6.1469
  236.0000   102.8346     5.2071     6.5839     6.3262
  236.5000    96.9302     5.3662     6.4155     6.2387
  237.0000    94.6029     5.5136     6.2516     6.0424
  237.5000    96.8571     5.3729     6.0858     5.8522
  238.0000   100.6891     5.1023     5.8709     5.7003
  238.5000   103.5030     4.8453     5.6637     5.4813
  239.0000   105.5491     4.6007     5.4637     5.2707
  239.5000   107.5766     4.3686     5.2708     5.0683
  240.0000   107.9029     4.1699     5.1660     4.9312
  240.5000   103.7311     4.3752     5.1657     4.9460
  241.0000    99.5123     4.5988     5.1653     4.9596
  241.5000    97.1850     4.6733     5.1653     4.9732
  242.0000    97.6993     4.7330     5.4180     5.0582
  242.5000    98.7357     4.9243     5.7125     5.2979
  243.0000   100.3513     5.1828     6.0231     5.6419
  243.5000   102.7969     5.3495     6.3505     6.0077
  244.0000   105.2545     5.5394     6.6957     6.3970
  244.5000   106.0216     5.8031     7.0224     6.7053
  245.0000   102.5674     6.0137     7.2790     6.9814
  245.5000    99.2308     6.1648     7.5750     7.2688
  246.0000    97.2913     6.3197     7.8518     7.4917
  246.5000    99.0060     6.3985     7.9068     7.6872
  247.0000   103.4554     6.3985     7.9683     7.7228
  247.5000   107.7348     6.3985     7.9993     7.7452
  248.0000   111.1981     6.3368     7.9534     7.7678
  248.5000   109.8234     6.2153     7.8884     7.8367
  249.0000   106.8727     6.1014     7.8239     7.6574
  249.5000   104.3497     6.0394     7.7220     7.5112
  250.0000   104.5921     5.9782     7.5348     7.3678
  250.5000   105.3531     5.9176     7.3521     7.2270
  251.0000   106.1294     5.8575     7.1738     7.0904
  251.5000   106.9088     5.7980     7.0577     6.8805
  252.0000   106.7817     5.7392     6.7914     6.6105
  252.5000   105.8731     5.5627     6.5351     6.3511
  253.0000   106.7990     5.3484     6.2886     6.1019
  253.5000   110.2439     5.1234     6.0512     5.8745
  254.0000   113.6142     4.8102     5.8228     5.6797
  254.5000   112.8578     4.5143     5.6033     5.4915
  255.0000   111.2607     4.3290     5.4625     5.3073
  255.5000   109.2957     4.4109     5.5603     5.2404
  256.0000   107.0072     4.5661     5.6475     5.2133
  256.5000   102.7441     4.9160     5.7632     5.3602
  257.0000   101.6112     5.2934     6.0388     5.6392
  257.5000   100.9298     5.6975     6.3275     5.9322
  258.0000   100.2473     5.8971     6.6300     6.2401
  258.5000   102.2527     5.9316     6.9470     6.5639
  259.0000   106.4968     5.9890     7.2657     6.9047
  259.5000   110.5305     6.0539     7.5805     7.2651
  260.0000   112.0554     6.1077     7.8126     7.5184
  260.5000   109.6985     5.9951     7.9053     7.5857
  261.0000   108.6229     6.2786     7.9993     7.6509
  261.5000   111.5700     6.3976     8.0740     7.7172
  262.0000   114.5027     6.3468     8.0740     7.7844
  262.5000   114.9147     6.3393     8.0740     7.8517
  263.0000   113.1399     6.4583     8.0740     7.8680
  263.5000   111.3853     6.3679     8.0740     7.8838
  264.0000   111.3299     6.2813     8.0741     7.8998
  264.5000   113.8698     6.3608     8.0748     7.9160
  265.0000   116.7579     6.3980     8.0448     7.9248
  265.5000   116.6640     6.3179     8.0091     7.8935
  266.0000   111.9389     6.2610     7.9734     7.8712
  266.5000   107.0390     6.2047     7.9381     7.8489
