~VERSION INFORMATION
 VERS.                2.0:   CWLS LOG ASCII STANDARD - VERSION 2.0
 WRAP.                 NO:   ONE LINE PER DEPTH STEP
~WELL INFORMATION
#MNEM.UNIT      DATA TYPE    INFORMATION
#----------   ------------   ------------------------------
 STRT.F            2.5000:   START DEPTH
 STOP.F          548.0000:   STOP DEPTH
 STEP.F            0.5000:   STEP LENGTH
 NULL.          -999.2500:   NO VALUE
 COMP. LAWRENCE/ALLISON INC:   COMPANY
 WELL.    55-61 SX #10-10:   WELL
 FLD .           N.P.R #3:   FIELD
 LOC .      S10 T38N R78W:   LOCATION
 CNTY.            NATRONA:   COUNTY
 STAT.            WYOMING:   STATE
 CTRY. UNITED STATES OF AMERICA:   COUNTRY
 SRVC.            Unknown:   SERVICE COMPANY
 DATE.        05-SEP-1984:   LOGDATE
 API .       490251098100:   API NUMBER
~CURVE INFORMATION
#MNEM.UNIT       API CODE    CURVE DESCRIPTION
#----------   ------------   ------------------------------
 DEPT.F                  :   
 GRR .GAPI   07 310 01 00:   GAMMA RAY FROM RES
 SPR .MV     07 010 01 00:   SPONTANEOUS POTENTIAL
 RFOC.OHMM   07 220 04 00:   RESISTIVITY FOCUSED LOG
 RILD.OHMM   07 120 46 00:   INDUCTION LOG DEEP RESISTIVITY
 RILM.OHMM   07 120 44 00:   INDUCTION LOG MEDIUM RESISTIVITY
 CALD.IN     45 280 60 00:   CALIPER FROM DENSITY LOG
 DEN .G/C3   45 350 01 00:   COMPENSATED BULK DENSTIY
 CNC .DEC    42 890 03 00:   NEUTRON POROSITY SANDSTONE
 PORD.DEC    45 890 12 00:   POROSITY DENSITY SANDSTONE
 CORR.G/C3   45 356 01 00:   DENSITY CORRECTION
 AC  .US/F   60 520 00 00:   ACCOUSTIC SONIC
~PARAMETER INFORMATION
#MNEM.UNIT          VALUE    DESCRIPTION
#----------   ------------   ------------------------------
 PD  .                 GL:   PERMANENT DATUM
 EPD .F              5191:   ELEVATION PERMANENT DATUM
 LMF .                 KB:   LOG MEASURED FROM
 DAPD.F                12:   FEET ABOVE PERMANENT DATUM
 DMF .                 KB:   DRILLING MEASURED FROM
 EKB .F              5203:   KELLING BUSHING
 EGL .F              5191:   GROUND LEVEL
 DATE.         5-SEP-1984:   RUN DATE
 RUN .                  1:   RUN NUMBER
 DD  .F               540:   DEPTH DRILLER
 DL  .F               550:   DEPTH LOGGER
 BLI .F               548:   BOTTOM LOG INTERVAL
 CS  .IN            8.625:   CASING SIZE
 CBD .F                42:   CASING BOTTOM DRILLER
 CBL .F                54:   CASING BOTTOM LOGGER
 BS  .IN            7.875:   BIT SIZE
 BSD .F               540:   BIT SIZE AT DEPTH
 DFT .        KCL POLYMER:   DRILLING FLUID TYPE
 MSS .           FLOWLINE:   MUD SAMPLE SOURCE
 RMS .OHMM            .79:   RESISTIVITY MUD SAMPLE
 MST .F                74:   MUD SAMPLE TEMPERATURE
 RMF .OHMM            .59:   RESISTIVITY MUD FILTRATE SAMPLE
 MFST.F                74:   MUD FILTRATE SAMPLE TEMPERATURE
 RMC .OHMM            .99:   RESISTIVITY MUD CAKE
 MCST.F                74:   MUD CAKE SAMPLE TEMPERATURE
 MFSS.               CALC:   MUD FILTRATE SAMPLE SOURCE
 MCSS.               CALC:   MUD CAKE SAMPLE SOURCE
 RMB .OHMM            .65:   RESISTIVITY MUD AT BHT
 BHT .F                90:   BOTTOM HOLE TEMPERATURE
 TCS .HRS               3:   TIME CURCULATED STOPPED
 MRT .F                90:   MAXIMUM RECORDED TEMPERATURE
 LUN .               6274:   LOGGING UNIT NUMBER
 LUL .               GLTE:   LOGGING UNIT LOCATION
 ENGI.             RAUTIO:   RECORDING ENGINEER
 WITN.            JOHNSON:   WITNESSED BY
 CLNT.            A2DTECH:   CLIENT CODE
 ORIG. 2", 2.5", 5" PRINT:   ORIGIN OF DATA
 UWI .       490251098100:   UNIQUE WELL ID
 DICO. A2D Technologies, Inc.:   DIGITIZING COMPANY
~OTHER INFORMATION
~A    DEPT      GRR       SPR       RFOC       RILD       RILM       CALD        DEN        CNC       PORD       CORR         AC   
# ...
  277.0000    65.9920   -24.5390    19.4380    25.6280    23.8560     8.0340     2.1180     0.2870     0.3184     0.0680   115.4940
  277.5000    65.6020   -24.9120    19.8930    25.8720    23.7400     8.0360     2.1770     0.2810     0.3003    -0.0120   118.9840
  278.0000    66.7800   -25.2850    20.3710    26.0570    23.6240     8.0370     2.2560     0.2680     0.2408    -0.0210   112.8870
  278.5000    68.7790   -25.6360    20.3710    26.1030    23.2410     8.0390     2.3250     0.2560     0.2089    -0.0120   105.0540
  279.0000    70.1810   -25.5230    20.0000    25.8010    22.8510     8.0400     2.3610     0.2530     0.1896    -0.0020    97.2200
  279.5000    70.5960   -25.3370    20.0000    25.5780    22.4610     8.0410     2.3790     0.2520     0.1809     0.0080    88.1080
  280.0000    70.1380   -25.1520    20.0000    25.3560    22.0710     8.0430     2.3960     0.2590     0.1732     0.0010   139.5020
  280.5000    69.6950   -25.0720    19.8640    25.1330    21.6810     8.0440     2.3830     0.2660     0.1754    -0.0090   171.0930
  281.0000    69.2290   -25.1670    19.5100    24.9100    21.2910     8.0450     2.3160     0.2680     0.2044    -0.0060   217.9880
  281.5000    69.4450   -25.2600    19.1560    24.6870    20.9010     8.0300     2.2350     0.2700     0.2634     0.0480   240.0000
  282.0000    69.9330   -25.3520    18.8030    24.4650    20.7310     8.0160     2.1340     0.2710     0.2955     0.1600   240.0000
  282.5000    72.6460   -25.4450    18.4490    24.2420    20.6900     8.0020     2.0350     0.2750     0.3854     0.1560   240.0000
  283.0000    73.7360   -25.5370    18.2450    24.0190    20.6480     7.9880     2.0560     0.2780     0.3718     0.0810   240.0000
  283.5000    72.2670   -25.6300    18.2450    23.7960    20.6070     7.9730     2.0810     0.2810     0.3591    -0.0040   240.0000
  284.0000    71.5400   -25.7230    18.1870    23.5740    20.5650     7.9590     2.1720     0.2790     0.2966    -0.0660   240.0000
  284.5000    72.3200   -25.8190    18.1170    23.3510    20.0750     7.9480     2.2690     0.2750     0.2696    -0.0410   240.0000
  285.0000    73.2350   -25.7810    18.0780    23.1280    18.9280     7.9740     2.3070     0.2740     0.2285    -0.0250   240.0000
  285.5000    73.9040   -25.7000    18.5110    22.9060    19.1350     7.9990     2.3220     0.2750     0.2152    -0.0130   240.0000
  286.0000    72.6910   -25.6630    18.8550    22.7440    19.6360     8.0040     2.3410     0.2710     0.2056    -0.0080   240.0000
  286.5000    71.1000   -25.8160    19.1020    22.9230    19.4840     7.9960     2.3640     0.2590     0.1950    -0.0030   240.0000
  287.0000    71.3710   -25.9690    18.8450    23.1280    19.1660     7.9880     2.3690     0.2570     0.1860     0.0020   239.7010
  287.5000    73.6390   -25.9980    18.5830    23.3330    18.8490     7.9870     2.3680     0.2620     0.1860     0.0070   195.2790
  288.0000    75.3540   -25.7280    18.5830    23.5370    18.7550     7.9880     2.3640     0.2660     0.1870     0.0120   240.0000
  288.5000    74.1920   -25.4570    19.0140    23.7420    19.4080     7.9890     2.3570     0.2700     0.1900     0.0170   240.0000
  289.0000    73.0310   -25.1850    19.4880    23.9470    19.9090     7.9900     2.3520     0.2720     0.1930     0.0140   240.0000
  289.5000    73.1050   -24.9030    19.9620    24.1520    20.4090     7.9910     2.3540     0.2680     0.1960     0.0200   239.6740
  290.0000    74.7920   -25.0700    20.3710    24.3560    20.9400     7.9930     2.3630     0.2600     0.1900     0.0250   218.8800
  290.5000    77.6280   -25.0560    20.0870    24.5610    20.5060     7.9940     2.3710     0.2470     0.1860     0.0190   178.6800
  291.0000    77.8040   -25.0520    19.7850    24.7660    20.0450     7.9950     2.3740     0.2480     0.1850     0.0110   158.7010
  291.5000    75.9600   -25.0520    19.4840    24.9700    19.5840     7.9960     2.3810     0.2480     0.1830     0.0030   158.0080
  292.0000    74.3090   -25.2140    19.1820    25.1750    19.1240     7.9970     2.3910     0.2580     0.1760     0.0060   157.7080
  292.5000    73.4560   -25.6320    18.7550    25.3800    18.9280     7.9980     2.3950     0.2660     0.1710     0.0130   159.1770
  293.0000    72.8060   -26.0460    18.8280    25.6280    18.7550     7.9990     2.3950     0.2670     0.1710     0.0100   161.2770
  293.5000    72.3440   -26.4600    18.9530    25.3930    18.8150     8.0000     2.3950     0.2620     0.1700     0.0120   177.5110
  294.0000    72.6580   -26.8830    19.1020    25.0570    18.8910     8.0020     2.3940     0.2560     0.1700     0.0190   198.5830
  294.5000    72.0160   -26.8320    19.0350    24.7190    18.9670     8.0030     2.3870     0.2540     0.1720     0.0210   220.5780
  295.0000    71.6920   -26.5260    18.9520    24.3810    19.0440     8.0040     2.3780     0.2600     0.1760     0.0230   239.5020
  295.5000    73.3980   -26.2360    18.8680    23.9400    19.1020     8.0050     2.3690     0.2660     0.1830     0.0140   239.4390
  296.0000    75.9970   -26.4950    18.7850    23.4360    18.7550     8.0060     2.3700     0.2670     0.1860     0.0070   239.3550
  296.5000    77.0930   -26.7920    18.4170    22.9330    18.3620     8.0060     2.3790     0.2610     0.1810     0.0100   230.1880
  297.0000    76.3570   -26.6230    17.8880    22.4290    17.9830     8.0060     2.3890     0.2600     0.1760     0.0110   205.5880
  297.5000    75.5880   -26.3230    17.3590    21.9250    17.6030     8.0060     2.3930     0.2570     0.1710     0.0070   190.2990
  298.0000    74.4590   -26.1290    16.8310    21.4210    17.2240     8.0060     2.3960     0.2540     0.1690     0.0060   202.1410
  298.5000    70.1620   -26.5290    16.3420    20.9180    16.6440     8.0060     2.3960     0.2530     0.1690     0.0100   219.1830
  299.0000    66.4130   -26.7080    16.4160    20.4140    16.6900     8.0060     2.3920     0.2510     0.1700     0.0150   214.1390
  299.5000    66.4890   -26.8780    16.4920    19.9100    16.7860     8.0060     2.3880     0.2430     0.1740     0.0120   205.5830
  300.0000    67.7480   -27.0430    16.4310    19.4570    16.8810     8.0060     2.3860     0.2410     0.1750     0.0070   197.0270
  300.5000    71.9790   -27.2080    16.3070    19.5210    16.9770     8.0060     2.3850     0.2470     0.1770     0.0010   188.5060
  301.0000    75.2580   -27.3740    16.1830    19.5930    17.0720     8.0060     2.3870     0.2510     0.1760    -0.0020   186.6410
  301.5000    78.3480   -27.5390    16.0600    19.6650    17.1680     8.0120     2.3940     0.2560     0.1720     0.0120   184.7840
  302.0000    77.6740   -27.7040    15.8980    19.7370    17.2630     8.0210     2.4000     0.2600     0.1680     0.0250   183.3270
  302.5000    75.1230   -27.8690    16.1330    19.8170    17.3590     8.0110     2.4060     0.2650     0.1630     0.0320   184.7850
  303.0000    73.2350   -28.0110    16.6110    19.8170    17.4260     7.9860     2.4070     0.2670     0.1630     0.0190   185.7170
  303.5000    72.4690   -27.8950    16.9530    19.3250    17.2670     7.9850     2.4080     0.2650     0.1630     0.0070   183.5000
  304.0000    72.6560   -27.7780    16.7420    18.9740    16.9530     7.9820     2.4060     0.2560     0.1630     0.0020   179.7000
  304.5000    76.1550   -27.6610    16.3060    18.6230    16.6310     7.9790     2.4050     0.2560     0.1640     0.0080   175.9000
  305.0000    79.4500   -27.7250    15.8710    18.2730    16.3340     7.9770     2.4060     0.2540     0.1630     0.0040   172.1000
  305.5000    79.8470   -28.1240    15.4360    17.9220    16.0370     7.9740     2.4070     0.2510     0.1620     0.0130   167.6580
  306.0000    77.6230   -28.3810    14.7720    17.5710    15.7400     7.9710     2.4060     0.2500     0.1630     0.0110   161.6140
  306.5000    76.3560   -28.2070    14.8070    17.2200    15.4660     7.9690     2.4010     0.2540     0.1650     0.0070   161.2760
  307.0000    76.6110   -28.0800    14.8830    16.8700    14.9770     7.9660     2.4020     0.2590     0.1660     0.0090   159.7820
