~VERSION INFORMATION
 VERS.                2.0:   CWLS LOG ASCII STANDARD - VERSION 2.0
 WRAP.                 NO:   ONE LINE PER DEPTH STEP
~WELL INFORMATION
#MNEM.UNIT      DATA TYPE    INFORMATION
#----------   ------------   ------------------------------
 STRT.F           44.0000:   START DEPTH
 STOP.F          666.0000:   STOP DEPTH
 STEP.F            0.5000:   STEP LENGTH
 NULL.          -999.2500:   NO VALUE
 COMP. FENIX & SCISSON INC:   COMPANY
 WELL.     NPR-3 #22SX-10:   WELL
 FLD .             TEAPOT:   FIELD
 LOC .      S10 T38N R78W:   LOCATION
 CNTY.            NATRONA:   COUNTY
 STAT.            WYOMING:   STATE
 CTRY. UNITED STATES OF AMERICA:   COUNTRY
 SRVC.            Unknown:   SERVICE COMPANY
 DATE.        11-JUL-1978:   LOGDATE
 API .       490251065600:   API NUMBER
~CURVE INFORMATION
#MNEM.UNIT       API CODE    CURVE DESCRIPTION
#----------   ------------   ------------------------------
 DEPT.F                  :   
 CALD.IN     45 280 60 00:   CALIPER FROM DENSITY LOG
 GRD .GAPI   45 310 01 00:   GAMMA RAY FROM DENSITY LOG
 CORR.G/C3   45 356 01 00:   DENSITY CORRECTION
 DPHI.DEC    45 890 12 00:   DENSITY POROSITY SANDSTONE
 RHOB.G/C3   45 350 01 00:   BULK DENSITY
 SPR .MV     05 010 01 00:   SPONTANEOUS POTENTIAL FROM RES.
 SN  .OHMM   05 040 16 00:   SHORT NORMAL 16"
 ILD .OHMM   05 120 46 00:   INDUCTION LOG DEEP
~PARAMETER INFORMATION
#MNEM.UNIT          VALUE    DESCRIPTION
#----------   ------------   ------------------------------
 PD  .                 GL:   PERMANENT DATUM
 EPD .F              5263:   ELEVATION PERMANENT DATUM
 LMF .                 KB:   LOG MEASURED FROM
 DAPD.F                 4:   FEET ABOVE PERMANENT DATUM
 DMF .                 KB:   DRILLING MEASURED FROM
 EKB .F              5267:   KELLING BUSHING
 EGL .F              5263:   GROUND LEVEL
 DATE.        11-JUL-1978:   RUN DATE
 RUN .                  1:   RUN NUMBER
 DD  .F               657:   DEPTH DRILLER
 DL  .F               666:   DEPTH LOGGER
 BLI .F               660:   BOTTOM LOG INTERVAL
 TLI .F                50:   TOP LOG INTERVAL
 CS  .IN            8.625:   CASING SIZE
 CBD .F                40:   CASING BOTTOM DRILLER
 BS  .IN            7.875:   BIT SIZE
 BSD .F               657:   BIT SIZE AT DEPTH
 DFT .                KCL:   DRILLING FLUID TYPE
 DFD .                8.6:   DRILLING FLUID DENSITY
 DFV .                 33:   DRILLING FLUID VISCOSITY
 DFPH.                9.0:   DRILLING FLUID PH
 DFL .                 14:   DRILLING FLUID LOSS
 MSS .           FLOWLINE:   MUD SAMPLE SOURCE
 RMS .OHMM            .16:   RESISTIVITY MUD SAMPLE
 MST .F                89:   MUD SAMPLE TEMPERATURE
 RMF .OHMM            .15:   RESISTIVITY MUD FILTRATE SAMPLE
 MFST.F                89:   MUD FILTRATE SAMPLE TEMPERATURE
 RMC .OHMM            .32:   RESISTIVITY MUD CAKE
 MCST.F                88:   MUD CAKE SAMPLE TEMPERATURE
 MFSS.               MEAS:   MUD FILTRATE SAMPLE SOURCE
 BHT .F                76:   BOTTOM HOLE TEMPERATURE
 TCS .HRS            0200:   TIME CURCULATED STOPPED
 MRT .F                76:   MAXIMUM RECORDED TEMPERATURE
 LUN .               2958:   LOGGING UNIT NUMBER
 LUL .               CASP:   LOGGING UNIT LOCATION
 ENGI.             MILLER:   RECORDING ENGINEER
 WITN.           MCGINLEY:   WITNESSED BY
 CLNT.            A2DTECH:   CLIENT CODE
 ORIG.           5" PRINT:   ORIGIN OF DATA
 UWI .       490251065600:   UNIQUE WELL ID
 DICO. A2D Technologies, Inc.:   DIGITIZING COMPANY
~OTHER INFORMATION
~A   DEPT     CALD         GRD      CORR       DPHI       RHOB        SPR         SN        ILD   
   44.0000  -999.2500    62.1687  -999.2500  -999.2500  -999.2500  -999.2500  -999.2500  -999.2500
   44.5000  -999.2500    61.5462  -999.2500  -999.2500  -999.2500  -999.2500  -999.2500  -999.2500
   45.0000  -999.2500    60.6627  -999.2500  -999.2500  -999.2500  -999.2500  -999.2500  -999.2500
   45.5000  -999.2500    60.3513  -999.2500  -999.2500  -999.2500  -999.2500  -999.2500  -999.2500
   46.0000  -999.2500    63.3735  -999.2500  -999.2500  -999.2500  -999.2500  -999.2500  -999.2500
   46.5000  -999.2500    74.3675  -999.2500  -999.2500  -999.2500  -999.2500  -999.2500  -999.2500
   47.0000  -999.2500    78.8855  -999.2500  -999.2500  -999.2500  -999.2500  -999.2500  -999.2500
   47.5000  -999.2500    80.3916  -999.2500  -999.2500  -999.2500  -999.2500  -999.2500  -999.2500
   48.0000  -999.2500    80.0868  -999.2500  -999.2500  -999.2500  -999.2500     4.8504  -999.2500
   48.5000  -999.2500    79.3380  -999.2500  -999.2500  -999.2500  -999.2500     4.7809  -999.2500
   49.0000  -999.2500    78.4183  -999.2500  -999.2500  -999.2500  -999.2500     4.8228  -999.2500
   49.5000     7.1980    76.8935  -999.2500  -999.2500  -999.2500  -999.2500     5.1974  -999.2500
   50.0000     7.4242    75.0661  -999.2500  -999.2500  -999.2500  -999.2500     5.4188  -999.2500
   50.5000     7.9383    74.4490  -999.2500  -999.2500  -999.2500    -3.3961     5.4587     9.5899
   51.0000     7.9191    74.4370  -999.2500  -999.2500  -999.2500    -3.3798     5.4612     6.4407
   51.5000     7.8605    74.4250  -999.2500  -999.2500  -999.2500    -3.3635     5.3892     5.2430
   52.0000     7.9198    76.5676  -999.2500  -999.2500  -999.2500    -3.3472     5.2096     4.4173
   52.5000     7.9945    80.2648  -999.2500  -999.2500  -999.2500    -3.3309     5.0014     3.7992
   53.0000     7.9935    84.8443  -999.2500  -999.2500  -999.2500    -3.3145     4.7005     3.3990
   53.5000     7.9318    90.1099  -999.2500  -999.2500  -999.2500    -3.2982     4.2568     2.8293
   54.0000     7.7944    94.4853  -999.2500     0.3043  -999.2500    -3.2819     3.7530     2.2880
   54.5000     7.5812    95.0785    -0.0088     0.3043  -999.2500    -3.2656     3.4575     1.9277
   55.0000     7.4893    94.1588    -0.0107     0.3042  -999.2500    -3.2493     3.3194     1.7759
   55.5000     7.5036    91.8775    -0.0108     0.3042  -999.2500  -999.2500     3.2978     1.7643
   56.0000     7.5177    89.5963    -0.0109     0.3042     1.8847  -999.2500     3.2997     1.8910
   56.5000     7.5164    87.1637     0.0635     0.3041     1.8861  -999.2500     3.3240     2.0687
   57.0000     7.5154    84.8825     0.1123     0.3041     1.8876  -999.2500     3.4183     2.3599
   57.5000     7.5295    81.3909     0.1034     0.2888     2.2089  -999.2500     3.6949     2.8230
   58.0000     7.5284    74.2685     0.0097     0.1623     2.3755  -999.2500     4.0079     3.4219
   58.5000     7.5880    66.0871    -0.0053     0.1611     2.4160  -999.2500     4.1786     3.9010
   59.0000     7.8748    65.4462    -0.0084     0.1587     2.4178  -999.2500     4.5089     4.5089
   59.5000     7.9798    65.4584    -0.0055     0.1563     2.4205  -999.2500     5.7379     5.9795
   60.0000     8.0091    65.4461    -0.0011     0.1518     2.4272  -999.2500     7.0552     8.5524
   60.5000     8.0080    64.3751     0.0034     0.1489     2.4309  -999.2500     8.0987    10.5884
   61.0000     8.0070    61.6197     0.0048     0.1420     2.4348  -999.2500     8.7991    11.5834
   61.5000     8.0036    58.3505     0.0062     0.1378     2.4458  -999.2500     9.3672    11.4949
   62.0000     7.9743    49.8398     0.0061     0.1369     2.4555  -999.2500     9.7729    10.7512
   62.5000     7.9581    48.1392     0.0045     0.1462     2.4525  -999.2500     9.9731     9.9730
   63.0000     7.9268    50.2427     0.0059     0.1615     2.4237  -999.2500     9.8415     9.0002
   63.5000     7.8197    54.2176     0.0073     0.1681     2.4070  -999.2500     9.5135     7.1279
   64.0000     7.6974    59.7518     0.0088     0.1912     2.3902  -999.2500     9.1334     5.9234
   64.5000     7.6055    68.0803     0.0117     0.2060     2.3660  -999.2500     8.6488     5.5325
   65.0000     7.4984    76.2374     0.0146     0.2129     2.3412  -999.2500     8.0781     5.5351
   65.5000     7.4670    86.9157     0.0175     0.2074     2.3314  -999.2500     7.1413     5.6164
   66.0000     7.4508    88.7509     0.0143     0.1971     2.3524  -999.2500     6.2158     5.7016
   66.5000     7.4498    87.2230     0.0113     0.1864     2.3449  -999.2500     5.7769     5.7373
   67.0000     7.5093    82.0674     0.0127     0.1797     2.3899  -999.2500     5.7796     5.8194
   67.5000     7.6749    75.5501     0.0126     0.1744     2.4012  -999.2500     5.9028     6.0257
   68.0000     7.8557    70.5457     0.0141     0.1727     2.4064  -999.2500     6.1542     6.5920
   68.5000     7.9910    70.0829     0.0139     0.1757     2.3996  -999.2500     6.4606     7.3618
   69.0000     8.0203    70.6760     0.0154     0.1799     2.3906  -999.2500     6.8761     8.4506
   69.5000     8.1101    70.5098     0.0168     0.1865     2.3800  -999.2500     7.4708     9.6358
   70.0000     8.2455    69.1363     0.0167     0.1905     2.3687  -999.2500     7.7889    10.0537
   70.5000     8.1505    69.5782     0.0181     0.1899     2.3635  -999.2500     8.1339    10.1893
   71.0000     7.9691    71.5329     0.0195     0.1833     2.3664  -999.2500     8.6439    10.1940
   71.5000     7.9218    72.7312     0.0209     0.1845     2.3814  -999.2500     9.0121    10.4113
   72.0000     7.8925    72.7193     0.0163     0.1956     2.3844  -999.2500     9.3959    10.6331
   72.5000     7.8763    72.2535     0.0072     0.2079     2.3686  -999.2500     9.7290    10.9346
   73.0000     7.8298    68.1568     0.0026     0.2112     2.3453  -999.2500    10.0048    11.4003
   73.5000     7.7530    66.6320     0.0010     0.2124     2.3295  -999.2500    10.1480    11.7236
   74.0000     7.6762    66.1661    -0.0006     0.2106     2.3255  -999.2500    10.1528    12.1471
   74.5000     7.6297    66.0029     0.0008     0.2058     2.3385  -999.2500    10.2277    12.3993
   75.0000     7.5832    65.9909     0.0008     0.2011     2.3445  -999.2500    10.3032    12.5768
   75.5000     7.5670    66.1443     0.0007     0.1929     2.3452  -999.2500    10.3801    12.6695
   76.0000     7.5963    67.5219    -0.0009     0.1710     2.3717  -999.2500    10.4566    12.7628
   76.5000     7.6407    69.1951    -0.0010     0.1780     2.4015  -999.2500    10.4614    12.9455
   77.0000     7.7002    71.1711     0.0004     0.1843     2.3814  -999.2500    10.6112    13.1309
   77.5000     7.7446    73.4924     0.0033     0.1894     2.3707  -999.2500    10.7631    13.2276
   78.0000     7.7739    74.2369     0.0032     0.1930     2.3654  -999.2500    10.8424    13.4220
   78.5000     7.7880    74.0736     0.0061     0.1939     2.3631  -999.2500    10.9223    13.6093
   79.0000     7.8021    71.6411     0.0090     0.1897     2.3623  -999.2500    11.0029    13.9007
   79.5000     7.8162    65.1238     0.0090     0.1837     2.3713  -999.2500    11.0092    14.1969
   80.0000     7.8152    64.3554     0.0044     0.1675     2.3857  -999.2500    11.0144    14.4002
   80.5000     7.8141    65.2512     0.0013     0.1651     2.4096  -999.2500    11.0195    14.7070
   81.0000     7.8130    67.3572    -0.0003     0.1816     2.3953  -999.2500    11.0247    14.8154
   81.5000     7.7968    68.8581    -0.0019     0.1952     2.3720  -999.2500    11.0298    14.7206
   82.0000     7.7652    69.7539    -0.0020     0.2063     2.3539  -999.2500    10.9581    14.6255
   82.5000     7.7490    70.1988    -0.0021     0.2168     2.3329    -3.6881    10.8893    14.4338
   83.0000     7.7328    69.7300    -0.0022     0.2225     2.3208    -3.6819    10.9696    14.4423
   83.5000     7.7318    70.3231    -0.0023     0.2219     2.3148    -3.6757    11.0507    14.5487
   84.0000     7.7156    71.0676    -0.0024     0.2183     2.3148    -3.6695    11.1332    14.8587
