~VERSION INFORMATION
 VERS.                2.0:   CWLS LOG ASCII STANDARD - VERSION 2.0
 WRAP.                 NO:   ONE LINE PER DEPTH STEP
~WELL INFORMATION
#MNEM.UNIT      DATA TYPE    INFORMATION
#----------   ------------   ------------------------------
 STRT.F           18.0000:   START DEPTH
 STOP.F         2312.0000:   STOP DEPTH
 STEP.F            0.5000:   STEP LENGTH
 NULL.          -999.2500:   NO VALUE
 COMP. FENIX & SCISSON INC:   COMPANY
 WELL.  NPR 3 #51 SHX -15:   WELL
 FLD .             TEAPOT:   FIELD
 LOC .      S15 T38N R78W:   LOCATION
 CNTY.            NATRONA:   COUNTY
 STAT.            WYOMING:   STATE
 CTRY. UNITED STATES OF AMERICA:   COUNTRY
 SRVC.            Unknown:   SERVICE COMPANY
 DATE.        14-MAR-1978:   LOGDATE
 API .       490251060000:   API NUMBER
~CURVE INFORMATION
#MNEM.UNIT       API CODE    CURVE DESCRIPTION
#----------   ------------   ------------------------------
 DEPT.F                  :   
 ILD .OHMM   05 120 46 00:   INDUCTION LOG DEEP
 CILD.MMHO   05 110 46 00:   CONDUCTIVITY INDUCTION LOG DEEP
 CALD.IN     45 280 60 00:   CALIPER FROM DENSITY LOG
 GRD .GAPI   45 310 01 00:   GAMMA RAY FROM DENSITY LOG
 CORR.G/C3   45 356 01 00:   DENSITY CORRECTION
 RHOB.G/C3   45 350 01 00:   BULK DENSITY
 DPHI.DEC    45 890 12 00:   DENSITY POROSITY SANDSTONE
~PARAMETER INFORMATION
#MNEM.UNIT          VALUE    DESCRIPTION
#----------   ------------   ------------------------------
 PD  .                 GL:   PERMANENT DATUM
 EPD .F              5223:   ELEVATION PERMANENT DATUM
 LMF .                 KB:   LOG MEASURED FROM
 DAPD.F                10:   FEET ABOVE PERMANENT DATUM
 DMF .                 KB:   DRILLING MEASURED FROM
 EKB .F              5233:   KELLING BUSHING
 EGL .F              5223:   GROUND LEVEL
 DATE.            3-14-78:   RUN DATE
 RUN .                  1:   RUN NUMBER
 DD  .F              2323:   DEPTH DRILLER
 DL  .F              2314:   DEPTH LOGGER
 BLI .F              2312:   BOTTOM LOG INTERVAL
 TLI .F                20:   TOP LOG INTERVAL
 CS  .IN                9:   CASING SIZE
 CBD .F               680:   CASING BOTTOM DRILLER
 CBL .F               682:   CASING BOTTOM LOGGER
 BS  .IN            7.875:   BIT SIZE
 BSD .F              2323:   BIT SIZE AT DEPTH
 DFT .           AIR MIST:   DRILLING FLUID TYPE
 TCS .HRS               2:   TIME CURCULATED STOPPED
 LUN .               2958:   LOGGING UNIT NUMBER
 LUL .               CASP:   LOGGING UNIT LOCATION
 ENGI.             MILLER:   RECORDING ENGINEER
 WITN.           MCGINLEY:   WITNESSED BY
 CLNT.            A2DTECH:   CLIENT CODE
 ORIG.       2", 5" PRINT:   ORIGIN OF DATA
 UWI .       490251060000:   UNIQUE WELL ID
 DICO. A2D Technologies, Inc.:   DIGITIZING COMPANY
~OTHER INFORMATION
~A   DEPT      ILD       CILD       CALD         GRD      CORR       RHOB       DPHI   
# ...
 1747.0000     7.6031   132.7655    10.0033   106.3905    -0.0216     2.5455     0.0694
 1747.5000     7.5898   132.9618    10.0027   110.4597    -0.0244     2.5451     0.0708
 1748.0000     7.5765   133.1688    10.0017   103.7041    -0.0275     2.5419     0.0768
 1748.5000     7.5632   133.3759    10.0007    95.7598    -0.0245     2.5361     0.0746
 1749.0000     7.5500   133.5830     9.9996    95.7324    -0.0204     2.5426     0.0716
 1749.5000     7.5368   133.7471     9.9986   100.9224    -0.0174     2.5534     0.0711
 1750.0000     7.5408   133.5600     9.9975   105.5883    -0.0175     2.5339     0.0705
 1750.5000     7.5616   133.3729     9.9965   109.2144    -0.0161     2.5407     0.0700
 1751.0000     7.5825   133.1857     9.9955   105.7796    -0.0131     2.5474     0.0711
 1751.5000     7.6042   132.9983     9.9944   101.8521    -0.0103     2.5415     0.0720
 1752.0000     7.6103   132.8111     9.9934    99.5577    -0.0074     2.5473     0.0720
 1752.5000     7.6146   132.6239     9.9923   109.1158    -0.0027     2.5425     0.0714
 1753.0000     7.6236   132.4367     9.9913   111.8003    -0.0052     2.5451     0.0712
 1753.5000     7.6326   132.2495     9.9903   105.5404    -0.0107     2.5467     0.0774
 1754.0000     7.6415   132.0623     9.9892    96.2775    -0.0163     2.5352     0.0832
 1754.5000     7.6513   131.8751     9.9882    87.5659    -0.0189     2.5241     0.0864
 1755.0000     7.6826   131.6151     9.9871    82.9298    -0.0176     2.5231     0.0816
 1755.5000     7.7145   131.2477     9.9861    83.9142    -0.0163     2.5259     0.0800
 1756.0000     7.7464   130.8803     9.9851    87.7088    -0.0136     2.5325     0.0740
 1756.5000     7.7785   130.5129     9.9839    93.8553    -0.0097     2.5413     0.0716
 1757.0000     7.8101   130.1455     9.9747   102.9040    -0.0112     2.5456     0.0696
 1757.5000     7.8045   129.7595     9.9548   109.7666    -0.0038     2.5507     0.0623
 1758.0000     7.7969   129.7595     9.9351   106.1022    -0.0039     2.5650     0.0574
 1758.5000     7.7895   129.7595     9.9152   100.4778    -0.0044     2.5702     0.0591
 1759.0000     7.7821   129.7595     9.8955    94.7350    -0.0049     2.5674     0.0586
 1759.5000     7.7747   129.8314     9.8759    89.2325    -0.0053     2.5671     0.0580
 1760.0000     7.7599   130.4783     9.8626    90.4993    -0.0058     2.5698     0.0607
 1760.5000     7.7372   131.1253     9.8585    93.7863    -0.0062     2.5624     0.0647
 1761.0000     7.7263   131.7722     9.8544    98.2495    -0.0067     2.5531     0.0660
 1761.5000     7.7193   132.4192     9.8503    96.6049    -0.0071     2.5567     0.0604
 1762.0000     7.7125   132.6608     9.8463    92.3841    -0.0073     2.5566     0.0660
 1762.5000     7.7057   132.4353     9.8422    90.8249    -0.0057     2.5516     0.0721
 1763.0000     7.6988   132.2099     9.8381    91.9987    -0.0037     2.5466     0.0728
 1763.5000     7.6913   131.9844     9.8341    98.9347     0.0014     2.5476     0.0644
 1764.0000     7.7058   131.7635     9.8300   108.0017     0.0059     2.5570     0.0660
 1764.5000     7.7235   131.1310     9.8259   108.1396     0.0060     2.5543     0.0616
 1765.0000     7.7578   130.5110     9.8219    99.7473     0.0054     2.5580     0.0692
 1765.5000     7.8023   129.8910     9.8178    98.2315     0.0049     2.5533     0.0696
 1766.0000     7.8190   129.2710     9.8137   103.4854     0.0094     2.5447     0.0728
 1766.5000     7.8291   128.6510     9.8097   104.5867     0.0201     2.5512     0.0627
 1767.0000     7.8389   128.0311     9.8059   102.1143     0.0274     2.5635     0.0572
 1767.5000     7.8470   127.4111     9.7906   101.3073     0.0207     2.5742     0.0594
 1768.0000     7.9261   126.7911     9.7724   101.3522     0.0144     2.5706     0.0607
 1768.5000     8.0247   126.1711     9.7540   106.9559     0.0105     2.5610     0.0584
 1769.0000     8.1241   125.5511     9.7357   113.7435     0.0104     2.5677     0.0668
 1769.5000     8.1687   124.9311     9.7174   113.8817     0.0163     2.5537     0.0619
 1770.0000     8.1621   124.8956     9.7051    92.6501     0.0265     2.5601     0.0516
 1770.5000     8.1556   125.1023     9.7053    93.0892     0.0358     2.5714     0.0579
 1771.0000     8.1486   125.3090     9.7053    98.5118     0.0183     2.5771     0.0677
 1771.5000     8.1417   125.5156     9.7053   102.3910    -0.0012     2.5587     0.0712
 1772.0000     8.1360   125.7191     9.7053   100.2641    -0.0058     2.5451     0.0695
 1772.5000     8.0596   127.3465     9.7053    97.2453    -0.0063     2.5495     0.0644
 1773.0000     7.9495   129.2089     9.7053    94.1434    -0.0068     2.5575     0.0625
 1773.5000     7.8387   131.0707     9.7053    93.2116    -0.0072     2.5611     0.0659
 1774.0000     7.7330   131.7658     9.7053    95.4657    -0.0077     2.5549     0.0712
 1774.5000     7.7176   131.7648     9.7053    97.6247    -0.0081     2.5477     0.0748
 1775.0000     7.7057   131.7643     9.7053    98.3628    -0.0086     2.5411     0.0746
 1775.5000     7.6932   131.7635     9.7053   101.7180    -0.0090     2.5445     0.0726
 1776.0000     7.6908   131.7635     9.7053   109.4441    -0.0094     2.5426     0.0800
 1776.5000     7.6908   131.7635     9.7053   112.7479    -0.0084     2.5361     0.0726
 1777.0000     7.6908   131.7635     9.7053   115.9639    -0.0071     2.5445     0.0656
 1777.5000     7.6907   131.7614     9.7053   116.5753    -0.0058     2.5562     0.0705
 1778.0000     7.6866   131.7578     9.7053   114.8940    -0.0045     2.5432     0.0780
 1778.5000     7.6713   131.7546     9.7053   118.6882    -0.0023     2.5309     0.0856
 1779.0000     7.6567   132.9594     9.7035   117.7417     0.0032     2.5251     0.0952
 1779.5000     7.5656   134.6192     9.7014   116.2984     0.0088     2.5183     0.1048
 1780.0000     7.4044   136.2726     9.6994   114.5264     0.0200     2.4905     0.1115
 1780.5000     7.2865   137.7755     9.6973   106.3671     0.0484     2.4766     0.1505
 1781.0000     7.2892   136.7735     9.6953    96.9013     0.0847     2.4151     0.1419
 1781.5000     7.2880   135.8548     9.6932    99.0939     0.1781     2.4033     0.1292
 1782.0000     7.3506   134.9394     9.6911   103.8932     0.2462     2.4377     0.1420
 1782.5000     7.4417   134.0218     9.6891   106.8031     0.2676     2.4875     0.0580
 1783.0000     7.5313   133.1060     9.6870   105.6150     0.0016     2.5761     0.1060
 1783.5000     7.6174   130.4700     9.6860   101.2752     0.0053     2.4628     0.0628
 1784.0000     7.7854   126.8628     9.6892    96.5252     0.0062     2.5587     0.0660
 1784.5000     7.9999   124.6354     9.6923    94.3639     0.0043     2.5521     0.0751
 1785.0000     8.2085   124.3598     9.6954    94.7505     0.0052     2.5412     0.0785
 1785.5000     8.2550   124.0843     9.6985    98.5784     0.0079     2.5361     0.0764
 1786.0000     8.2893   123.8087     9.7016   105.0625     0.0085     2.5345     0.0840
 1786.5000     8.1583   126.2550     9.7047   106.6114     0.0083     2.5296     0.0969
 1787.0000     8.0117   129.4790     9.7053   103.8695     0.0115     2.5145     0.1049
 1787.5000     7.7479   132.7029     9.7053   101.1659     0.0331     2.4946     0.1128
 1788.0000     7.4739   135.9268     9.7053   104.2849     0.0596     2.4745     0.1200
 1788.5000     7.2856   136.7735     9.7053   107.2184     0.0755     2.4550     0.1444
 1789.0000     7.2892   137.5736     9.7054   107.3639     0.1130     2.4179     0.1715
 1789.5000     7.2891   138.7673     9.7055    98.6936     0.2420     2.3782     0.1637
 1790.0000     7.2887   137.7592     9.7052    95.2580     0.2144     2.4846     0.1456
 1790.5000     7.2901   136.7573     9.6908    95.5426     0.1871     2.5817     0.1300
 1791.0000     7.3249   134.1614     9.6034    96.1334     0.0917     2.5440     0.0685
 1791.5000     7.4389   131.7670     9.5695    93.2861    -0.0157     2.4666     0.0704
 1792.0000     7.5872   129.3725     9.5741    89.2712    -0.0084     2.5504     0.0716
