~VERSION INFORMATION
 VERS.                2.0:   CWLS LOG ASCII STANDARD - VERSION 2.0
 WRAP.                 NO:   ONE LINE PER DEPTH STEP
~WELL INFORMATION
#MNEM.UNIT      DATA TYPE    INFORMATION
#----------   ------------   ------------------------------
 STRT.F           36.0000:   START DEPTH
 STOP.F          442.0000:   STOP DEPTH
 STEP.F            0.5000:   STEP LENGTH
 NULL.          -999.2500:   NO VALUE
 COMP.    FENIX & SCISSON:   COMPANY
 WELL.      NPR #66-SX-10:   WELL
 FLD .             TEAPOT:   FIELD
 LOC .      S10 T38N R78W:   LOCATION
 CNTY.            NATRONA:   COUNTY
 STAT.            WYOMING:   STATE
 CTRY. UNITED STATES OF AMERICA:   COUNTRY
 SRVC.              Welex:   SERVICE COMPANY
 DATE.        19-APR-1977:   LOGDATE
 API .       490251036100:   API NUMBER
~CURVE INFORMATION
#MNEM.UNIT       API CODE    CURVE DESCRIPTION
#----------   ------------   ------------------------------
 DEPT.F                  :   
 CALD.IN     45 280 60 00:   CALIPER FROM DENSITY LOG
 DPHI.DEC    45 890 12 00:   DENSITY POROSITY SANDSTONE
 DRHO.G/C3   45 356 01 00:   DENSITY CORRECTION
 GRD .GAPI   45 310 01 00:   GAMMA RAY FROM DENSITY LOG
 RHOB.G/C3   45 350 01 00:   BULK DENSITY
 ILD .OHMM   07 120 46 00:   INDUCTION LOG DEEP
 ILM .OHMM   07 120 44 00:   INDUCTION LOG MEDIUM
 SGRD.OHMM   07 221 05 00:   SHALLOW SHORT GUARD RESISTIVITY
 SPR .MV     07 010 01 00:   SPONTANEOUS POTENTIAL
~PARAMETER INFORMATION
#MNEM.UNIT          VALUE    DESCRIPTION
#----------   ------------   ------------------------------
 PD  .                 GL:   PERMANENT DATUM
 EPD .F              5200:   ELEVATION PERMANENT DATUM
 LMF .                 GL:   LOG MEASURED FROM
 DMF .                 GL:   DRILLING MEASURED FROM
 EGL .F              5200:   GROUND LEVEL
 DATE.        19-APR-1977:   RUN DATE
 RUN .                  1:   RUN NUMBER
 DD  .F               476:   DEPTH DRILLER
 DL  .F               447:   DEPTH LOGGER
 BLI .F               445:   BOTTOM LOG INTERVAL
 TLI .F                35:   TOP LOG INTERVAL
 CS  .IN            8.625:   CASING SIZE
 CBD .F                42:   CASING BOTTOM DRILLER
 CBL .F                42:   CASING BOTTOM LOGGER
 BS  .IN            7.875:   BIT SIZE
 BSD .F               476:   BIT SIZE AT DEPTH
 DFT .            KCL MUD:   DRILLING FLUID TYPE
 DFD .                8.8:   DRILLING FLUID DENSITY
 DFV .                 37:   DRILLING FLUID VISCOSITY
 MSS .           FLOWLINE:   MUD SAMPLE SOURCE
 RMS .OHMM           1.06:   RESISTIVITY MUD SAMPLE
 MST .F                48:   MUD SAMPLE TEMPERATURE
 RMF .OHMM           1.03:   RESISTIVITY MUD FILTRATE SAMPLE
 MFST.F                48:   MUD FILTRATE SAMPLE TEMPERATURE
 RMC .OHMM           1.18:   RESISTIVITY MUD CAKE
 MCST.F                48:   MUD CAKE SAMPLE TEMPERATURE
 MFSS.               MEAS:   MUD FILTRATE SAMPLE SOURCE
 MCSS.               MEAS:   MUD CAKE SAMPLE SOURCE
 RMB .OHMM           0.86:   RESISTIVITY MUD AT BHT
 BHT .F                59:   BOTTOM HOLE TEMPERATURE
 TCS .HRS               5:   TIME CURCULATED STOPPED
 MRT .F                59:   MAXIMUM RECORDED TEMPERATURE
 LUN .               8611:   LOGGING UNIT NUMBER
 LUL .             CASPER:   LOGGING UNIT LOCATION
 ENGI.               DOAK:   RECORDING ENGINEER
 WITN.        MR. R. LYON:   WITNESSED BY
 CLNT.            A2DTECH:   CLIENT CODE
 ORIG.      2.5" 5" PRINT:   ORIGIN OF DATA
 UWI .       490251036100:   UNIQUE WELL ID
 DICO. A2D Technologies, Inc.:   DIGITIZING COMPANY
~OTHER INFORMATION
~A   DEPT     CALD       DPHI       DRHO         GRD      RHOB        ILD        ILM       SGRD        SPR   
# ...
  145.5000     7.8600     0.1119     0.0068   112.1326     2.4807     8.5397     9.5781    11.6805   -43.3664
  146.0000     7.8613     0.0993     0.0221   105.4877     2.4830     8.5314     9.7019    11.5134   -43.3823
  146.5000     7.8625     0.0963     0.0192   104.1685     2.4816     8.5246     9.6935    12.5486   -43.3981
  147.0000     7.8633     0.0979     0.0131   102.4053     2.4802     8.5178     9.6856    13.4953   -43.1180
  147.5000     7.8642     0.1007     0.0090   101.6749     2.4795     8.5110     9.7613    13.4248   -43.1348
  148.0000     7.8651     0.0977     0.0167   104.6517     2.4848     8.5042     9.8038    12.1224   -43.1507
  148.5000     7.8659     0.0896     0.0214   105.4049     2.4956     8.4974     9.7946    11.9399   -43.1665
  149.0000     7.8668     0.0810     0.0231   105.2700     2.5078     8.4907     9.7866    12.1884   -42.8874
  149.5000     7.8677     0.0791     0.0172   104.5429     2.5156     8.3691     9.7786    12.2485   -42.9041
  150.0000     7.8685     0.0869     0.0083   105.8882     2.5022     8.3624     9.7705    12.2358   -42.9204
  150.5000     7.8694     0.0910     0.0009   105.2600     2.4919     8.3558     9.7626    11.8961   -42.9366
  151.0000     7.8702     0.0964    -0.0019   103.6451     2.4815     8.4636     9.7530    11.5658   -42.9528
  151.5000     7.8711     0.0981    -0.0018   104.1543     2.4778     8.4564     9.7452    12.7140   -42.9690
  152.0000     7.8720     0.0969     0.0014   107.5719     2.4845     8.4495     9.6054    11.5458   -42.9852
  152.5000     7.8728     0.0929     0.0076   107.1409     2.4958     8.4426     9.5978    11.2253   -43.1219
  153.0000     7.8737     0.0883     0.0138   102.7132     2.5018     8.4014     9.5901    11.3696   -43.3127
  153.5000     7.8745     0.0867     0.0155    99.3183     2.4981     8.3147     9.4526    11.5159   -43.6239
  154.0000     7.8754     0.0902     0.0127   100.8149     2.4936     8.2630     9.4450    11.6639   -43.6401
  154.5000     7.8763     0.0917     0.0068   101.4201     2.4900     8.0288     9.3096    11.4820   -43.9545
  155.0000     7.8771     0.0925     0.0039   102.3213     2.4878     7.9083     9.3021    11.3296   -43.9703
  155.5000     7.8780     0.0907     0.0086   102.9264     2.4886     7.6273     9.4224    11.4760   -44.2812
  156.0000     7.8789     0.0898     0.0178   103.8276     2.4976     7.2249     9.5442    11.6236   -44.5920
  156.5000     7.8797     0.0921     0.0225   105.3582     2.4909     7.1214     9.5361    11.6121   -44.9028
  157.0000     7.8806     0.0995     0.0212   107.3329     2.4820     7.0195     9.2061    11.0977   -44.9186
  157.5000     7.8814     0.1063     0.0228   108.0115     2.4723     7.0139     8.4843    10.1013   -44.9345
  158.0000     7.8823     0.1087     0.0213   105.6594     2.4641     7.0083     8.0460     9.4088   -44.6553
  158.5000     7.8832     0.1096     0.0154   103.8961     2.4612     7.0027     7.9600     8.9947   -44.6712
  159.0000     7.8840     0.1090     0.0094   101.5408     2.4642     6.9971     8.0639     9.2345   -44.3920
  159.5000     7.8849     0.1081     0.0079    99.1854     2.4665     6.9915     8.2137    10.6774   -44.4079
  160.0000     7.8858     0.1101     0.0050    96.9781     2.4584     6.9860     8.4396    11.2276   -44.0905
  160.5000     7.8866     0.1146     0.0020    98.1753     2.4517     7.0808     8.6108    11.2741   -43.8496
  161.0000     7.8875     0.1176     0.0038    99.6686     2.4480     7.2755     8.9102    10.7586   -43.5044
  161.5000     7.8883     0.1164     0.0142   100.8659     2.4525     7.4755     9.0776    10.7493   -43.2913
  162.0000     7.8892     0.1011     0.0263   102.2112     2.4787     7.7656     9.3213    11.3425   -43.2134
  162.5000     7.8898     0.0987     0.0279   103.7171     2.4802     7.8921     9.4418    11.5155   -43.0280
  163.0000     7.8903     0.1015     0.0264   104.1616     2.4750     8.1090     9.4342    11.1694   -42.7522
  163.5000     7.8908     0.1155     0.0220   101.5135     2.4587     8.2191     9.5569    11.4685   -42.7684
  164.0000     7.8913     0.1197     0.0145    96.9377     2.4498     8.2866     9.6803    12.1013   -42.6313
  164.5000     7.8918     0.1208     0.0085    97.8389     2.4446     8.2785     9.8053    10.9863   -42.5059
  165.0000     7.8923     0.1193     0.0026    99.6283     2.4409     8.2158     9.9316    11.1828   -42.2302
  165.5000     7.8928     0.1171    -0.0004   102.5471     2.4380     8.0326    10.0600    12.0881   -42.5410
  166.0000     7.8932     0.1159    -0.0018   103.7473     2.4395     7.7132    10.1901    12.0325   -42.8518
  166.5000     7.8937     0.1156    -0.0018   105.3916     2.4496     7.2982    10.1820    11.8514   -43.1627
  167.0000     7.8942     0.1156    -0.0002   107.0359     2.4553     6.9056    10.3136    11.5148   -43.4735
  167.5000     7.8947     0.1156     0.0029   107.4920     2.4404     6.5341    10.2514    11.1877   -44.0793
  168.0000     7.8952     0.1156     0.0059   103.3673     2.4456     6.3534     9.4357    10.4798   -44.3901
  168.5000     7.8957     0.1153     0.0105   102.0471     2.4584     6.1777     7.8465     8.6797   -44.4060
  169.0000     7.8962     0.1111     0.0121   104.1395     2.4711     6.0892     7.6137     6.8555   -44.4218
  169.5000     7.8967     0.1039     0.0137   104.2996     2.4853     6.0844     7.6074     7.6544   -44.4381
  170.0000     7.8972     0.0901     0.0228   102.3953     2.5070     6.0795     7.6464     9.5745   -44.1585
  170.5000     7.8977     0.0812     0.0319   101.5231     2.5130     6.1580     7.8567     9.9612   -44.1318
  171.0000     7.8982     0.0811     0.0395   100.9471     2.5101     6.1531     7.9634    10.2846   -43.6002
  171.5000     7.8986     0.0862     0.0426   100.2064     2.5057     6.2450     8.1824    10.5600   -43.6180
  172.0000     7.8991     0.0898     0.0351    97.8177     2.4960     6.3298     8.4489    10.8428   -43.6342
  172.5000     7.8996     0.0937     0.0140    97.4425     2.4913     6.5038     8.6757    10.9822   -43.6504
  173.0000     7.9001     0.0917     0.0141    98.7948     2.4953     6.7103     8.7879    11.1234   -43.6667
  173.5000     7.9006     0.0897     0.0157    99.8470     2.4954     6.9604     8.9023    11.2672   -43.6829
  174.0000     7.9011     0.0957     0.0127   101.0472     2.4909     7.1517     9.1405    11.2567   -43.6991
  174.5000     7.9016     0.1052     0.0097   101.3593     2.4810     7.4491     9.1332    11.2470   -43.7153
  175.0000     7.9021     0.1088     0.0068   101.9675     2.4614     7.6538     9.2516    11.3916   -43.7316
  175.5000     7.9023     0.1124     0.0038   104.4999     2.4583     7.8053     9.3710    11.5381   -43.7507
  176.0000     7.9022     0.1085     0.0009   106.5883     2.4680     8.0131     9.4920    11.5277   -43.4716
  176.5000     7.9020     0.1064     0.0040   106.8964     2.4718     8.0067     9.6147    11.3614   -43.4874
  177.0000     7.9018     0.1058     0.0070   103.0678     2.4733     8.1111     9.6066    11.3804   -43.5032
  177.5000     7.9017     0.1016     0.0146   102.7599     2.4771     8.2148     9.7312    11.5339   -43.2227
  178.0000     7.9015     0.0932     0.0177   104.1360     2.4958     8.2082     9.7227    11.8061   -42.9450
  178.5000     7.9014     0.0881     0.0223   106.3724     2.4988     8.2017     9.7487    11.9579   -42.6652
  179.0000     7.9012     0.0842     0.0193   108.5619     2.5019     8.3076     9.8413    12.1117   -42.3867
  179.5000     7.9010     0.0803     0.0164   109.6821     2.5064     8.3010     9.8321    11.9622   -42.4027
  180.0000     7.9009     0.0797     0.0119   110.8613     2.5109     8.2943     9.8240    11.7628   -42.4189
  180.5000     7.9007     0.0827     0.0090   110.1372     2.5110     8.2877     9.9508    12.0775   -42.7301
  181.0000     7.9005     0.0877     0.0075   110.8974     2.5005     8.3947     9.9427    12.3267   -43.3363
  181.5000     7.9004     0.0952     0.0061   112.8377     2.4909     8.3875     9.9346    12.5599   -43.7099
