~VERSION INFORMATION
 VERS.                2.0:   CWLS LOG ASCII STANDARD - VERSION 2.0
 WRAP.                 NO:   ONE LINE PER DEPTH STEP
~WELL INFORMATION
#MNEM.UNIT      DATA TYPE    INFORMATION
#----------   ------------   ------------------------------
 STRT.F           15.0000:   START DEPTH
 STOP.F          692.0000:   STOP DEPTH
 STEP.F            0.5000:   STEP LENGTH
 NULL.          -999.2500:   NO VALUE
 COMP.    FENIX & SCISSON:   COMPANY
 WELL. S 15 NPR #3 #73-15:   WELL
 FLD .             TEAPOT:   FIELD
 LOC .      S15 T38N R78W:   LOCATION
 CNTY.            NATRONA:   COUNTY
 STAT.            WYOMING:   STATE
 CTRY. UNITED STATES OF AMERICA:   COUNTRY
 SRVC.              Welex:   SERVICE COMPANY
 DATE.        23-FEB-1977:   LOGDATE
 API .       490251057900:   API NUMBER
~CURVE INFORMATION
#MNEM.UNIT       API CODE    CURVE DESCRIPTION
#----------   ------------   ------------------------------
 DEPT.F                  :   
 SPR .MV     07 010 01 00:   SPONTANEOUS POTENTIAL
 SGRD.OHMM   07 220 05 00:   SHALLOW GUARD RESISTIVITY
 ILD .OHMM   07 120 46 00:   INDUCTION LOG DEEP
 ILM .OHMM   07 120 44 00:   INDUCTION LOG MEDIUM
 CALD.IN     45 280 60 00:   CALIPER
 GRD .GAPI   45 310 01 00:   GAMMA RAY FROM DENSITY LOG
 CORR.G/C3   45 356 01 00:   DENSITY CORRECTION
 DPHI.DEC    45 890 10 00:   DENSITY POROSITY SANDSTONE
 RHOB.G/C3   45 350 01 00:   BULK DENSITY
~PARAMETER INFORMATION
#MNEM.UNIT          VALUE    DESCRIPTION
#----------   ------------   ------------------------------
 PD  .                 GL:   PERMANENT DATUM
 EPD .F              5251:   ELEVATION PERMANENT DATUM
 LMF .                 GL:   LOG MEASURED FROM
 DMF .                 GL:   DRILLING MEASURED FROM
 EGL .F              5251:   GROUND LEVEL
 DATE.            2-23-77:   RUN DATE
 RUN .                  1:   RUN NUMBER
 DD  .F               686:   DEPTH DRILLER
 DL  .F               695:   DEPTH LOGGER
 BLI .F               693:   BOTTOM LOG INTERVAL
 TLI .F                42:   TOP LOG INTERVAL
 CS  .IN            8.625:   CASING SIZE
 CBD .F                42:   CASING BOTTOM DRILLER
 CBL .F                42:   CASING BOTTOM LOGGER
 BS  .IN            7.875:   BIT SIZE
 BSD .F               686:   BIT SIZE AT DEPTH
 DFT .           CHEM GEL:   DRILLING FLUID TYPE
 DFD .                8.8:   DRILLING FLUID DENSITY
 DFV .                 33:   DRILLING FLUID VISCOSITY
 DFPH.                  7:   DRILLING FLUID PH
 DFL .               11.2:   DRILLING FLUID LOSS
 MSS .          FLOW LINE:   MUD SAMPLE SOURCE
 RMS .OHMM            .32:   RESISTIVITY MUD SAMPLE
 MST .F                68:   MUD SAMPLE TEMPERATURE
 RMF .OHMM            .28:   RESISTIVITY MUD FILTRATE SAMPLE
 MFST.F                68:   MUD FILTRATE SAMPLE TEMPERATURE
 RMC .OHMM            .61:   RESISTIVITY MUD CAKE
 MCST.F                68:   MUD CAKE SAMPLE TEMPERATURE
 MFSS.           MEASURED:   MUD FILTRATE SAMPLE SOURCE
 MCSS.           MEASURED:   MUD CAKE SAMPLE SOURCE
 RMB .OHMM           .410:   RESISTIVITY MUD AT BHT
 BHT .F                53:   BOTTOM HOLE TEMPERATURE
 TCS .HRS               2:   TIME CURCULATED STOPPED
 MRT .F                53:   MAXIMUM RECORDED TEMPERATURE
 LUN .               8611:   LOGGING UNIT NUMBER
 LUL .           GILLETTE:   LOGGING UNIT LOCATION
 ENGI.            C. DOAK:   RECORDING ENGINEER
 WITN.         STUEBINGER:   WITNESSED BY
 CLNT.            A2DTECH:   CLIENT CODE
 ORIG. 1", 2.5", 5" PRINT:   ORIGIN OF DATA
 UWI .       490251057900:   UNIQUE WELL ID
 DICO. A2D Technologies, Inc.:   DIGITIZING COMPANY
~OTHER INFORMATION
~A   DEPT      SPR       SGRD        ILD        ILM       CALD         GRD      CORR       DPHI       RHOB   
# ...
  380.0000   -54.1667     8.8183     4.9465     7.3703     8.2720   116.6027     0.0726     0.1247     2.4246
  380.5000   -54.1666     8.9572     5.1597     7.7237     8.2688   119.8094     0.0726     0.1131     2.4616
  381.0000   -54.1666     9.0983     5.3820     8.0942     8.2656   123.3916     0.0725     0.1027     2.4885
  381.5000   -54.1664     9.2416     5.6140     8.3059     8.2624   127.5235     0.0726     0.0960     2.4866
  382.0000   -54.1665     9.3837     5.8559     8.4036     8.2591   128.8968     0.0726     0.0996     2.4824
  382.5000   -54.1664     9.2163     6.1083     8.5025     8.2559   126.5953     0.0725     0.1032     2.4776
  383.0000   -54.1657     9.0557     6.2905     8.6016     8.2527   127.2611     0.0726     0.1048     2.4745
  383.5000   -54.1671     8.8782     6.3771     8.7030     8.2495   128.5258     0.0726     0.1005     2.4803
  384.0000   -54.1677     9.1365     6.4649     8.8056     8.2463   129.3652     0.0725     0.0968     2.4854
  384.5000   -54.2341     9.4413     6.5539     8.9094     8.2431   122.8494     0.0726     0.1011     2.4846
  385.0000   -54.3180     9.7563     6.6441     9.0144     8.2399   120.2208     0.0725     0.1072     2.4727
  385.5000   -54.4025    10.1027     6.7356     9.1207     8.2367   123.0374     0.0725     0.1072     2.4717
  386.0000   -54.4858    10.0561     6.8284     9.2282     8.2334   125.5299     0.0733     0.1012     2.4771
  386.5000   -54.5695    10.0066     6.9224     9.3370     8.2302   127.0513     0.0760     0.0960     2.4898
  387.0000   -54.6539     9.9573     7.0171     9.3837     8.2270   124.9935     0.0788     0.0904     2.5033
  387.5000   -54.7367     9.9083     7.1136     9.3693     8.2238   122.9708     0.0814     0.0857     2.5004
  388.0000   -54.8205     9.8595     7.1137     9.3327     8.2206   121.4283     0.0843     0.0928     2.4927
  388.5000   -54.9095     9.8110     7.1138     9.2963     8.2173   121.4974     0.0831     0.0984     2.4923
  389.0000   -54.9808     9.7365     7.1140     9.2601     8.2142   121.6710     0.0818     0.0952     2.4940
  389.5000   -55.0235     9.7801     7.1142     9.2121     8.2115   120.9886     0.0803     0.0936     2.4911
  390.0000   -55.0718     9.8761     7.1143     9.2625     8.2158   120.3900     0.0789     0.0976     2.4883
  390.5000   -55.1205     9.9730     7.1142     9.3383     8.2199   119.7496     0.0772     0.0953     2.4885
  391.0000   -55.1676    10.0709     7.1142     9.4148     8.2243   120.4994     0.0776     0.0913     2.4952
  391.5000   -55.2153    10.1697     7.1142     9.4918     8.2286   122.8298     0.0808     0.0873     2.5010
  392.0000   -55.2647    10.2695     7.1140     9.5695     8.2329   124.5829     0.0839     0.0837     2.5070
  392.5000   -55.3103    10.3703     7.1143     9.6479     8.2373   122.9597     0.0872     0.0806     2.5131
  393.0000   -55.3527    10.4721     7.1144     9.7269     8.2416   121.3023     0.0897     0.0776     2.5191
  393.5000   -55.3044    10.5749     7.1155     9.8065     8.2459   120.5246     0.0958     0.0746     2.5252
  394.0000   -55.2566    10.6779     7.1122     9.9179     8.2502   120.5659     0.0949     0.0730     2.5270
  394.5000   -55.2046    10.6043     7.0700     9.8637     8.2545   120.0298     0.0913     0.0787     2.5180
  395.0000   -55.1547    10.4857     7.0278     9.7760     8.2588   119.2771     0.0876     0.0841     2.5090
  395.5000   -55.1047    10.3684     6.9853     9.6891     8.2631   120.9027     0.0840     0.0895     2.4993
  396.0000   -55.0533    10.2524     6.9427     9.6029     8.2674   123.7834     0.0805     0.0949     2.4903
  396.5000   -55.0042    10.1376     6.9012     9.5176     8.2717   124.4290     0.0767     0.1008     2.4807
  397.0000   -54.9612    10.0242     6.8599     9.4330     8.2761   123.4474     0.0759     0.1008     2.4801
  397.5000   -55.0052     9.9121     6.8165     9.3491     8.2803   122.5980     0.0750     0.0968     2.4833
  398.0000   -55.0679     9.8012     6.7711     9.2660     8.2846   122.2010     0.0742     0.0944     2.4894
  398.5000   -55.1316     9.6924     6.7311     9.1074     8.2893   124.4969     0.0736     0.0964     2.4885
  399.0000   -55.1940     9.5851     6.4140     8.8121     8.2894   127.6953     0.0728     0.1016     2.4749
  399.5000   -55.2569     9.2570     6.0973     8.5264     8.2859   131.0735     0.0777     0.0973     2.4828
  400.0000   -55.3199     8.8777     5.7962     8.2499     8.2827   131.3492     0.0845     0.0860     2.5068
  400.5000   -55.3827     8.5138     5.5100     7.9824     8.2796   129.4682     0.0914     0.0747     2.5312
  401.0000   -55.4459     8.1019     5.2557     7.7236     8.2764   129.0031     0.0963     0.0717     2.5269
  401.5000   -55.5087     7.7995     5.0755     7.4732     8.2732   132.4529     0.0963     0.0808     2.5167
  402.0000   -55.5708     7.4440     4.7260     6.7311     8.2700   130.7158     0.0947     0.0914     2.5050
  402.5000   -55.6359     6.9456     4.3105     6.5255     8.2668   127.3969     0.0930     0.1029     2.4894
  403.0000   -55.6959     6.3019     3.9262     6.2520     8.2637   124.2202     0.0913     0.1145     2.4714
  403.5000   -55.7474     5.7179     3.5761     5.8098     8.2605   121.1273     0.0896     0.1247     2.4555
  404.0000   -55.6687     5.1880     3.2572     5.3290     8.2572   117.9323     0.0879     0.1346     2.4388
  404.5000   -55.5955     4.7400     2.9670     4.8880     8.2542   115.4762     0.0862     0.1435     2.4232
  405.0000   -55.5158     4.1272     2.7378     4.4835     8.2514   115.5359     0.0844     0.1524     2.4078
  405.5000   -55.4387     3.6270     2.6130     4.1125     8.2570   117.6237     0.0815     0.1613     2.3932
  406.0000   -55.3611     2.9843     2.5307     3.8690     8.2628   119.7199     0.0784     0.1741     2.3555
  406.5000   -55.2839     2.9881     2.5662     3.8690     8.2690   120.8842     0.0752     0.1931     2.3226
  407.0000   -55.2055     3.6069     2.6388     3.9411     8.2748   117.0258     0.0723     0.2042     2.3067
  407.5000   -55.1276     4.2764     2.8062     4.3236     8.2808   112.6496     0.0685     0.1981     2.3157
  408.0000   -55.0552     5.1263     3.0798     4.7854     8.2873   108.7234     0.0723     0.1884     2.3279
  408.5000   -54.9592     6.1721     3.2169     5.2965     8.2912   111.6532     0.0811     0.1691     2.3873
  409.0000   -55.0507     7.5106     3.6466     5.8623     8.2908   116.6279     0.0892     0.1448     2.4452
  409.5000   -55.2896     8.2022     4.0726     6.3497     8.2908   122.2981     0.0972     0.1206     2.4694
  410.0000   -55.5177     9.0436     4.5698     6.7567     8.2909   126.6080     0.1054     0.0963     2.4925
  410.5000   -55.7525     9.2121     4.8095     7.1890     8.2908   126.9513     0.1135     0.0770     2.5217
  411.0000   -55.9927     9.2121     5.0737     7.6490     8.2908   128.1638     0.1215     0.0682     2.5347
  411.5000   -56.0350     8.6818     5.3535     8.1383     8.2908   129.2582     0.1298     0.0709     2.5262
  412.0000   -55.6009     7.5194     5.6493     8.3533     8.2906   130.6959     0.1371     0.0769     2.5187
  412.5000   -55.1591     7.6594     5.9616     8.4903     8.2909   133.0995     0.1376     0.0923     2.4980
  413.0000   -54.9437     8.4061     6.0759     8.6295     8.2908   136.7939     0.1290     0.1053     2.4720
  413.5000   -54.9625     9.2257     6.1391     8.7709     8.2900   137.4453     0.1158     0.1231     2.4396
  414.0000   -54.9616    10.1027     6.2025     8.9145     8.3054   136.0571     0.0956     0.1206     2.4248
  414.5000   -54.9576    10.1027     6.2669     9.0608     8.3500   134.2816     0.0750     0.1105     2.4602
  415.0000   -54.9603    10.1027     6.3320     9.2095     8.3947   132.6159     0.0681     0.0992     2.4824
  415.5000   -54.9593    10.1027     6.3978     9.3837     8.4033   129.7319     0.0685     0.0984     2.4772
  416.0000   -54.9597    10.1027     6.4871     9.3837     8.3698   125.9904     0.0691     0.1012     2.4771
