~VERSION INFORMATION
 VERS.                2.0:   CWLS LOG ASCII STANDARD - VERSION 2.0
 WRAP.                 NO:   ONE LINE PER DEPTH STEP
~WELL INFORMATION
#MNEM.UNIT      DATA TYPE    INFORMATION
#----------   ------------   ------------------------------
 STRT.F            8.0000:   START DEPTH
 STOP.F          420.0000:   STOP DEPTH
 STEP.F            0.5000:   STEP LENGTH
 NULL.          -999.2500:   NO VALUE
 COMP.    FENIX & SCISSON:   COMPANY
 WELL.    NPR 3 SX #61-10:   WELL
 FLD .             TEAPOT:   FIELD
 LOC .      S10 T38N R78W:   LOCATION
 CNTY.            NATRONA:   COUNTY
 STAT.            WYOMING:   STATE
 CTRY. UNITED STATES OF AMERICA:   COUNTRY
 SRVC.            Unknown:   SERVICE COMPANY
 DATE.        20-NOV-1978:   LOGDATE
 API .       490251074900:   API NUMBER
~CURVE INFORMATION
#MNEM.UNIT       API CODE    CURVE DESCRIPTION
#----------   ------------   ------------------------------
 DEPT.F                  :   
 ILD .OHMM   01 120 46 00:   LOG INDUCTION
 SN  .OHMM   01 040 00 00:   SHORT NORMAL
 SPR .MV     01 010 01 00:   SPONTANEOUS POTENSIAL
 CALD.IN     45 280 60 00:   CALIPER
 GRD .GAPI   45 310 01 00:   GAMMA RAY FROM DENSITY LOG
 DPHI.DEC    45 890 12 00:   DENSITY POROSITY SANDSTONE
 RHOB.G/C3   45 350 01 00:   BULK DENSITY
 CORR.G/C3   45 356 01 00:   DENSITY CORRECTION
~PARAMETER INFORMATION
#MNEM.UNIT          VALUE    DESCRIPTION
#----------   ------------   ------------------------------
 PD  .                 GL:   PERMANENT DATUM
 EPD .F              5145:   ELEVATION PERMANENT DATUM
 LMF .                 KB:   LOG MEASURED FROM
 DAPD.F                 4:   FEET ABOVE PERMANENT DATUM
 DMF .                 KB:   DRILLING MEASURED FROM
 EKB .F              5149:   KELLING BUSHING
 EGL .F              5145:   GROUND LEVEL
 DATE.        20-NOV-1978:   RUN DATE
 RUN .                  1:   RUN NUMBER
 DD  .F               435:   DEPTH DRILLER
 DL  .F               426:   DEPTH LOGGER
 BLI .F               420:   BOTTOM LOG INTERVAL
 TLI .F                48:   TOP LOG INTERVAL
 CS  .IN            8.625:   CASING SIZE
 CBD .F                40:   CASING BOTTOM DRILLER
 CBL .F                42:   CASING BOTTOM LOGGER
 BS  .IN            7.875:   BIT SIZE
 BSD .F               435:   BIT SIZE AT DEPTH
 DFT .                KCL:   DRILLING FLUID TYPE
 DFD .                8.6:   DRILLING FLUID DENSITY
 DFV .                 38:   DRILLING FLUID VISCOSITY
 DFPH.                9.8:   DRILLING FLUID PH
 DFL .                 10:   DRILLING FLUID LOSS
 MSS .           FLOWLINE:   MUD SAMPLE SOURCE
 RMS .OHMM            .39:   RESISTIVITY MUD SAMPLE
 MST .F                54:   MUD SAMPLE TEMPERATURE
 RMF .OHMM            .26:   RESISTIVITY MUD FILTRATE SAMPLE
 MFST.F                72:   MUD FILTRATE SAMPLE TEMPERATURE
 RMC .OHMM            .34:   RESISTIVITY MUD CAKE
 MCST.F                74:   MUD CAKE SAMPLE TEMPERATURE
 MFSS.           MEASURED:   MUD FILTRATE SAMPLE SOURCE
 RMB .OHMM            .33:   RESISTIVITY MUD AT BHT
 BHT .F                63:   BOTTOM HOLE TEMPERATURE
 TCS .HRS               1:   TIME CURCULATED STOPPED
 MRT .F                63:   MAXIMUM RECORDED TEMPERATURE
 LUN .               2958:   LOGGING UNIT NUMBER
 LUL .               CASP:   LOGGING UNIT LOCATION
 ENGI.             MILLER:   RECORDING ENGINEER
 WITN.              AMEND:   WITNESSED BY
 CLNT.            A2DTECH:   CLIENT CODE
 ORIG.        2" 5" PRINT:   ORIGIN OF DATA
 UWI .       490251074900:   UNIQUE WELL ID
 DICO. A2D Technologies, Inc.:   DIGITIZING COMPANY
~OTHER INFORMATION
~A    DEPT     ILD         SN        SPR       CALD         GRD      DPHI       RHOB       CORR   
# ...
  210.5000     8.6251    10.2587   -18.5458     7.3492   115.9945     0.1339     2.4697     0.0432
  211.0000     8.3419    10.1982   -19.1240     7.3649   117.0477     0.1315     2.4608     0.0282
  211.5000     8.0660    10.2085   -19.5530     7.4735   117.5198     0.1287     2.4601     0.0223
  212.0000     7.8534    10.1457   -19.6836     7.6382   117.3713     0.1299     2.4669     0.0225
  212.5000     7.4891    10.0882   -20.1123     7.6690   114.7043     0.1287     2.4670     0.0226
  213.0000     7.3406     9.9583   -20.5366     7.6700   115.6087     0.1390     2.4595     0.0228
  213.5000     7.2989     9.6810   -20.5177     7.6412   121.4239     0.1455     2.4513     0.0229
  214.0000     7.3065     8.9968   -20.3497     7.6125   125.6021     0.1418     2.4394     0.0216
  214.5000     7.3141     8.7575   -20.4848     7.6435   129.6315     0.1373     2.4462     0.0217
  215.0000     7.2708     8.7686   -20.9090     7.6594   129.9504     0.1319     2.4530     0.0164
  215.5000     7.1798     8.7775   -21.1887     7.6604   120.2639     0.1277     2.4613     0.0256
  216.0000     6.8943     8.7864   -21.6177     7.6463   119.3730     0.1282     2.4689     0.0303
  216.5000     6.6663     8.6742   -22.3451     7.6476   118.0735     0.1339     2.4697     0.0288
  217.0000     6.2695     8.4456   -22.6201     7.6486   115.5553     0.1501     2.4540     0.0260
  217.5000     5.9374     8.1662   -22.7505     7.6496   115.8644     0.1709     2.4315     0.0321
  218.0000     5.7410     7.7818   -23.4780     7.6506   116.0219     0.1834     2.3993     0.0413
  218.5000     5.7070     7.3672   -24.3594     7.6516   114.5473     0.1603     2.3791     0.0444
  219.0000     5.7130     7.2807   -24.0373     7.6529   115.9010     0.1452     2.4160     0.0370
  219.5000     5.7189     7.2378   -23.1230     7.6539   115.9126     0.1305     2.4528     0.0341
  220.0000     5.8058     7.5546   -22.5072     7.6847   116.6682     0.1130     2.4851     0.0327
  220.5000     6.0585     8.1614   -22.1896     7.6857   120.5488     0.1196     2.4949     0.0329
  221.0000     6.8229     8.8781   -22.1663     7.6867   122.3461     0.1205     2.4860     0.0330
  221.5000     7.5780     9.3288   -22.1475     7.6877   120.2743     0.1193     2.4831     0.0316
  222.0000     8.0181     9.4032   -22.2826     7.6887   114.1847     0.1205     2.4816     0.0317
  222.5000     8.3093     9.4128   -22.2591     7.6897   112.1129     0.1210     2.4824     0.0318
  223.0000     8.3807     9.3519   -22.2403     7.6759   112.8714     0.1147     2.4825     0.0304
  223.5000     8.0970     9.3021   -22.3754     7.6744   112.5853     0.1152     2.4848     0.0306
  224.0000     7.2944     9.2472   -22.5011     7.6333   112.1505     0.1203     2.4894     0.0307
  224.5000     7.0664     9.2589   -22.6378     7.6345   112.7573     0.1194     2.4864     0.0293
  225.0000     6.2874     9.2019   -22.7620     7.6355   114.5545     0.1401     2.4775     0.0294
  225.5000     6.1217     9.0240   -22.4399     7.6214   115.6078     0.1479     2.4423     0.0280
  226.0000     6.0840     8.7255   -22.5751     7.6376   116.0657     0.1653     2.4228     0.0281
  226.5000     6.0917     8.0374   -22.8501     7.6386   118.0238     0.1488     2.4056     0.0283
  227.0000     6.0979     7.6645   -23.1344     7.5801   118.6190     0.1358     2.4252     0.0284
  227.5000     6.1041     7.6723   -22.6632     7.5513   115.9545     0.1142     2.4624     0.0270
  228.0000     6.1527     7.7467   -22.3458     7.6292   112.2458     0.1240     2.4772     0.0271
  228.5000     6.3429     8.4148   -22.3269     7.6727   111.5133     0.1225     2.4779     0.0287
  229.0000     7.0836     9.0278   -22.3075     7.6737   111.6737     0.1111     2.4772     0.0258
  229.5000     7.4950     9.4206   -22.1354     7.6447   111.8341     0.1068     2.4900     0.0260
  230.0000     7.9303     9.7627   -21.8181     7.5862   111.9944     0.1146     2.4998     0.0261
  230.5000     8.3329    10.0473   -21.3515     7.6618   111.8571     0.1158     2.4917     0.0262
  231.0000     8.6355    10.4121   -20.8849     7.6777   112.0179     0.1134     2.4902     0.0248
  231.5000     8.7649    10.7156   -20.4183     7.6787   110.0975     0.1125     2.4933     0.0265
  232.0000     8.8348    10.8762   -20.2502     7.6798   104.0078     0.1016     2.5017     0.0326
  232.5000     8.9052    11.0393   -20.2313     7.6659   103.2725     0.0995     2.5086     0.0403
  233.0000     8.9168    11.1276   -20.2119     7.6520   103.1352     0.1037     2.5130     0.0359
  233.5000     8.9948    11.1413   -20.0398     7.6533   103.2985     0.1079     2.5100     0.0270
  234.0000     9.1223    11.1526   -19.7225     7.6543   106.2862     0.1087     2.5048     0.0255
  234.5000     9.1950    11.2415   -19.5544     7.6553   110.1668     0.1111     2.5011     0.0272
  235.0000     9.2043    11.2529   -19.3863     7.6563   111.2401     0.1061     2.4989     0.0273
  235.5000     9.2777    11.2643   -19.3675     7.6573   111.5321     0.1108     2.5058     0.0259
  236.0000     9.2207    11.2758   -19.4979     7.6584   111.6896     0.1122     2.5043     0.0230
  236.5000     9.2324    11.2092   -20.6741     7.6594   110.3648     0.1152     2.4998     0.0216
  237.0000     9.2417    11.2206   -21.1204     7.6604   109.3346     0.1185     2.4938     0.0202
  237.5000     9.1872    11.2322   -21.2325     7.6616   109.9414     0.1176     2.4850     0.0204
  238.0000     9.1967    11.2462   -21.5075     7.6627   113.6732     0.1143     2.4843     0.0205
  238.5000     9.2081    11.2576   -21.4887     7.6934   115.1729     0.1133     2.4941     0.0206
  239.0000     9.2175    11.1884   -21.6238     7.7093   112.0159     0.1151     2.4964     0.0207
  239.5000     9.2268    11.2026   -21.6003     7.7103   108.1805     0.1130     2.4927     0.0163
  240.0000     9.4302    11.2139   -21.7313     7.7262   107.4724     0.1042     2.4905     0.0164
  240.5000     9.7726    11.2253   -21.8612     7.7273   103.7637     0.1006     2.4981     0.0242
  241.0000    10.0574    11.2367   -22.1408     7.7283   103.3259     0.0985     2.5095     0.0318
  241.5000    10.1376    11.2481   -22.1173     7.7125   103.3404     0.0985     2.5156     0.0349
  242.0000    10.1479    11.2595   -21.6507     7.6857   105.8817     0.1068     2.5156     0.0335
  242.5000     9.5973    11.1930   -21.4826     7.6718   106.7861     0.1203     2.5096     0.0291
  243.0000     8.6693    11.0502   -21.4638     7.6731   107.2441     0.1336     2.4917     0.0292
  243.5000     7.5054    10.9850   -21.4450     7.6741   107.5853     0.1489     2.4497     0.0309
  244.0000     7.2070    10.6982   -21.5754     7.6751   118.4308     0.1705     2.4137     0.0431
  244.5000     7.1132     9.7188   -21.5566     7.6761   119.6328     0.1473     2.3972     0.0537
  245.0000     7.1718     9.0773   -21.5373     7.6771   119.7932     0.1322     2.4168     0.0539
  245.5000     7.1276     8.6562   -21.2157     7.6781   116.3821     0.1118     2.4590     0.0385
  246.0000     7.1367     8.6650   -20.5999     7.6792   109.3997     0.0970     2.5169     0.0254
  246.5000     7.1477     8.8560   -20.1333     7.6804   102.2684     0.0925     2.5289     0.0271
  247.0000     7.4075     9.2505   -20.1145     7.6814    98.1133     0.0949     2.5222     0.0302
  247.5000     8.7493    10.1767   -20.0957     7.6824    99.3551     0.0949     2.5222     0.0303
  248.0000    10.8630    11.8050   -20.0769     7.6834   102.4547     0.1029     2.5208     0.0304
  248.5000    12.0653    12.9311   -19.9088     7.6693   102.1687     0.1083     2.5088     0.0291
  249.0000    12.3313    13.7773   -19.7274     7.6706   102.3290     0.1017     2.5021     0.0292
  249.5000    12.3437    14.2775   -19.5679     7.6716   103.5311     0.0999     2.5037     0.0308
  250.0000    12.1862    14.4914   -19.5491     7.6726   104.5814     0.0962     2.5135     0.0385
  250.5000    11.8652    14.5061   -19.3810     7.6737   101.4678     0.0944     2.5211     0.0498
