~VERSION INFORMATION
 VERS.                2.0:   CWLS LOG ASCII STANDARD - VERSION 2.0
 WRAP.                 NO:   ONE LINE PER DEPTH STEP
~WELL INFORMATION
#MNEM.UNIT      DATA TYPE    INFORMATION
#----------   ------------   ------------------------------
 STRT.F           32.0000:   START DEPTH
 STOP.F          707.0000:   STOP DEPTH
 STEP.F            0.5000:   STEP LENGTH
 NULL.          -999.2500:   NO VALUE
 COMP. FENIX & SCISSON INC:   COMPANY
 WELL.     NPR 3 #28SX-11:   WELL
 FLD .             TEAPOT:   FIELD
 LOC .      S11 T38N R78W:   LOCATION
 CNTY.            NATRONA:   COUNTY
 STAT.            WYOMING:   STATE
 CTRY. UNITED STATES OF AMERICA:   COUNTRY
 SRVC.              Welex:   SERVICE COMPANY
 DATE.        26-APR-1977:   LOGDATE
 API .       490251034400:   API NUMBER
~CURVE INFORMATION
#MNEM.UNIT       API CODE    CURVE DESCRIPTION
#----------   ------------   ------------------------------
 DEPT.F                  :   
 CALD.IN     45 280 60 00:   CALIPER FROM DENSITY LOG
 GRD .GAPI   45 310 01 00:   GAMMA RAY FROM DENSITY LOG
 CORR.G/C3   45 356 01 00:   DENSITY CORRECTION
 DPHI.DEC    45 890 12 00:   DENSITY POROSITY SANDSTONE
 RHOB.G/C3   45 350 01 00:   BULK DENSITY
~PARAMETER INFORMATION
#MNEM.UNIT          VALUE    DESCRIPTION
#----------   ------------   ------------------------------
 PD  .                 GL:   PERMANENT DATUM
 EPD .F              5203:   ELEVATION PERMANENT DATUM
 LMF .                 GL:   LOG MEASURED FROM
 DMF .                 GL:   DRILLING MEASURED FROM
 EGL .F              5203:   GROUND LEVEL
 DATE.        26-APR-1977:   RUN DATE
 RUN .                  1:   RUN NUMBER
 DD  .F               714:   DEPTH DRILLER
 DL  .F               709:   DEPTH LOGGER
 BLI .F               707:   BOTTOM LOG INTERVAL
 TLI .F                32:   TOP LOG INTERVAL
 CS  .IN            8.625:   CASING SIZE
 BS  .IN               12:   BIT SIZE
 BSD .F               714:   BIT SIZE AT DEPTH
 DFT .            KCL MUD:   DRILLING FLUID TYPE
 DFD .                8.7:   DRILLING FLUID DENSITY
 TCS .HRS            0100:   TIME CURCULATED STOPPED
 MRT .F                74:   MAXIMUM RECORDED TEMPERATURE
 ENGI.            C. DOAK:   RECORDING ENGINEER
 WITN.           ROB LYON:   WITNESSED BY
 CLNT.            A2DTECH:   CLIENT CODE
 ORIG.           5" PRINT:   ORIGIN OF DATA
 UWI .       490251034400:   UNIQUE WELL ID
 DICO. A2D Technologies, Inc.:   DIGITIZING COMPANY
~OTHER INFORMATION
~A   DEPT       CALD      GRD        CORR      DPHI       RHOB   
# ...
  398.0000     7.9381   117.9941     0.0414     0.1010     2.5076
  398.5000     7.9380   117.4157     0.0385     0.1028     2.4942
  399.0000     7.9371   115.3580     0.0358     0.1087     2.4846
  399.5000     7.9362   113.0045     0.0330     0.1152     2.4817
  400.0000     7.9353   111.5385     0.0329     0.1191     2.4789
  400.5000     7.9336   115.2788     0.0301     0.1191     2.4722
  401.0000     7.9320   119.2646     0.0274     0.1217     2.4654
  401.5000     7.9304   122.6831     0.0156     0.1266     2.4543
  402.0000     7.9288   125.2141     0.0112     0.1331     2.4477
  402.5000     7.9272   127.3014     0.0129     0.1417     2.4425
  403.0000     7.9255   129.0927     0.0176     0.1431     2.4419
  403.5000     7.9239   129.9965     0.0222     0.1373     2.4442
  404.0000     7.9223   128.2376     0.0269     0.1306     2.4510
  404.5000     7.9207   123.6680     0.0316     0.1206     2.4652
  405.0000     7.9190   120.8736     0.0348     0.1126     2.4817
  405.5000     7.9174   120.1218     0.0395     0.1057     2.4914
  406.0000     7.9158   122.0895     0.0427     0.1013     2.5012
  406.5000     7.9142   125.5080     0.0458     0.0971     2.5109
  407.0000     7.9126   127.1515     0.0475     0.0941     2.5192
  407.5000     7.9109   127.3545     0.0507     0.0918     2.5238
  408.0000     7.9093   124.2253     0.0493     0.0909     2.5231
  408.5000     7.9077   122.6987     0.0450     0.0917     2.5157
  409.0000     7.9061   125.4412     0.0361     0.1007     2.5053
  409.5000     7.9044   127.3805     0.0288     0.1102     2.4949
  410.0000     7.9028   127.5542     0.0244     0.1167     2.4883
  410.5000     7.9012   122.6792     0.0231     0.1149     2.4846
  411.0000     7.8996   118.7013     0.0277     0.1134     2.4862
  411.5000     7.8980   117.2383     0.0309     0.1115     2.4922
  412.0000     7.8963   115.6273     0.0356     0.1103     2.4983
  412.5000     7.8947   114.0163     0.0418     0.1088     2.5013
  413.0000     7.8931   114.0401     0.0374     0.1082     2.4999
  413.5000     7.8915   115.5438     0.0286     0.1126     2.4796
  414.0000     7.8898   117.3314     0.0182     0.1266     2.4589
  414.5000     7.8882   118.9869     0.0169     0.1385     2.4477
  415.0000     7.8866   120.4881     0.0185     0.1394     2.4457
  415.5000     7.8850   122.1373     0.0247     0.1373     2.4533
  416.0000     7.8834   123.0055     0.0294     0.1349     2.4564
  416.5000     7.8817   121.0675     0.0371     0.1342     2.4531
  417.0000     7.8801   119.3046     0.0388     0.1348     2.4411
  417.5000     7.8785   117.6504     0.0374     0.1428     2.4215
  418.0000     7.8769   115.4401     0.0361     0.1628     2.3982
  418.5000     7.8753   113.4481     0.0332     0.1774     2.3765
  419.0000     7.8736   111.7840     0.0304     0.1914     2.3509
  419.5000     7.8720   110.4906     0.0260     0.2045     2.3255
  420.0000     7.8704   109.0861     0.0202     0.2161     2.3010
  420.5000     7.8688   107.9189     0.0143     0.2274     2.2824
  421.0000     7.8671   106.8996     0.0055     0.2378     2.2713
  421.5000     7.8655   106.1762    -0.0004     0.2447     2.2654
  422.0000     7.8639   105.8925    -0.0033     0.2465     2.2632
  422.5000     7.8636   110.0547     0.0014     0.2330     2.2879
  423.0000     7.8633   112.1420     0.0076     0.2124     2.3424
  423.5000     7.8630   108.7558     0.0138     0.1917     2.3857
  424.0000     7.8628   107.5846     0.0200     0.1607     2.4208
  424.5000     7.8625   112.3386     0.0262     0.1427     2.4530
  425.0000     7.8622   115.9051     0.0324     0.1269     2.4694
  425.5000     7.8619   113.4065     0.0386     0.1176     2.4785
  426.0000     7.8616   111.0558     0.0418     0.1146     2.4837
  426.5000     7.8613   109.1490     0.0389     0.1178     2.4875
  427.0000     7.8610   111.0883     0.0331     0.1169     2.4883
  427.5000     7.8607   114.5069     0.0302     0.1136     2.4877
  428.0000     7.8604   117.7775     0.0273     0.1136     2.4833
  428.5000     7.8601   121.4920     0.0275     0.1166     2.4751
  429.0000     7.8598   125.5023     0.0292     0.1199     2.4625
  429.5000     7.8595   128.1812     0.0294     0.1253     2.4544
  430.0000     7.8592   129.0809     0.0310     0.1387     2.4507
  430.5000     7.8589   125.1071     0.0342     0.1373     2.4627
  431.0000     7.8587   122.0169     0.0374     0.1306     2.4464
  431.5000     7.8584   120.5497     0.0406     0.1349     2.4539
  432.0000     7.8581   123.8244     0.0422     0.1344     2.4666
  432.5000     7.8577   123.1010     0.0424     0.1267     2.4726
  433.0000     7.8575   119.7149     0.0441     0.1165     2.4757
  433.5000     7.8572   119.5791     0.0337     0.1207     2.4758
  434.0000     7.8569   123.1497     0.0308     0.1159     2.4826
  434.5000     7.8566   127.4558     0.0401     0.1048     2.4961
  435.0000     7.8563   129.6910     0.0553     0.0958     2.5110
  435.5000     7.8560   131.4823     0.0614     0.0931     2.5171
  436.0000     7.8557   133.2737     0.0496     0.0943     2.5089
  436.5000     7.8554   134.0296     0.0437     0.0990     2.4971
  437.0000     7.8551   134.1937     0.0394     0.1050     2.4875
  437.5000     7.8842   133.7661     0.0335     0.1160     2.4972
  438.0000     7.8839   132.8948     0.0321     0.1138     2.5070
  438.5000     7.8836   130.5441     0.0308     0.1090     2.5033
  439.0000     7.8833   128.0456     0.0310     0.1114     2.4885
  439.5000     7.8830   124.8074     0.0312     0.1182     2.4788
  440.0000     7.8827   121.5691     0.0298     0.1203     2.4707
  440.5000     7.8824   120.4019     0.0300     0.1203     2.4760
  441.0000     7.8821   120.5661     0.0347     0.1178     2.4858
  441.5000     7.8818   123.3929     0.0409     0.1133     2.4925
  442.0000     7.8815   125.0364     0.0441     0.1106     2.4978
  442.5000     7.8812   121.6502     0.0397     0.1198     2.4725
  443.0000     7.8809   119.8913     0.0293     0.1231     2.4674
  443.5000     7.8806   120.2034     0.0220     0.1305     2.4585
  444.0000     7.8804   123.3261     0.0206     0.1317     2.4563
  444.5000     7.8801   125.4133     0.0268     0.1254     2.4691
  445.0000     7.8798   126.3171     0.0390     0.1215     2.4729
  445.5000     7.8795   126.0375     0.0452     0.1197     2.4737
  446.0000     7.8792   122.9472     0.0469     0.1232     2.4655
  446.5000     7.8789   121.1882     0.0395     0.1339     2.4470
  447.0000     7.8786   119.7252     0.0307     0.1432     2.4396
  447.5000     7.8783   117.8183     0.0188     0.1512     2.4247
  448.0000     7.8487   116.9470     0.0114     0.1580     2.4181
  448.5000     7.8484   117.8508     0.0100     0.1481     2.4368
  449.0000     7.8481   119.3463     0.0148     0.1386     2.4510
  449.5000     7.8478   121.4335     0.0209     0.1290     2.4623
  450.0000     7.8475   124.7041     0.0259     0.1182     2.4729
  450.5000     7.8472   126.5970     0.0297     0.1109     2.4900
  451.0000     7.8469   128.4899     0.0335     0.1029     2.4968
  451.5000     7.8466   130.3711     0.0367     0.1032     2.5007
  452.0000     7.8757   131.1218     0.0399     0.1034     2.5022
  452.5000     7.8754   127.1463     0.0446     0.1031     2.5031
  453.0000     7.8751   123.9066     0.0478     0.1025     2.5032
  453.5000     7.8748   120.8149     0.0510     0.1015     2.5033
  454.0000     7.8745   120.5302     0.0557     0.1003     2.5071
  454.5000     7.8741   124.5428     0.0589     0.0979     2.5109
  455.0000     7.8739   128.4037     0.0621     0.0946     2.5172
  455.5000     7.8736   131.3759     0.0592     0.0924     2.5240
  456.0000     7.8733   134.2013     0.0564     0.0966     2.5291
  456.5000     7.8730   136.4351     0.0505     0.0969     2.5306
  457.0000     7.8434   137.9292     0.0447     0.0962     2.5208
  457.5000     7.8431   139.7191     0.0404     0.0986     2.5020
  458.0000     7.8428   139.4381     0.0375     0.1132     2.4860
  458.5000     7.8425   137.2339     0.0377     0.1164     2.4924
