~VERSION INFORMATION
 VERS.                2.0:   CWLS LOG ASCII STANDARD - VERSION 2.0
 WRAP.                 NO:   ONE LINE PER DEPTH STEP
~WELL INFORMATION
#MNEM.UNIT      DATA TYPE    INFORMATION
#----------   ------------   ------------------------------
 STRT.F            0.0000:   START DEPTH
 STOP.F         2230.0000:   STOP DEPTH
 STEP.F            0.5000:   STEP LENGTH
 NULL.          -999.2500:   NO VALUE
 COMP. LAWRENCE/ALLISON INC:   COMPANY
 WELL. NPR 3 SH X 34 #48-34:   WELL
 FLD .            WILDCAT:   FIELD
 LOC .      S34 T39N R78W:   LOCATION
 CNTY.            NATRONA:   COUNTY
 STAT.            WYOMING:   STATE
 CTRY. UNITED STATES OF AMERICA:   COUNTRY
 SRVC.            Unknown:   SERVICE COMPANY
 DATE.        02-SEP-1991:   LOGDATE
 API .       490251110600:   API NUMBER
~CURVE INFORMATION
#MNEM.UNIT       API CODE    CURVE DESCRIPTION
#----------   ------------   ------------------------------
 DEPT.F                  :   
 ROP .MIN/FT 91 810 01 00:   RAT OF DRILLING PENETRATION
 TGAS.UNITS  91 830 01 00:   TOTAL GAS FROM HOTWIRE
 C1  .VF     91 831 01 00:   METHANE
 C2  .VF     91 832 01 00:   ETHANE
 C3  .VF     91 833 01 00:   PROPANE
 C4  .VF     91 834 01 00:   BUTANE
 TT  .US/F   81 520 00 00:   TRANSIT TIME
 GR  .GAPI   81 310 01 00:   GAMMA RAY FROM CEMENT BOND LOG
~PARAMETER INFORMATION
#MNEM.UNIT          VALUE    DESCRIPTION
#----------   ------------   ------------------------------
 EKB .F              5145:   KELLING BUSHING
 EGL .F              5135:   GROUND LEVEL
 DATE.          09-2-1991:   RUN DATE
 RUN .                  1:   RUN NUMBER
 BLI .F              2400:   BOTTOM LOG INTERVAL
 TLI .F              2200:   TOP LOG INTERVAL
 ENGI.           C. TOWER:   RECORDING ENGINEER
 WITN.            R. HUSK:   WITNESSED BY
 CLNT.            A2DTECH:   CLIENT CODE
 ORIG.           5" PRINT:   ORIGIN OF DATA
 UWI .       490251110600:   UNIQUE WELL ID
 DICO. A2D Technologies, Inc.:   DIGITIZING COMPANY
~OTHER INFORMATION
~A    DEPT     ROP       TGAS         C1         C2         C3         C4          TT         GR  
# ...
  891.0000     0.8981     3.1707     8.6360     1.8737  -999.2500  -999.2500  -999.2500  -999.2500
  891.5000     0.9584     3.1707     8.6521     1.8673  -999.2500  -999.2500  -999.2500  -999.2500
  892.0000     0.9912     3.1707     8.6683     1.8609  -999.2500  -999.2500  -999.2500  -999.2500
  892.5000     1.0092     3.1707     8.6844     1.8545  -999.2500  -999.2500  -999.2500  -999.2500
  893.0000     1.0246     3.1707     8.7005     1.8481  -999.2500  -999.2500  -999.2500  -999.2500
  893.5000     1.0286     3.1707     8.7167     1.8417  -999.2500  -999.2500  -999.2500  -999.2500
  894.0000     1.0334     3.1707     8.7330     1.8353  -999.2500  -999.2500  -999.2500  -999.2500
  894.5000     1.0364     3.1707     8.7494     1.8289  -999.2500  -999.2500  -999.2500  -999.2500
  895.0000     1.0341     3.1707     8.7501     1.8225  -999.2500  -999.2500  -999.2500  -999.2500
  895.5000     1.0318     3.1707     8.7500     1.8161  -999.2500  -999.2500  -999.2500  -999.2500
  896.0000     1.0294     3.1707     8.7500     1.8097  -999.2500  -999.2500  -999.2500  -999.2500
  896.5000     1.0271     3.1707     8.7500     1.8033  -999.2500  -999.2500  -999.2500  -999.2500
  897.0000     1.0247     3.1707     8.7500     1.7969  -999.2500  -999.2500  -999.2500  -999.2500
  897.5000     1.0224     3.1707     8.7500     1.7905  -999.2500  -999.2500  -999.2500  -999.2500
  898.0000     1.0200     3.1707     8.7500     1.7841  -999.2500  -999.2500  -999.2500  -999.2500
  898.5000     1.0176     3.1707     8.7500     1.7777  -999.2500  -999.2500  -999.2500  -999.2500
  899.0000     1.0151     3.1707     8.7500     1.7713  -999.2500  -999.2500  -999.2500  -999.2500
  899.5000     1.0133     3.1707     8.7500     1.7649  -999.2500  -999.2500  -999.2500  -999.2500
  900.0000     1.0287     3.1707     8.7500     1.7585  -999.2500  -999.2500  -999.2500  -999.2500
  900.5000     1.0964     3.1707     8.7500     1.7521  -999.2500  -999.2500  -999.2500  -999.2500
  901.0000     1.1620     3.1707     8.7500     1.7457  -999.2500  -999.2500  -999.2500  -999.2500
  901.5000     1.2275     3.1707     8.7500     1.7393  -999.2500  -999.2500  -999.2500  -999.2500
  902.0000     1.2956     3.1707     8.7500     1.7329  -999.2500  -999.2500  -999.2500  -999.2500
  902.5000     1.2934     3.1707     8.7500     1.7265  -999.2500  -999.2500  -999.2500  -999.2500
  903.0000     1.2668     3.1707     8.7500     1.7201  -999.2500  -999.2500  -999.2500  -999.2500
  903.5000     1.2391     3.1707     8.7500     1.7137  -999.2500  -999.2500  -999.2500  -999.2500
  904.0000     1.2531     3.1707     8.7500     1.7073  -999.2500  -999.2500  -999.2500  -999.2500
  904.5000     1.3145     3.1707     8.7500     1.7009  -999.2500  -999.2500  -999.2500  -999.2500
  905.0000     1.3745     3.1707     8.7500     1.7019  -999.2500  -999.2500  -999.2500  -999.2500
  905.5000     1.4361     3.1707     8.7500     1.7041  -999.2500  -999.2500  -999.2500  -999.2500
  906.0000     1.4469     3.1707     8.7500     1.7063  -999.2500  -999.2500  -999.2500  -999.2500
  906.5000     1.2724     3.1707     8.7500     1.7085  -999.2500  -999.2500  -999.2500  -999.2500
  907.0000     1.1067     3.1707     8.7500     1.7107  -999.2500  -999.2500  -999.2500  -999.2500
  907.5000     1.0160     3.1707     8.7500     1.7130  -999.2500  -999.2500  -999.2500  -999.2500
  908.0000     1.0138     3.1707     8.7500     1.7152  -999.2500  -999.2500  -999.2500  -999.2500
  908.5000     1.0162     3.1707     8.7500     1.7174  -999.2500  -999.2500  -999.2500  -999.2500
  909.0000     1.0192     3.1707     8.7500     1.7196  -999.2500  -999.2500  -999.2500  -999.2500
  909.5000     1.0222     3.1707     8.7500     1.7218  -999.2500  -999.2500  -999.2500  -999.2500
  910.0000     1.0011     3.1707     8.7500     1.7240  -999.2500  -999.2500  -999.2500  -999.2500
  910.5000     0.9559     3.1707     8.7500     1.7262  -999.2500  -999.2500  -999.2500  -999.2500
  911.0000     0.9108     3.1707     8.7500     1.7284  -999.2500  -999.2500  -999.2500  -999.2500
  911.5000     0.8658     3.1707     8.7500     1.7307  -999.2500  -999.2500  -999.2500  -999.2500
  912.0000     0.8209     3.1707     8.7500     1.7329  -999.2500  -999.2500  -999.2500  -999.2500
  912.5000     0.7956     3.1707     8.7500     1.7351  -999.2500  -999.2500  -999.2500  -999.2500
  913.0000     0.7857     3.1707     8.7500     1.7373  -999.2500  -999.2500  -999.2500  -999.2500
  913.5000     0.7831     3.1707     8.7500     1.7395  -999.2500  -999.2500  -999.2500  -999.2500
  914.0000     0.7814     3.1707     8.7500     1.7417  -999.2500  -999.2500  -999.2500  -999.2500
  914.5000     0.7796     3.1707     8.7500     1.7440  -999.2500  -999.2500  -999.2500  -999.2500
  915.0000     0.7778     3.1707     8.7500     1.7462  -999.2500  -999.2500  -999.2500  -999.2500
  915.5000     0.7759     3.1707     8.7500     1.7484  -999.2500  -999.2500  -999.2500  -999.2500
  916.0000     0.7743     3.1707     8.7500     1.7506  -999.2500  -999.2500  -999.2500  -999.2500
  916.5000     0.7789     3.1707     8.7500     1.7528  -999.2500  -999.2500  -999.2500  -999.2500
  917.0000     0.7870     3.1707     8.7500     1.7550  -999.2500  -999.2500  -999.2500  -999.2500
  917.5000     0.7894     3.1707     8.7500     1.7572  -999.2500  -999.2500  -999.2500  -999.2500
  918.0000     0.7915     3.1707     8.7500     1.7594  -999.2500  -999.2500  -999.2500  -999.2500
  918.5000     0.7937     3.1707     8.7500     1.7616  -999.2500  -999.2500  -999.2500  -999.2500
  919.0000     0.7962     3.1707     8.7500     1.7639  -999.2500  -999.2500  -999.2500  -999.2500
  919.5000     0.7959     3.1707     8.7500     1.7661  -999.2500  -999.2500  -999.2500  -999.2500
  920.0000     0.7531     3.1707     8.7500     1.7683  -999.2500  -999.2500  -999.2500  -999.2500
  920.5000     0.7117     3.1707     8.7500     1.7705  -999.2500  -999.2500  -999.2500  -999.2500
  921.0000     0.6706     3.1707     8.7500     1.7727  -999.2500  -999.2500  -999.2500  -999.2500
  921.5000     0.6296     3.1707     8.7500     1.7749  -999.2500  -999.2500  -999.2500  -999.2500
  922.0000     0.5889     3.1707     8.7500     1.7772  -999.2500  -999.2500  -999.2500  -999.2500
  922.5000     0.5584     3.1707     8.7500     1.7794  -999.2500  -999.2500  -999.2500  -999.2500
  923.0000     0.5598     3.1707     8.7500     1.7816  -999.2500  -999.2500  -999.2500  -999.2500
  923.5000     0.5605     3.1707     8.7500     1.7838  -999.2500  -999.2500  -999.2500  -999.2500
  924.0000     0.5611     3.1707     8.7500     1.7860  -999.2500  -999.2500  -999.2500  -999.2500
  924.5000     0.5618     3.1707     8.7500     1.7882  -999.2500  -999.2500  -999.2500  -999.2500
  925.0000     0.5624     3.1707     8.7500     1.7904  -999.2500  -999.2500  -999.2500  -999.2500
  925.5000     0.5631     3.1707     8.7500     1.7926  -999.2500  -999.2500  -999.2500  -999.2500
  926.0000     0.5637     3.1707     8.7500     1.7948  -999.2500  -999.2500  -999.2500  -999.2500
  926.5000     0.5644     3.1707     8.7500     1.7971  -999.2500  -999.2500  -999.2500  -999.2500
  927.0000     0.5650     3.1707     8.7500     1.7993  -999.2500  -999.2500  -999.2500  -999.2500
  927.5000     0.5657     3.1707     8.7500     1.8015  -999.2500  -999.2500  -999.2500  -999.2500
  928.0000     0.5663     3.1707     8.7500     1.8037  -999.2500  -999.2500  -999.2500  -999.2500
  928.5000     0.5670     3.1707     8.7500     1.8059  -999.2500  -999.2500  -999.2500  -999.2500
  929.0000     0.5676     3.1707     8.7500     1.8081  -999.2500  -999.2500  -999.2500  -999.2500
  929.5000     0.5682     3.1707     8.7500     1.8103  -999.2500  -999.2500  -999.2500  -999.2500
  930.0000     0.5689     3.1707     8.7500     1.8126  -999.2500  -999.2500  -999.2500  -999.2500
  930.5000     0.5695     3.1707     8.7500     1.8148  -999.2500  -999.2500  -999.2500  -999.2500
  931.0000     0.5702     3.1707     8.7500     1.8170  -999.2500  -999.2500  -999.2500  -999.2500
