~VERSION INFORMATION
 VERS.                2.0:   CWLS LOG ASCII STANDARD - VERSION 2.0
 WRAP.                 NO:   ONE LINE PER DEPTH STEP
~WELL INFORMATION
#MNEM.UNIT      DATA TYPE    INFORMATION
#----------   ------------   ------------------------------
 STRT.F          350.0000:   START DEPTH
 STOP.F         2259.0000:   STOP DEPTH
 STEP.F            0.5000:   STEP LENGTH
 NULL.          -999.2500:   NO VALUE
 COMP. LAWRENCE/ALLISON INC:   COMPANY
 WELL.        45 X #33-33:   WELL
 FLD .             TEAPOT:   FIELD
 LOC .      S33 T39N R78W:   LOCATION
 CNTY.            NATRONA:   COUNTY
 STAT.            WYOMING:   STATE
 CTRY. UNITED STATES OF AMERICA:   COUNTRY
 SRVC.      NL McCullough:   SERVICE COMPANY
 DATE.        19-MAY-1988:   LOGDATE
 API .       490251119400:   API NUMBER
~CURVE INFORMATION
#MNEM.UNIT       API CODE    CURVE DESCRIPTION
#----------   ------------   ------------------------------
 DEPT.F                  :   
 ROP .MIN/FT 91 810 01 00:   RATE OF DRILLING PENETRATION
 GR  .GAPI   81 310 01 00:   GAMMA RAY
 TGAS.UNITS  91 830 01 00:   TOTAL GAS FROM HOTWIRE
~PARAMETER INFORMATION
#MNEM.UNIT          VALUE    DESCRIPTION
#----------   ------------   ------------------------------
 PD  .                 GL:   PERMANENT DATUM
 EPD .F              5198:   ELEVATION PERMANENT DATUM
 LMF .                 KB:   LOG MEASURED FROM
 DAPD.F                11:   FEET ABOVE PERMANENT DATUM
 DMF .                 KB:   DRILLING MEASURED FROM
 EKB .F              5209:   KELLING BUSHING
 EGL .F              5198:   GROUND LEVEL
 DATE.            5-19-88:   RUN DATE
 RUN .                  1:   RUN NUMBER
 DD  .F              2232:   DEPTH DRILLER
 DL  .F               750:   DEPTH LOGGER
 BLI .F               746:   BOTTOM LOG INTERVAL
 TLI .F               350:   TOP LOG INTERVAL
 CS  .IN                7:   CASING SIZE
 CBD .F               808:   CASING BOTTOM DRILLER
 DFT .              WATER:   DRILLING FLUID TYPE
 TCS .HRS            0830:   TIME CURCULATED STOPPED
 TLAB.HRS            0930:   TIME LOGGER AT BOTTOM
 ENGI.          SANGERTER:   RECORDING ENGINEER
 WITN.             NORMAN:   WITNESSED BY
 CLNT.            A2DTECH:   CLIENT CODE
 ORIG.           5" PRINT:   ORIGIN OF DATA
 UWI .       490251119400:   UNIQUE WELL ID
 DICO. A2D Technologies, Inc.:   DIGITIZING COMPANY
~OTHER INFORMATION
~A   DEPT      ROP          GR      TGAS   
# ...
 1806.0000     0.2693  -999.2500     1.8102
 1806.5000     0.2905  -999.2500     1.8209
 1807.0000     0.3534  -999.2500     1.8315
 1807.5000     0.4163  -999.2500     1.8421
 1808.0000     0.4583  -999.2500     1.8527
 1808.5000     0.5003  -999.2500     1.8633
 1809.0000     0.5110  -999.2500     1.8740
 1809.5000     0.5321  -999.2500     1.8846
 1810.0000     0.5428  -999.2500     1.8952
 1810.5000     0.5431  -999.2500     1.9058
 1811.0000     0.5328  -999.2500     1.9164
 1811.5000     0.5122  -999.2500     1.9271
 1812.0000     0.5125  -999.2500     1.9377
 1812.5000     0.5023  -999.2500     1.9483
 1813.0000     0.5026  -999.2500     1.9589
 1813.5000     0.5029  -999.2500     1.9696
 1814.0000     0.5032  -999.2500     1.9802
 1814.5000     0.5034  -999.2500     1.9908
 1815.0000     0.5037  -999.2500     2.0014
 1815.5000     0.4934  -999.2500     2.0120
 1816.0000     0.4728  -999.2500     2.0227
 1816.5000     0.4836  -999.2500     2.0333
 1817.0000     0.4943  -999.2500     2.0439
 1817.5000     0.5050  -999.2500     2.0545
 1818.0000     0.5157  -999.2500     2.0651
 1818.5000     0.5368  -999.2500     2.0758
 1819.0000     0.5580  -999.2500     2.0864
 1819.5000     0.5582  -999.2500     2.0970
 1820.0000     0.5898  -999.2500     2.1076
 1820.5000     0.5901  -999.2500     2.1183
 1821.0000     0.5903  -999.2500     2.1289
 1821.5000     0.5906  -999.2500     2.1395
 1822.0000     0.5909  -999.2500     2.1501
 1822.5000     0.5911  -999.2500     2.1607
 1823.0000     0.6018  -999.2500     2.1714
 1823.5000     0.6020  -999.2500     2.1820
 1824.0000     0.6337  -999.2500     2.1926
 1824.5000     0.6339  -999.2500     2.2032
 1825.0000     0.6342  -999.2500     2.2138
 1825.5000     0.6344  -999.2500     2.2245
 1826.0000     0.6347  -999.2500     2.2351
 1826.5000     0.6663  -999.2500     2.2457
 1827.0000     0.6770  -999.2500     2.2563
 1827.5000     0.6877  -999.2500     2.2670
 1828.0000     0.7192  -999.2500     2.2776
 1828.5000     0.6882  -999.2500     2.2882
 1829.0000     0.6363  -999.2500     2.2988
 1829.5000     0.6157  -999.2500     2.3094
 1830.0000     0.6054  -999.2500     2.3201
 1830.5000     0.6266  -999.2500     2.3307
 1831.0000     0.6477  -999.2500     2.3413
 1831.5000     0.6898  -999.2500     2.3519
 1832.0000     0.7526  -999.2500     2.3625
 1832.5000     0.7947  -999.2500     2.3732
 1833.0000     0.8471  -999.2500     2.3838
 1833.5000     0.8787  -999.2500     2.3944
 1834.0000     0.8476  -999.2500     2.4050
 1834.5000     0.7957  -999.2500     2.4157
 1835.0000     0.7333  -999.2500     2.4263
 1835.5000     0.7023  -999.2500     2.4369
 1836.0000     0.6816  -999.2500     2.4475
 1836.5000     0.6714  -999.2500     2.4581
 1837.0000     0.6508  -999.2500     2.4688
 1837.5000     0.6511  -999.2500     2.4794
 1838.0000     0.6618  -999.2500     2.4900
 1838.5000     0.6516  -999.2500     2.5006
 1839.0000     0.5684  -999.2500     2.5112
 1839.5000     0.5060  -999.2500     2.5219
 1840.0000     0.4437  -999.2500     2.5325
 1840.5000     0.4334  -999.2500     2.5431
 1841.0000     0.4338  -999.2500     2.5537
 1841.5000     0.4445  -999.2500     2.5644
 1842.0000     0.4760  -999.2500     2.5750
 1842.5000     0.5285  -999.2500     2.5856
 1843.0000     0.6018  -999.2500     2.5962
 1843.5000     0.6543  -999.2500     2.6068
 1844.0000     0.6440  -999.2500     2.6175
 1844.5000     0.6443  -999.2500     2.6281
 1845.0000     0.6132  -999.2500     2.6387
 1845.5000     0.6030  -999.2500     2.6493
 1846.0000     0.6034  -999.2500     2.6599
 1846.5000     0.6036  -999.2500     2.6706
 1847.0000     0.6457  -999.2500     2.6812
 1847.5000     0.6354  -999.2500     2.6918
 1848.0000     0.6462  -999.2500     2.7024
 1848.5000     0.6778  -999.2500     2.7131
 1849.0000     0.6885  -999.2500     2.7237
 1849.5000     0.6574  -999.2500     2.7343
 1850.0000     0.6472  -999.2500     2.7449
 1850.5000     0.6056  -999.2500     2.7555
 1851.0000     0.5642  -999.2500     2.7662
 1851.5000     0.5227  -999.2500     2.7768
 1852.0000     0.5230  -999.2500     2.7874
 1852.5000     0.5024  -999.2500     2.7980
 1853.0000     0.4921  -999.2500     2.8086
 1853.5000     0.4925  -999.2500     2.8193
 1854.0000     0.5136  -999.2500     2.8299
 1854.5000     0.5243  -999.2500     2.8405
 1855.0000     0.5559  -999.2500     2.8511
 1855.5000     0.5770  -999.2500     2.8618
 1856.0000     0.5982  -999.2500     2.8724
 1856.5000     0.5984  -999.2500     2.8830
 1857.0000     0.6091  -999.2500     2.8936
 1857.5000     0.6093  -999.2500     2.9042
 1858.0000     0.6096  -999.2500     2.9149
 1858.5000     0.6203  -999.2500     2.9255
 1859.0000     0.6519  -999.2500     2.9361
 1859.5000     0.6835  -999.2500     2.9467
 1860.0000     0.6942  -999.2500     2.9573
 1860.5000     0.7153  -999.2500     2.9680
 1861.0000     0.7365  -999.2500     2.9786
 1861.5000     0.7367  -999.2500     2.9892
 1862.0000     0.7370  -999.2500     2.9998
 1862.5000     0.7373  -999.2500     3.0105
 1863.0000     0.7061  -999.2500     3.0211
 1863.5000     0.7378  -999.2500     3.0317
 1864.0000     0.7485  -999.2500     3.0423
 1864.5000     0.8218  -999.2500     3.0529
 1865.0000     0.8325  -999.2500     3.0636
 1865.5000     0.8745  -999.2500     3.0742
 1866.0000     0.9165  -999.2500     3.0848
 1866.5000     0.9481  -999.2500     3.0954
 1867.0000     0.9588  -999.2500     3.1060
 1867.5000     0.9591  -999.2500     3.1167
 1868.0000     0.9593  -999.2500     3.1273
 1868.5000     0.9596  -999.2500     3.1379
 1869.0000     0.9493  -999.2500     3.1485
 1869.5000     0.9288  -999.2500     3.1592
 1870.0000     0.9185  -999.2500     3.1698
 1870.5000     0.9606  -999.2500     3.1804
 1871.0000     1.0340  -999.2500     3.1910
 1871.5000     1.0864  -999.2500     3.2016
 1872.0000     1.1284  -999.2500     3.2123
 1872.5000     1.1287  -999.2500     3.2229
 1873.0000     1.1184  -999.2500     3.2335
 1873.5000     1.0875  -999.2500     3.2441
 1874.0000     1.0772  -999.2500     3.2547
 1874.5000     1.0357  -999.2500     3.2654
 1875.0000     0.9943  -999.2500     3.2760
 1875.5000     0.9632  -999.2500     3.2866
 1876.0000     0.9635  -999.2500     3.2972
 1876.5000     0.9951  -999.2500     3.3079
 1877.0000     1.0267  -999.2500     3.3185
 1877.5000     1.0791  -999.2500     3.3291
 1878.0000     1.0898  -999.2500     3.3397
 1878.5000     1.0901  -999.2500     3.3503
 1879.0000     1.1112  -999.2500     3.3610
 1879.5000     1.1115  -999.2500     3.3716
 1880.0000     1.1012  -999.2500     3.3822
 1880.5000     1.1016  -999.2500     3.3928
 1881.0000     1.0913  -999.2500     3.4034
 1881.5000     1.0811  -999.2500     3.4141
 1882.0000     1.0501  -999.2500     3.4247
 1882.5000     1.0817  -999.2500     3.4353
 1883.0000     1.1237  -999.2500     3.4459
 1883.5000     1.1658  -999.2500     3.4566
 1884.0000     1.2182  -999.2500     3.4672
 1884.5000     1.1454  -999.2500     3.4778
 1885.0000     1.0100  -999.2500     3.4884
 1885.5000     0.8432  -999.2500     3.4990
 1886.0000     0.7912  -999.2500     3.5097
 1886.5000     0.7915  -999.2500     3.5203
 1887.0000     0.7918  -999.2500     3.5309
 1887.5000     0.7921  -999.2500     3.5415
 1888.0000     0.7505  -999.2500     3.5521
 1888.5000     0.6882  -999.2500     3.5628
 1889.0000     0.6258  -999.2500     3.5734
 1889.5000     0.5321  -999.2500     3.5840
 1890.0000     0.5010  -999.2500     3.5946
 1890.5000     0.5848  -999.2500     3.6053
 1891.0000     0.6686  -999.2500     3.6159
 1891.5000     0.7002  -999.2500     3.6265
 1892.0000     0.6795  -999.2500     3.6371
 1892.5000     0.6693  -999.2500     3.6477
 1893.0000     0.6384  -999.2500     3.6584
 1893.5000     0.6490  -999.2500     3.6690
 1894.0000     0.6702  -999.2500     3.6796
 1894.5000     0.6913  -999.2500     3.6902
 1895.0000     0.7438  -999.2500     3.7008
 1895.5000     0.7962  -999.2500     3.7115
 1896.0000     0.8382  -999.2500     3.7221
 1896.5000     0.9220  -999.2500     3.7327
