~VERSION INFORMATION
 VERS.                2.0:   CWLS LOG ASCII STANDARD - VERSION 2.0
 WRAP.                 NO:   ONE LINE PER DEPTH STEP
~WELL INFORMATION
#MNEM.UNIT      DATA TYPE    INFORMATION
#----------   ------------   ------------------------------
 STRT.F           28.0000:   START DEPTH
 STOP.F          693.0000:   STOP DEPTH
 STEP.F            0.5000:   STEP LENGTH
 NULL.          -999.2500:   NO VALUE
 COMP. FENIX & SCISSON INC:   COMPANY
 WELL.       NPR-3 #63-15:   WELL
 FLD .             TEAPOT:   FIELD
 LOC .      S15 T38N R78W:   LOCATION
 CNTY.            NATRONA:   COUNTY
 STAT.            WYOMING:   STATE
 CTRY. UNITED STATES OF AMERICA:   COUNTRY
 SRVC.            Unknown:   SERVICE COMPANY
 DATE.        10-JUN-1978:   LOGDATE
 API .       490251063800:   API NUMBER
~CURVE INFORMATION
#MNEM.UNIT       API CODE    CURVE DESCRIPTION
#----------   ------------   ------------------------------
 DEPT.F                  :   
 SPR .MV     05 010 01 00:   SPONTANEOUS POTENTIAL FROM RES.
 SN  .OHMM   05 040 16 00:   SHORT NORMAL 16"
 ILD .OHMM   05 120 46 00:   INDUCTION LOG DEEP
 CALD.IN     45 280 60 00:   CALIPER FROM DENSITY LOG
 GRD .GAPI   45 310 01 00:   GAMMA RAY FROM DENSITY LOG
 CORR.G/C3   45 356 01 00:   DENSITY CORRECTION
 DPHI.DEC    45 890 12 00:   DENSITY POROSITY SANDSTONE
 DEN .G/C3   45 350 01 00:   DENSITY
~PARAMETER INFORMATION
#MNEM.UNIT          VALUE    DESCRIPTION
#----------   ------------   ------------------------------
 PD  .                 GL:   PERMANENT DATUM
 EPD .F              5265:   ELEVATION PERMANENT DATUM
 LMF .                 KB:   LOG MEASURED FROM
 DAPD.F                 4:   FEET ABOVE PERMANENT DATUM
 DMF .                 KB:   DRILLING MEASURED FROM
 EKB .F              5269:   KELLING BUSHING
 EGL .F              5265:   GROUND LEVEL
 DATE.        10-JUN-1978:   RUN DATE
 RUN .                  1:   RUN NUMBER
 DD  .F               690:   DEPTH DRILLER
 DL  .F               697:   DEPTH LOGGER
 BLI .F               690:   BOTTOM LOG INTERVAL
 TLI .F                35:   TOP LOG INTERVAL
 CS  .IN            8.625:   CASING SIZE
 CBD .F                40:   CASING BOTTOM DRILLER
 CBL .F                35:   CASING BOTTOM LOGGER
 BS  .IN            7.875:   BIT SIZE
 BSD .F               690:   BIT SIZE AT DEPTH
 DFT .                KCL:   DRILLING FLUID TYPE
 DFD .                8.7:   DRILLING FLUID DENSITY
 DFV .                 34:   DRILLING FLUID VISCOSITY
 DFPH.                 10:   DRILLING FLUID PH
 DFL .               11.6:   DRILLING FLUID LOSS
 MSS .            MUD PIT:   MUD SAMPLE SOURCE
 RMS .OHMM            .32:   RESISTIVITY MUD SAMPLE
 MST .F                74:   MUD SAMPLE TEMPERATURE
 RMF .OHMM            .28:   RESISTIVITY MUD FILTRATE SAMPLE
 MFST.F                78:   MUD FILTRATE SAMPLE TEMPERATURE
 RMC .OHMM            .36:   RESISTIVITY MUD CAKE
 MCST.F                78:   MUD CAKE SAMPLE TEMPERATURE
 MFSS.               MEAS:   MUD FILTRATE SAMPLE SOURCE
 MCSS.               MEAS:   MUD CAKE SAMPLE SOURCE
 BHT .F                80:   BOTTOM HOLE TEMPERATURE
 TCS .HRS            0100:   TIME CURCULATED STOPPED
 MRT .F                80:   MAXIMUM RECORDED TEMPERATURE
 LUN .               2958:   LOGGING UNIT NUMBER
 LUL .               CASP:   LOGGING UNIT LOCATION
 ENGI.             MILLER:   RECORDING ENGINEER
 WITN.           MCGINLEY:   WITNESSED BY
 CLNT.            A2DTECH:   CLIENT CODE
 ORIG.           5" PRINT:   ORIGIN OF DATA
 UWI .       490251063800:   UNIQUE WELL ID
 DICO. A2D Technologies, Inc.:   DIGITIZING COMPANY
~OTHER INFORMATION
~A   DEPT      SPR         SN        ILD       CALD        GRD       CORR       DPHI        DEN   
# ...
  352.0000    -8.7665     7.0765     7.2952     7.5054    81.4966     0.0095     0.1190     2.4740
  352.5000    -8.9000     7.1342     7.3504     7.5220    82.1343     0.0096     0.1189     2.4718
  353.0000    -8.8832     7.2424     7.4575     7.5532    88.1520     0.0082     0.1186     2.4719
  353.5000    -8.8637     7.3912     7.5139     7.5995    86.5248     0.0068     0.1189     2.4727
  354.0000    -9.0013     7.5508     7.5707     7.6157    83.8491     0.0055     0.1212     2.4735
  354.5000    -9.1309     7.7139     7.6284     7.6170    85.9569     0.0041     0.1263     2.4653
  355.0000    -9.2685     7.7722     7.6330     7.6184    87.9118     0.0027     0.1227     2.4631
  355.5000    -9.2483     7.7770     7.6377     7.6044    90.3144     0.0028     0.1191     2.4700
  356.0000    -9.3859     7.7817     7.6955     7.5761    90.3801     0.0030     0.1166     2.4738
  356.5000    -9.3658     7.8405     7.7559     7.5473    86.7615     0.0061     0.1151     2.4739
  357.0000    -9.3496     7.8453     7.8190     7.5321    82.5969     0.0077     0.1148     2.4785
  357.5000    -9.3335     7.7959     7.8726     7.5201    83.8929     0.0093     0.1147     2.4839
  358.0000    -9.1677     7.7469     7.8775     7.5367    88.1521     0.0094     0.1153     2.4786
  358.5000    -8.9890     7.6982     7.8823     7.4932    87.4204     0.0079     0.1165     2.4756
  359.0000    -8.8353     7.7031     7.8871     7.3597    87.8828    -0.0008     0.1200     2.4734
  359.5000    -8.8158     7.6544     7.8919     7.2113    88.3451    -0.0037     0.1260     2.4638
  360.0000    -8.6500     7.7135     7.8967     7.1824    86.5686    -0.0051     0.1308     2.4541
  360.5000    -8.6339     7.7182     7.9016     7.1840    81.9563    -0.0065     0.1332     2.4526
  361.0000    -8.6177     7.7229     7.8506     7.2003    80.1799    -0.0064     0.1316     2.4534
  361.5000    -8.6016     7.6731     7.8566     7.2016    79.2989    -0.0032     0.1271     2.4565
  362.0000    -8.5855     7.6794     7.8072     7.2202    79.4627     0.0014     0.1198     2.4680
  362.5000    -8.5694     7.6837     7.8662     7.2794    80.0743     0.0045     0.1186     2.4724
  363.0000    -8.5532     7.6884     7.8167     7.3706    78.0149     0.0046     0.1189     2.4725
  363.5000    -8.6868     7.6931     7.8215     7.4467    76.2229     0.0047     0.1198     2.4718
  364.0000    -8.9701     7.6978     7.7198     7.4930    76.8381     0.0004     0.1197     2.4711
  364.5000    -9.2533     7.7026     7.7245     7.4943    81.9273    -0.0010     0.1197     2.4704
  365.0000    -9.3869     7.6540     7.6747     7.4956    85.8225     0.0006     0.1170     2.4705
  365.5000    -9.5164     7.5546     7.6806     7.4819    88.0759     0.0067     0.1088     2.4766
  366.0000    -9.5003     7.5071     7.6853     7.4832    87.6427     0.0174     0.1031     2.4864
  366.5000    -9.4842     7.4587     7.6358     7.4996    82.7319     0.0205     0.1004     2.5007
  367.0000    -9.4680     7.4118     7.6416     7.4859    81.0906     0.0176     0.1016     2.4962
  367.5000    -9.4519     7.4174     7.6463     7.4875    82.3209     0.0162     0.1033     2.4934
  368.0000    -9.5855     7.4220     7.5457     7.4735    81.9860     0.0163     0.0997     2.5039
  368.5000    -9.5694     7.4265     7.4982     7.4449    80.5550     0.0180     0.0972     2.5070
  369.0000    -9.5532     7.4310     7.4510     7.4312    80.2674     0.0166     0.0975     2.5071
  369.5000    -9.5371     7.4356     7.4557     7.4176    80.1327     0.0032     0.0993     2.5041
  370.0000    -9.5210     7.3888     7.4090     7.5090    80.5987    -0.0147     0.1164     2.4704
  370.5000    -9.6545     7.3934     7.4143     7.5104    82.4043    -0.0086     0.1251     2.4660
  371.0000    -9.4880     7.3468     7.3665     7.5117    88.3891     0.0006     0.1211     2.4668
  371.5000    -9.4685     7.3524     7.3201     7.5430    91.2394     0.0067     0.1145     2.4684
  372.0000    -9.4524     7.3054     7.2752     7.6344    85.7316     0.0143     0.1121     2.4754
  372.5000    -9.4363     7.2591     7.2796     7.6806    86.6516     0.0204     0.1158     2.4813
  373.0000    -9.4201     7.1154     7.1839     7.7268    89.1464     0.0173     0.1204     2.4761
  373.5000    -9.5577     7.0208     6.8481     7.7282    92.1969     0.0146     0.1246     2.4687
  374.0000    -9.6913     6.8807     6.2192     7.7444    93.5548     0.0163     0.1279     2.4642
  374.5000    -9.6711     6.8860     6.0111     7.7907    92.2261     0.0194     0.1239     2.4605
  375.0000    -9.8054     6.7486     5.9321     7.8519    89.2556     0.0225     0.1137     2.4613
  375.5000    -9.7886     6.6598     5.8541     7.9130    84.9418     0.0242     0.1160     2.4719
  376.0000    -9.7725     6.6180     5.8578     7.9593    86.2996     0.0228     0.1217     2.4742
  376.5000    -9.7560     6.2655     5.8622     7.8515    87.5046     0.0199     0.1202     2.4721
  377.0000    -9.8899     6.2913     5.8244     7.7826    86.3114     0.0200     0.1181     2.4721
  377.5000    -9.8697     6.9123     5.9512     7.7686    87.8359     0.0201     0.1187     2.4722
  378.0000    -9.8536     7.1600     6.0798     7.7549    89.3672     0.0202     0.1198     2.4730
  378.5000    -9.8375     7.1644     6.2979     7.7117    89.8060     0.0204     0.1201     2.4723
  379.0000    -9.8213     7.1687     6.4340     7.6681    87.7340     0.0205     0.1200     2.4724
  379.5000    -9.8052     7.1226     6.5277     7.5796    84.7635     0.0206     0.1164     2.4740
  380.0000    -9.7891     7.1280     6.5317     7.4761    81.4908     0.0252     0.1095     2.4770
  380.5000    -9.7729     7.1324     6.4905     7.4325    82.1061     0.0269     0.1103     2.4809
  381.0000    -9.7568     7.0873     6.4053     7.4028    83.9117     0.0270     0.1151     2.4824
  381.5000    -9.7407     7.0918     6.4092     7.3902    85.7173     0.0241     0.1205     2.4802
  382.0000    -9.7246     7.0961     6.3198     7.4218    87.8214     0.0167     0.1223     2.4666
  382.5000    -9.7081     7.1006     6.1568     7.3932    85.7465     0.0063     0.1201     2.4646
  383.0000    -9.8420     7.1048     6.2034     7.3496    85.7612     0.0079     0.1222     2.4669
  383.5000    -9.8218     7.0125     6.2071     7.3356    85.9895     0.0081     0.1261     2.4655
  384.0000    -9.8057     7.0168     6.2109     7.3372    88.1819    -0.0023     0.1294     2.4528
  384.5000    -9.7896     6.9716     6.2147     7.3535    88.3457    -0.0022     0.1314     2.4491
  385.0000    -9.7734     6.9288     6.2617     7.3698    88.2074    -0.0021     0.1317     2.4477
  385.5000    -9.7573     6.9330     6.2653     7.4010    85.8375    -0.0020     0.1320     2.4477
  386.0000    -9.7412     6.5184     6.2692     7.4489    82.1208    -0.0034     0.1340     2.4471
  386.5000    -9.7250     6.5677     6.2149     7.5088    81.3854    -0.0047     0.1388     2.4441
  387.0000    -9.7089     6.5717     5.8577     7.5400    84.0902    -0.0076     0.1437     2.4396
  387.5000    -9.6928     6.4853     5.5071     7.5563    84.2540    -0.0121     0.1507     2.4295
  388.0000    -9.6766     6.3121     5.0353     7.5427    85.0169    -0.0134     0.1592     2.4173
  388.5000    -9.6602     6.0139     5.0036     7.4991    85.3280    -0.0118     0.1579     2.4046
  389.0000    -9.6437     5.8500     5.0074     7.4851    81.6148    -0.0041     0.1471     2.4107
  389.5000    -9.6242     5.2832     5.0453     7.3520    80.2861     0.0125     0.1386     2.4250
  390.0000    -9.6081     5.2492     5.0484     7.3533    79.9985     0.0231     0.1185     2.4461
  390.5000    -9.5920     5.2897     5.0515     7.3092    80.3153     0.0172     0.1221     2.4679
  391.0000    -9.7296     5.4414     5.0546     7.2961    81.9716     0.0054     0.1244     2.4703
  391.5000    -9.7094     5.7547     5.1997     7.3276    85.8668     0.0025     0.1172     2.4688
  392.0000    -9.6933     6.0440     5.5055     7.3888    87.5232     0.0056     0.1187     2.4727
