~VERSION INFORMATION
 VERS.                2.0:   CWLS LOG ASCII STANDARD - VERSION 2.0
 WRAP.                 NO:   ONE LINE PER DEPTH STEP
~WELL INFORMATION
#MNEM.UNIT      DATA TYPE    INFORMATION
#----------   ------------   ------------------------------
 STRT.F           80.5000:   START DEPTH
 STOP.F          768.0000:   STOP DEPTH
 STEP.F            0.5000:   STEP LENGTH
 NULL.          -999.2500:   NO VALUE
 COMP. U S NAVY/INTEX OIL CO:   COMPANY
 WELL. N.P.R. #3 #84-S-34:   WELL
 FLD .             TEAPOT:   FIELD
 LOC .      S34 T39N R78W:   LOCATION
 CNTY.            NATRONA:   COUNTY
 STAT.            WYOMING:   STATE
 CTRY. UNITED STATES OF AMERICA:   COUNTRY
 SRVC. Schlumberger Well Surveying Corp:   SERVICE COMPANY
 DATE.        17-FEB-1961:   LOGDATE
 API .       490250654000:   API NUMBER
~CURVE INFORMATION
#MNEM.UNIT       API CODE    CURVE DESCRIPTION
#----------   ------------   ------------------------------
 DEPT.F                  :   
 SPR .MV     05 010 01 00:   SPONTANEOUS POTENTIAL
 ASN .OHMM   05 041 16 00:   AMPLIFIED SHORT NORMAL 16"
 ILD .OHMM   05 120 46 00:   INDUCTION LOG DEEP
 CILD.MMHO   05 110 46 00:   CONDUCTIVITY INDUCTION LOG DEEP
 GR  .GAPI   30 310 01 00:   GAMMA RAY
~PARAMETER INFORMATION
#MNEM.UNIT          VALUE    DESCRIPTION
#----------   ------------   ------------------------------
 PD  .                 GL:   PERMANENT DATUM
 EPD .F              5083:   ELEVATION PERMANENT DATUM
 LMF .                 KB:   LOG MEASURED FROM
 DAPD.F                 4:   FEET ABOVE PERMANENT DATUM
 DMF .                 KB:   DRILLING MEASURED FROM
 EKB .F              5087:   KELLING BUSHING
 EGL .F              5083:   GROUND LEVEL
 DATE.            2-17-61:   RUN DATE
 RUN .                  1:   RUN NUMBER
 DD  .F               770:   DEPTH DRILLER
 DL  .F               769:   DEPTH LOGGER
 BLI .F               768:   BOTTOM LOG INTERVAL
 TLI .F                80:   TOP LOG INTERVAL
 CBD .F                12:   CASING BOTTOM DRILLER
 BS  .IN            7.875:   BIT SIZE
 BSD .F               770:   BIT SIZE AT DEPTH
 DFT .       GEL/OIL EMUL:   DRILLING FLUID TYPE
 DFD .                9.5:   DRILLING FLUID DENSITY
 DFV .                 50:   DRILLING FLUID VISCOSITY
 DFPH.                  8:   DRILLING FLUID PH
 DFL .                1.8:   DRILLING FLUID LOSS
 MSS .           FLOWLINE:   MUD SAMPLE SOURCE
 RMS .OHMM             .9:   RESISTIVITY MUD SAMPLE
 MST .F                69:   MUD SAMPLE TEMPERATURE
 RMF .OHMM            .54:   RESISTIVITY MUD FILTRATE SAMPLE
 MFST.F                69:   MUD FILTRATE SAMPLE TEMPERATURE
 RMC .OHMM           1.64:   RESISTIVITY MUD CAKE
 MCST.F                69:   MUD CAKE SAMPLE TEMPERATURE
 MFSS.                  M:   MUD FILTRATE SAMPLE SOURCE
 MCSS.                  M:   MUD CAKE SAMPLE SOURCE
 RMB .OHMM             .8:   RESISTIVITY MUD AT BHT
 BHT .F                78:   BOTTOM HOLE TEMPERATURE
 TCS .HRS               1:   TIME CURCULATED STOPPED
 MRT .F                78:   MAXIMUM RECORDED TEMPERATURE
 LUN .               2523:   LOGGING UNIT NUMBER
 LUL .               CSPR:   LOGGING UNIT LOCATION
 ENGI.             KNOBEL:   RECORDING ENGINEER
 WITN.          JORGENSEN:   WITNESSED BY
 CLNT.            A2DTECH:   CLIENT CODE
 ORIG.       2", 5" PRINT:   ORIGIN OF DATA
 UWI .       490250654000:   UNIQUE WELL ID
 DICO. A2D Technologies, Inc.:   DIGITIZING COMPANY
~OTHER INFORMATION
~A   DEPT      SPR        ASN        ILD       CILD         GR   
# ...
  629.5000   -19.7803    12.5493     9.9831   100.2040    58.7441
  630.0000   -19.8545    12.5716     9.8622   102.7856    56.2358
  630.5000   -19.9293    12.6218     9.7475   105.3928    53.6948
  631.0000   -20.0035    12.8479     9.7842   106.4076    58.6921
  631.5000   -20.0779    13.0736    10.2219   104.0021    56.7136
  632.0000   -20.1521    13.3235    10.7038    98.8337    52.6255
  632.5000   -20.2264    14.3073    11.4139    93.2300    48.5186
  633.0000   -20.3006    15.3847    11.9808    87.6281    45.6027
  633.5000   -20.3745    16.4632    12.4443    82.0215    43.0547
  634.0000   -20.5151    17.5404    13.5368    76.4183    44.9686
  634.5000   -20.6834    18.6175    14.3754    71.2611    40.4028
  635.0000   -20.8520    19.4446    15.4773    66.3053    41.6910
  635.5000   -21.0207    20.0029    16.5656    61.3493    42.2155
  636.0000   -21.1895    20.5617    17.6907    56.3818    38.9180
  636.5000   -21.3586    20.8251    18.4457    51.7241    34.8100
  637.0000   -21.5257    21.0412    18.9338    50.7078    38.1155
  637.5000   -21.6397    21.3474    19.3926    49.7511    45.2957
  638.0000   -21.5621    21.7644    19.8518    48.7945    42.3848
  638.5000   -21.4893    22.1738    20.3118    47.8378    45.2907
  639.0000   -21.4169    22.5290    20.7726    46.8811    50.3333
  639.5000   -21.3443    22.8018    21.2360    45.9245    53.1374
  640.0000   -21.2717    23.0736    21.6667    44.9678    47.8184
  640.5000   -21.1992    23.3452    21.4818    44.4096    42.2190
  641.0000   -21.1269    23.6364    21.2771    45.5632    43.3880
  641.5000   -21.0539    23.5623    21.0752    46.0826    41.3520
  642.0000   -21.0514    23.4345    20.8741    46.6019    42.8822
  642.5000   -21.0931    23.3025    20.6723    47.1212    42.1226
  643.0000   -21.1353    23.1978    20.4690    47.5094    44.3317
  643.5000   -21.1778    23.0577    20.4678    47.3206    48.6476
  644.0000   -21.2203    22.9192    20.6968    47.1318    45.6622
  644.5000   -21.2627    22.7802    20.9264    46.9429    43.6756
  645.0000   -21.3052    22.6411    21.1556    46.7541    45.5914
  645.5000   -21.3476    22.5085    21.3837    46.5652    44.0933
  646.0000   -21.3901    22.4355    21.5574    46.3764    44.9190
  646.5000   -21.4356    22.7409    21.4130    46.1875    43.2754
  647.0000   -21.3673    22.9318    21.2678    45.9987    40.2574
  647.5000   -21.2659    23.1171    21.1249    45.8098    40.2043
  648.0000   -21.1634    23.2311    21.0890    45.6210    45.3153
  648.5000   -21.0610    22.6949    21.2020    45.5479    48.5624
  649.0000   -20.9587    22.2771    21.3113    46.3339    46.3584
  649.5000   -20.8564    21.8597    21.0533    47.1199    53.7191
  650.0000   -20.7542    21.4413    20.4429    47.9059    56.0440
  650.5000   -20.6519    21.0226    19.8321    48.6920    51.1328
  651.0000   -20.5496    20.6037    19.2188    49.4780    49.0321
  651.5000   -20.4471    20.2241    18.6057    50.2640    51.1965
  652.0000   -20.3450    20.2639    17.9927    52.2074    52.9529
  652.5000   -20.2440    20.3162    17.3800    55.4467    47.6615
  653.0000   -20.2108    20.0568    16.8261    58.6860    49.5544
  653.5000   -20.3046    19.7584    16.2816    61.4986    41.5533
  654.0000   -20.3961    19.3463    15.7367    63.0033    46.8471
  654.5000   -20.4879    18.9340    15.1973    64.5106    39.6049
  655.0000   -20.5798    18.5183    14.8843    66.0135    36.1811
  655.5000   -20.6712    18.1030    14.6257    67.5170    34.8286
  656.0000   -20.7619    17.6901    14.3661    69.0197    34.1451
  656.5000   -20.8014    17.4286    14.1546    70.5329    33.4039
  657.0000   -20.7678    17.2066    13.9729    71.0706    42.7676
  657.5000   -20.7347    16.9843    13.7915    71.6105    40.5194
  658.0000   -20.7011    16.7615    13.6093    72.1504    39.5658
  658.5000   -20.6675    16.5411    13.4962    72.6903    49.7814
  659.0000   -20.6340    16.3427    13.4333    73.2301    48.5237
  659.5000   -20.6004    16.3269    13.3704    73.7701    50.1057
  660.0000   -20.5669    16.3048    13.3077    74.3103    52.9566
  660.5000   -20.5333    16.2820    13.2448    74.8513    52.2874
  661.0000   -20.4998    16.2595    13.1812    75.3929    54.8062
  661.5000   -20.4662    16.2370    13.1168    75.6912    51.4131
  662.0000   -20.4321    16.2144    13.1401    75.4694    52.3278
  662.5000   -20.3995    16.1919    13.1699    75.2462    47.9648
  663.0000   -20.4472    16.1694    13.1994    75.0257    45.0668
  663.5000   -20.5004    16.1468    13.2288    74.8051    45.7694
  664.0000   -20.5534    16.1243    13.2581    74.5846    42.1849
  664.5000   -20.6063    16.1018    13.2874    74.3640    53.7631
  665.0000   -20.6592    16.0793    13.3168    74.1435    49.9371
  665.5000   -20.7120    16.0567    13.3462    73.9229    47.8012
  666.0000   -20.7649    16.0313    13.3757    73.7024    51.4281
  666.5000   -20.8178    15.9959    13.4046    74.0531    54.3405
  667.0000   -20.8707    15.9608    13.4183    74.5104    47.7924
  667.5000   -20.9237    15.9256    13.3704    74.9677    46.5928
  668.0000   -20.9768    15.8905    13.3238    75.4250    43.5440
  668.5000   -21.0238    15.8554    13.2775    75.8823    40.8240
  669.0000   -21.0044    15.8202    13.2310    76.3397    44.3687
  669.5000   -20.9844    15.7851    13.1846    76.7970    45.7589
  670.0000   -20.9647    15.7500    13.1382    77.2543    41.5213
  670.5000   -20.9451    15.7149    13.0918    77.7116    46.5312
  671.0000   -20.9255    15.6797    13.0454    78.1689    46.0497
  671.5000   -20.9059    15.6444    12.9990    78.6262    49.5599
  672.0000   -20.8862    15.5979    12.9525    79.0852    46.9166
  672.5000   -20.8665    15.5284    12.9062    79.5433    43.0653
  673.0000   -20.8470    15.4593    12.8597    79.8145    44.1939
  673.5000   -20.8279    15.3901    12.8098    78.8710    45.0182
  674.0000   -20.8418    15.3209    12.8865    77.9272    45.5077
  674.5000   -20.9051    15.2521    13.0040    76.9849    47.0318
  675.0000   -20.9680    15.2072    13.1227    76.0426    46.2337
  675.5000   -21.0310    15.2510    13.2414    75.1002    45.9775
  676.0000   -21.0928    15.2964    13.3598    74.1579    45.8108
  676.5000   -21.1590    15.2893    13.4779    73.2155    46.3730
  677.0000   -21.2428    15.2626    13.6006    72.2732    50.6202
  677.5000   -21.0115    15.2354    13.5601    71.9092    54.0271
  678.0000   -20.9762    15.2081    13.3986    73.1645    50.8976
  678.5000   -20.9337    15.1134    13.2360    74.4343    45.2237
  679.0000   -20.8950    15.0072    13.0732    75.7010    46.1197
  679.5000   -20.8567    14.9007    12.9106    76.9656    43.9775
  680.0000   -20.8182    14.7944    12.7480    78.2297    45.0258
  680.5000   -20.7797    14.6881    12.5854    79.4939    44.1098
  681.0000   -20.7412    14.5817    12.4227    80.7580    43.7099
  681.5000   -20.7027    14.4750    12.2596    82.0272    46.2664
  682.0000   -20.6642    14.3694    12.0981    82.6932    46.8009
  682.5000   -20.6257    14.3099    11.9507    83.3620    44.5475
  683.0000   -20.5872    14.2520    11.9023    84.0307    45.2263
  683.5000   -20.5487    14.1938    11.8499    84.6995    43.3414
  684.0000   -20.5101    14.1356    11.7971    85.3682    41.4219
  684.5000   -20.4714    14.0773    11.7446    86.0370    37.2525
  685.0000   -20.4324    14.0191    11.6920    86.4998    37.2696
  685.5000   -20.4005    13.9609    11.6395    86.8924    35.0979
  686.0000   -20.4665    13.9026    11.5869    87.2851    33.8987
  686.5000   -20.5322    13.8444    11.5343    87.6777    40.4731
  687.0000   -20.5973    13.7862    11.4817    88.0704    37.4211
  687.5000   -20.6623    13.7279    11.4291    88.4630    38.5961
  688.0000   -20.7272    13.6697    11.3765    88.8556    38.5515
  688.5000   -20.7937    13.6115    11.3238    89.2483    37.9076
  689.0000   -20.7614    13.5532    11.2716    89.6409    42.4457
  689.5000   -20.6772    13.4950    11.2320    90.0336    39.9702
  690.0000   -20.5923    13.4367    11.2330    90.4262    43.7288
