~VERSION INFORMATION
 VERS.                2.0:   CWLS LOG ASCII STANDARD - VERSION 2.0
 WRAP.                 NO:   ONE LINE PER DEPTH STEP
~WELL INFORMATION
#MNEM.UNIT      DATA TYPE    INFORMATION
#----------   ------------   ------------------------------
 STRT.F           32.0000:   START DEPTH
 STOP.F          662.0000:   STOP DEPTH
 STEP.F            0.5000:   STEP LENGTH
 NULL.          -999.2500:   NO VALUE
 COMP.    FENIX & SCISSON:   COMPANY
 WELL.   NPR 67SX34 #3-34:   WELL
 FLD .             TEAPOT:   FIELD
 LOC .      S34 T39N R78W:   LOCATION
 CNTY.            NATRONA:   COUNTY
 STAT.            WYOMING:   STATE
 CTRY. UNITED STATES OF AMERICA:   COUNTRY
 SRVC.            Unknown:   SERVICE COMPANY
 DATE.        03-SEP-1978:   LOGDATE
 API .       490251070500:   API NUMBER
~CURVE INFORMATION
#MNEM.UNIT       API CODE    CURVE DESCRIPTION
#----------   ------------   ------------------------------
 DEPT.F                  :   
 ILD .OHMM   05 120 46 00:   INDUCTION LOG DEEP
 SN  .OHMM   05 040 00 00:   SHORT NORMAL
 SPR .MV     05 010 01 00:   SPONTANEOUS POTENTIAL FROM RES.
 CALD.IN     45 280 60 00:   CALIPER FROM DENSITY LOG
 DEN .G/C3   45 350 01 00:   COMPENSATED BULK DENSTIY
 DPHI.DEC    45 890 12 00:   DENSITY POROSITY SANDSTONE
 DRHO.G/C3   45 356 01 00:   DENSITY CORRECTION
 GRD .GAPI   45 310 01 00:   GAMMA RAY FROM DENSITY LOG
~PARAMETER INFORMATION
#MNEM.UNIT          VALUE    DESCRIPTION
#----------   ------------   ------------------------------
 PD  .                 GL:   PERMANENT DATUM
 EPD .F              5076:   ELEVATION PERMANENT DATUM
 LMF .                 KB:   LOG MEASURED FROM
 DAPD.F                 4:   FEET ABOVE PERMANENT DATUM
 DMF .                 KB:   DRILLING MEASURED FROM
 EKB .F              5080:   KELLING BUSHING
 EGL .F              5076:   GROUND LEVEL
 DATE.        03-SEP-1978:   RUN DATE
 RUN .                  1:   RUN NUMBER
 DD  .F               660:   DEPTH DRILLER
 DL  .F               662:   DEPTH LOGGER
 BLI .F               662:   BOTTOM LOG INTERVAL
 TLI .F                40:   TOP LOG INTERVAL
 CS  .IN            8.625:   CASING SIZE
 CBD .F                40:   CASING BOTTOM DRILLER
 BS  .IN            7.875:   BIT SIZE
 BSD .F               660:   BIT SIZE AT DEPTH
 DFT .                KCL:   DRILLING FLUID TYPE
 DFD .                9.0:   DRILLING FLUID DENSITY
 DFV .                 34:   DRILLING FLUID VISCOSITY
 MSS .           FLOWLINE:   MUD SAMPLE SOURCE
 RMS .OHMM            1.4:   RESISTIVITY MUD SAMPLE
 MST .F                65:   MUD SAMPLE TEMPERATURE
 RMF .OHMM            3.2:   RESISTIVITY MUD FILTRATE SAMPLE
 MFST.F                77:   MUD FILTRATE SAMPLE TEMPERATURE
 RMC .OHMM            2.1:   RESISTIVITY MUD CAKE
 MCST.F                78:   MUD CAKE SAMPLE TEMPERATURE
 MFSS.               MEAS:   MUD FILTRATE SAMPLE SOURCE
 TCS .HRS               1:   TIME CURCULATED STOPPED
 LUN .               3006:   LOGGING UNIT NUMBER
 LUL .               CASP:   LOGGING UNIT LOCATION
 ENGI.             MILLER:   RECORDING ENGINEER
 WITN.           MCGINLEY:   WITNESSED BY
 CLNT.            A2DTECH:   CLIENT CODE
 ORIG.        2" 5" PRINT:   ORIGIN OF DATA
 UWI .       490251070500:   UNIQUE WELL ID
 DICO. A2D Technologies, Inc.:   DIGITIZING COMPANY
~OTHER INFORMATION
~A   DEPT      ILD         SN        SPR       CALD        DEN       DPHI       DRHO         GRD  
# ...
  113.0000     6.8480     7.0700   -19.3594     7.4257     2.4480     0.1536     0.0026    81.3294
  113.5000     6.9474     7.1190   -19.2072     7.4260     2.4480     0.1548     0.0026    81.3323
  114.0000     7.0889     7.1683   -19.3562     7.4263     2.4480     0.1566     0.0011    81.3359
  114.5000     7.1381     7.1683   -19.3548     7.4266     2.4480     0.1615    -0.0004    82.5310
  115.0000     7.1876     7.2180   -19.5038     7.4418     2.4386     0.1618    -0.0005    85.3655
  115.5000     7.2919     7.2681   -19.6527     7.4570     2.4337     0.1588     0.0010    86.1136
  116.0000     7.3383     7.2681   -19.6509     7.4872     2.4374     0.1537     0.0055    85.5196
  116.5000     7.3383     7.3185   -19.9503     7.5024     2.4449     0.1519     0.0131    82.8406
  117.0000     7.3383     7.3185   -19.9489     7.5475     2.4502     0.1486     0.0160    80.9061
  117.5000     7.3425     7.3185   -20.0978     7.6075     2.4547     0.1462     0.0145    79.7168
  118.0000     7.3892     7.3185   -20.0960     7.6376     2.4599     0.1465     0.0145    79.8694
  118.5000     7.4405     7.3185   -20.0946     7.6678     2.4599     0.1477     0.0145    80.3194
  119.0000     7.4405     7.3185   -20.0932     7.6531     2.4599     0.1495     0.0144    80.9184
  119.5000     7.3892     7.3185   -20.0914     7.6534     2.4532     0.1555     0.0144    82.1135
  120.0000     7.3383     7.2681   -20.0900     7.6389     2.4449     0.1509     0.0144    83.3087
  120.5000     7.3383     7.1683   -19.9382     7.6391     2.4509     0.1480     0.0144    84.6529
  121.0000     7.2375     7.1610   -19.7864     7.6394     2.4576     0.1552     0.0144    82.2712
  121.5000     7.1876     7.1190   -19.6346     7.6397     2.4494     0.1588     0.0084    79.2935
  122.0000     7.0889     7.0700   -19.4825     7.6250     2.4419     0.1552     0.0068    79.4462
  122.5000     6.9916     7.0700   -19.3307     7.6254     2.4419     0.1516     0.0113    79.5981
  123.0000     6.9434     6.9729   -19.1789     7.6257     2.4457     0.1486     0.0128    79.4519
  123.5000     6.8955     6.9249   -19.1774     7.6409     2.4531     0.1459     0.0143    77.8155
  124.0000     6.8480     7.0213   -19.1757     7.6412     2.4576     0.1447     0.0158    75.7312
  124.5000     6.8955     7.1190   -19.1743     7.6415     2.4613     0.1432     0.0173    76.3309
  125.0000     6.9434     7.1683   -19.3232     7.6268     2.4651     0.1429     0.0173    80.3577
  125.5000     6.9956     7.2681   -19.3333     7.6272     2.4658     0.1402     0.0172    84.3844
  126.0000     7.1381     7.2681   -19.4708     7.6275     2.4673     0.1387     0.0172    83.6421
  126.5000     7.1876     7.3185   -19.4690     7.6278     2.4688     0.1396     0.0172    83.4960
  127.0000     7.2375     7.3692   -19.6183     7.6281     2.4696     0.1414     0.0157    83.4996
  127.5000     7.3383     7.4718   -19.6165     7.6284     2.4688     0.1438     0.0157    83.3527
  128.0000     7.5441     7.5236   -19.6148     7.6287     2.4650     0.1484     0.0172    83.2073
  128.5000     7.6491     7.5236   -19.7641     7.6290     2.4613     0.1504     0.0172    83.2102
  129.0000     7.5441     7.4718   -19.9127     7.6143     2.4583     0.1495     0.0195    83.0641
  129.5000     7.3383     7.3692   -19.9078     7.6147     2.4553     0.1486     0.0216    83.0671
  130.0000     7.1381     7.3151   -19.7595     7.5999     2.4538     0.1486     0.0261    83.2196
  130.5000     7.0401     7.2681   -19.9085     7.5854     2.4537     0.1495     0.0351    83.3715
  131.0000     7.0401     7.3185   -19.9067     7.5707     2.4537     0.1499     0.0411    83.5234
  131.5000     7.0401     7.4203   -19.7549     7.5561     2.4537     0.1472     0.0411    83.8244
  132.0000     7.0401     7.4718   -19.6027     7.5116     2.4545     0.1485     0.0396    84.1254
  132.5000     6.9916     7.5236   -19.4509     7.4523     2.4583     0.1556     0.0335    84.4263
  133.0000     6.9434     7.5757   -19.2992     7.4376     2.4499     0.1541     0.0224    85.6373
  133.5000     6.8955     7.6283   -18.9970     7.4080     2.4477     0.1517     0.0095    85.7734
  134.0000     6.8480     7.5757   -18.5441     7.3934     2.4477     0.1550     0.0050    83.8396
  134.5000     6.8955     7.5757   -18.2419     7.4087     2.4484     0.1553     0.0050    82.0534
  135.0000     6.9434     7.6283   -18.2405     7.4090     2.4477     0.1541     0.0050    83.3983
  135.5000     7.0401     7.6811   -18.2391     7.4242     2.4477     0.1526     0.0049    84.4444
  136.0000     7.1381     7.6811   -18.3877     7.4245     2.4492     0.1507     0.0019    84.8943
  136.5000     7.2375     7.6283   -18.3863     7.4098     2.4514     0.1475     0.0004    84.4501
  137.0000     7.3892     7.6283   -18.3848     7.4101     2.4544     0.1535    -0.0011    83.6960
  137.5000     7.5441     7.6283   -18.3834     7.4127     2.4568     0.1572    -0.0011    81.9224
  138.0000     7.7022     7.6811   -18.3817     7.4257     2.4409     0.1610    -0.0029    81.4782
  138.5000     7.8637     7.6283   -18.3802     7.4110     2.4386     0.1610    -0.0042    82.2269
  139.0000     8.0285     7.5757   -18.5296     7.4113     2.4386     0.1586    -0.0042    82.9750
  139.5000     8.0842     7.5757   -18.8286     7.4116     2.4423     0.1583    -0.0042    84.1701
  140.0000     8.0285     7.5757   -19.1479     7.4269     2.4438     0.1595    -0.0042    85.0672
  140.5000     7.9732     7.5757   -18.6750     7.4284     2.4446     0.1589    -0.0057    83.8778
  141.0000     7.9732     7.5757   -18.5232     7.4424     2.4446     0.1580    -0.0057    81.3234
  141.5000     7.9182     7.5236   -18.5218     7.4427     2.4438     0.1571    -0.0058    80.3069
  142.0000     7.8637     7.4718   -18.6707     7.4430     2.4446     0.1559    -0.0043    80.9066
  142.5000     7.8095     7.5236   -18.8197     7.4433     2.4461     0.1547    -0.0028    80.7597
  143.0000     7.7557     7.5236   -18.8179     7.4585     2.4483     0.1529    -0.0028    80.4646
  143.5000     7.6978     7.5236   -18.9669     7.4588     2.4505     0.1526    -0.0028    80.3184
  144.0000     7.6491     7.5236   -19.2782     7.4741     2.4505     0.1517    -0.0028    80.9182
  144.5000     7.6491     7.5236   -19.5655     7.4743     2.4513     0.1511    -0.0028    81.5172
  145.0000     7.6491     7.5236   -18.8119     7.4896     2.4520     0.1556    -0.0059    81.8281
  145.5000     7.5964     7.5236   -18.0586     7.5048     2.4520     0.1595    -0.0074    82.8650
  146.0000     7.5964     7.5236   -17.5980     7.5051     2.4430     0.1622    -0.0059    85.6994
  146.5000     7.5964     7.5236   -17.3035     7.5054     2.4355     0.1647    -0.0059    83.9140
  147.0000     7.5441     7.5236   -17.1517     7.5206     2.4332     0.1649    -0.0059    82.1277
  147.5000     7.5441     7.5236   -17.3010     7.5216     2.4332     0.1623    -0.0044    83.9197
  148.0000     7.5441     7.5316   -17.2992     7.5660     2.4340     0.1548    -0.0014    85.4645
  148.5000     7.5289     7.5757   -17.4481     7.5812     2.4385     0.1467     0.0015    83.7765
  149.0000     7.4921     7.5757   -17.4464     7.5996     2.4506     0.1446     0.0030    82.7124
  149.5000     7.4921     7.5798   -17.4450     7.6266     2.4610     0.1512     0.0030    82.8888
  150.0000     7.4922     7.3692   -17.2925     7.6329     2.4625     0.1542     0.0090    85.5738
  150.5000     7.5447     7.5236   -17.2883     7.6276     2.4602     0.1500     0.0045    86.0267
  151.0000     7.5975     7.6811   -17.2840     7.6285     2.4413     0.1460     0.0526    83.5004
  151.5000     7.7067     7.6840   -17.4301     7.6141     2.4535     0.1484     0.0210    82.1649
  152.0000     7.8117     7.7344   -17.4248     7.6150     2.4557     0.1553     0.0195    81.7222
  152.5000     7.6518     7.7344   -17.4205     7.6157     2.4489     0.1463     0.0225    81.5789
  153.0000     7.5995     7.7344   -17.4162     7.6314     2.4520     0.1445     0.0255    81.5862
