~VERSION INFORMATION
 VERS.                2.0:   CWLS LOG ASCII STANDARD - VERSION 2.0
 WRAP.                 NO:   ONE LINE PER DEPTH STEP
~WELL INFORMATION
#MNEM.UNIT      DATA TYPE    INFORMATION
#----------   ------------   ------------------------------
 STRT.F           80.0000:   START DEPTH
 STOP.F          808.0000:   STOP DEPTH
 STEP.F            0.5000:   STEP LENGTH
 NULL.          -999.2500:   NO VALUE
 COMP.           U S NAVY:   COMPANY
 WELL.     NRP #3 #38-S-2:   WELL
 FLD .             TEAPOT:   FIELD
 LOC .       S2 T38N R78W:   LOCATION
 CNTY.            NATRONA:   COUNTY
 STAT.            WYOMING:   STATE
 CTRY. UNITED STATES OF AMERICA:   COUNTRY
 SRVC.       Schlumberger:   SERVICE COMPANY
 DATE.        18-JUN-1962:   LOGDATE
 API .       490250639100:   API NUMBER
~CURVE INFORMATION
#MNEM.UNIT       API CODE    CURVE DESCRIPTION
#----------   ------------   ------------------------------
 DEPT.F                  :   
 GR  .GAPI   30 310 01 00:   GAMMA RAY
 SPR .MV     05 010 01 00:   SPONTANEOUS POTENTIAL FROM RES.
 ASN .OHMM   05 041 16 00:   AMPLIFIED SHORT NORMAL 16"
 ILD .OHMM   05 120 46 00:   INDUCTION LOG DEEP
 CILD.MMHO   05 110 46 00:   CONDUCTIVITY INDUCTION LOG DEEP
 CALM.IN     15 280 01 00:   CALIPER FROM MICRO LOG
~PARAMETER INFORMATION
#MNEM.UNIT          VALUE    DESCRIPTION
#----------   ------------   ------------------------------
 PD  .                 GL:   PERMANENT DATUM
 EPD .F              5146:   ELEVATION PERMANENT DATUM
 LMF .                 KB:   LOG MEASURED FROM
 DAPD.F                 5:   FEET ABOVE PERMANENT DATUM
 DMF .                 KB:   DRILLING MEASURED FROM
 EKB .F              5151:   KELLING BUSHING
 EGL .F              5146:   GROUND LEVEL
 DATE.          6-18-1962:   RUN DATE
 RUN .                  1:   RUN NUMBER
 DD  .F              1000:   DEPTH DRILLER
 DL  .F               808:   DEPTH LOGGER
 BLI .F               807:   BOTTOM LOG INTERVAL
 TLI .F                80:   TOP LOG INTERVAL
 BS  .IN             8.75:   BIT SIZE
 BSD .F              1000:   BIT SIZE AT DEPTH
 DFT .       OIL EMULSION:   DRILLING FLUID TYPE
 DFD .                8.7:   DRILLING FLUID DENSITY
 DFV .                 58:   DRILLING FLUID VISCOSITY
 DFL .                  4:   DRILLING FLUID LOSS
 RMS .OHMM           3.77:   RESISTIVITY MUD SAMPLE
 MST .F                79:   MUD SAMPLE TEMPERATURE
 RMF .OHMM           2.47:   RESISTIVITY MUD FILTRATE SAMPLE
 MFST.F                79:   MUD FILTRATE SAMPLE TEMPERATURE
 RMC .OHMM           3.29:   RESISTIVITY MUD CAKE
 MCST.F                79:   MUD CAKE SAMPLE TEMPERATURE
 TCS .HRS               1:   TIME CURCULATED STOPPED
 LUN .               2503:   LOGGING UNIT NUMBER
 LUL .               CSPR:   LOGGING UNIT LOCATION
 ENGI.             DANNER:   RECORDING ENGINEER
 WITN.          JORGENSEN:   WITNESSED BY
 CLNT.            A2DTECH:   CLIENT CODE
 ORIG.   1", 2", 5" PRINT:   ORIGIN OF DATA
 UWI .       490250639100:   UNIQUE WELL ID
 DICO. A2D Technologies, Inc.:   DIGITIZING COMPANY
~OTHER INFORMATION
~A   DEPT       GR        SPR          ASN        ILD      CILD      CALM   
# ...
  236.0000  -999.2500   -71.4581     8.1890     7.1172   136.1810  -999.2500
  236.5000  -999.2500   -71.4980     8.2492     7.2547   133.5916  -999.2500
  237.0000  -999.2500   -71.4274     8.2613     7.1272   136.5286  -999.2500
  237.5000  -999.2500   -71.3537     8.1928     6.9627   140.1793  -999.2500
  238.0000  -999.2500   -71.2805     8.0881     6.7979   143.8300  -999.2500
  238.5000  -999.2500   -71.2075     7.9383     6.6333   147.4808  -999.2500
  239.0000  -999.2500   -71.1344     7.7893     6.4689   151.1315  -999.2500
  239.5000  -999.2500   -71.0614     7.6403     6.3044   154.7822  -999.2500
  240.0000  -999.2500   -70.9884     7.4910     6.1399   158.4330  -999.2500
  240.5000  -999.2500   -70.9153     7.3436     5.9764   162.0837  -999.2500
  241.0000  -999.2500   -70.8422     7.2706     5.8655   164.4869  -999.2500
  241.5000  -999.2500   -70.7679     7.2133     5.8677   163.6845  -999.2500
  242.0000  -999.2500   -70.6938     7.1580     5.8674   161.3011  -999.2500
  242.5000  -999.2500   -70.8102     7.1598     5.8631   158.9178  -999.2500
  243.0000  -999.2500   -70.9450     7.3114     5.9914   156.5344  -999.2500
  243.5000  -999.2500   -71.0792     7.4567     6.1400   154.1511  -999.2500
  244.0000  -999.2500   -71.2124     7.6018     6.2903   151.7677  -999.2500
  244.5000  -999.2500   -71.2997     7.7474     6.4401   149.3844  -999.2500
  245.0000  -999.2500   -71.3011     7.8941     6.5900   147.0011  -999.2500
  245.5000  -999.2500   -71.2193     7.9286     6.7405   144.6177  -999.2500
  246.0000  -999.2500   -71.1273     7.9380     6.8019   142.2344  -999.2500
  246.5000  -999.2500   -71.0342     7.9465     6.8422   139.8510  -999.2500
  247.0000  -999.2500   -70.9413     7.9556     6.8819   139.1398  -999.2500
  247.5000  -999.2500   -70.8483     7.9756     6.9218   138.8896  -999.2500
  248.0000  -999.2500   -70.7568     8.0314     6.9617   138.6393  -999.2500
  248.5000  -999.2500   -70.7065     8.0859     7.0016   138.3917  -999.2500
  249.0000  -999.2500   -70.7833     8.1403     7.0416   137.8734  -999.2500
  249.5000  -999.2500   -70.8564     8.1949     7.0814   137.2711  -999.2500
  250.0000  -999.2500   -70.9293     8.2506     7.1214   136.6673  -999.2500
  250.5000  -999.2500   -71.0024     8.2642     7.1640   136.0609  -999.2500
  251.0000  -999.2500   -71.0773     8.2704     7.1075   135.4556  -999.2500
  251.5000  -999.2500   -71.0955     8.2763     7.0227   136.4978  -999.2500
  252.0000  -999.2500   -71.0775     8.2815     6.9369   138.1243  -999.2500
  252.5000  -999.2500   -71.0524     8.2573     6.8513   139.7504  -999.2500
  253.0000  -999.2500   -71.0272     8.1314     6.7658   141.3711  -999.2500
  253.5000  -999.2500   -71.0020     8.0072     6.6802   142.9918  -999.2500
  254.0000  -999.2500   -70.9769     7.8831     6.5930   144.6124  -999.2500
  254.5000  -999.2500   -70.9518     7.7600     6.5346   146.2331  -999.2500
  255.0000  -999.2500   -70.9268     7.6567     6.4843   147.8538  -999.2500
  255.5000  -999.2500   -70.9014     7.6568     6.4345   149.4745  -999.2500
  256.0000  -999.2500   -70.8911     7.6540     6.3829   151.0951  -999.2500
  256.5000  -999.2500   -70.8795     7.6508     6.3743   152.2594  -999.2500
  257.0000  -999.2500   -70.8680     7.6477     6.3810   151.4252  -999.2500
  257.5000  -999.2500   -70.8566     7.6447     6.3882   150.5910  -999.2500
  258.0000  -999.2500   -70.8451     7.6413     6.3954   149.7569  -999.2500
  258.5000  -999.2500   -70.8336     7.6510     6.4025   148.9227  -999.2500
  259.0000  -999.2500   -70.8221     7.6665     6.4097   148.0885  -999.2500
  259.5000  -999.2500   -70.8107     7.6820     6.4168   147.3843  -999.2500
  260.0000  -999.2500   -70.7992     7.6976     6.4239   147.3843  -999.2500
  260.5000  -999.2500   -70.7877     7.7131     6.4310   147.3843  -999.2500
  261.0000  -999.2500   -70.7762     7.7286     6.4382   147.3843  -999.2500
  261.5000  -999.2500   -70.7648     7.7442     6.4453   147.3843  -999.2500
  262.0000  -999.2500   -70.7533     7.7597     6.4524   147.3843  -999.2500
  262.5000  -999.2500   -70.7418     7.7751     6.4596   147.3843  -999.2500
  263.0000  -999.2500   -70.7303     7.8030     6.4661   146.9307  -999.2500
  263.5000  -999.2500   -70.7189     7.8378     6.5181   146.2027  -999.2500
  264.0000  -999.2500   -70.7074     7.8728     6.5962   145.4752  -999.2500
  264.5000  -999.2500   -70.6958     7.9076     6.6746   144.7441  -999.2500
  265.0000  -999.2500   -70.6637     7.9614     6.7531   144.0090  -999.2500
  265.5000  -999.2500   -70.6062     8.0269     6.8315   143.3464  -999.2500
  266.0000  -999.2500   -70.5489     8.0925     6.9099   141.1670  -999.2500
  266.5000  -999.2500   -70.4915     8.1582     6.9884   139.1650  -999.2500
  267.0000  -999.2500   -70.4340     8.2238     7.0668   137.1630  -999.2500
  267.5000  -999.2500   -70.3766     8.2898     7.1452   135.1610  -999.2500
  268.0000  -999.2500   -70.3195     8.3559     7.2236   133.1590  -999.2500
  268.5000  -999.2500   -70.2838     8.4527     7.3021   131.1569  -999.2500
  269.0000  -999.2500   -70.3115     8.5717     7.3805   129.1549  -999.2500
  269.5000  -999.2500   -70.3874     8.6915     7.4587   128.0933  -999.2500
  270.0000  -999.2500   -70.4627     8.8119     7.5373   127.7772  -999.2500
  270.5000  -999.2500   -70.5380     8.9235     7.5632   127.4611  -999.2500
  271.0000  -999.2500   -70.6133     8.9181     7.5469   127.1450  -999.2500
  271.5000  -999.2500   -70.6887     8.9095     7.5304   126.8289  -999.2500
  272.0000  -999.2500   -70.7641     8.9013     7.5136   126.5128  -999.2500
  272.5000  -999.2500   -70.8390     8.8928     7.4973   126.1966  -999.2500
  273.0000  -999.2500   -70.8932     8.8874     7.4810   125.8805  -999.2500
  273.5000  -999.2500   -70.9102     8.9398     7.5399   125.5644  -999.2500
  274.0000  -999.2500   -70.9323     9.0372     7.6681   125.2515  -999.2500
  274.5000  -999.2500   -70.9547     9.1752     7.7964   123.2294  -999.2500
  275.0000  -999.2500   -70.9770     9.3133     7.9253   121.2274  -999.2500
  275.5000  -999.2500   -70.9993     9.4517     8.0542   119.2253  -999.2500
  276.0000  -999.2500   -71.0217     9.5901     8.1829   117.2233  -999.2500
  276.5000  -999.2500   -71.0439     9.7290     8.3117   115.2213  -999.2500
  277.0000  -999.2500   -71.0663     9.8670     8.4405   113.2193  -999.2500
  277.5000  -999.2500   -71.0906     9.9418     8.5693   111.2173  -999.2500
  278.0000  -999.2500   -71.0390    10.0146     8.6980   109.2151  -999.2500
  278.5000  -999.2500   -70.9593    10.0901     8.8268   107.2150  -999.2500
  279.0000  -999.2500   -70.8788    10.1973     8.9556   105.2176  -999.2500
  279.5000  -999.2500   -70.7984    10.3081     9.0843   103.1187  -999.2500
  280.0000  -999.2500   -70.7179    10.4193     9.2133   102.3541  -999.2500
  280.5000  -999.2500   -70.6372    10.5312     9.3433   101.5533  -999.2500
  281.0000  -999.2500   -70.5569    10.7712     9.4733   100.7525  -999.2500
  281.5000  -999.2500   -70.5060    11.1816     9.4485    99.9517  -999.2500
  282.0000  -999.2500   -70.6591    11.2931     9.4142    99.0946  -999.2500
  282.5000  -999.2500   -70.8143    11.3900     9.3788    99.4668  -999.2500
  283.0000  -999.2500   -70.9689    11.2124     9.3204    99.8672  -999.2500
  283.5000  -999.2500   -71.1236    11.0094     9.2581   100.9356  -999.2500
  284.0000  -999.2500   -71.2777    10.8016     9.1957   102.9376  -999.2500
  284.5000  -999.2500   -71.4327    10.7600     9.1333   104.9396  -999.2500
  285.0000  -999.2500   -71.5008    10.7183     9.0709   106.9417  -999.2500
  285.5000  -999.2500   -71.4995    10.6767     9.0086   107.5751  -999.2500
  286.0000  -999.2500   -71.4552    10.6350     8.9460   108.0555  -999.2500
  286.5000  -999.2500   -71.4101    10.5934     8.8840   108.5360  -999.2500
  287.0000  -999.2500   -71.3653    10.5517     8.8553   109.0165  -999.2500
  287.5000  -999.2500   -71.3207    10.5101     8.8314   109.4970  -999.2500
