~VERSION INFORMATION
 VERS.                2.0:   CWLS LOG ASCII STANDARD - VERSION 2.0
 WRAP.                 NO:   ONE LINE PER DEPTH STEP
~WELL INFORMATION
#MNEM.UNIT      DATA TYPE    INFORMATION
#----------   ------------   ------------------------------
 STRT.F           15.0000:   START DEPTH
 STOP.F          557.0000:   STOP DEPTH
 STEP.F            0.5000:   STEP LENGTH
 NULL.          -999.2500:   NO VALUE
 COMP. FENIX & SICISSOR INC.:   COMPANY
 WELL.       NPR #85-S-10:   WELL
 FLD .             TEAPOT:   FIELD
 LOC .      S10 T38N R78W:   LOCATION
 CNTY.            NATRONA:   COUNTY
 STAT.            WYOMING:   STATE
 CTRY. UNITED STATES OF AMERICA:   COUNTRY
 SRVC.           BIRDWELL:   SERVICE COMPANY
 DATE.        27-NOV-1978:   LOGDATE
 API .       490251075300:   API NUMBER
~CURVE INFORMATION
#MNEM.UNIT       API CODE    CURVE DESCRIPTION
#----------   ------------   ------------------------------
 DEPT.F                  :   
 CALD.IN     45 280 60 00:   CALIPER FROM DENSITY LOG
 DPHI.DEC    45 890 12 00:   DENSITY POROSITY SANDSTONE
 GRD .GAPI   45 310 01 00:   GAMMA RAY FROM DENSITY LOG
 RHOB.G/C3   45 350 01 00:   BULK DENSITY
 CORR.G/C3   45 356 01 00:   DENSITY CORRECTION
 ILD .OHMM   05 120 46 00:   INDUCTION LOG DEEP
 SN  .OHMM   05 040 00 00:   SHORT NORMAL
 SPR .MV     05 010 01 00:   SPONTANEOUS POTENTIAL
~PARAMETER INFORMATION
#MNEM.UNIT          VALUE    DESCRIPTION
#----------   ------------   ------------------------------
 PD  .                 GL:   PERMANENT DATUM
 EPD .F              5196:   ELEVATION PERMANENT DATUM
 LMF .                 KB:   LOG MEASURED FROM
 DAPD.F                 4:   FEET ABOVE PERMANENT DATUM
 DMF .                 KB:   DRILLING MEASURED FROM
 EKB .F              5200:   KELLING BUSHING
 EGL .F              5196:   GROUND LEVEL
 DATE.        27-NOV-1978:   RUN DATE
 RUN .                  1:   RUN NUMBER
 DD  .F               557:   DEPTH DRILLER
 DL  .F               551:   DEPTH LOGGER
 BLI .F               545:   BOTTOM LOG INTERVAL
 TLI .F                48:   TOP LOG INTERVAL
 CS  .IN            8.625:   CASING SIZE
 CBD .F                40:   CASING BOTTOM DRILLER
 CBL .F                35:   CASING BOTTOM LOGGER
 BS  .IN            7.875:   BIT SIZE
 BSD .F               557:   BIT SIZE AT DEPTH
 DFT .                KCL:   DRILLING FLUID TYPE
 DFD .                8.8:   DRILLING FLUID DENSITY
 DFV .                 38:   DRILLING FLUID VISCOSITY
 DFPH.               11.1:   DRILLING FLUID PH
 DFL .                 14:   DRILLING FLUID LOSS
 MSS .           FLOWLINE:   MUD SAMPLE SOURCE
 RMS .OHMM           0.32:   RESISTIVITY MUD SAMPLE
 MST .F                58:   MUD SAMPLE TEMPERATURE
 RMF .OHMM           0.31:   RESISTIVITY MUD FILTRATE SAMPLE
 MFST.F                74:   MUD FILTRATE SAMPLE TEMPERATURE
 RMC .OHMM           0.53:   RESISTIVITY MUD CAKE
 MCST.F                75:   MUD CAKE SAMPLE TEMPERATURE
 MFSS.               MEAS:   MUD FILTRATE SAMPLE SOURCE
 MCSS.               MEAS:   MUD CAKE SAMPLE SOURCE
 RMB .OHMM           0.31:   RESISTIVITY MUD AT BHT
 BHT .F                59:   BOTTOM HOLE TEMPERATURE
 TCS .HRS               2:   TIME CURCULATED STOPPED
 MRT .F                59:   MAXIMUM RECORDED TEMPERATURE
 LUN .               2958:   LOGGING UNIT NUMBER
 LUL .             CASPER:   LOGGING UNIT LOCATION
 ENGI.             MILLER:   RECORDING ENGINEER
 WITN.           DINSMORE:   WITNESSED BY
 CLNT.            A2DTECH:   CLIENT CODE
 ORIG.         2.5" PRINT:   ORIGIN OF DATA
 UWI .       490251075300:   UNIQUE WELL ID
 DICO. A2D Technologies, Inc.:   DIGITIZING COMPANY
~OTHER INFORMATION
~A   DEPT     CALD       DPHI         GRD      RHOB       CORR        ILD         SN        SPR   
# ...
   55.5000     8.0253     0.1162   104.9507     2.4767     0.1720     7.9472     7.6557     0.5762
   56.0000     7.9952     0.1234   104.9630     2.4675     0.1208     8.1748     7.6557     0.5732
   56.5000     7.9650     0.1548   104.9753     2.4470     0.0877     8.2966     7.6758     0.7154
   57.0000     7.9657     0.1633   105.4033     2.4198     0.0667     8.4108     7.8733     0.8720
   57.5000     7.9663     0.1621   107.1399     2.4094     0.0577     8.5554     7.9030     0.7012
   58.0000     7.9669     0.1790   108.4979     2.4007     0.0453     8.6878     8.0972     0.5610
   58.5000     7.9675     0.1802   108.0741     2.3785     0.0332     8.9015     8.0972     0.2525
   59.0000     7.9681     0.1807   103.8889     2.3830     0.0276     8.9034     8.2115     0.2495
   59.5000     7.9687     0.1750    99.6728     2.3906     0.0247     8.9052     8.2115     0.2465
   60.0000     7.9693     0.1726    98.8889     2.3921     0.0217     9.0332     8.2115     0.2435
   60.5000     8.0086     0.1713   100.4469     2.3921     0.0217     9.0350     8.2115     0.2405
   61.0000     8.1129     0.1696   104.4712     2.3922     0.0217     9.0369     8.2115    -0.0674
   61.5000     8.2399     0.1692   104.1746     2.3937     0.0234     9.0387     8.1445    -0.3752
   62.0000     8.3055     0.1683   104.1152     2.3968     0.0369     9.0405     8.0972    -0.3782
   62.5000     8.3405     0.1674   106.6677     2.3983     0.0520     8.9165     8.0972    -0.3812
   63.0000     8.3718     0.1588   108.5315     2.4000     0.0580     8.9183     8.0972    -0.6891
   63.5000     8.4032     0.1462   108.8521     2.4182     0.0641     8.9202     8.0972    -0.6921
   64.0000     8.4038     0.1450   108.8683     2.4361     0.0641     8.9221     7.8733    -0.3902
   64.5000     8.3736     0.1462   109.5391     2.4392     0.0641     8.9240     7.8733    -0.3933
   65.0000     8.3743     0.1480   110.9465     2.4356     0.0672     8.9258     7.6557    -0.3963
   65.5000     8.4056     0.1498   115.1934     2.4304     0.0704     8.9277     7.4440    -0.3994
   66.0000     8.4062     0.1528   115.7037     2.4241     0.0767     8.9296     7.1374    -0.4024
   66.5000     8.4068     0.1558   115.3107     2.4210     0.0823     8.6849     7.1361    -0.3415
   67.0000     8.4074     0.1594   114.3786     2.4166     0.0916     8.5657     7.1374    -0.1033
   67.5000     8.4080     0.1471   113.6214     2.4317     0.1256     8.4480     7.2382    -0.1067
   68.0000     8.4086     0.1293   114.3580     2.4650     0.1553     8.3322     7.2382    -0.1098
   68.5000     8.4092     0.1132   116.1070     2.4756     0.1624     8.2179     7.2382    -0.1128
   69.0000     8.3706     0.1195   117.6319     2.4726     0.1530     8.1051     7.3404     0.1896
   69.5000     8.3282     0.1477   116.1007     2.4529     0.1156     8.1069     7.3639     0.1860
   70.0000     8.2147     0.1581   110.8658     2.4303     0.0735     8.1086     7.4440     0.1829
   70.5000     8.1380     0.1569   109.6432     2.4227     0.0494     8.1103     7.5818     0.6382
   71.0000     8.0896     0.1591   109.0379     2.4196     0.0344     8.2265     7.6931     0.7866
   71.5000     8.0933     0.1643   108.4326     2.4133     0.0194     8.2282     7.8733     0.7835
   72.0000     8.2909     0.1648   108.4446     2.4071     0.0104     8.2904     7.8733     0.4750
   72.5000     8.3222     0.1581   110.3395     2.4043     0.0074     8.4661     7.8733     0.1672
   73.0000     8.3534     0.1526   111.8930     2.4031     0.0074     8.5874     7.8733     0.1642
   73.5000     8.3234     0.1490   112.1852     2.4248     0.0074     8.7104     7.7637    -0.1437
   74.0000     8.3240     0.1478   112.1317     2.4310     0.0075     8.8351     7.7637    -0.4516
   74.5000     8.3246     0.1471   112.2099     2.4326     0.0075     8.9617     7.7637    -0.4546
   75.0000     8.3252     0.1471   112.2222     2.4349     0.0045     8.9635     7.7637    -0.4576
   75.5000     8.3239     0.1464   112.2346     2.4373     0.0043     8.9654     7.7637    -0.4606
   76.0000     8.2920     0.1445   111.9671     2.4380     0.0038     8.9672     7.7637    -0.4636
   76.5000     8.2349     0.1429   109.9239     2.4380     0.0034     8.8440     7.7637    -0.4665
   77.0000     8.1742     0.1448   106.6255     2.4380     0.0030     8.8461     7.7637    -0.4695
   77.5000     8.1350     0.1516   104.5701     2.4305     0.0026     8.8480     7.7637    -0.4726
   78.0000     8.1804     0.1537   107.6685     2.4275     0.0022     8.8498     7.7637    -0.4756
   78.5000     8.4037     0.1487   109.5323     2.4305     0.0018     8.8517     7.6557    -0.4787
   79.0000     8.3914     0.1500   109.8530     2.4320     0.0001     8.8539     7.6557    -0.7866
   79.5000     8.3613     0.1580   109.5556     2.4290    -0.0012     8.8557     7.6557    -0.7896
   80.0000     8.3621     0.1603   109.2597     2.4198    -0.0042     8.8575     7.6557    -0.7927
   80.5000     8.3627     0.1603   109.2716     2.4153    -0.0072     8.7359     7.6557    -1.1006
   81.0000     8.3633     0.1615   109.5926     2.4122    -0.0072     8.7377     7.6557    -1.1037
   81.5000     8.3639     0.1627   109.9835     2.4109    -0.0071     8.7395     7.6557    -1.1067
   82.0000     8.3645     0.1645   110.9589     2.4110    -0.0071     8.7413     7.6557    -0.8044
   82.5000     8.3651     0.1627   111.8621     2.4110    -0.0071     8.7432     7.6557    -0.8079
   83.0000     8.3350     0.1590   111.7119     2.4110    -0.0070     8.7450     7.6557    -0.6829
   83.5000     8.3049     0.1566   110.9794     2.4124    -0.0070     8.7469     7.6931    -0.5091
   84.0000     8.3055     0.1554   109.8477     2.4179    -0.0070     8.7487     7.7637    -0.5122
   84.5000     8.3061     0.1542   112.2284     2.4225    -0.0070     8.8148     7.7637    -0.5152
   85.0000     8.3067     0.1539   115.2675     2.4262    -0.0039     8.8763     7.7637    -0.2134
   85.5000     8.3074     0.1508   115.8790     2.4292    -0.0009     8.8781     7.7637    -0.2171
   86.0000     8.3080     0.1393   113.7305     2.4368     0.0006     8.8799     7.7637    -0.2201
   86.5000     8.3086     0.1311   105.7178     2.4535     0.0052     8.8817     7.7637    -0.2230
   87.0000     8.3399     0.1299   102.3347     2.4595     0.0173     8.8835     7.7637     0.0793
   87.5000     8.3558     0.1317   101.4208     2.4580     0.0294     8.8853     7.7637     0.0758
   88.0000     8.3718     0.1357   102.6673     2.4565     0.0414     9.0126     7.7637     0.3780
   88.5000     8.3725     0.1420   106.3830     2.4534     0.0475     8.9944     7.7637     0.6799
   89.0000     8.3118     0.1468   108.2552     2.4437     0.0355     8.8907     7.8733     0.9815
   89.5000     8.2817     0.1528   108.9218     2.4285     0.0235     8.8927     7.8733     1.2834
   90.0000     8.2823     0.1589   109.5062     2.4182     0.0114     8.8946     7.8733     1.2804
   90.5000     8.2829     0.1594   109.5185     2.4138     0.0053     8.8965     7.8733     1.2774
   91.0000     8.2528     0.1600   109.5309     2.4127    -0.0005     8.8984     7.8733     1.5793
   91.5000     8.1307     0.1606   109.4465     2.4128    -0.0041     8.9006     7.8733     1.5762
   92.0000     8.0380     0.1631   108.8231     2.4121    -0.0073     8.9024     7.8733     1.5732
   92.5000     8.0092     0.1687   108.5082     2.4076    -0.0095     8.9042     7.8733     1.5701
   93.0000     7.9791     0.1736   108.1934     2.3974    -0.0083     8.9060     7.8733     1.5203
   93.5000     7.9865     0.1763   111.7079     2.3886    -0.0064     8.9078     7.8733     1.2591
   94.0000     8.0896     0.1691   119.4838     2.3871    -0.0064     8.9096     7.9845     0.6463
   94.5000     8.1755     0.1599   122.2736     2.4038    -0.0033     9.0373     8.0972     0.2581
   95.0000     8.2209     0.1539   121.3596     2.4235    -0.0033     9.0392     8.0972     0.0305
   95.5000     8.3031     0.1503   120.1370     2.4295    -0.0033     9.0411     8.2115     0.0274
