~VERSION INFORMATION
 VERS.                2.0:   CWLS LOG ASCII STANDARD - VERSION 2.0
 WRAP.                 NO:   ONE LINE PER DEPTH STEP
~WELL INFORMATION
#MNEM.UNIT      DATA TYPE    INFORMATION
#----------   ------------   ------------------------------
 STRT.F            1.0000:   START DEPTH
 STOP.F          478.0000:   STOP DEPTH
 STEP.F            0.1000:   STEP LENGTH
 NULL.          -999.2500:   NO VALUE
 COMP. LAWRENCE/ALLISON INC:   COMPANY
 WELL.     58-61 SX #58-3:   WELL
 FLD .             TEAPOT:   FIELD
 LOC .       S3 T38N R78W:   LOCATION
 CNTY.            NATRONA:   COUNTY
 STAT.            WYOMING:   STATE
 CTRY. UNITED STATES OF AMERICA:   COUNTRY
 SRVC.           Gearhart:   SERVICE COMPANY
 DATE.        08-JUL-1988:   LOGDATE
 API .       490251123400:   API NUMBER
~CURVE INFORMATION
#MNEM.UNIT       API CODE    CURVE DESCRIPTION
#----------   ------------   ------------------------------
 DEPT.F                  :   
 GRR .GAPI   07 310 01 00:   GAMMA RAY
 RILD.OHMM   07 120 46 00:   INDUCTION LOG DEEP RESISTIVITY
 RILM.OHMM   07 120 44 00:   INDUCTION LOG MEDIUM RESISTIVITY
~PARAMETER INFORMATION
#MNEM.UNIT          VALUE    DESCRIPTION
#----------   ------------   ------------------------------
 PD  .                 GL:   PERMANENT DATUM
 EPD .F              5184:   ELEVATION PERMANENT DATUM
 LMF .                 KB:   LOG MEASURED FROM
 DAPD.F                 5:   FEET ABOVE PERMANENT DATUM
 DMF .                 KB:   DRILLING MEASURED FROM
 EKB .F              5189:   KELLING BUSHING
 EGL .F              5184:   GROUND LEVEL
 DATE.        08-JUL-1988:   RUN DATE
 RUN .                  1:   RUN NUMBER
 DD  .F               485:   DEPTH DRILLER
 DL  .F               486:   DEPTH LOGGER
 BLI .F               478:   BOTTOM LOG INTERVAL
 CS  .IN            9.625:   CASING SIZE
 CBD .F                45:   CASING BOTTOM DRILLER
 CBL .F                44:   CASING BOTTOM LOGGER
 BS  .IN             8.75:   BIT SIZE
 BSD .F               485:   BIT SIZE AT DEPTH
 DFT .                AIR:   DRILLING FLUID TYPE
 TCS .HRS            2200:   TIME CURCULATED STOPPED
 TLAB.HRS            2315:   TIME LOGGER AT BOTTOM
 LUN .               7597:   LOGGING UNIT NUMBER
 LUL .           GILLETTE:   LOGGING UNIT LOCATION
 ENGI.           JOHNSTON:   RECORDING ENGINEER
 WITN.              FIVAS:   WITNESSED BY
 CLNT.            A2DTECH:   CLIENT CODE
 ORIG.           5" PRINT:   ORIGIN OF DATA
 UWI .       490251123400:   UNIQUE WELL ID
 DICO. A2D Technologies, Inc.:   DIGITIZING COMPANY
~OTHER INFORMATION
~A    DEPT     GRR       RILD       RILM   
# ...
  201.2000   150.3854     7.5603     7.5417
  201.3000   150.0006     7.5666     7.6084
  201.4000   149.6024     7.6134     7.6806
  201.5000   149.3627     7.6914     7.7272
  201.6000   149.0920     7.7495     7.8295
  201.7000   148.4571     7.7932     7.8663
  201.8000   148.0364     7.8371     7.9106
  201.9000   147.8920     7.8845     7.9708
  202.0000   147.8968     7.9259     8.0563
  202.1000   147.9021     7.9706     8.1084
  202.2000   148.1287     8.0156     8.1084
  202.3000   148.0516     8.0608     8.1364
  202.4000   147.9162     8.1084     8.1823
  202.5000   147.9211     8.1520     8.2284
  202.6000   147.9262     8.1653     8.2804
  202.7000   147.9308     8.1868     8.2804
  202.8000   147.9357     8.2226     8.2804
  202.9000   147.7135     8.2226     8.2804
  203.0000   147.2291     8.2226     8.2804
  203.1000   146.7364     8.2226     8.2804
  203.2000   146.2604     8.2226     8.2384
  203.3000   145.9575     8.2226     8.2226
  203.4000   145.5951     8.2226     8.2226
  203.5000   145.1108     8.2226     8.2146
  203.6000   144.6313     8.2226     8.1653
  203.7000   144.3915     8.1989     8.1653
  203.8000   143.7705     8.1528     8.1339
  203.9000   142.9099     8.1071     8.1084
  204.0000   142.1548     8.0616     8.1084
  204.1000   141.9287     8.0518     8.1084
  204.2000   142.2382     8.0274     8.0649
  204.3000   142.2422     7.9823     8.0518
  204.4000   142.5287     7.9399     8.0518
  204.5000   143.1047     7.9399     8.0518
  204.6000   143.8434     7.8681     8.0518
  204.7000   144.6902     7.8295     8.0076
  204.8000   145.5296     7.8154     7.9626
  204.9000   146.5128     7.7749     7.9180
  205.0000   147.4962     7.7749     7.8845
  205.1000   148.4152     7.7385     7.8843
  205.2000   148.9632     7.6951     7.8401
  205.3000   149.4034     7.6519     7.7629
  205.4000   150.0564     7.6134     7.6983
  205.5000   150.6950     7.6134     7.6551
  205.6000   151.1065     7.5767     7.6121
  205.7000   151.1117     7.5342     7.5694
  205.8000   150.6622     7.4764     7.5270
  205.9000   149.8416     7.3979     7.4847
  206.0000   148.8680     7.3516     7.4552
  206.1000   147.9448     7.2789     7.4529
  206.2000   147.1904     7.2234     7.4032
  206.3000   146.9590     7.1988     7.3695
  206.4000   146.7193     7.1927     7.3516
  206.5000   146.5979     7.1486     7.3382
  206.6000   146.6622     7.1486     7.2970
  206.7000   146.9117     7.1220     7.2494
  206.8000   147.1611     7.0988     7.2494
  206.9000   147.4106     7.0988     7.2494
  207.0000   147.7876     7.0988     7.2352
  207.1000   148.2130     7.0988     7.1988
  207.2000   148.4625     7.0988     7.1988
  207.3000   148.7120     7.0810     7.1988
  207.4000   149.1569     7.0492     7.1739
  207.5000   149.5144     7.0492     7.1486
  207.6000   149.9192     7.0114     7.1486
  207.7000   150.6203     7.0001     7.1486
  207.8000   150.9107     7.0001     7.1486
  207.9000   151.3238     7.0001     7.1229
  208.0000   151.5266     7.0001     7.0988
  208.1000   151.3579     6.9615     7.0988
  208.2000   150.9014     6.9513     7.0988
  208.3000   150.6313     6.9319     7.0625
  208.4000   150.2082     6.8930     7.0492
  208.5000   149.8786     6.8543     7.0325
  208.6000   149.5430     6.8159     6.9861
  208.7000   149.0585     6.7776     6.9028
  208.8000   148.5309     6.7200     6.8306
  208.9000   148.3126     6.6550     6.7282
  209.0000   148.2367     6.6153     6.6155
  209.1000   148.2416     6.5047     6.5194
  209.2000   148.2926     6.4242     6.4814
  209.3000   148.5550     6.3330     6.4118
  209.4000   148.5596     6.2479     6.3401
  209.5000   148.5645     6.2088     6.2527
  209.6000   148.5694     6.0857     6.1557
  209.7000   148.6295     6.0304     6.0857
  209.8000   148.8826     5.9629     5.9856
  209.9000   149.1284     5.8961     5.8612
  210.0000   149.5599     5.8301     5.7466
  210.1000   150.1773     5.7544     5.6583
  210.2000   150.7873     5.7004     5.5946
  210.3000   151.0477     5.6179     5.5011
  210.4000   151.7863     5.5346     5.4323
  210.5000   152.1426     5.4726     5.3715
  210.6000   152.5245     5.4031     5.3114
  210.7000   153.0185     5.3509     5.2509
  210.8000   153.5126     5.3094     5.1631
  210.9000   154.0962     5.2686     5.0544
  211.0000   154.5008     5.2134     4.9721
  211.1000   155.1363     5.1809     4.9164
  211.2000   155.8750     5.1809     4.8598
  211.3000   156.5900     5.1809     4.7635
  211.4000   157.1552     5.1809     4.7201
  211.5000   157.5782     5.1901     4.6673
  211.6000   158.0723     5.2539     4.6235
  211.7000   158.3830     5.2539     4.5997
  211.8000   158.4206     5.2738     4.5997
  211.9000   158.6967     5.3035     4.5997
  212.0000   158.9196     5.3390     4.6152
  212.1000   159.1690     5.4031     4.6413
  212.2000   159.1163     5.4317     4.6704
  212.3000   158.5900     5.4410     4.7303
  212.4000   157.8103     5.4549     4.7767
  212.5000   156.9043     5.4792     4.8308
  212.6000   155.9308     5.4792     4.8855
  212.7000   154.7375     5.5090     4.9445
  212.8000   153.3767     5.5401     5.0379
  212.9000   152.3716     5.5565     5.1144
  213.0000   151.6661     5.5638     5.2015
  213.1000   151.1150     5.5955     5.2900
  213.2000   150.6307     5.6267     5.3800
  213.3000   150.2064     5.6823     5.4792
  213.4000   149.9654     5.7304     5.5937
  213.5000   149.4810     5.7796     5.6994
  213.6000   148.8097     5.8769     5.7964
  213.7000   148.5930     5.9101     5.8887
  213.8000   148.7733     5.9693     5.9593
  213.9000   148.8091     6.0369     6.0872
  214.0000   149.6944     6.1249     6.2013
  214.1000   150.0904     6.2612     6.2906
  214.2000   150.5845     6.3321     6.3693
  214.3000   150.6871     6.4327     6.4814
  214.4000   149.9775     6.5423     6.5523
  214.5000   149.4150     6.6536     6.6265
  214.6000   148.8036     6.7642     6.7197
  214.7000   148.5135     6.8546     6.8249
  214.8000   148.5184     6.9504     6.9028
  214.9000   148.5232     7.0457     6.9802
  215.0000   148.5287     7.1254     7.0593
  215.1000   148.5329     7.2060     7.1392
  215.2000   148.5378     7.3003     7.2199
  215.3000   148.6391     7.3701     7.3015
  215.4000   148.8510     7.4536     7.3843
  215.5000   148.8563     7.5379     7.4354
  215.6000   150.6477     7.6182     7.4997
  215.7000   151.9515     7.6668     7.5724
  215.8000   152.6179     7.7423     7.6151
  215.9000   152.9608     7.7749     7.6581
  216.0000   153.7362     7.7917     7.7013
  216.1000   154.4383     7.8295     7.7448
  216.2000   155.0034     7.8295     7.7885
  216.3000   155.6121     7.8295     7.8324
  216.4000   156.4066     7.8583     7.8845
  216.5000   157.4022     7.9026     7.8845
  216.6000   157.6486     7.9399     7.8845
  216.7000   157.8980     7.9399     7.8993
  216.8000   158.0237     7.9811     7.9439
  216.9000   157.8987     7.9956     7.9956
  217.0000   157.4263     8.0151     7.9956
  217.1000   157.4312     8.0518     8.0228
  217.2000   157.4361     8.0518     8.0518
  217.3000   157.4410     8.0518     8.0570
  217.4000   157.4458     8.0518     8.1084
  217.5000   157.4507     8.0518     8.1084
  217.6000   157.4564     8.0615     8.1084
  217.7000   157.8622     8.1084     8.1084
  217.8000   158.3562     8.1084     8.1147
  217.9000   158.7672     8.1415     8.1653
  218.0000   159.0167     8.1653     8.1653
  218.1000   159.3014     8.1762     8.1954
  218.2000   159.0956     8.2226     8.2226
  218.3000   158.8558     8.2226     8.2226
  218.4000   158.5238     8.2226     8.2226
  218.5000   158.0394     8.2461     8.2654
  218.6000   157.5046     8.2804     8.2804
  218.7000   157.0707     8.2804     8.2804
  218.8000   156.5863     8.2804     8.2804
  218.9000   156.0005     8.2804     8.2804
  219.0000   155.3141     8.2804     8.2804
  219.1000   154.7973     8.2938     8.2804
  219.2000   154.1172     8.3386     8.2804
  219.3000   153.2188     8.3386     8.2804
