~VERSION INFORMATION
 VERS.                2.0:   CWLS LOG ASCII STANDARD - VERSION 2.0
 WRAP.                 NO:   ONE LINE PER DEPTH STEP
~WELL INFORMATION
#MNEM.UNIT      DATA TYPE    INFORMATION
#----------   ------------   ------------------------------
 STRT.F            0.0000:   START DEPTH
 STOP.F          520.0000:   STOP DEPTH
 STEP.F            0.5000:   STEP LENGTH
 NULL.          -999.2500:   NO VALUE
 COMP. LAWRENCE/ALLISON INC:   COMPANY
 WELL.   NPR #3 #67-13 SX:   WELL
 FLD .             TEAPOT:   FIELD
 LOC .       S3 T38N R78W:   LOCATION
 CNTY.            NATRONA:   COUNTY
 STAT.            WYOMING:   STATE
 CTRY. UNITED STATES OF AMERICA:   COUNTRY
 SRVC.           Gearhart:   SERVICE COMPANY
 DATE.        06-JUL-1988:   LOGDATE
 API .       490251123000:   API NUMBER
~CURVE INFORMATION
#MNEM.UNIT       API CODE    CURVE DESCRIPTION
#----------   ------------   ------------------------------
 DEPT.F                  :   
 GRR .GAPI   07 310 01 00:   GAMMA RAY FROM RES. LOG.
 RILD.OHMM   07 120 46 00:   INDUCTION LOG DEEP RESISTIVITY
 RILM.OHMM   07 120 44 00:   INDUCTION LOG MEDIUM RESISTIVITY
~PARAMETER INFORMATION
#MNEM.UNIT          VALUE    DESCRIPTION
#----------   ------------   ------------------------------
 PD  .                 GL:   PERMANENT DATUM
 EPD .F              5168:   ELEVATION PERMANENT DATUM
 LMF .                 KB:   LOG MEASURED FROM
 DAPD.F                10:   FEET ABOVE PERMANENT DATUM
 DMF .                 KB:   DRILLING MEASURED FROM
 EKB .F              5178:   KELLING BUSHING
 EGL .F              5168:   GROUND LEVEL
 DATE.             7-6-88:   RUN DATE
 RUN .                  1:   RUN NUMBER
 DD  .F               520:   DEPTH DRILLER
 DL  .F               524:   DEPTH LOGGER
 BLI .F             515.5:   BOTTOM LOG INTERVAL
 TLI .F                50:   TOP LOG INTERVAL
 CS  .IN            9.625:   CASING SIZE
 CBD .F                50:   CASING BOTTOM DRILLER
 CBL .F                50:   CASING BOTTOM LOGGER
 BS  .IN             8.75:   BIT SIZE
 BSD .F               520:   BIT SIZE AT DEPTH
 DFT .                AIR:   DRILLING FLUID TYPE
 TLAB.HRS            0015:   TIME LOGGER AT BOTTOM
 MRT .F                70:   MAXIMUM RECORDED TEMPERATURE
 LUN .               7597:   LOGGING UNIT NUMBER
 LUL .           GILLETTE:   LOGGING UNIT LOCATION
 ENGI.          HUCKFELDT:   RECORDING ENGINEER
 WITN.              FIVAS:   WITNESSED BY
 CLNT.            A2DTECH:   CLIENT CODE
 ORIG.       2", 5" PRINT:   ORIGIN OF DATA
 UWI .       490251123000:   UNIQUE WELL ID
 DICO. A2D Technologies, Inc.:   DIGITIZING COMPANY
~OTHER INFORMATION
~A    DEPT      GRR      RILD       RILM   
# ...
  364.0000    88.2340    30.5903    28.9409
  364.5000    87.8465    30.0303    28.4253
  365.0000    86.9621    30.0303    27.8909
  365.5000    87.6023    30.0622    27.9352
  366.0000    89.0560    30.0923    28.0378
  366.5000    89.5904    30.1224    28.1498
  367.0000    91.0546    30.1525    28.3622
  367.5000    92.1463    30.1826    28.5970
  368.0000    91.3995    30.2128    28.8338
  368.5000    90.2554    30.2430    29.2095
  369.0000    89.5640    30.2733    29.2095
  369.5000    90.9093    30.3090    28.9409
  370.0000    92.3528    30.3090    29.1311
  370.5000    91.3574    30.0460    29.3649
  371.0000    90.2858    29.8266    29.4806
  371.5000    90.6566    29.6088    29.1373
  372.0000    91.0720    29.4806    28.6664
  372.5000    90.7278    29.0025    28.1050
  373.0000    90.1727    28.3990    27.1323
  373.5000    90.3484    27.8079    26.1971
  374.0000    91.4794    27.2292    25.6653
  374.5000    92.2999    26.6320    25.2084
  375.0000    92.1189    26.1293    24.9655
  375.5000    92.2948    25.6080    24.7302
  376.0000    93.8026    25.0970    24.2379
  376.5000    94.9796    24.5963    23.7666
  377.0000    94.5191    24.0586    23.3188
  377.5000    93.1984    24.0586    22.8644
  378.0000    92.4844    23.9007    22.3487
  378.5000    93.1458    23.7774    22.2889
  379.0000    94.4289    23.6547    22.2029
  379.5000    96.9037    23.5326    22.1392
  380.0000    99.5958    23.4112    22.4533
  380.5000   100.3184    23.2904    22.7614
  381.0000   100.2792    23.1858    22.7614
  381.5000   100.1192    22.6679    22.3891
  382.0000   100.1601    22.1392    21.6628
  382.5000    99.8950    21.6138    20.9600
  383.0000    97.6103    20.9455    20.2800
  383.5000    94.4633    20.3247    19.6221
  384.0000    92.0016    19.6767    19.2744
  384.5000    90.2264    19.0494    18.6502
  385.0000    89.1226    18.4044    18.1646
  385.5000    89.5056    18.1989    17.6916
  386.0000    91.2350    17.9198    17.2519
  386.5000    92.7978    17.6451    16.8896
  387.0000    94.2462    17.3746    16.6495
  387.5000    95.5909    17.1082    16.4156
  388.0000    95.5276    16.8459    16.1818
  388.5000    94.1227    16.5877    15.9509
  389.0000    92.7385    16.3217    15.7268
  389.5000    91.9565    16.2358    15.4989
  390.0000    91.9068    16.1211    15.2834
  390.5000    92.9319    16.0072    15.0594
  391.0000    94.3414    15.8940    14.7516
  391.5000    95.4608    15.7817    14.7246
  392.0000    96.6042    15.6702    14.7057
  392.5000    97.4592    15.5849    14.6720
  393.0000    98.2272    15.5849    14.6531
  393.5000    98.8102    15.5849    14.6201
  394.0000    97.6286    15.5849    14.6133
  394.5000    95.4618    15.5859    14.6845
  395.0000    94.7903    15.5849    14.7434
  395.5000    95.6608    15.5855    14.8024
  396.0000    96.4616    15.5843    14.8617
  396.5000    97.1737    15.5851    14.8814
  397.0000    98.5539    15.5838    14.9559
  397.5000    99.8678    15.5848    15.0196
  398.0000   100.5813    15.5479    14.8665
  398.5000   101.3037    15.4328    14.7050
  399.0000   102.0533    15.3168    14.5451
  399.5000   102.7150    15.2033    14.3870
  400.0000   103.5538    15.0891    14.2307
  400.5000   103.9343    14.9772    14.0790
  401.0000   103.5140    14.8649    14.0354
  401.5000   102.7040    14.7545    13.9169
  402.0000   102.5787    14.6441    13.7993
  402.5000   103.7425    14.5351    13.6828
  403.0000   105.2426    14.4520    13.5683
  403.5000   106.3756    14.4010    13.5817
  404.0000   106.5050    14.3502    13.5986
  404.5000   106.4433    14.2996    13.6156
  405.0000   106.4494    14.2491    13.6326
  405.5000   105.0689    14.1989    13.6496
  406.0000   103.6151    14.1488    13.6666
  406.5000   102.7843    14.0989    13.6837
  407.0000   101.9838    14.0485    13.6571
  407.5000   102.3269    13.9693    13.5610
  408.0000   103.6664    13.8906    13.4655
  408.5000   105.0452    13.8213    13.3706
  409.0000   106.0447    13.7324    13.2765
  409.5000   106.0832    13.6533    13.1830
  410.0000   106.0298    13.5745    13.0760
  410.5000   106.8858    13.4963    12.9203
  411.0000   108.0179    13.3743    12.7390
  411.5000   108.3111    13.1620    12.5602
  412.0000   106.3199    12.9531    12.3839
  412.5000   103.7193    12.7475    12.2101
  413.0000   103.5891    12.5451    12.0388
  413.5000   104.5845    12.3460    11.8698
  414.0000   105.3033    12.1500    11.7032
  414.5000   106.0814    11.9572    11.4897
  415.0000   107.2373    11.7674    11.3840
  415.5000   108.4995    11.5806    11.1431
  416.0000   108.2776    11.3967    10.9556
  416.5000   108.1031    11.1756    10.7714
  417.0000   109.4466    10.9820    10.5902
  417.5000   110.5144    10.7191    10.3795
  418.0000   111.5317    10.4670    10.1793
  418.5000   112.4135    10.2100     9.8527
  419.0000   113.1561     9.9187     9.4636
  419.5000   114.1966     9.4381     8.8524
  420.0000   114.6700     8.8687     8.1124
  420.5000   116.0520     8.3113     7.4342
  421.0000   117.5953     7.7346     6.8491
  421.5000   121.4325     7.1614     6.1951
  422.0000   131.0396     6.4918     5.6360
  422.5000   140.6196     6.4210     5.2394
  423.0000   144.5419     6.5801     5.6476
  423.5000   139.9717     6.7254     6.0826
  424.0000   129.5083     7.0701     6.5511
  424.5000   119.2834     7.6156     7.0557
  425.0000   111.0457     8.2272     7.5992
  425.5000   107.6510     8.8654     8.1846
  426.0000   108.7246     9.5652     8.8150
  426.5000   110.7729    10.1895     9.4940
  427.0000   112.9452    10.4199    10.0029
  427.5000   114.3773    10.6214    10.2347
  428.0000   114.9456    10.8267    10.4171
  428.5000   115.5447    11.0360    10.6028
  429.0000   116.3532    11.2494    10.7918
  429.5000   117.4149    11.4669    10.9710
  430.0000   117.7372    11.6793    11.2027
  430.5000   116.3560    11.8822    11.4241
  431.0000   114.7291    12.0887    11.6498
  431.5000   113.3231    12.2987    11.8801
  432.0000   111.6863    12.5124    12.1149
  432.5000   110.5594    12.7298    12.3247
  433.0000   110.8587    12.9510    12.4939
  433.5000   113.1216    13.1529    12.6622
  434.0000   115.7168    13.3284    12.8360
  434.5000   115.7796    13.5061    13.0129
  435.0000   114.3646    13.6942    13.1912
  435.5000   113.1052    13.7544    13.3174
  436.0000   111.7312    13.8176    13.3872
  436.5000   111.0208    13.8811    13.4423
  437.0000   110.9950    13.9448    13.4954
  437.5000   111.3383    14.0089    13.5668
  438.0000   111.1855    14.0733    13.6204
  438.5000   109.6022    14.1379    13.7337
  439.0000   107.9459    14.2097    13.8411
  439.5000   107.3499    14.2097    13.9577
  440.0000   108.3370    14.2097    14.0730
  440.5000   110.2159    14.2097    13.9709
  441.0000   112.1076    14.2097    13.7574
  441.5000   113.6959    14.2097    13.5683
  442.0000   113.5849    14.2097    13.5683
  442.5000   112.5466    14.2097    13.5290
  443.0000   111.7306    14.0827    13.4972
  443.5000   110.6915    13.9047    13.4654
  444.0000   109.7111    13.7289    13.4435
  444.5000   108.1018    13.5554    13.2863
  445.0000   106.5597    13.4435    13.2351
  445.5000   107.9589    13.2436    13.1974
  446.0000   110.6649    13.0693    12.9354
  446.5000   111.9475    12.8972    12.7065
  447.0000   112.5170    12.7057    12.4817
  447.5000   112.1762    12.5053    12.2608
  448.0000   112.8287    12.3080    12.0438
  448.5000   115.9274    12.1445    11.8307
  449.0000   119.2709    11.9370    11.6214
  449.5000   121.5806    11.7608    11.4157
  450.0000   120.8971    11.5872    11.2793
  450.5000   118.8854    11.4162    11.1145
  451.0000   119.0222    11.2477    10.9678
  451.5000   120.1227    11.0817    10.8232
  452.0000   121.2245    10.9710    10.6804
  452.5000   122.4039    10.9160    10.5395
  453.0000   123.3998    10.8537    10.4607
  453.5000   123.4274    10.7918    10.4139
  454.0000   122.2969    10.7302    10.3673
  454.5000   121.8619    10.6690    10.3210
