~VERSION INFORMATION
 VERS.                2.0:   CWLS LOG ASCII STANDARD - VERSION 2.0
 WRAP.                 NO:   ONE LINE PER DEPTH STEP
~WELL INFORMATION
#MNEM.UNIT      DATA TYPE    INFORMATION
#----------   ------------   ------------------------------
 STRT.F           30.0000:   START DEPTH
 STOP.F         1358.0000:   STOP DEPTH
 STEP.F            0.5000:   STEP LENGTH
 NULL.          -999.2500:   NO VALUE
 COMP. FENIX & SCISSON INC:   COMPANY
 WELL.      3 SX14 #85-14:   WELL
 FLD .             TEAPOT:   FIELD
 LOC .      S14 T38N R78W:   LOCATION
 CNTY.            NATRONA:   COUNTY
 STAT.            WYOMING:   STATE
 CTRY. UNITED STATES OF AMERICA:   COUNTRY
 SRVC.              Welex:   SERVICE COMPANY
 DATE.        10-FEB-1977:   LOGDATE
 API .       490251027500:   API NUMBER
~CURVE INFORMATION
#MNEM.UNIT       API CODE    CURVE DESCRIPTION
#----------   ------------   ------------------------------
 DEPT.F                  :   
 ILM .OHMM   07 120 44 00:   INDUCTION LOG MEDIUM
 ILD .OHMM   07 120 46 00:   INDUCTION LOG DEEP
 CALD.IN     45 280 60 00:   CALIPER
 GRD .GAPI   45 310 01 00:   GAMMA RAY FROM DENSITY LOG
 RHOB.G/C3   45 350 01 00:   BULK DENSITY
 DPHI.DEC    45 890 12 00:   DENSITY POROSITY SANDSTONE
 CORR.G/C3   45 356 01 00:   DENSITY CORRECTION
~PARAMETER INFORMATION
#MNEM.UNIT          VALUE    DESCRIPTION
#----------   ------------   ------------------------------
 PD  .                 GL:   PERMANENT DATUM
 EPD .F              5345:   ELEVATION PERMANENT DATUM
 LMF .                 GL:   LOG MEASURED FROM
 DMF .                 GL:   DRILLING MEASURED FROM
 EGL .F              5345:   GROUND LEVEL
 DATE.          2-10-1977:   RUN DATE
 RUN .                  1:   RUN NUMBER
 DD  .F              1362:   DEPTH DRILLER
 DL  .F              1361:   DEPTH LOGGER
 BLI .F              1359:   BOTTOM LOG INTERVAL
 TLI .F                43:   TOP LOG INTERVAL
 CS  .IN            8.625:   CASING SIZE
 CBD .F                43:   CASING BOTTOM DRILLER
 CBL .F                43:   CASING BOTTOM LOGGER
 BS  .IN            7.875:   BIT SIZE
 BSD .F              1362:   BIT SIZE AT DEPTH
 DFT .           AIR MIST:   DRILLING FLUID TYPE
 TCS .HRS               4:   TIME CURCULATED STOPPED
 MRT .F               104:   MAXIMUM RECORDED TEMPERATURE
 LUN .               8611:   LOGGING UNIT NUMBER
 LUL .           GILLETTE:   LOGGING UNIT LOCATION
 ENGI.               DOAK:   RECORDING ENGINEER
 WITN. PETTINGILL/STUEBINGER:   WITNESSED BY
 CLNT.            A2DTECH:   CLIENT CODE
 ORIG.       2", 5" PRINT:   ORIGIN OF DATA
 UWI .       490251027500:   UNIQUE WELL ID
 DICO. A2D Technologies, Inc.:   DIGITIZING COMPANY
~OTHER INFORMATION
~A   DEPT      ILM        ILD         CALD      GRD         RHOB     DPHI        CORR  
# ...
  303.0000     7.1947     6.3354     8.3068   107.6790     2.4194     0.1480     0.0366
  303.5000     7.0896     6.1780     8.3147   106.2138     2.4220     0.1467     0.0390
  304.0000     7.0062     6.0260     8.3275   103.9643     2.4247     0.1453     0.0413
  304.5000     6.8785     5.8267     8.3358   101.7377     2.4274     0.1439     0.0425
  305.0000     6.8166     5.8557     8.3246    99.5441     2.4300     0.1425     0.0419
  305.5000     6.7531     5.9573     8.3122    98.0889     2.4327     0.1411     0.0411
  306.0000     6.7531     6.0606     8.2998    98.9178     2.4353     0.1397     0.0403
  306.5000     7.0529     6.1656     8.2876    99.6991     2.4365     0.1400     0.0395
  307.0000     7.2848     6.2709     8.2753   101.8458     2.4334     0.1417     0.0388
  307.5000     7.5243     6.4549     8.2630   104.1946     2.4303     0.1434     0.0368
  308.0000     7.7717     6.7346     8.2508   106.5473     2.4273     0.1450     0.0335
  308.5000     8.0272     6.8785     8.2415   109.0052     2.4302     0.1438     0.0302
  309.0000     8.1925     6.8785     8.2443   109.0552     2.4341     0.1427     0.0269
  309.5000     7.8551     6.6852     8.2497   108.1594     2.4341     0.1431     0.0236
  310.0000     7.6176     6.6966     8.2550   107.2284     2.4298     0.1452     0.0220
  310.5000     7.3873     6.5860     8.2599   106.2539     2.4254     0.1472     0.0224
  311.0000     7.1623     6.4293     8.2652   106.3263     2.4232     0.1484     0.0228
  311.5000     6.9456     6.2776     8.2900   106.8282     2.4214     0.1487     0.0232
  312.0000     6.8811     6.1295     8.3228   107.3443     2.4195     0.1491     0.0236
  312.5000     6.6885     5.9849     8.3247   107.8769     2.4177     0.1499     0.0240
  313.0000     6.5346     5.8436     8.3226   107.4573     2.4159     0.1511     0.0244
  313.5000     6.3844     5.7058     8.3207   106.5724     2.4140     0.1523     0.0248
  314.0000     6.2376     5.5711     8.3189   105.6769     2.4159     0.1516     0.0252
  314.5000     6.0940     5.4397     8.3170   104.9915     2.4197     0.1488     0.0257
  315.0000     5.9539     5.3114     8.3153   104.4132     2.4235     0.1459     0.0261
  315.5000     5.8171     5.1860     8.3134   103.8371     2.4273     0.1436     0.0265
  316.0000     5.7752     5.0772     8.3116   103.2619     2.4310     0.1427     0.0269
  316.5000     5.6699     5.1094     8.3098   102.6716     2.4326     0.1425     0.0273
  317.0000     5.6840     5.1385     8.3080   102.9515     2.4302     0.1429     0.0277
  317.5000     5.7087     5.1678     8.3063   103.6942     2.4284     0.1434     0.0282
  318.0000     5.7752     5.1973     8.3043   104.8933     2.4266     0.1438     0.0290
  318.5000     5.8632     5.2269     8.3014   106.7286     2.4248     0.1453     0.0298
  319.0000     5.9347     5.2567     8.3222   108.5771     2.4230     0.1468     0.0306
  319.5000     6.0071     5.2867     8.3446   108.3548     2.4211     0.1479     0.0314
  320.0000     6.0804     5.3162     8.3447   107.7326     2.4193     0.1490     0.0321
  320.5000     6.1546     5.4283     8.3440   108.5023     2.4176     0.1489     0.0310
  321.0000     6.2297     5.5406     8.3414   109.8821     2.4200     0.1459     0.0298
  321.5000     6.3057     5.6551     8.3388   110.7052     2.4225     0.1459     0.0287
  322.0000     6.3827     5.8289     8.3362   110.4048     2.4249     0.1459     0.0275
  322.5000     6.4606     5.8817     8.3336   110.0989     2.4260     0.1459     0.0264
  323.0000     6.5394     5.9524     8.3311   110.4545     2.4242     0.1472     0.0252
  323.5000     6.6192     6.0355     8.3285   110.7200     2.4185     0.1494     0.0241
  324.0000     6.7000     6.1052     8.3260   110.7110     2.4120     0.1517     0.0229
  324.5000     6.7531     6.0067     8.3258   110.3803     2.4054     0.1553     0.0218
  325.0000     6.6101     5.9042     8.2780   110.0350     2.3989     0.1590     0.0206
  325.5000     6.5054     5.8035     8.2229   109.6902     2.3951     0.1614     0.0195
  326.0000     6.4025     5.7046     8.2434   109.3405     2.3949     0.1613     0.0183
  326.5000     6.3014     5.6074     8.2798   109.2897     2.3968     0.1604     0.0182
  327.0000     6.2019     5.5118     8.3150   109.7507     2.3988     0.1595     0.0199
  327.5000     6.1040     5.4179     8.3449   110.2417     2.4008     0.1586     0.0215
  328.0000     6.0076     5.3255     8.3406   110.7143     2.4032     0.1576     0.0231
  328.5000     5.9127     5.2348     8.3342   111.3457     2.4065     0.1558     0.0247
  329.0000     5.8825     5.1715     8.3273   112.3651     2.4097     0.1541     0.0264
  329.5000     5.9924     5.2457     8.3244   112.9565     2.4130     0.1523     0.0280
  330.0000     5.9894     5.3039     8.3221   111.2885     2.4162     0.1506     0.0280
  330.5000     6.0741     5.4213     8.3085   109.5502     2.4195     0.1489     0.0280
  331.0000     6.1592     5.5576     8.2950   108.6454     2.4227     0.1477     0.0280
  331.5000     6.3923     5.6974     8.2816   109.2273     2.4260     0.1465     0.0280
  332.0000     6.6341     5.8406     8.2681   109.7870     2.4293     0.1444     0.0280
  332.5000     6.8852     5.9875     8.2625   110.3527     2.4363     0.1386     0.0280
  333.0000     7.1458     6.1380     8.2627   110.9180     2.4469     0.1327     0.0294
  333.5000     7.4162     6.2923     8.2533   110.6916     2.4569     0.1287     0.0313
  334.0000     7.7000     6.4505     8.2416   110.3668     2.4610     0.1252     0.0331
  334.5000     7.8949     6.6127     8.2455   110.3678     2.4654     0.1218     0.0350
  335.0000     7.6622     6.7531     8.2615   111.3660     2.4697     0.1183     0.0369
  335.5000     7.4864     6.6423     8.2625   112.2505     2.4739     0.1149     0.0387
  336.0000     7.3150     6.5479     8.2625   113.1321     2.4828     0.1114     0.0406
  336.5000     7.1479     6.4547     8.2624   113.9556     2.4912     0.1080     0.0424
  337.0000     6.9847     6.3686     8.2624   113.6024     2.4890     0.1078     0.0413
  337.5000     6.8785     6.2966     8.2611   112.6254     2.4875     0.1102     0.0399
  338.0000     6.8611     6.2254     8.2588   111.8420     2.4841     0.1126     0.0386
  338.5000     6.8430     6.1550     8.2564   111.0717     2.4801     0.1150     0.0373
  339.0000     6.8155     6.1037     8.2541   110.2947     2.4761     0.1174     0.0360
  339.5000     6.9040     6.2756     8.2517   109.5063     2.4721     0.1198     0.0347
  340.0000     7.0865     6.4163     8.2494   109.2384     2.4681     0.1222     0.0333
  340.5000     7.2762     6.5605     8.2470   109.0012     2.4641     0.1246     0.0320
  341.0000     7.4707     6.7078     8.2447   109.4040     2.4601     0.1270     0.0307
  341.5000     7.6703     6.8585     8.2423   110.4171     2.4561     0.1272     0.0314
  342.0000     7.8749     7.0127     8.2475   111.6449     2.4595     0.1267     0.0339
  342.5000     7.9695     7.1709     8.2581   112.8997     2.4634     0.1252     0.0364
  343.0000     8.0050     7.3355     8.2687   114.1783     2.4673     0.1218     0.0389
  343.5000     8.0431     7.3250     8.2793   114.7683     2.4700     0.1207     0.0414
  344.0000     8.0110     7.3121     8.2899   114.5059     2.4688     0.1219     0.0440
  344.5000     7.9792     7.2997     8.3019   113.2163     2.4673     0.1230     0.0441
  345.0000     7.9475     7.2875     8.3205   111.9041     2.4658     0.1242     0.0433
  345.5000     7.9159     7.2753     8.3282   110.5811     2.4643     0.1253     0.0426
  346.0000     7.8845     7.2631     8.3396   109.3287     2.4629     0.1258     0.0418
  346.5000     7.8532     7.2509     8.3449   108.6025     2.4664     0.1208     0.0410
  347.0000     7.8220     7.2388     8.3402   107.8618     2.4747     0.1158     0.0403
  347.5000     7.7909     7.2267     8.3308   107.8309     2.4787     0.1150     0.0395
  348.0000     7.7600     7.2146     8.3216   108.1133     2.4787     0.1160     0.0388
