~VERSION INFORMATION
 VERS.                2.0:   CWLS LOG ASCII STANDARD - VERSION 2.0
 WRAP.                 NO:   ONE LINE PER DEPTH STEP
~WELL INFORMATION
#MNEM.UNIT      DATA TYPE    INFORMATION
#----------   ------------   ------------------------------
 STRT.F           28.0000:   START DEPTH
 STOP.F          494.0000:   STOP DEPTH
 STEP.F            0.5000:   STEP LENGTH
 NULL.          -999.2500:   NO VALUE
 COMP.    FENIX & SCISSON:   COMPANY
 WELL.        67-S-3 #3-3:   WELL
 FLD .             TEAPOT:   FIELD
 LOC .       S3 T38N R78W:   LOCATION
 CNTY.            NATRONA:   COUNTY
 STAT.            WYOMING:   STATE
 CTRY. UNITED STATES OF AMERICA:   COUNTRY
 SRVC.           BIRDWELL:   SERVICE COMPANY
 DATE.        15-OCT-1978:   LOGDATE
 API .       490251072100:   API NUMBER
~CURVE INFORMATION
#MNEM.UNIT       API CODE    CURVE DESCRIPTION
#----------   ------------   ------------------------------
 DEPT.F                  :   
 ILD .OHMM   05 120 46 00:   INDUCTION LOG DEEP
 SN  .OHMM   05 040 16 00:   SHORT NORMAL 16"
 SPR .MV     05 010 01 00:   SPONTANEOUS POTENTIAL FROM RES.
 CALD.IN     45 280 60 00:   CALIPER FROM DENSITY LOG
 CORR.G/C3   45 356 01 00:   DENSITY CORRECTION
 DPHI.DEC    45 890 12 00:   DENSITY POROSITY SANDSTONE
 GRD .GAPI   45 310 01 00:   GAMMA RAY FROM DENSITY LOG
 RHOB.G/C3   45 350 01 00:   BULK DENSITY
~PARAMETER INFORMATION
#MNEM.UNIT          VALUE    DESCRIPTION
#----------   ------------   ------------------------------
 PD  .                 GL:   PERMANENT DATUM
 EPD .F              5173:   ELEVATION PERMANENT DATUM
 LMF .                 KB:   LOG MEASURED FROM
 DAPD.F                 4:   FEET ABOVE PERMANENT DATUM
 DMF .                 KB:   DRILLING MEASURED FROM
 EKB .F              5177:   KELLING BUSHING
 EGL .F              5173:   GROUND LEVEL
 DATE.        15-OCT-1978:   RUN DATE
 RUN .                  1:   RUN NUMBER
 DD  .F               492:   DEPTH DRILLER
 DL  .F               494:   DEPTH LOGGER
 BLI .F               488:   BOTTOM LOG INTERVAL
 TLI .F                46:   TOP LOG INTERVAL
 CS  .IN            8.625:   CASING SIZE
 CBD .F                40:   CASING BOTTOM DRILLER
 BS  .IN            7.875:   BIT SIZE
 BSD .F               492:   BIT SIZE AT DEPTH
 DFT .                KCL:   DRILLING FLUID TYPE
 DFD .                8.7:   DRILLING FLUID DENSITY
 DFV .                 35:   DRILLING FLUID VISCOSITY
 DFPH.                  9:   DRILLING FLUID PH
 LUN .               2958:   LOGGING UNIT NUMBER
 LUL .               CASP:   LOGGING UNIT LOCATION
 ENGI.             MILLER:   RECORDING ENGINEER
 WITN.           DINSMORE:   WITNESSED BY
 CLNT.            A2DTECH:   CLIENT CODE
 ORIG.           5" PRINT:   ORIGIN OF DATA
 UWI .       490251072100:   UNIQUE WELL ID
 DICO. A2D Technologies, Inc.:   DIGITIZING COMPANY
~OTHER INFORMATION
~A   DEPT      ILD         SN        SPR       CALD       CORR       DPHI         GRD      RHOB   
# ...
  271.0000    11.5058    11.2323   -18.3443     7.8979     0.0586     0.1034   108.1067     2.5097
  271.5000    12.6178    11.7077   -17.4627     7.8976     0.0813     0.0986   107.2054     2.5165
  272.0000    13.4773    12.2033   -17.0149     7.8973     0.1006     0.0950   102.7219     2.5277
  272.5000    14.1467    12.5453   -16.7164     7.8970     0.1006     0.0947   102.1191     2.5292
  273.0000    15.9141    12.9862   -16.4179     7.9116     0.0871     0.0971   101.5163     2.5187
  273.5000    18.6619    13.2582   -16.4179     7.9113     0.0571     0.1190    98.0360     2.4790
  274.0000    20.7046    13.6298   -14.9254     7.9260     0.0120     0.1244    90.1848     2.4768
  274.5000    22.9710    14.0241   -13.1343     7.9406    -0.0015     0.1301    78.0645     2.4704
  275.0000    24.9615    14.4378   -12.5373     7.9726    -0.0060     0.1562    65.3722     2.4383
  275.5000    26.5667    14.8080   -12.2388     7.9997    -0.0060     0.1817    64.9186     2.3988
  276.0000    27.3129    14.7061   -11.7910     7.9994    -0.0013     0.2057    66.4053     2.3598
  276.5000    28.0801    15.0141   -11.6418     8.0141     0.0180     0.2120    70.8771     2.3336
  277.0000    29.4748    15.4348   -11.3433     8.0137     0.0405     0.2144    76.8414     2.3291
  277.5000    29.2714    15.6496   -11.0448     8.0134     0.0601     0.2156    85.0446     2.3283
  278.0000    27.3129    15.6496   -10.8955     7.9982     0.0871     0.2180    86.9831     2.3223
  278.5000    24.7892    15.6496   -10.5970     7.9979     0.1006     0.2207    83.9583     2.3208
  279.0000    23.4532    15.6496   -10.4478     7.9976     0.1111     0.2132    68.6078     2.3255
  279.5000    22.9710    15.8674   -10.1463     7.9973     0.1306     0.2027    62.6318     2.3453
  280.0000    23.1307    15.9774    -9.8507     7.9970     0.1727     0.1933    63.0738     2.3681
  280.5000    23.4532    16.0882    -9.5522     7.9967     0.1847     0.1861    61.2769     2.3711
  281.0000    23.4532    16.3120    -9.5522     7.9964     0.1847     0.1722    61.2711     2.3898
  281.5000    23.7803    16.5390    -9.5522     7.9812     0.1787     0.1680    60.3697     2.4040
  282.0000    24.1120    16.7691    -9.5522     7.9510     0.1502     0.1668    60.0654     2.4108
  282.5000    25.3096    16.7691    -9.5522     7.9358     0.0931     0.1875    60.6566     2.3917
  283.0000    27.3129    16.8854    -9.5522     7.9206     0.0661     0.2054    62.7581     2.3598
  283.5000    28.8849    17.1204    -9.5522     7.8755     0.0465     0.2072    67.9184     2.3448
  284.0000    30.3364    17.2423    -9.5522     7.8730     0.0240     0.2025    71.5332     2.3478
  284.5000    31.3703    17.3742    -9.5522     7.8450     0.0134     0.1968    74.3633     2.3576
  285.0000    30.7253    17.4789    -9.5522     7.8298     0.0045     0.1971    77.4918     2.3621
  285.5000    30.0936    17.4789    -9.5522     7.8295     0.0015     0.2052    79.4262     2.3620
  286.0000    30.3027    17.4789    -9.5891     7.8292     0.0000     0.2154    79.8696     2.3478
  286.5000    32.2514    17.3586    -9.7015     7.8140     0.0015     0.2268    79.2654     2.3126
  287.0000    33.6197    17.2391    -9.8507     7.8137     0.0000     0.2462    76.8715     2.2826
  287.5000    32.7012    17.0025    -9.8507     7.7985    -0.0015     0.2442    69.5522     2.2789
  288.0000    30.4629    16.7691    -9.9214     7.7534    -0.0015     0.2322    66.7104     2.2961
  288.5000    28.8688    16.7691   -10.1493     7.7382    -0.0015     0.2340    66.7033     2.3028
  289.0000    28.4717    16.7691   -10.1622     7.7080    -0.0015     0.2412    66.6975     2.2939
  289.5000    29.6796    16.7691   -10.4478     7.7077     0.0015     0.2472    67.7365     2.2788
  290.0000    31.8078    16.5390   -10.4478     7.7074     0.0030     0.2469    71.4620     2.2751
  290.5000    31.3703    16.4251   -10.7463     7.6922     0.0015     0.2406    71.9054     2.2849
  291.0000    29.2714    16.3120   -10.7463     7.6919     0.0030     0.2256    70.5549     2.2998
  291.5000    26.5667    16.3120   -10.8955     7.6768     0.0030     0.2208    68.1610     2.3156
  292.0000    26.2013    16.0882   -11.0448     7.6913     0.0045     0.2184    67.1104     2.3216
  292.5000    26.3834    15.9774   -11.1940     7.6910     0.0030     0.2169    68.4776     2.3231
  293.0000    28.0801    15.8674   -11.3433     7.7057     0.0061     0.2136    73.3655     2.3253
  293.5000    29.6796    15.6496   -11.6418     7.7501     0.0105     0.2100    85.1512     2.3298
  294.0000    29.2714    15.4348   -11.6418     7.7797     0.0135     0.1896    83.9513     2.3375
  294.5000    28.0801    15.2230   -11.9403     7.8241     0.0120     0.1593    82.6022     2.3933
  295.0000    26.7514    15.0141   -12.2388     7.8687     0.0045     0.1533    82.7471     2.4280
  295.5000    25.6626    14.8080   -12.8358     7.8982    -0.0015     0.1584    83.0398     2.4295
  296.0000    25.8553    14.7061   -13.1343     7.9278     0.0000     0.1680    82.1370     2.4115
  296.5000    26.9372    14.6048   -13.4328     7.9424     0.0060     0.1725    74.9670     2.3988
  297.0000    26.7514    14.6048   -13.4328     7.9421     0.0105     0.1716    75.2797     2.3966
  297.5000    25.8409    14.6048   -13.4328     7.9567     0.0136     0.1710    77.8905     2.4033
  298.0000    24.7892    14.4044   -13.4328     7.9564     0.0165     0.1726    82.5601     2.4018
  298.5000    23.9456    14.3029   -13.4328     7.9561     0.0180     0.1753    84.0468     2.3958
  299.0000    23.1307    14.2067   -13.4328     7.9558     0.0195     0.1777    83.8917     2.3905
  299.5000    22.4987    14.2067   -13.5821     7.9705     0.0180     0.1780    84.0352     2.3898
  300.0000    22.1892    14.0117   -13.5767     7.9702     0.0250     0.1769    84.9470     2.3924
  300.5000    22.1919    13.8659   -13.5437     7.9702     0.0360     0.1717    87.0149     2.3973
  301.0000    22.1953    13.7249   -13.5107     7.9701     0.0345     0.1705    90.7463     2.3988
  301.5000    22.1985    13.6325   -13.4777     7.9552     0.0345     0.1693    97.0308     2.4010
  302.0000    22.2021    13.6336   -13.4447     7.9552     0.0390     0.1681    98.0597     2.4033
  302.5000    22.2051    13.6345   -13.4117     7.9701     0.0405     0.1681    92.6866     2.4063
  303.0000    22.2081    13.7300   -13.3787     7.9851     0.0435     0.1693    85.3731     2.4085
  303.5000    22.2110    13.8261   -13.3457     8.0000     0.0450     0.1705    83.1343     2.4077
  304.0000    22.2140    13.8271   -13.3127     8.0000     0.0450     0.1708    85.3731     2.4033
  304.5000    22.2170    13.8282   -13.2797     8.0007     0.0452     0.1720    85.9701     2.4040
  305.0000    22.2200    13.8291   -13.2467     8.0149     0.0465     0.1738    86.5672     2.4025
  305.5000    22.2237    13.7348   -13.2137     8.0149     0.0465     0.1765    87.1642     2.3988
  306.0000    22.2266    13.6409   -13.1872     8.0149     0.0435     0.1789    86.3758     2.3921
  306.5000    22.2296    13.6421   -13.4911     8.0149     0.0405     0.1798    82.8358     2.3898
  307.0000    22.2326    13.5490   -15.3045     8.0149     0.0375     0.1795    83.5821     2.3891
  307.5000    22.2355    13.4566   -15.8889     8.0149     0.0330     0.1792    84.7761     2.3898
  308.0000    22.2385    13.1817   -15.8933     8.0149     0.0285     0.1790    85.0746     2.3906
  308.5000    22.2416    13.0916   -15.8976     8.0149     0.0270     0.1790    85.6716     2.3921
  309.0000    21.9385    13.0927   -15.9020     8.0000     0.0255     0.1790    87.7612     2.3928
  309.5000    21.6404    13.0034   -15.9063     8.0000     0.0255     0.1814    88.3582     2.3928
  310.0000    21.3456    12.9145   -15.9107     7.9851     0.0270     0.1841    86.5272     2.3898
  310.5000    21.0541    12.9156   -16.0642     8.0000     0.0270     0.1838    85.5224     2.3786
  311.0000    20.7672    12.9093   -16.0687     8.0000     0.0285     0.1829    84.3284     2.3748
