~VERSION INFORMATION
 VERS.                2.0:   CWLS LOG ASCII STANDARD - VERSION 2.0
 WRAP.                 NO:   ONE LINE PER DEPTH STEP
~WELL INFORMATION
#MNEM.UNIT      DATA TYPE    INFORMATION
#----------   ------------   ------------------------------
 STRT.F            8.5000:   START DEPTH
 STOP.F         2140.0000:   STOP DEPTH
 STEP.F            0.5000:   STEP LENGTH
 NULL.          -999.2500:   NO VALUE
 COMP. LAWRENCE/ALLISON INC:   COMPANY
 WELL.   11-61 SHX #61-11:   WELL
 FLD .             TEAPOT:   FIELD
 LOC .      S11 T38N R78W:   LOCATION
 CNTY.            NATRONA:   COUNTY
 STAT.            WYOMING:   STATE
 CTRY. UNITED STATES OF AMERICA:   COUNTRY
 SRVC.      NL McCullough:   SERVICE COMPANY
 DATE.        04-MAY-1988:   LOGDATE
 API .       490251115600:   API NUMBER
~CURVE INFORMATION
#MNEM.UNIT       API CODE    CURVE DESCRIPTION
#----------   ------------   ------------------------------
 DEPT.F                  :   
 GRR .GAPI   81 310 01 00:   GAMMY RAY
 ROP .FT/HR  91 810 01 00:   RAT OF DRILLING PENETRATION
 TGAS.TC/CC  91 830 01 00:   TOTAL GAS UNIT
~PARAMETER INFORMATION
#MNEM.UNIT          VALUE    DESCRIPTION
#----------   ------------   ------------------------------
 PD  .                 GL:   PERMANENT DATUM
 EPD .F              5135:   ELEVATION PERMANENT DATUM
 LMF .                 KB:   LOG MEASURED FROM
 DAPD.F                 8:   FEET ABOVE PERMANENT DATUM
 DMF .                 KB:   DRILLING MEASURED FROM
 EKB .F              5143:   KELLING BUSHING
 EGL .F              5135:   GROUND LEVEL
 DATE.        04-MAY-1988:   RUN DATE
 RUN .                  1:   RUN NUMBER
 DD  .F              2140:   DEPTH DRILLER
 DL  .F               572:   DEPTH LOGGER
 BLI .F               568:   BOTTOM LOG INTERVAL
 CS  .IN              5.5:   CASING SIZE
 CBD .F               622:   CASING BOTTOM DRILLER
 BSD .F              2140:   BIT SIZE AT DEPTH
 DFT .         KCL/ WATER:   DRILLING FLUID TYPE
 TCS .HRS               1:   TIME CURCULATED STOPPED
 ENGI.               DALY:   RECORDING ENGINEER
 WITN.           MR. LOWL:   WITNESSED BY
 CLNT.            A2DTECH:   CLIENT CODE
 ORIG.           5" PRINT:   ORIGIN OF DATA
 UWI .       490251115600:   UNIQUE WELL ID
 DICO. A2D Technologies, Inc.:   DIGITIZING COMPANY
~OTHER INFORMATION
~A    DEPT      GRR       ROP       TGAS   
# ...
 1828.5000  -999.2500     0.2962     4.7744
 1829.0000  -999.2500     0.2974     4.8001
 1829.5000  -999.2500     0.2986     4.8257
 1830.0000  -999.2500     0.2998     4.8514
 1830.5000  -999.2500     0.3010     4.8771
 1831.0000  -999.2500     0.3022     4.9027
 1831.5000  -999.2500     0.3034     4.9284
 1832.0000  -999.2500     0.3045     4.9540
 1832.5000  -999.2500     0.3057     4.9797
 1833.0000  -999.2500     0.3069     5.0054
 1833.5000  -999.2500     0.3081     5.0310
 1834.0000  -999.2500     0.3093     5.0567
 1834.5000  -999.2500     0.3105     5.0823
 1835.0000  -999.2500     0.3117     5.1080
 1835.5000  -999.2500     0.3129     5.1336
 1836.0000  -999.2500     0.3141     5.1593
 1836.5000  -999.2500     0.3054     5.1850
 1837.0000  -999.2500     0.3061     5.2106
 1837.5000  -999.2500     0.3066     5.2363
 1838.0000  -999.2500     0.3072     5.2619
 1838.5000  -999.2500     0.3077     5.2876
 1839.0000  -999.2500     0.3083     5.3133
 1839.5000  -999.2500     0.3089     5.3389
 1840.0000  -999.2500     0.2435     0.8327
 1840.5000  -999.2500     0.2062    -0.6656
 1841.0000  -999.2500     0.2069    -0.6469
 1841.5000  -999.2500     0.2074    -1.0131
 1842.0000  -999.2500     0.2079    -0.9945
 1842.5000  -999.2500     0.2085    -0.9796
 1843.0000  -999.2500     0.2091    -0.9474
 1843.5000  -999.2500     0.2096    -0.8996
 1844.0000  -999.2500     0.2102    -0.8518
 1844.5000  -999.2500     0.2108    -0.8039
 1845.0000  -999.2500     0.2113    -0.7561
 1845.5000  -999.2500     0.2119    -0.7082
 1846.0000  -999.2500     0.2125    -0.6604
 1846.5000  -999.2500     0.2130    -0.6125
 1847.0000  -999.2500     0.2136    -0.5647
 1847.5000  -999.2500     0.2142    -0.5168
 1848.0000  -999.2500     0.2147    -0.4690
 1848.5000  -999.2500     0.2153    -0.4212
 1849.0000  -999.2500     0.2158    -0.3733
 1849.5000  -999.2500     0.2164    -0.3255
 1850.0000  -999.2500     0.2170    -0.2776
 1850.5000  -999.2500     0.2175    -0.2298
 1851.0000  -999.2500     0.2181    -0.1819
 1851.5000  -999.2500     0.2187    -0.1341
 1852.0000  -999.2500     0.2192    -0.0863
 1852.5000  -999.2500     0.2198    -0.0384
 1853.0000  -999.2500     0.2204     0.0094
 1853.5000  -999.2500     0.2209     0.0573
 1854.0000  -999.2500     0.2215     0.1051
 1854.5000  -999.2500     0.2221     0.1530
 1855.0000  -999.2500     0.2227     0.2008
 1855.5000  -999.2500     0.2234     0.2487
 1856.0000  -999.2500     0.2243     0.2965
 1856.5000  -999.2500     0.2251     0.3443
 1857.0000  -999.2500     0.2259     0.3922
 1857.5000  -999.2500     0.2267     0.4400
 1858.0000  -999.2500     0.2276     0.4879
 1858.5000  -999.2500     0.2284     0.5357
 1859.0000  -999.2500     0.2292     0.5836
 1859.5000  -999.2500     0.2300     0.6314
 1860.0000  -999.2500     0.2308     0.6792
 1860.5000  -999.2500     0.2317     0.7100
 1861.0000  -999.2500     0.2325     0.7407
 1861.5000  -999.2500     0.2333     0.7714
 1862.0000  -999.2500     0.2242     0.8021
 1862.5000  -999.2500     0.2243     0.8328
 1863.0000  -999.2500     0.2244     0.8636
 1863.5000  -999.2500     0.2246     0.8943
 1864.0000  -999.2500     0.2247     0.9250
 1864.5000  -999.2500     0.2248     0.9557
 1865.0000  -999.2500     0.2250     0.9864
 1865.5000  -999.2500     0.2251     1.0171
 1866.0000  -999.2500     0.2252     1.0479
 1866.5000  -999.2500     0.2254     1.0786
 1867.0000  -999.2500     0.2255     1.1093
 1867.5000  -999.2500     0.2257     1.1400
 1868.0000  -999.2500     0.2258     1.1707
 1868.5000  -999.2500     0.2259     1.2014
 1869.0000  -999.2500     0.2261     1.2322
 1869.5000  -999.2500     0.2262     1.2629
 1870.0000  -999.2500     0.2263     1.2936
 1870.5000  -999.2500     0.2265     1.3243
 1871.0000  -999.2500     0.2266     1.3550
 1871.5000  -999.2500     0.2267     1.3857
 1872.0000  -999.2500     0.2269     1.4165
 1872.5000  -999.2500     0.2270     1.4472
 1873.0000  -999.2500     0.2271     1.4779
 1873.5000  -999.2500     0.2273     1.5086
 1874.0000  -999.2500     0.2274     1.5395
 1874.5000  -999.2500     0.2275     1.5245
 1875.0000  -999.2500     0.2277     1.5094
 1875.5000  -999.2500     0.2278     1.4943
 1876.0000  -999.2500     0.2279     1.4792
 1876.5000  -999.2500     0.2281     1.4642
 1877.0000  -999.2500     0.2282     1.4491
 1877.5000  -999.2500     0.2283     1.4340
 1878.0000  -999.2500     0.2285     1.4189
 1878.5000  -999.2500     0.2286     1.4038
 1879.0000  -999.2500     0.2287     1.3887
 1879.5000  -999.2500     0.2289     1.3736
 1880.0000  -999.2500     0.2290     1.3585
 1880.5000  -999.2500     0.2291     1.3434
 1881.0000  -999.2500     0.2293     1.3283
 1881.5000  -999.2500     0.2294     1.3132
 1882.0000  -999.2500     0.2295     1.2981
 1882.5000  -999.2500     0.2297     1.2830
 1883.0000  -999.2500     0.2013     1.2679
 1883.5000  -999.2500     0.2012     1.2528
 1884.0000  -999.2500     0.1917     1.2377
 1884.5000  -999.2500     0.1920     1.2226
 1885.0000  -999.2500     0.1930     1.2075
 1885.5000  -999.2500     0.1939     1.1925
 1886.0000  -999.2500     0.1949     1.1774
 1886.5000  -999.2500     0.1958     1.1623
 1887.0000  -999.2500     0.1968     1.1472
 1887.5000  -999.2500     0.1977     1.1321
 1888.0000  -999.2500     0.1987     1.1170
 1888.5000  -999.2500     0.1996     1.1019
 1889.0000  -999.2500     0.2006     1.0868
 1889.5000  -999.2500     0.2015     1.0717
 1890.0000  -999.2500     0.2025     1.0566
 1890.5000  -999.2500     0.2035     1.0415
 1891.0000  -999.2500     0.2044     1.0264
 1891.5000  -999.2500     0.2054     1.0113
 1892.0000  -999.2500     0.2063     0.9962
 1892.5000  -999.2500     0.2073     0.9811
 1893.0000  -999.2500     0.2082     0.9660
 1893.5000  -999.2500     0.2092     0.9509
 1894.0000  -999.2500     0.2101     0.9358
 1894.5000  -999.2500     0.2111     0.9208
 1895.0000  -999.2500     0.2120     0.9057
 1895.5000  -999.2500     0.2130     0.8906
 1896.0000  -999.2500     0.2139     0.8755
 1896.5000  -999.2500     0.2149     0.8604
 1897.0000  -999.2500     0.2158     0.8453
 1897.5000  -999.2500     0.2168     0.8302
 1898.0000  -999.2500     0.2177     0.8151
 1898.5000  -999.2500     0.2187     0.8000
 1899.0000  -999.2500     0.2196     0.7849
 1899.5000  -999.2500     0.2206     0.7698
 1900.0000  -999.2500     0.2215     0.7547
 1900.5000  -999.2500     0.2225     0.7396
 1901.0000  -999.2500     0.2235     0.7245
 1901.5000  -999.2500     0.2244     0.7214
 1902.0000  -999.2500     0.2254     0.7366
 1902.5000  -999.2500     0.2258     0.7518
 1903.0000  -999.2500     0.2253     0.7669
 1903.5000  -999.2500     0.2247     0.7821
 1904.0000  -999.2500     0.2242     0.7972
 1904.5000  -999.2500     0.2237     0.8124
 1905.0000  -999.2500     0.2232     0.8276
 1905.5000  -999.2500     0.2226     0.8427
 1906.0000  -999.2500     0.2221     0.8579
 1906.5000  -999.2500     0.2216     0.8731
 1907.0000  -999.2500     0.2210     0.8882
 1907.5000  -999.2500     0.2205     0.9034
 1908.0000  -999.2500     0.2200     0.9186
 1908.5000  -999.2500     0.2195     0.9337
 1909.0000  -999.2500     0.2189     0.9489
 1909.5000  -999.2500     0.2184     0.9641
 1910.0000  -999.2500     0.2179     0.9792
 1910.5000  -999.2500     0.2174     0.9944
 1911.0000  -999.2500     0.2167     1.0096
 1911.5000  -999.2500     0.2117     1.0247
 1912.0000  -999.2500     0.2067     1.0399
 1912.5000  -999.2500     0.2017     1.0551
 1913.0000  -999.2500     0.1981     1.0702
 1913.5000  -999.2500     0.1984     1.0854
 1914.0000  -999.2500     0.1988     1.1005
 1914.5000  -999.2500     0.1991     1.1157
 1915.0000  -999.2500     0.1994     1.1309
 1915.5000  -999.2500     0.1997     1.1460
 1916.0000  -999.2500     0.2000     1.1612
 1916.5000  -999.2500     0.2003     1.1764
 1917.0000  -999.2500     0.2006     1.1915
 1917.5000  -999.2500     0.2010     1.2067
 1918.0000  -999.2500     0.2013     1.2219
 1918.5000  -999.2500     0.2016     1.2370
 1919.0000  -999.2500     0.2019     1.2522
