~VERSION INFORMATION
 VERS.                2.0:   CWLS LOG ASCII STANDARD - VERSION 2.0
 WRAP.                 NO:   ONE LINE PER DEPTH STEP
~WELL INFORMATION
#MNEM.UNIT      DATA TYPE    INFORMATION
#----------   ------------   ------------------------------
 STRT.F           80.0000:   START DEPTH
 STOP.F          820.0000:   STOP DEPTH
 STEP.F            0.5000:   STEP LENGTH
 NULL.          -999.2500:   NO VALUE
 COMP. U S NAVY/INTEX OIL CO:   COMPANY
 WELL.      GOVT #15-S-35:   WELL
 FLD .        EAST TEAPOT:   FIELD
 LOC .      S35 T39N R78W:   LOCATION
 CNTY.            NATRONA:   COUNTY
 STAT.            WYOMING:   STATE
 CTRY. UNITED STATES OF AMERICA:   COUNTRY
 SRVC.       Schlumberger:   SERVICE COMPANY
 DATE.        12-FEB-1961:   LOGDATE
 API .       490250654500:   API NUMBER
~CURVE INFORMATION
#MNEM.UNIT       API CODE    CURVE DESCRIPTION
#----------   ------------   ------------------------------
 DEPT.F                  :   
 SPR .MV     05 010 01 00:   SPONTANEOUS POTENTIAL FROM RES.
 ASN .OHMM   05 041 16 00:   AMPLIFIED SHORT NORMAL 16"
 ILD .OHMM   05 120 46 00:   INDUCTION LOG DEEP
 CILD.MMHO   05 110 46 00:   CONDUCTIVITY INDUCTION LOG DEEP
 GR  .GAPI   30 310 01 00:   GAMMA RAY
~PARAMETER INFORMATION
#MNEM.UNIT          VALUE    DESCRIPTION
#----------   ------------   ------------------------------
 PD  .                 GL:   PERMANENT DATUM
 EPD .F              5069:   ELEVATION PERMANENT DATUM
 LMF .                 KB:   LOG MEASURED FROM
 DAPD.F                 4:   FEET ABOVE PERMANENT DATUM
 DMF .                 KB:   DRILLING MEASURED FROM
 EKB .F              5073:   KELLING BUSHING
 EGL .F              5069:   GROUND LEVEL
 DATE.            2-12-61:   RUN DATE
 RUN .                  1:   RUN NUMBER
 DD  .F               820:   DEPTH DRILLER
 DL  .F               820:   DEPTH LOGGER
 BLI .F               819:   BOTTOM LOG INTERVAL
 TLI .F                90:   TOP LOG INTERVAL
 CBD .F                12:   CASING BOTTOM DRILLER
 BS  .IN            7.875:   BIT SIZE
 BSD .F               820:   BIT SIZE AT DEPTH
 DFT .   GEL OIL EMULSION:   DRILLING FLUID TYPE
 DFD .                9.5:   DRILLING FLUID DENSITY
 DFV .                 50:   DRILLING FLUID VISCOSITY
 DFPH.                  8:   DRILLING FLUID PH
 DFL .                  9:   DRILLING FLUID LOSS
 MSS .          FLOW LINE:   MUD SAMPLE SOURCE
 RMS .OHMM           1.04:   RESISTIVITY MUD SAMPLE
 MST .F                56:   MUD SAMPLE TEMPERATURE
 MFSS.                  C:   MUD FILTRATE SAMPLE SOURCE
 MCSS.                  C:   MUD CAKE SAMPLE SOURCE
 RMB .OHMM           2.78:   RESISTIVITY MUD AT BHT
 BHT .F                77:   BOTTOM HOLE TEMPERATURE
 TCS .HRS               1:   TIME CURCULATED STOPPED
 MRT .F                77:   MAXIMUM RECORDED TEMPERATURE
 LUN .               2523:   LOGGING UNIT NUMBER
 LUL .               CSPR:   LOGGING UNIT LOCATION
 ENGI.             KNOBEL:   RECORDING ENGINEER
 WITN.          JORGENSEN:   WITNESSED BY
 CLNT.            A2DTECH:   CLIENT CODE
 ORIG.       2", 5" PRINT:   ORIGIN OF DATA
 UWI .       490250654500:   UNIQUE WELL ID
 DICO. A2D Technologies, Inc.:   DIGITIZING COMPANY
~OTHER INFORMATION
~A   DEPT      SPR          ASN        ILD      CILD        GR   
   80.0000   -28.5573     2.8103     6.7031   143.4955  -999.2500
   80.5000   -28.5882     2.8103     6.7031   143.4955  -999.2500
   81.0000   -28.6524     3.0044     6.7031   142.4745  -999.2500
   81.5000   -28.7167     3.3764     6.8024   141.4691  -999.2500
   82.0000   -28.7608     3.7995     6.7663   140.7150  -999.2500
   82.5000   -28.7846     4.7543     6.7223   139.7095  -999.2500
   83.0000   -28.8102     5.6870     6.6778   140.6840  -999.2500
   83.5000   -28.8360     6.6186     6.6330   142.1084  -999.2500
   84.0000   -28.8617     7.5518     6.5883   143.5311  -999.2500
   84.5000   -28.8875     8.4849     6.5436   144.9572  -999.2500
   85.0000   -28.9129     8.6578     6.4990   146.3816  -999.2500
   85.5000   -28.9380     8.6644     6.4543   147.8060  -999.2500
   86.0000   -28.8932     8.5958     6.4096   149.2304  -999.2500
   86.5000   -28.7646     8.5275     6.3649   150.6548  -999.2500
   87.0000   -28.6365     8.4596     6.3201   152.0792  -999.2500
   87.5000   -28.5077     8.3917     6.2756   153.5036  -999.2500
   88.0000   -28.3789     8.3237     6.2311   154.9280  -999.2500
   88.5000   -28.2519     8.2559     6.2069   156.4052  -999.2500
   89.0000   -28.1830     8.1889     6.2070   156.4052  -999.2500
   89.5000   -28.2717     8.1541     6.2497   155.2433  -999.2500
   90.0000   -28.3555     8.2631     6.3391   152.8302  -999.2500
   90.5000   -28.4391     8.4838     6.4285   150.4171  -999.2500
   91.0000   -28.5229     8.7042     6.5185   148.0040  -999.2500
   91.5000   -28.6067     8.9257     6.6008   145.5909  -999.2500
   92.0000   -28.6905     9.0483     6.5608   144.4886  -999.2500
   92.5000   -28.7743     9.0375     6.5177   146.1466  -999.2500
   93.0000   -28.8581     8.9799     6.4752   147.7266  -999.2500
   93.5000   -28.9420     8.7729     6.4329   149.3066  -999.2500
   94.0000   -29.0253     8.5701     6.3905   150.8866  -999.2500
   94.5000   -29.1087     8.3690     6.3482   152.4667  -999.2500
   95.0000   -29.0862     8.1654     6.3059   154.0467  -999.2500
   95.5000   -28.9639     8.1318     6.2635   155.4121  -999.2500
   96.0000   -28.8416     8.2210     6.2196   155.4121  -999.2500
   96.5000   -28.7185     8.3267     6.2079   154.4837  -999.2500
   97.0000   -28.5955     8.4332     6.2036   153.0649  -999.2500
   97.5000   -28.4726     8.5399     6.3085   151.6460  -999.2500
   98.0000   -28.3497     8.6444     6.4113   150.2272  -999.2500
   98.5000   -28.2268     8.7018     6.4047   148.8083  -999.2500
   99.0000   -28.1037     8.5443     6.4048   147.3895  -999.2500
   99.5000   -27.9804     8.3865     6.4028   145.9706  -999.2500
  100.0000   -27.8588     8.3797     6.4914   144.5517  -999.2500
  100.5000   -27.7854     8.5014     6.6066   143.0443  -999.2500
  101.0000   -27.8808     8.6479     6.7227   141.2787  -999.2500
  101.5000   -27.9717     8.7952     6.8387   139.5131  -999.2500
  102.0000   -28.0623     8.9415     6.9546   137.7475  -999.2500
  102.5000   -28.1531     9.0597     7.0705   135.9819  -999.2500
  103.0000   -28.2438     9.0981     7.1864   134.2164  -999.2500
  103.5000   -28.3345     9.1353     7.3023   132.4508  -999.2500
  104.0000   -28.4253     9.2429     7.4180   130.6852  -999.2500
  104.5000   -28.5162     9.3622     7.5095   128.9196  -999.2500
  105.0000   -28.6068     9.4829     7.5454   127.9171  -999.2500
  105.5000   -28.6968     9.6042     7.5818   127.0833  -999.2500
  106.0000   -28.7300     9.6026     7.6182   126.2490  -999.2500
  106.5000   -28.6557     9.5790     7.6549   125.4152  -999.2500
  107.0000   -28.5832     9.5547     7.6911   124.5821  -999.2500
  107.5000   -28.5107     9.5308     7.6304   123.7483  -999.2500
  108.0000   -28.4380     9.5065     7.5535   123.6346  -999.2500
  108.5000   -28.3654     9.4426     7.4763   124.1969  -999.2500
  109.0000   -28.2929     9.3725     7.3992   125.6949  -999.2500
  109.5000   -28.2202     9.2910     7.3226   127.3915  -999.2500
  110.0000   -28.1476     9.2079     7.2466   129.3934  -999.2500
  110.5000   -28.0753     9.1249     7.2072   131.3949  -999.2500
  111.0000   -28.0031     9.0419     7.2254   133.3962  -999.2500
  111.5000   -27.9806     8.9589     7.2432   135.3972  -999.2500
  112.0000   -28.0137     8.8759     7.2615   137.3982  -999.2500
  112.5000   -28.0467     8.7929     7.2797   139.3992  -999.2500
  113.0000   -28.0800     8.7099     7.2979   141.4002  -999.2500
  113.5000   -28.1133     8.6269     7.3161   143.4012  -999.2500
  114.0000   -28.1466     8.5439     7.3344   145.4022  -999.2500
  114.5000   -28.1798     8.4608     7.3527   147.4677  -999.2500
  115.0000   -28.2131     8.3779     7.3704   146.9396  -999.2500
  115.5000   -28.2464     8.2954     7.3881   146.3939  -999.2500
  116.0000   -28.2796     8.2431     7.3143   145.8481  -999.2500
  116.5000   -28.3129     8.2582     7.1430   145.3024  -999.2500
  117.0000   -28.3462     8.3094     6.9720   144.7567  -999.2500
  117.5000   -28.3794     8.3612     6.8003   145.4816  -999.2500
  118.0000   -28.4127     8.4115     6.6287   150.7249  -999.2500
  118.5000   -28.4460     8.4056     6.4572   155.9040  -999.2500
  119.0000   -28.4792     8.2145     6.2857   161.0818  -999.2500
  119.5000   -28.5126     8.0200     6.1142   166.2621  -999.2500
  120.0000   -28.5471     7.8267     5.9427   171.4421  -999.2500
  120.5000   -28.5477     7.6337     5.7718   176.6228  -999.2500
  121.0000   -28.4872     7.4406     5.6072   181.7992  -999.2500
  121.5000   -28.4263     7.2474     5.4456   186.9782  -999.2500
  122.0000   -28.3655     7.0545     5.2893   189.1758  -999.2500
  122.5000   -28.3047     6.8614     5.1340   189.4675  -999.2500
  123.0000   -28.2439     6.7845     4.9773   189.9677  -999.2500
  123.5000   -28.1832     6.9356     4.9329   189.1158  -999.2500
  124.0000   -28.1224     7.1839     4.9592   187.3549  -999.2500
  124.5000   -28.0617     7.3280     4.9863   185.5940  -999.2500
  125.0000   -28.0009     7.3351     5.0137   183.8332  -999.2500
  125.5000   -27.9402     7.2989     5.0410   182.0723  -999.2500
  126.0000   -27.8794     7.2618     5.0683   180.3114  -999.2500
  126.5000   -27.8187     7.2247     5.0956   178.5506  -999.2500
  127.0000   -27.7579     7.1874     5.1229   176.7897  -999.2500
  127.5000   -27.6972     7.1510     5.1502   175.0288  -999.2500
  128.0000   -27.6364     7.1321     5.1775   173.2679  -999.2500
  128.5000   -27.5757     7.2135     5.2061   171.5070  -999.2500
  129.0000   -27.5149     7.2940     5.1962   169.7462  -999.2500
  129.5000   -27.4542     7.3762     5.1716   168.9099  -999.2500
  130.0000   -27.3934     7.3739     5.1465   171.9884  -999.2500
  130.5000   -27.3325     7.2452     5.1215   175.0668  -999.2500
  131.0000   -27.2719     7.1166     5.0964   178.1453  -999.2500
  131.5000   -27.2118     6.9881     5.0714   181.2237  -999.2500
  132.0000   -27.2126     6.8605     5.0464   184.3022  -999.2500
  132.5000   -27.3175     6.7602     5.0214   187.4015  -999.2500
  133.0000   -27.4208     6.7984     4.9964   188.5774  -999.2500
  133.5000   -27.5243     6.9622     4.9714   189.0756  -999.2500
  134.0000   -27.6279     7.1210     4.9463   187.6815  -999.2500
  134.5000   -27.7314     7.2329     4.9208   185.6653  -999.2500
  135.0000   -27.8349     7.1888     4.9159   183.6644  -999.2500
  135.5000   -27.9384     7.1486     4.9260   181.6634  -999.2500
  136.0000   -28.0419     7.1086     4.9686   180.5525  -999.2500
  136.5000   -28.1454     7.0685     5.0100   181.6440  -999.2500
  137.0000   -28.2489     7.0289     5.0514   182.7354  -999.2500
  137.5000   -28.3528     7.0071     5.0928   183.8268  -999.2500
  138.0000   -28.4578     7.0325     5.1342   184.9183  -999.2500
  138.5000   -28.5502     7.0551     5.1756   186.0098  -999.2500
  139.0000   -28.3879     7.1027     5.2170   185.2036  -999.2500
  139.5000   -28.2181     7.1531     5.2584   184.3669  -999.2500
  140.0000   -28.0497     7.2039     5.2998   182.6068  -999.2500
  140.5000   -27.8816     7.2547     5.3412   180.7058  -999.2500
