~VERSION INFORMATION
 VERS.                2.0:   CWLS LOG ASCII STANDARD - VERSION 2.0
 WRAP.                 NO:   ONE LINE PER DEPTH STEP
~WELL INFORMATION
#MNEM.UNIT      DATA TYPE    INFORMATION
#----------   ------------   ------------------------------
 STRT.F           32.0000:   START DEPTH
 STOP.F          501.0000:   STOP DEPTH
 STEP.F            0.5000:   STEP LENGTH
 NULL.          -999.2500:   NO VALUE
 COMP.    FENIX & SCISSON:   COMPANY
 WELL.    NPR "SX" #75-10:   WELL
 FLD .             TEAPOT:   FIELD
 LOC .      S10 T38N R78W:   LOCATION
 CNTY.            NATRONA:   COUNTY
 STAT.            WYOMING:   STATE
 CTRY. UNITED STATES OF AMERICA:   COUNTRY
 SRVC.              Welex:   SERVICE COMPANY
 DATE.        08-MAR-1977:   LOGDATE
 API .       490251029200:   API NUMBER
~CURVE INFORMATION
#MNEM.UNIT       API CODE    CURVE DESCRIPTION
#----------   ------------   ------------------------------
 DEPT.F                  :   
 SPR .MV     07 010 01 00:   SPONTANEOUS POTENTIAL
 ILD .OHMM   07 120 46 00:   INDUCTION LOG DEEP
 ILM .OHMM   07 120 44 00:   INDUCTION LOG MEDIUM
 SGRD.OHMM   07 221 05 00:   SHALLOW SHORT GUARD RESISTIVITY
 GRD .GAPI   45 310 01 00:   GAMMA RAY FROM DENSITY LOG
 CALD.IN     45 280 60 00:   CALIPER FROM DENSITY LOG
 CORR.G/C3   45 356 01 00:   DENSITY CORRECTION
 RHOB.G/C3   45 350 01 00:   BULK DENSITY
 DPHI.DEC    45 890 12 00:   DENSITY POROSITY SANDSTONE
~PARAMETER INFORMATION
#MNEM.UNIT          VALUE    DESCRIPTION
#----------   ------------   ------------------------------
 PD  .                 GL:   PERMANENT DATUM
 EPD .F              5184:   ELEVATION PERMANENT DATUM
 LMF .                 GL:   LOG MEASURED FROM
 DAPD.F                GL:   FEET ABOVE PERMANENT DATUM
 EGL .F              5184:   GROUND LEVEL
 DATE.          03-8-1977:   RUN DATE
 RUN .                  1:   RUN NUMBER
 DD  .F               510:   DEPTH DRILLER
 DL  .F               505:   DEPTH LOGGER
 BLI .F               503:   BOTTOM LOG INTERVAL
 TLI .F                35:   TOP LOG INTERVAL
 CS  .IN            8.625:   CASING SIZE
 CBD .F                42:   CASING BOTTOM DRILLER
 CBL .F                43:   CASING BOTTOM LOGGER
 BS  .IN            7.875:   BIT SIZE
 BSD .F               510:   BIT SIZE AT DEPTH
 DFT .            KCL MUD:   DRILLING FLUID TYPE
 DFD .                8.6:   DRILLING FLUID DENSITY
 DFV .                 36:   DRILLING FLUID VISCOSITY
 DFPH.                9.5:   DRILLING FLUID PH
 DFL .                  2:   DRILLING FLUID LOSS
 MSS .           FLOWLINE:   MUD SAMPLE SOURCE
 RMS .OHMM            .49:   RESISTIVITY MUD SAMPLE
 MST .F                56:   MUD SAMPLE TEMPERATURE
 RMF .OHMM            .42:   RESISTIVITY MUD FILTRATE SAMPLE
 MFST.F                56:   MUD FILTRATE SAMPLE TEMPERATURE
 RMC .OHMM            .62:   RESISTIVITY MUD CAKE
 MCST.F                56:   MUD CAKE SAMPLE TEMPERATURE
 MFSS.               MEAS:   MUD FILTRATE SAMPLE SOURCE
 MCSS.               MEAS:   MUD CAKE SAMPLE SOURCE
 RMB .OHMM            .44:   RESISTIVITY MUD AT BHT
 BHT .F                62:   BOTTOM HOLE TEMPERATURE
 TCS .HRS               2:   TIME CURCULATED STOPPED
 MRT .F                62:   MAXIMUM RECORDED TEMPERATURE
 LUN .               8611:   LOGGING UNIT NUMBER
 LUL .           GILLETTE:   LOGGING UNIT LOCATION
 ENGI.            C. DOAK:   RECORDING ENGINEER
 WITN.           S. BURNE:   WITNESSED BY
 CLNT.            A2DTECH:   CLIENT CODE
 ORIG.        2" 5" PRINT:   ORIGIN OF DATA
 UWI .       490251029200:   UNIQUE WELL ID
 DICO. A2D Technologies, Inc.:   DIGITIZING COMPANY
~OTHER INFORMATION
~A   DEPT      SPR        ILD        ILM       SGRD         GRD        CALD      CORR        RHOB     DPHI   
# ...
   68.5000   -34.6269     5.9438     7.2921     9.0107   127.3413     8.1331     0.0470     2.4555     0.1140
   69.0000   -34.6269     5.9843     7.7048     8.7629   127.3529     8.1493     0.0471     2.4563     0.1117
   69.5000   -34.6269     6.0667     7.9745     8.6404   126.1222     8.1507     0.0490     2.4631     0.1084
   70.0000   -34.3284     6.1501     7.9183     8.7582   124.5256     8.1669     0.0533     2.4684     0.1057
   70.5000   -34.0299     6.3652     7.7550     9.0004   124.4079     8.1682     0.0579     2.4722     0.1038
   71.0000   -33.8806     6.5426     7.7538     9.2499   125.6384     8.1696     0.0595     2.4745     0.1032
   71.5000   -33.7124     6.6786     7.8067     9.7054   125.9225     8.1560     0.0596     2.4731     0.1035
   72.0000   -34.0299     6.8175     7.8597     9.9745   125.7848     8.1272     0.0582     2.4708     0.1056
   72.5000   -34.6269     6.9592     7.8583     9.3710   125.5015     8.0694     0.0568     2.4679     0.1076
   73.0000   -35.2239     7.0065     7.9667     9.0416   124.3211     8.0261     0.0524     2.4642     0.1097
   73.5000   -35.5224     6.9571     8.0761     9.6950   123.2898     8.0122     0.0509     2.4582     0.1109
   74.0000   -35.8209     6.9083     8.1872     9.7595   123.1497     8.0139     0.0480     2.4545     0.1133
   74.5000   -36.1194     6.7658     8.1861     9.1685   124.3567     8.0152     0.0481     2.4531     0.1150
   75.0000   -36.4179     6.6262     8.1849     8.9787   126.0079     8.0463     0.0482     2.4546     0.1141
   75.5000   -36.4179     6.4895     8.1273     9.3553   126.1659     8.0625     0.0498     2.4569     0.1123
   76.0000   -36.7164     6.3556     7.9598     9.4183   125.2835     8.0936     0.0499     2.4577     0.1122
   76.5000   -36.8657     6.2676     8.0141     9.0956   126.6396     8.1247     0.0500     2.4578     0.1128
   77.0000   -36.8657     6.2185     8.1244     8.7242   125.6083     8.1707     0.0501     2.4563     0.1140
   77.5000   -37.0149     6.1373     8.1795     9.1537   122.6395     8.1869     0.0502     2.4533     0.1173
   78.0000   -37.0149     6.1364     8.0661     9.4110   124.7378     8.2031     0.0518     2.4474     0.1196
   78.5000   -36.8657     6.1356     7.7899     9.1162   126.8361     8.1892     0.0519     2.4407     0.1220
   79.0000   -36.7164     6.1348     7.5183     8.7148   128.1893     8.1608     0.0550     2.4452     0.1226
   79.5000   -36.8657     6.0499     7.3202     9.0179   130.4366     8.1324     0.0596     2.4520     0.1182
   80.0000   -36.8657     6.0074     7.1200     9.0786   127.1668     8.1340     0.0612     2.4596     0.1119
   80.5000   -37.0149     5.9242     7.0215     8.6473   129.1190     8.1503     0.0612     2.4656     0.1086
   81.0000   -37.0149     5.8827     6.9244     8.1805   130.3232     8.1516     0.0598     2.4686     0.1069
   81.5000   -37.0149     5.8414     6.8286     8.1664   128.0996     8.1678     0.0569     2.4635     0.1082
   82.0000   -37.3134     5.8003     6.8277     8.4058   126.1740     8.1691     0.0540     2.4545     0.1118
   82.5000   -37.4627     5.8399     6.9224     8.3950   125.5868     8.1705     0.0510     2.4530     0.1137
   83.0000   -37.6119     5.8389     7.1281     8.0591   125.7507     8.1566     0.0496     2.4621     0.1098
   83.5000   -37.7612     5.8785     7.4138     8.1127   124.5703     8.1430     0.0512     2.4659     0.1064
   84.0000   -38.2090     5.9187     7.5160     8.5712   125.7744     8.1295     0.0543     2.4764     0.1016
   84.5000   -38.2090     5.9587     7.7250     8.8704   124.7401     8.1286     0.0605     2.4885     0.0935
   85.0000   -38.5075     6.0407     7.7775     8.8675   126.6923     8.1263     0.0651     2.4968     0.0866
   85.5000   -38.8060     6.1259     7.8845     8.6236   128.0454     8.1241     0.0682     2.5096     0.0802
   86.0000   -38.8060     6.2512     7.9380     9.0482   129.9947     8.1218     0.0698     2.5171     0.0766
   86.5000   -38.9552     6.4252     7.9369     9.4344   131.4969     8.1066     0.0699     2.5127     0.0808
   87.0000   -39.1045     6.6042     7.9358     9.6898   129.7204     8.1083     0.0654     2.4962     0.0891
   87.5000   -39.4030     6.7415     7.8800     9.2935   126.4536     8.2287     0.0580     2.4827     0.1002
   88.0000   -39.4030     6.8817     7.9884     9.4201   124.6766     8.1407     0.0550     2.4700     0.1062
   88.5000   -39.5522     6.9767     8.2108     9.8840   126.0302     8.1120     0.0536     2.4626     0.1089
   89.0000   -39.5522     7.1215     8.5567     9.9504   126.9362     8.1136     0.0552     2.4649     0.1085
   89.5000   -39.7015     7.1699     8.7345     9.8107   129.1836     8.1298     0.0599     2.4784     0.1013
   90.0000   -39.7015     7.2719     8.7414     9.6692   128.5993     8.1461     0.0630     2.4785     0.0992
   90.5000   -39.8507     7.3684     8.5532     9.8770   126.8228     8.1623     0.0646     2.4718     0.1037
   91.0000   -39.8507     7.3167     8.3128     9.9391   124.7621     8.1487     0.0631     2.4696     0.1063
   91.5000   -40.0000     7.3158     8.0915     9.7321   122.6736     8.1352     0.0617     2.4681     0.1072
   92.0000   -40.0000     7.2145     8.1464     9.0804   123.5879     8.1064     0.0573     2.4650     0.1120
   92.5000   -40.0000     7.1639     8.5484     8.6496   125.8517     8.0783     0.0510     2.4567     0.1147
   93.0000   -40.0000     7.1136     8.8475     9.2017   127.9334     8.0797     0.0435     2.4532     0.1161
   93.5000   -40.0000     7.0151     8.8460     9.9251   128.6098     8.0659     0.0408     2.4533     0.1152
   94.0000   -40.1493     6.9659     8.7840     9.9372   129.7374     8.0674     0.0409     2.4557     0.1125
   94.5000   -40.1493     6.9650     8.7225     9.1943   128.2590     8.0688     0.0410     2.4611     0.1100
   95.0000   -40.1493     6.9638     8.7213    10.0043   128.2712     8.0701     0.0411     2.4640     0.1094
   95.5000   -40.1493     6.9629     8.7199    10.1921   127.3432     8.0468     0.0412     2.4612     0.1112
   96.0000   -40.2985     6.9619     8.7793     9.8430   125.8330     8.0656     0.0398     2.4528     0.1145
   96.5000   -40.2985     7.0578     8.9614     9.1206   124.8787     8.0870     0.0399     2.4588     0.1135
   97.0000   -40.4478     7.1552     9.2110     9.3735   124.4464     8.1040     0.0431     2.4634     0.1099
   97.5000   -40.2985     7.3543     9.5330    10.5381   123.7132     8.1061     0.0462     2.4724     0.1051
   98.0000   -40.2985     7.5593     9.7984    10.7558   121.6386     8.1082     0.0493     2.4739     0.1027
   98.5000   -40.4478     7.7699     9.8649    10.7529   119.8621     8.1103     0.0494     2.4770     0.1008
   99.0000   -40.4478     7.9373     9.8636    10.8245   118.9768     8.1273     0.0495     2.4808     0.0996
   99.5000   -40.4478     8.0964     9.8619    11.2009   119.1406     8.1443     0.0466     2.4726     0.0990
  100.0000   -40.5970     8.2078     9.7929    11.6910   119.2986     8.1464     0.0437     2.4681     0.1057
  100.5000   -40.4355     8.2054     9.7903    11.9124   118.4165     8.1485     0.0423     2.4659     0.1049
  101.0000   -40.1617     8.2600     9.9919    11.6634   118.8804     8.1352     0.0454     2.4690     0.1052
  101.5000   -40.0182     8.4301    10.3398    11.6595   120.8278     8.1075     0.0470     2.4713     0.1037
  102.0000   -40.0239     8.6639    11.0754    11.8177   116.8207     8.0946     0.0471     2.4788     0.1004
  102.5000   -39.8804     8.9041    12.1953    11.9782   114.4496     8.0818     0.0457     2.4826     0.0980
  103.0000   -39.7369     9.1510    12.8839    12.6593   111.7805     8.0845     0.0458     2.4857     0.0970
  103.5000   -39.5934     9.4049    13.1607    13.3683   111.1978     8.0866     0.0444     2.4880     0.0961
  104.0000   -39.6006     9.6692    14.1819    13.4565   109.4228     8.0732     0.0460     2.4873     0.0958
  104.5000   -39.4556    10.0711    15.5086    13.3584   109.8833     8.0604     0.0476     2.4843     0.0967
