~VERSION INFORMATION
 VERS.                2.0:   CWLS LOG ASCII STANDARD - VERSION 2.0
 WRAP.                 NO:   ONE LINE PER DEPTH STEP
~WELL INFORMATION
#MNEM.UNIT      DATA TYPE    INFORMATION
#----------   ------------   ------------------------------
 STRT.F           20.0000:   START DEPTH
 STOP.F          678.0000:   STOP DEPTH
 STEP.F            0.5000:   STEP LENGTH
 NULL.          -999.2500:   NO VALUE
 COMP. FENIX & SCISSON INC:   COMPANY
 WELL. 27-42 SX 11 WO #27-11:   WELL
 FLD .        TEAPOT DOME:   FIELD
 LOC .      S11 T38N R78W:   LOCATION
 CNTY.            NATRONA:   COUNTY
 STAT.            WYOMING:   STATE
 CTRY. UNITED STATES OF AMERICA:   COUNTRY
 SRVC.      Dresser Atlas:   SERVICE COMPANY
 DATE.        13-AUG-1985:   LOGDATE
 API .       490251083800:   API NUMBER
~CURVE INFORMATION
#MNEM.UNIT       API CODE    CURVE DESCRIPTION
#----------   ------------   ------------------------------
 DEPT.F                  :   
 RHOB.G/C3   45 350 01 00:   BULK DENSITY
 CORR.G/C3   45 356 01 00:   DENSITY CORRECTION
 CALD.IN     45 280 60 00:   CALIPER
 GRD .GAPI   45 310 01 00:   GAMMA RAY FROM DENSITY LOG
 DPOR.DEC    45 890 12 00:   DENSITY POROSITY SANDSTONE
 NPOR.DEC    42 890 03 00:   NEUTRON POROSITY SANDSTONE
 SPR .MV     07 010 01 00:   SPONTANEOUS POTENTIAL
 SFL .OHMM   07 220 01 00:   SHALLOW FOCUSED LOG RESISTIVITY
 ILD .OHMM   07 120 46 00:   INDUCTION LOG DEEP
 ILM .OHMM   07 120 44 00:   INDUCTION LOG MEDIUM
~PARAMETER INFORMATION
#MNEM.UNIT          VALUE    DESCRIPTION
#----------   ------------   ------------------------------
 PD  .                 GL:   PERMANENT DATUM
 EPD .F              5188:   ELEVATION PERMANENT DATUM
 LMF .                 KB:   LOG MEASURED FROM
 DAPD.F                 5:   FEET ABOVE PERMANENT DATUM
 DMF .                 KB:   DRILLING MEASURED FROM
 EKB .F              5193:   KELLING BUSHING
 EGL .F              5188:   GROUND LEVEL
 DATE.          8-13-1985:   RUN DATE
 RUN .                  8:   RUN NUMBER
 DD  .F               632:   DEPTH DRILLER
 BLI .F               598:   BOTTOM LOG INTERVAL
 TLI .F               303:   TOP LOG INTERVAL
 CBL .F               303:   CASING BOTTOM LOGGER
 BS  .IN              .75:   BIT SIZE
 BSD .F               632:   BIT SIZE AT DEPTH
 DFT .          KCL WATER:   DRILLING FLUID TYPE
 LUN .            HL-6274:   LOGGING UNIT NUMBER
 LUL .           GILLETTE:   LOGGING UNIT LOCATION
 ENGI.             RAUTIO:   RECORDING ENGINEER
 WITN.            SCHULTE:   WITNESSED BY
 CLNT.            A2DTECH:   CLIENT CODE
 ORIG.           2" PRINT:   ORIGIN OF DATA
 UWI .       490251083800:   UNIQUE WELL ID
 DICO. A2D Technologies, Inc.:   DIGITIZING COMPANY
~OTHER INFORMATION
~A   DEPT     RHOB       CORR       CALD        GRD       DPOR       NPOR        SPR        SFL        ILD          ILM 
# ...
  221.0000     2.5197     0.0445     9.0362   123.9855     0.0951     0.3150    -9.6663     8.4449     7.2243     6.9504
  221.5000     2.5230     0.0378     9.0454   125.2977     0.0970     0.3137    -9.5805     8.5241     7.2247     6.9230
  222.0000     2.5140     0.0320     9.0466   123.9042     0.0991     0.3202    -9.4946     8.4753     7.2243     6.8956
  222.5000     2.5195     0.0386     9.0446   121.7846     0.0890     0.3326    -9.4086     8.4247     7.2242     6.8684
  223.0000     2.5406     0.0482     9.0426   122.7006     0.0824     0.3394    -9.3231     8.3676     7.2244     6.8387
  223.5000     2.5349     0.0459     9.0407   121.7455     0.0881     0.3429    -9.2373     8.3673     7.2244     6.8384
  224.0000     2.5264     0.0300     9.0388   122.1742     0.0946     0.3467    -9.1499     8.3669     7.2239     6.8376
  224.5000     2.5167     0.0236     9.0368   123.7690     0.0968     0.3467    -9.0676     8.3665     7.2234     6.8371
  225.0000     2.5179     0.0316     9.0349   125.3124     0.0911     0.3419    -8.9706     8.3665     7.2079     6.8373
  225.5000     2.5255     0.0429     9.0330   126.8848     0.0872     0.3387    -8.9650     8.3665     7.1948     6.8380
  226.0000     2.5322     0.0394     9.0311   127.5090     0.0917     0.3425    -8.9558     8.3665     7.1812     6.8387
  226.5000     2.5222     0.0345     9.0291   127.7220     0.0970     0.3508    -9.0286     8.3665     7.1674     6.8202
  227.0000     2.5129     0.0285     9.0272   127.5074     0.1016     0.3532    -9.1817     8.3110     7.1538     6.7937
  227.5000     2.5068     0.0229     9.0253   126.5974     0.1017     0.3503    -9.3280     8.2504     7.1403     6.7673
  228.0000     2.5162     0.0282     9.0234   125.7031     0.0921     0.3475    -9.4741     8.1903     7.1267     6.7411
  228.5000     2.5276     0.0364     9.0215   124.5927     0.0913     0.3459    -9.6234     8.1307     7.1132     6.7151
  229.0000     2.5206     0.0382     9.0196   123.3292     0.0995     0.3513    -9.7680     8.0630     7.0997     6.6893
  229.5000     2.5047     0.0303     9.0176   122.0523     0.1051     0.3565    -9.9157     8.0659     7.0862     6.6636
  230.0000     2.5035     0.0229     9.0157   124.0164     0.1023     0.3447   -10.0737     8.0749     7.0727     6.6380
  230.5000     2.5109     0.0200     9.0138   123.2111     0.1000     0.3377   -10.1689     8.1040     7.0593     6.6124
  231.0000     2.5080     0.0237     9.0118   123.8888     0.1023     0.3385   -10.1586     8.1343     7.0459     6.5870
  231.5000     2.5043     0.0267     9.0100   125.4363     0.1056     0.3404   -10.1608     8.1650     7.0324     6.5617
  232.0000     2.5007     0.0300     9.0081   127.1450     0.1064     0.3441   -10.1610     8.1955     7.0191     6.5364
  232.5000     2.5010     0.0324     9.0080   128.6413     0.1000     0.3478   -10.1591     8.2156     7.0058     6.5106
  233.0000     2.5089     0.0279     9.0079   127.3540     0.0992     0.3515   -10.1669     8.2150     6.9926     6.4849
  233.5000     2.5145     0.0199     9.0080   123.3624     0.1036     0.3523   -10.0897     8.2146     6.9801     6.4702
  234.0000     2.5008     0.0117     9.0080   124.3849     0.1146     0.3476    -9.9347     8.2144     6.9654     6.4717
  234.5000     2.4774     0.0074     9.0080   126.2296     0.1248     0.3415    -9.7879     8.2143     6.9813     6.4713
  235.0000     2.4718     0.0113     9.0080   127.7229     0.1239     0.3336    -9.6425     8.2337     7.0002     6.5207
  235.5000     2.4767     0.0204     9.0071   126.1705     0.1202     0.3258    -9.4927     8.2617     7.0199     6.5668
  236.0000     2.4791     0.0237     9.0047   126.5269     0.1221     0.3180    -9.3483     8.2899     7.0397     6.6132
  236.5000     2.4729     0.0129     9.0024   124.9987     0.1259     0.3154    -9.2008     8.3181     7.0593     6.6599
  237.0000     2.4669     0.0075     9.0001   124.3036     0.1295     0.3140    -9.0418     8.3464     7.0790     6.7070
  237.5000     2.4680     0.0095     8.9978   122.7408     0.1201     0.3175    -8.9835     8.3746     7.0988     6.7543
  238.0000     2.4841     0.0147     8.9955   119.5741     0.1080     0.3268    -9.0720     8.4029     7.1186     6.8021
  238.5000     2.4997     0.0197     8.9932   118.8089     0.1103     0.3363    -9.1477     8.4318     7.1385     6.8501
  239.0000     2.4954     0.0246     8.9909   120.0260     0.1128     0.3357    -9.2233     8.4604     7.1585     6.8985
  239.5000     2.4936     0.0280     8.9886   120.9952     0.1094     0.3347    -9.3022     8.4876     7.1785     6.9472
  240.0000     2.5013     0.0314     8.9863   123.2436     0.1060     0.3350    -9.3789     8.5188     7.1984     6.9641
  240.5000     2.5065     0.0348     8.9840   123.0418     0.1048     0.3392    -9.4562     8.4952     7.2186     6.9641
  241.0000     2.5101     0.0370     8.9817   122.3362     0.0983     0.3433    -9.5337     8.4673     7.2242     6.9641
  241.5000     2.5192     0.0405     8.9793   125.5824     0.0924     0.3475    -9.6108     8.4389     7.2239     6.9131
  242.0000     2.5224     0.0439     8.9770   126.5941     0.0849     0.3523    -9.6879     8.4101     7.2242     6.8599
  242.5000     2.5392     0.0474     8.9748   125.0447     0.0792     0.3485    -9.7653     8.3814     7.2242     6.8073
  243.0000     2.5475     0.0508     8.9724   124.1309     0.0828     0.3426    -9.8421     8.3530     7.2259     6.7551
  243.5000     2.5400     0.0523     8.9702   123.8005     0.0828     0.3366    -9.9192     8.3248     7.2214     6.7032
  244.0000     2.5438     0.0531     8.9685   123.3867     0.0791     0.3347    -9.9978     8.2966     7.1463     6.6518
  244.5000     2.5507     0.0542     8.9733   122.9576     0.0768     0.3371   -10.0718     8.2679     7.0667     6.6007
  245.0000     2.5510     0.0557     8.9775   122.6401     0.0815     0.3371   -10.1545     8.2396     6.9866     6.5500
  245.5000     2.5355     0.0514     8.9822   123.0415     0.0910     0.3339   -10.1588     8.2136     6.9074     6.4997
  246.0000     2.5205     0.0406     8.9867   123.5637     0.1006     0.3339   -10.1615     8.1647     6.8290     6.4499
  246.5000     2.5047     0.0319     8.9912   124.0755     0.1089     0.3289   -10.1596     8.1196     6.7516     6.4004
  247.0000     2.5040     0.0337     8.9957   124.5608     0.1041     0.3194   -10.1599     8.0746     6.6750     6.3512
  247.5000     2.5162     0.0372     9.0002   123.4208     0.0998     0.3164   -10.1617     8.0296     6.5993     6.3025
  248.0000     2.5148     0.0428     9.0048   122.7586     0.1032     0.3203   -10.1583     7.9847     6.5245     6.2541
  248.5000     2.5096     0.0348     9.0080   126.5729     0.1069     0.3242   -10.1552     7.9402     6.4713     6.2381
  249.0000     2.5042     0.0284     9.0079   128.2490     0.1076     0.3291   -10.0263     7.9184     6.4713     6.2381
  249.5000     2.5103     0.0281     9.0080   124.7951     0.0923     0.3270    -9.8798     7.9705     6.4953     6.2381
  250.0000     2.5316     0.0337     9.0080   126.2643     0.0787     0.3207    -9.7325     8.0416     6.5640     6.2381
  250.5000     2.5538     0.0397     9.0080   124.9248     0.0708     0.3148    -9.5856     8.1134     6.6334     6.3046
  251.0000     2.5615     0.0388     9.0080   123.5516     0.0781     0.3170    -9.4320     8.1858     6.7036     6.3881
  251.5000     2.5343     0.0194     9.0080   125.2465     0.1039     0.3220    -9.3560     8.2589     6.7745     6.4726
  252.0000     2.4917    -0.0011     9.0080   125.8134     0.1369     0.2812    -9.3591     8.3326     6.8462     6.5583
  252.5000     2.4394     0.0001     9.0080   125.8139     0.1249     0.2863    -9.4011     8.3662     6.9184     6.6451
  253.0000     2.4930     0.0174     9.0080   124.9490     0.1031     0.2956    -9.4839     8.3010     6.9915     6.7330
  253.5000     2.5096     0.0356     9.0080   123.8609     0.0968     0.3095    -9.5635     8.2451     7.0653     6.8375
  254.0000     2.5205     0.0398     9.0080   124.1104     0.0984     0.3206    -9.6415     8.2141     7.1399     6.8375
