~VERSION INFORMATION
 VERS.                2.0:   CWLS LOG ASCII STANDARD - VERSION 2.0
 WRAP.                 NO:   ONE LINE PER DEPTH STEP
~WELL INFORMATION
#MNEM.UNIT      DATA TYPE    INFORMATION
#----------   ------------   ------------------------------
 STRT.F           98.5000:   START DEPTH
 STOP.F          716.5000:   STOP DEPTH
 STEP.F            0.5000:   STEP LENGTH
 NULL.          -999.2500:   NO VALUE
 COMP. U S NAVY-INTEX OIL:   COMPANY
 WELL. RES 3 TEAPOT DOM #32S-11:   WELL
 FLD .             TEAPOT:   FIELD
 LOC .      S11 T38N R78W:   LOCATION
 CNTY.            NATRONA:   COUNTY
 STAT.            WYOMING:   STATE
 CTRY. UNITED STATES OF AMERICA:   COUNTRY
 SRVC.       Schlumberger:   SERVICE COMPANY
 DATE.        13-JUL-1962:   LOGDATE
 API .       490250636500:   API NUMBER
~CURVE INFORMATION
#MNEM.UNIT       API CODE    CURVE DESCRIPTION
#----------   ------------   ------------------------------
 DEPT.F                  :   
 SPR .MV     05 010 01 00:   SPONTANEOUS POTENTIAL FROM RES.
 CILD.MMHO   05 110 46 00:   CONDUCTIVITY INDUCTION LOG DEEP
 ASN .OHMM   05 040 16 00:   AMPLIFIED SHORT NORMAL 16"
 ILD .OHMM   05 120 46 00:   INDUCTION LOG DEEP
 GR  .GAPI   30 310 01 00:   GAMMA RAY
~PARAMETER INFORMATION
#MNEM.UNIT          VALUE    DESCRIPTION
#----------   ------------   ------------------------------
 PD  .                 GL:   PERMANENT DATUM
 EPD .F              5161:   ELEVATION PERMANENT DATUM
 LMF .                 KB:   LOG MEASURED FROM
 DAPD.F                 5:   FEET ABOVE PERMANENT DATUM
 DMF .                 KB:   DRILLING MEASURED FROM
 EKB .F              5166:   KELLING BUSHING
 EGL .F              5161:   GROUND LEVEL
 DATE.            7-13-62:   RUN DATE
 RUN .                  1:   RUN NUMBER
 DD  .F               716:   DEPTH DRILLER
 DL  .F               717:   DEPTH LOGGER
 BLI .F               716:   BOTTOM LOG INTERVAL
 TLI .F               100:   TOP LOG INTERVAL
 CBD .F                10:   CASING BOTTOM DRILLER
 BS  .IN             6.75:   BIT SIZE
 BSD .F               716:   BIT SIZE AT DEPTH
 DFT .           OIL EMUL:   DRILLING FLUID TYPE
 DFD .               10.2:   DRILLING FLUID DENSITY
 DFV .                 43:   DRILLING FLUID VISCOSITY
 RMS .OHMM              5:   RESISTIVITY MUD SAMPLE
 MST .F                70:   MUD SAMPLE TEMPERATURE
 RMF .OHMM            5.5:   RESISTIVITY MUD FILTRATE SAMPLE
 MFST.F                70:   MUD FILTRATE SAMPLE TEMPERATURE
 RMC .OHMM              6:   RESISTIVITY MUD CAKE
 MCST.F                70:   MUD CAKE SAMPLE TEMPERATURE
 TCS .HRS              .5:   TIME CURCULATED STOPPED
 LUN .               2503:   LOGGING UNIT NUMBER
 LUL .               CSPR:   LOGGING UNIT LOCATION
 ENGI.           ELLERMAN:   RECORDING ENGINEER
 WITN.          JORGENSON:   WITNESSED BY
 CLNT.            A2DTECH:   CLIENT CODE
 ORIG.       2", 5" PRINT:   ORIGIN OF DATA
 UWI .       490250636500:   UNIQUE WELL ID
 DICO. A2D Technologies, Inc.:   DIGITIZING COMPANY
~OTHER INFORMATION
~A   DEPT      SPR       CILD        ASN        ILD         GR   
# ...
  220.5000   -50.9320   161.2996     6.6796     6.3626  -999.2500
  221.0000   -50.6992   161.9854     6.6926     6.3499  -999.2500
  221.5000   -50.7853   162.6711     6.7056     6.3373  -999.2500
  222.0000   -50.8732   163.3586     6.7189     6.3246  -999.2500
  222.5000   -50.9605   164.0483     6.7160     6.3118  -999.2500
  223.0000   -51.0469   164.7234     6.7020     6.2989  -999.2500
  223.5000   -51.0994   163.8279     6.6583     6.2880  -999.2500
  224.0000   -51.0530   162.3255     6.6150     6.3491  -999.2500
  224.5000   -51.0095   160.7863     6.5698     6.4177  -999.2500
  225.0000   -50.9661   158.5461     6.6026     6.4863  -999.2500
  225.5000   -50.9222   156.2298     6.6688     6.5547  -999.2500
  226.0000   -50.9073   153.9135     6.7965     6.6232  -999.2500
  226.5000   -50.9070   151.4566     6.9217     6.6915  -999.2500
  227.0000   -50.9142   149.2630     7.0461     6.7601  -999.2500
  227.5000   -50.9689   147.2362     7.1598     6.8077  -999.2500
  228.0000   -51.0237   145.2095     7.2455     6.8397  -999.2500
  228.5000   -51.0814   143.0494     7.2485     6.8712  -999.2500
  229.0000   -51.2552   141.8289     7.2470     6.9027  -999.2500
  229.5000   -51.5791   142.6411     7.2858     6.9343  -999.2500
  230.0000   -51.9026   143.6492     7.3295     6.9660  -999.2500
  230.5000   -51.7790   144.1121     7.3330     6.9942  -999.2500
  231.0000   -51.1692   144.9460     7.3056     6.9312  -999.2500
  231.5000   -51.0677   145.7798     7.2782     6.8532  -999.2500
  232.0000   -51.4321   146.6137     7.2241     6.7743  -999.2500
  232.5000   -51.8006   147.4476     7.1579     6.6940  -999.2500
  233.0000   -52.1578   149.0877     7.0911     6.6637  -999.2500
  233.5000   -52.3788   151.0421     7.0243     6.6157  -999.2500
  234.0000   -52.4640   152.9965     6.9578     6.5670  -999.2500
  234.5000   -52.3393   154.5439     6.8971     6.5181  -999.2500
  235.0000   -51.6572   155.8468     6.8737     6.4691  -999.2500
  235.5000   -50.8729   156.7540     6.8925     6.4214  -999.2500
  236.0000   -50.4917   155.3040     6.9001     6.4197  -999.2500
  236.5000   -50.4254   153.2995     6.8836     6.5187  -999.2500
  237.0000   -50.3680   151.0448     6.8655     6.6161  -999.2500
  237.5000   -50.3108   147.7736     6.9292     6.7137  -999.2500
  238.0000   -50.2527   144.5351     7.0107     6.8112  -999.2500
  238.5000   -50.1945   141.1573     7.1797     6.9087  -999.2500
  239.0000   -50.1382   137.1976     7.3671     7.0156  -999.2500
  239.5000   -50.1759   134.4546     7.5490     7.1672  -999.2500
  240.0000   -50.3902   131.7116     7.7263     7.3209  -999.2500
  240.5000   -50.7319   128.9686     7.8940     7.4740  -999.2500
  241.0000   -51.2547   127.5202     7.9894     7.5227  -999.2500
  241.5000   -51.7766   127.5202     8.0490     7.5624  -999.2500
  242.0000   -52.2986   129.2984     8.0717     7.5956  -999.2500
  242.5000   -52.7306   131.7305     8.0230     7.5170  -999.2500
  243.0000   -52.5379   134.1626     7.8981     7.3025  -999.2500
  243.5000   -52.0779   138.9012     7.7117     7.0893  -999.2500
  244.0000   -51.6271   144.1129     7.5260     6.8760  -999.2500
  244.5000   -51.2080   149.0524     7.3392     6.6842  -999.2500
  245.0000   -50.8893   152.0305     7.1520     6.6656  -999.2500
  245.5000   -50.5593   155.0086     7.0677     6.6399  -999.2500
  246.0000   -50.7173   156.7540     7.0537     6.6132  -999.2500
  246.5000   -51.0646   157.7621     7.0420     6.5935  -999.2500
  247.0000   -50.9674   155.7460     7.0282     6.6806  -999.2500
  247.5000   -50.7534   151.1353     7.0678     6.7680  -999.2500
  248.0000   -50.8200   146.9163     7.1527     6.8547  -999.2500
  248.5000   -51.0262   142.6973     7.3804     6.9418  -999.2500
  249.0000   -51.2369   138.6089     7.7318     7.0384  -999.2500
  249.5000   -51.3160   136.2148     8.0045     7.1500  -999.2500
  250.0000   -51.6493   133.8939     8.0318     7.2661  -999.2500
  250.5000   -52.3691   131.5913     7.8502     7.3355  -999.2500
  251.0000   -52.3987   129.9677     8.0051     7.4166  -999.2500
  251.5000   -51.5925   128.9234     8.1707     7.4914  -999.2500
  252.0000   -50.7785   129.0877     7.9951     7.4433  -999.2500
  252.5000   -50.5617   130.3931     7.8934     7.3900  -999.2500
  253.0000   -50.6396   131.6986     7.9307     7.3376  -999.2500
  253.5000   -50.7242   132.2379     7.9764     7.3105  -999.2500
  254.0000   -50.8077   131.2885     8.0140     7.4429  -999.2500
  254.5000   -50.8849   130.5444     8.0065     7.5742  -999.2500
  255.0000   -51.2094   130.5444     7.9999     7.6937  -999.2500
  255.5000   -51.5818   130.5444     7.9934     7.6528  -999.2500
  256.0000   -51.9628   131.0900     7.9869     7.5601  -999.2500
  256.5000   -52.2993   132.7928     7.9811     7.4683  -999.2500
  257.0000   -52.6558   134.4955     7.9704     7.3763  -999.2500
  257.5000   -52.7321   136.1983     7.8506     7.2843  -999.2500
  258.0000   -52.3657   137.9010     7.7299     7.1916  -999.2500
  258.5000   -51.9244   139.6038     7.5948     7.0971  -999.2500
  259.0000   -51.4835   141.3065     7.4578     7.0807  -999.2500
  259.5000   -51.1160   143.0093     7.4291     7.0661  -999.2500
  260.0000   -51.2626   144.7120     7.4479     7.0508  -999.2500
  260.5000   -51.3999   145.6653     7.4800     7.0355  -999.2500
  261.0000   -51.5363   145.6653     7.4721     7.0201  -999.2500
  261.5000   -51.6742   145.6653     7.4465     7.0048  -999.2500
  262.0000   -51.7227   144.6935     7.4202     6.9911  -999.2500
  262.5000   -51.2332   143.6492     7.3930     7.0120  -999.2500
  263.0000   -50.5641   142.6048     7.4142     7.0381  -999.2500
  263.5000   -50.5141   141.5605     7.4436     7.0642  -999.2500
  264.0000   -50.8158   140.6250     7.5159     7.0902  -999.2500
  264.5000   -51.3564   140.6250     7.5943     7.1163  -999.2500
  265.0000   -51.8928   140.6250     7.6153     7.1424  -999.2500
  265.5000   -52.0399   140.6250     7.6213     7.1684  -999.2500
  266.0000   -52.1658   140.2010     7.6269     7.1945  -999.2500
  266.5000   -52.3072   139.5274     7.6327     7.2205  -999.2500
  267.0000   -51.8817   138.8536     7.6384     7.2466  -999.2500
  267.5000   -50.9136   138.1801     7.6443     7.2727  -999.2500
  268.0000   -49.9142   137.5058     7.6499     7.2939  -999.2500
  268.5000   -49.8603   136.8321     7.6812     7.3093  -999.2500
  269.0000   -50.0774   135.8275     7.7295     7.3285  -999.2500
  269.5000   -50.3204   134.6408     7.7792     7.3479  -999.2500
  270.0000   -51.0109   133.4540     7.8560     7.3669  -999.2500
  270.5000   -51.7422   132.2672     7.9407     7.3864  -999.2500
  271.0000   -51.9147   130.9135     8.0160     7.4128  -999.2500
  271.5000   -51.7489   129.3068     8.0918     7.5163  -999.2500
  272.0000   -50.9636   127.7001     8.1662     7.6177  -999.2500
  272.5000   -50.4996   126.0934     8.1986     7.7191  -999.2500
  273.0000   -50.5097   124.4867     8.2353     7.8204  -999.2500
  273.5000   -50.7784   122.8800     8.2989     7.9219  -999.2500
  274.0000   -51.3434   121.2733     8.4614     8.0231  -999.2500
  274.5000   -51.7833   119.6666     8.6218     8.1075  -999.2500
  275.0000   -51.9697   119.3260     8.7507     8.1396  -999.2500
  275.5000   -52.1607   119.1768     8.7800     8.1721  -999.2500
  276.0000   -52.3507   119.0276     8.7564     8.2046  -999.2500
  276.5000   -52.5067   118.8785     8.7398     8.2372  -999.2500
  277.0000   -52.3841   118.7293     8.7399     8.2695  -999.2500
  277.5000   -52.2578   118.5822     8.7398     8.3017  -999.2500
  278.0000   -52.1327   118.3036     8.7385     8.3506  -999.2500
  278.5000   -52.0108   116.9986     8.8029     8.3982  -999.2500
  279.0000   -51.8959   115.6940     8.9228     8.4458  -999.2500
  279.5000   -51.4937   114.4116     9.0681     8.4929  -999.2500
  280.0000   -51.0930   112.8349     9.2128     8.5553  -999.2500
  280.5000   -50.6924   111.2851     9.3505     8.6385  -999.2500
  281.0000   -50.3196   109.7379     9.4789     8.7226  -999.2500
