~VERSION INFORMATION
 VERS.                2.0:   CWLS LOG ASCII STANDARD - VERSION 2.0
 WRAP.                 NO:   ONE LINE PER DEPTH STEP
~WELL INFORMATION
#MNEM.UNIT      DATA TYPE    INFORMATION
#----------   ------------   ------------------------------
 STRT.F           28.0000:   START DEPTH
 STOP.F          463.0000:   STOP DEPTH
 STEP.F            0.5000:   STEP LENGTH
 NULL.          -999.2500:   NO VALUE
 COMP.    FENIX & SCISSON:   COMPANY
 WELL.  NPR-3 #74 S 10-10:   WELL
 FLD .        TEAPOT DOME:   FIELD
 LOC .      S10 T38N R78W:   LOCATION
 CNTY.            NATRONA:   COUNTY
 STAT.            WYOMING:   STATE
 CTRY. UNITED STATES OF AMERICA:   COUNTRY
 SRVC.           BIRDWELL:   SERVICE COMPANY
 DATE.        12-FEB-1978:   LOGDATE
 API .       490251057000:   API NUMBER
~CURVE INFORMATION
#MNEM.UNIT       API CODE    CURVE DESCRIPTION
#----------   ------------   ------------------------------
 DEPT.F                  :   
 ILD .OHMM   05 120 46 00:   INDUCTION LOG DEEP
 SN  .OHMM   05 040 16 00:   SHORT NORMAL 16"
 SPR .MV     05 010 01 00:   SPONTANEOUS POTENTIAL FROM RES.
 CALD.IN     45 280 60 00:   CALIPER FROM DENSITY LOG
 CORR.G/C3   45 356 01 00:   DENSITY CORRECTION
 DPHI.DEC    45 890 12 00:   DENSITY POROSITY SANDSTONE
 GRD .GAPI   45 310 01 00:   GAMMA RAY FROM DENSITY LOG
 RHOB.G/C3   45 350 01 00:   BULK DENSITY
~PARAMETER INFORMATION
#MNEM.UNIT          VALUE    DESCRIPTION
#----------   ------------   ------------------------------
 PD  .                 GL:   PERMANENT DATUM
 EPD .F              5183:   ELEVATION PERMANENT DATUM
 LMF .                 KB:   LOG MEASURED FROM
 DAPD.F                 4:   FEET ABOVE PERMANENT DATUM
 DMF .                 KB:   DRILLING MEASURED FROM
 EKB .F              5187:   KELLING BUSHING
 EGL .F              5183:   GROUND LEVEL
 DATE.        12-FEB-1978:   RUN DATE
 RUN .                  1:   RUN NUMBER
 DD  .F               465:   DEPTH DRILLER
 DL  .F               465:   DEPTH LOGGER
 BLI .F               463:   BOTTOM LOG INTERVAL
 TLI .F                40:   TOP LOG INTERVAL
 CS  .IN            8.625:   CASING SIZE
 CBD .F                39:   CASING BOTTOM DRILLER
 BS  .IN            7.875:   BIT SIZE
 BSD .F               465:   BIT SIZE AT DEPTH
 DFT .         LIGNO-SULF:   DRILLING FLUID TYPE
 DFD .                8.8:   DRILLING FLUID DENSITY
 DFV .                 34:   DRILLING FLUID VISCOSITY
 DFPH.                 10:   DRILLING FLUID PH
 DFL .                4.0:   DRILLING FLUID LOSS
 MSS .                PIT:   MUD SAMPLE SOURCE
 RMS .OHMM            1.3:   RESISTIVITY MUD SAMPLE
 MST .F                62:   MUD SAMPLE TEMPERATURE
 RMF .OHMM            1.4:   RESISTIVITY MUD FILTRATE SAMPLE
 MFST.F                62:   MUD FILTRATE SAMPLE TEMPERATURE
 MCST.F                62:   MUD CAKE SAMPLE TEMPERATURE
 MFSS.               MEAS:   MUD FILTRATE SAMPLE SOURCE
 RMB .OHMM            1.3:   RESISTIVITY MUD AT BHT
 BHT .F                62:   BOTTOM HOLE TEMPERATURE
 TCS .HRS               2:   TIME CURCULATED STOPPED
 MRT .F                70:   MAXIMUM RECORDED TEMPERATURE
 LUN .               2953:   LOGGING UNIT NUMBER
 LUL .             CASPER:   LOGGING UNIT LOCATION
 ENGI.            POINTER:   RECORDING ENGINEER
 WITN.          MC GINLEY:   WITNESSED BY
 CLNT.            A2DTECH:   CLIENT CODE
 ORIG.           5" PRINT:   ORIGIN OF DATA
 UWI .       490251057000:   UNIQUE WELL ID
 DICO. A2D Technologies, Inc.:   DIGITIZING COMPANY
~OTHER INFORMATION
~A   DEPT      ILD         SN        SPR       CALD       CORR       DPHI         GRD      RHOB   
# ...
  230.5000     5.8501     7.1874   -34.7881     7.9495     0.0487     0.1485   103.9475     2.4617
  231.0000     5.6519     6.8004   -34.6364     7.9667     0.0473     0.1699   103.1960     2.4209
  231.5000     5.5750     6.7095   -34.6335     8.0108     0.0519     0.1726   103.1974     2.3877
  232.0000     5.5760     6.7114   -34.6305     8.0265     0.0564     0.1480   102.5965     2.3794
  232.5000     5.6154     6.7133   -34.6276     8.0572     0.0474     0.1255   100.7907     2.4021
  233.0000     5.6552     6.8093   -34.6246     8.0728     0.0520     0.1123   101.5452     2.4308
  233.5000     5.8146     7.1006   -34.6217     8.1034     0.0581     0.1044   101.8609     2.4732
  234.0000     5.9785     7.5600   -34.6188     8.1340     0.0702     0.0990   100.4940     2.4883
  234.5000     6.4074     7.9935   -34.6158     8.1496     0.0793     0.0924    97.8991     2.5004
  235.0000     6.9626     8.0513   -34.6129     8.1803     0.0839     0.0882    94.0913     2.5118
  235.5000     7.4107     8.1096   -34.6100     8.1959     0.0869     0.0951    90.1072     2.5194
  236.0000     7.6725     8.1118   -34.6070     8.2115     0.0824     0.0807    89.3553     2.5322
  236.5000     7.6735     8.1141   -34.6041     8.2271     0.0795     0.0996    90.5620     2.5322
  237.0000     7.6746     8.0045   -34.6012     8.2427     0.0856     0.1023    91.7683     2.5096
  237.5000     7.4021     7.9508   -34.5982     8.2583     0.0901     0.1050    93.1252     2.4978
  238.0000     6.8952     7.7897   -34.5952     8.2437     0.1008     0.1085    95.9881     2.4840
  238.5000     6.1306     7.5263   -34.7411     8.2445     0.1102     0.1202   102.9173     2.4772
  239.0000     5.8637     6.9272   -34.7381     8.2451     0.1234     0.1361   105.6296     2.4712
  239.5000     5.8241     6.6925   -34.8841     8.2457     0.1325     0.1365   104.5769     2.4508
  240.0000     5.8655     6.6021   -34.8804     8.2462     0.1462     0.1283   101.4157     2.4440
  240.5000     5.9070     6.6043   -34.7287     8.2318     0.1613     0.1193   100.5045     2.4538
  241.0000     5.9488     6.7451   -34.7257     8.2174     0.1749     0.1164   102.0251     2.4516
  241.5000     6.0325     7.5387   -34.5740     8.2158     0.2021     0.1107   102.7756     2.4803
  242.0000     6.3765     8.1952   -34.5710     8.2187     0.2187     0.1030   100.0783     2.5023
  242.5000     7.2727     8.8494   -34.5681     8.2193     0.2324     0.0934    97.9592     2.5106
  243.0000     7.9030     9.4933   -34.5652     8.2199     0.2415     0.1000    97.5093     2.4993
  243.5000     8.3536     9.7549   -34.5622     8.2205     0.2566     0.1066    96.6072     2.4963
  244.0000     8.5299     9.8939   -34.5593     8.2059     0.2642     0.1048    93.5966     2.5016
  244.5000     8.5903     9.9655   -34.5564     8.1917     0.2657     0.0991    91.7908     2.4986
  245.0000     8.5815    10.0382   -34.5534     8.1621     0.2658     0.1024    90.4369     2.4949
  245.5000     8.7727    10.0409   -34.5505     8.1477     0.2628     0.0952    88.7814     2.4992
  246.0000     8.8348     9.9743   -34.6964     8.1332     0.2611     0.0903    93.1507     2.5115
  246.5000     8.8360    10.0465   -34.9911     8.1040     0.2553     0.0879    96.6160     2.5199
  247.0000     8.8372    10.1192   -35.1369     8.0894     0.2463     0.0819    97.0693     2.5244
  247.5000     8.8384    10.1924   -35.1339     8.0901     0.2358     0.0744    96.6190     2.5328
  248.0000     8.8397    10.1952   -34.8333     8.1057     0.2163     0.0672    95.3916     2.5456
  248.5000     8.8409    10.2689   -34.6815     8.0913     0.1816     0.0678    93.5416     2.5578
  249.0000     8.8423    10.2718   -34.5292     8.0769     0.1575     0.0717    91.8041     2.5570
  249.5000     8.8435    10.2746   -34.5263     8.0625     0.1274     0.0825    92.5590     2.5495
  250.0000     8.9677     9.9956   -34.5238     8.0180     0.1033     0.0872    93.8532     2.5336
  250.5000     8.9696    10.0704   -34.5179     8.0182     0.1033     0.0830    97.1497     2.5283
  251.0000     8.9714    10.0745   -34.3472     8.0033     0.1033     0.0821    98.3587     2.5276
  251.5000     8.9733    10.0787   -34.1845     7.9884     0.1032     0.0818    99.1164     2.5283
  252.0000     8.9752    10.1530   -34.0524     7.9736     0.1047     0.0806    99.2712     2.5299
  252.5000     8.9774    10.1572   -34.1968     7.9737     0.1017     0.0779    96.4215     2.5321
  253.0000     9.2311    10.1614   -34.4886     7.9889     0.1016     0.0743    92.9687     2.5351
  253.5000     9.4919    10.1656   -34.6300     8.0041     0.1001     0.0722    88.7641     2.5404
  254.0000     9.3634    10.2406   -34.7744     8.0064     0.0925     0.0737    88.0181     2.5472
  254.5000     9.2363    10.2448   -34.6183     8.0194     0.0787     0.0881    86.0657     2.5420
  255.0000     9.1118    10.1771   -34.3148     8.0496     0.0681     0.0986    85.9247     2.5336
  255.5000     8.8650     9.8353   -33.7137     8.0647     0.0607     0.1031    86.4085     2.5072
  256.0000     7.9932     9.2440   -33.4102     8.0799     0.0562     0.1208    88.0432     2.4964
  256.5000     6.5876     8.3341   -33.2555     8.0801     0.0577     0.1598    91.6581     2.4648
  257.0000     6.4534     7.0591   -33.2496     8.0502     0.0622     0.1733   105.6490     2.4380
  257.5000     6.6361     6.9646   -33.2438     8.0353     0.0742     0.1802   109.4143     2.3870
  258.0000     6.8236     6.9676   -33.3869     8.0505     0.0878     0.1343   108.5179     2.3666
  258.5000     6.8250     7.0678   -33.6784     8.0806     0.0500     0.1214   104.7644     2.4172
  259.0000     6.8264     7.6313   -33.8214     8.1709     0.0379     0.0998    94.2440     2.4497
  259.5000     6.9709     9.2245   -33.8155     8.2010     0.0409     0.0938    86.4304     2.4671
  260.0000     7.3181    10.9748   -34.4246     7.9760     0.0409     0.0818    87.0378     2.5238
  260.5000     9.2595    11.7628   -34.9942     7.9611     0.0378     0.0785    89.2993     2.5321
  261.0000    10.7088    12.2501   -35.1627     7.9613     0.0363     0.0770    87.6392     2.5374
  261.5000    11.7997    12.5999   -35.4289     7.9614     0.0378     0.0764    87.0555     2.5412
  262.0000    12.0496    12.6062   -35.4216     7.9616     0.0362     0.0789    88.6176     2.5435
  262.5000    11.6425    12.8765   -35.1181     7.9767     0.0362     0.0833    89.0222     2.5367
  263.0000    11.3241    13.5227   -34.9634     7.9619     0.0362     0.0887    85.8717     2.5261
  263.5000    11.2514    13.9088   -34.9575     7.9771     0.0316     0.0926    83.7723     2.5231
  264.0000    12.0898    14.4055   -34.8028     8.0072     0.0316     0.0914    84.0790     2.5215
  264.5000    12.9399    14.9200   -34.7970     7.9924     0.0316     0.0905    84.8367     2.5169
  265.0000    14.0473    15.8875   -34.6423     7.9775     0.0315     0.1052    83.9404     2.5028
  265.5000    15.2658    17.5147   -34.9340     7.9776     0.0345     0.1244    79.8861     2.4921
  266.0000    17.6552    19.5783   -35.6722     7.9627     0.0405     0.1430    68.6138     2.4618
  266.5000    20.2778    23.9499   -36.1142     7.9629     0.0484     0.1787    54.6348     2.3878
  267.0000    22.6547    27.5248   -36.1069     7.9631     0.0719     0.1994    41.7084     2.3500
  267.5000    24.6197    32.5231   -36.1010     7.9632     0.1264     0.2006    41.1128     2.3190
  268.0000    27.5056    34.6321   -36.5415     7.9634     0.1475     0.1609    48.8060     2.3416
  268.5000    31.3738    34.8875   -36.9821     7.9635     0.1505     0.1718    54.2586     2.3946
  269.0000    33.6269    35.6357   -37.2738     7.9637     0.1595     0.1781    55.2673     2.3998
  269.5000    33.8654    37.4239   -37.2798     7.9638     0.1655     0.1739    59.9348     2.3749
  270.0000    33.1769    38.4925   -37.5794     7.9640     0.1594     0.1621    61.2941     2.3711
  270.5000    33.1855    39.3180   -37.7027     7.9641     0.1473     0.1417    59.6459     2.3938
