~VERSION INFORMATION
 VERS.                2.0:   CWLS LOG ASCII STANDARD - VERSION 2.0
 WRAP.                 NO:   ONE LINE PER DEPTH STEP
~WELL INFORMATION
#MNEM.UNIT      DATA TYPE    INFORMATION
#----------   ------------   ------------------------------
 STRT.F            0.0000:   START DEPTH
 STOP.F          717.5000:   STOP DEPTH
 STEP.F            0.5000:   STEP LENGTH
 NULL.          -999.2500:   NO VALUE
 COMP. LAWRENCE/ALLISON INC:   COMPANY
 WELL. NPR 3 #27-64-SX-11-WP:   WELL
 FLD .             TEAPOT:   FIELD
 LOC .      S11 T38N R78W:   LOCATION
 CNTY.            NATRONA:   COUNTY
 STAT.            WYOMING:   STATE
 CTRY. UNITED STATES OF AMERICA:   COUNTRY
 SRVC.      Dresser Atlas:   SERVICE COMPANY
 DATE.        15-SEP-1984:   LOGDATE
 API .       490251097500:   API NUMBER
~CURVE INFORMATION
#MNEM.UNIT       API CODE    CURVE DESCRIPTION
#----------   ------------   ------------------------------
 DEPT.F                  :   
 CALD.IN     45 280 60 00:   CALIPER FROM DENSITY LOG
 CNC .DEC    42 890 03 00:   COMPENSATED NEUTRON POROSITY SANDSTONE
 CORR.G/C3   45 356 01 00:   DENSITY CORRECTION
 DEN .G/C3   45 350 01 00:   BULK DENSTIY
 PORD.DEC    45 890 12 00:   POROSITY DENSITY SANDSTONE
 GRR .GAPI   07 310 01 00:   GAMMA RAY FROM RESISTIVITY
 RFOC.OHMM   07 220 01 00:   RESISTIVITY FOCUSED LOG
 RILD.OHMM   07 120 46 00:   RESISTIVITY INDUCTION LOG DEEP
 RILM.OHMM   07 120 44 00:   RESITIVITY INDUCTION LOG MEDIUM
 SPR .MV     07 010 01 00:   SPONTANEOUS POTENTIAL FROM RES.
~PARAMETER INFORMATION
#MNEM.UNIT          VALUE    DESCRIPTION
#----------   ------------   ------------------------------
 PD  .                 GL:   PERMANENT DATUM
 EPD .F              5198:   ELEVATION PERMANENT DATUM
 LMF .                 GL:   LOG MEASURED FROM
 DMF .                 GL:   DRILLING MEASURED FROM
 EGL .F              5198:   GROUND LEVEL
 DATE.        15-SEP-1984:   RUN DATE
 RUN .                  1:   RUN NUMBER
 DD  .F               736:   DEPTH DRILLER
 DL  .F               722:   DEPTH LOGGER
 BLI .F               704:   BOTTOM LOG INTERVAL
 TLI .F                42:   TOP LOG INTERVAL
 CS  .IN            8.625:   CASING SIZE
 CBD .F                42:   CASING BOTTOM DRILLER
 CBL .F                42:   CASING BOTTOM LOGGER
 BS  .IN            7.875:   BIT SIZE
 BSD .F               736:   BIT SIZE AT DEPTH
 DFT .          KCL WATER:   DRILLING FLUID TYPE
 MSS .           FLOWLINE:   MUD SAMPLE SOURCE
 RMS .OHMM           0.22:   RESISTIVITY MUD SAMPLE
 MST .F                70:   MUD SAMPLE TEMPERATURE
 RMB .OHMM           0.17:   RESISTIVITY MUD AT BHT
 BHT .F                90:   BOTTOM HOLE TEMPERATURE
 TCS .HRS               5:   TIME CURCULATED STOPPED
 MRT .F                90:   MAXIMUM RECORDED TEMPERATURE
 LUN .               6274:   LOGGING UNIT NUMBER
 LUL .               GLTE:   LOGGING UNIT LOCATION
 ENGI.             RAUTIO:   RECORDING ENGINEER
 WITN.            JOHNSON:   WITNESSED BY
 CLNT.            A2DTECH:   CLIENT CODE
 ORIG.         2.5" PRINT:   ORIGIN OF DATA
 UWI .       490251097500:   UNIQUE WELL ID
 DICO. A2D Technologies, Inc.:   DIGITIZING COMPANY
~OTHER INFORMATION
~A    DEPT    CALD        CNC       CORR        DEN       PORD         GRR      RFOC       RILD       RILM        SPR   
# ...
  234.5000     8.1952     0.2861     0.0232     2.4746     0.1212   100.7929    10.0182     8.9663     9.1782   -17.7012
  235.0000     8.1936     0.2885     0.0200     2.4746     0.1212   101.4990    10.0066     8.9576     9.0432   -17.5937
  235.5000     8.1921     0.2859     0.0169     2.4745     0.1212   101.7929     9.9938     8.8266     8.9125   -17.4467
  236.0000     8.1905     0.2818     0.0138     2.4744     0.1236   101.7507     9.9832     8.7705     8.9043   -17.4678
  236.5000     8.1889     0.2809     0.0105     2.4669     0.1278    97.0394     9.9716     8.6859     8.7747   -17.4882
  237.0000     8.1879     0.2898     0.0046     2.4491     0.1332    93.1124     9.9578     8.5593     8.6458   -17.5089
  237.5000     8.1875     0.3124     0.0045     2.4505     0.1324    90.3800     9.9475     8.4148     8.4049   -17.5319
  238.0000     8.1871     0.3053     0.0043     2.4563     0.1296    92.1342     9.6432     8.1969     8.1214   -17.5503
  238.5000     8.1867     0.3000     0.0042     2.4593     0.1285    95.5267     9.0531     7.9653     7.7820   -17.8669
  239.0000     8.1862     0.3133     0.0053     2.4592     0.1290   101.2781     8.4064     7.7424     7.5098   -18.1834
  239.5000     8.1858     0.3228     0.0098     2.4532     0.1336   103.2367     8.1703     7.6074     7.4012   -18.2059
  240.0000     8.1854     0.2895     0.0156     2.4471     0.1376   101.8935     7.9403     7.4690     7.3673   -18.5207
  240.5000     8.1849     0.2800     0.0273     2.4456     0.1387    98.8166     7.7810     7.4053     7.2865   -18.5414
  241.0000     8.1845     0.2821     0.0331     2.4543     0.1340    97.1878     7.4972     7.3981     7.2795   -18.5659
  241.5000     8.1841     0.2966     0.0389     2.4618     0.1311    97.0690     7.4895     7.5176     7.5769   -18.8800
  242.0000     8.1837     0.3088     0.0417     2.4618     0.1300    97.7063     7.7645     7.6918     7.7808   -18.8994
  242.5000     8.1832     0.3008     0.0416     2.4646     0.1288    96.8442     8.5436     7.8969     7.9070   -18.9201
  243.0000     8.1828     0.2847     0.0383     2.4692     0.1240    94.0645     9.2953     8.1076     8.0920   -18.6482
  243.5000     8.1824     0.2669     0.0324     2.4719     0.1194    89.8859     9.5444     8.2429     8.3080   -18.6665
  244.0000     8.1820     0.2649     0.0322     2.4733     0.1208    88.6659     9.8275     8.3146     8.3010   -18.3889
  244.5000     8.1815     0.2717     0.0321     2.4733     0.1226    91.5049     9.2130     8.4201     8.5245   -18.2821
  245.0000     8.1811     0.2801     0.0319     2.4717     0.1233    93.3081     8.9379     8.5272     8.7502   -18.1361
  245.5000     8.1807     0.2823     0.0275     2.4717     0.1245    94.4549     9.2427     8.5176     8.7428   -17.8609
  246.0000     8.1802     0.2811     0.0241     2.4701     0.1255    93.6884     9.2642     8.6257     8.7264   -17.8817
  246.5000     8.1798     0.2882     0.0136     2.4684     0.1279    93.1893     9.4149     8.7351     8.4908   -17.9024
  247.0000     8.1794     0.2936     0.0076     2.4665     0.1309    91.9600     9.4668     8.7255     8.4812   -17.9253
  247.5000     8.1790     0.2966     0.0015     2.4602     0.1333    90.7396     9.4557     8.7160     8.3586   -17.6478
  248.0000     8.1785     0.2996     0.0043     2.4545     0.1345    90.1116     9.4447     8.5863     8.2374   -17.6686
  248.5000     8.1781     0.2996     0.0101     2.4520     0.1346    90.9783     9.1761     8.4613     8.2295   -17.6894
  249.0000     8.1777     0.2818     0.0129     2.4512     0.1328    91.7988     8.9184     8.4524     8.2204   -18.0077
  249.5000     8.1773     0.2656     0.0128     2.4548     0.1316    91.7574     8.7786     8.4432     8.2134   -18.0266
  250.0000     8.1768     0.2606     0.0156     2.4547     0.1317    91.9132     8.6575     8.4326     8.2059   -18.0473
  250.5000     8.1764     0.2619     0.0184     2.4547     0.1317    92.8580     8.6456     8.4244     8.3127   -18.0717
  251.0000     8.1760     0.2619     0.0183     2.4561     0.1301    95.1809     8.6367     8.4155     8.4178   -17.7942
  251.5000     8.1756     0.2619     0.0181     2.4634     0.1266    96.9902     8.6273     8.4580     8.5257   -17.6566
  252.0000     8.1751     0.2649     0.0136     2.4723     0.1200    98.6580     8.7814     8.6292     8.6605   -17.5349
  252.5000     8.1747     0.2741     0.0102     2.4846     0.1151    99.2012     9.0912     8.6208     8.8032   -17.5624
  253.0000     8.1743     0.2804     0.0028     2.4965     0.1106    96.1996     9.4636     8.8518     8.8581   -17.3912
  253.5000     8.1738     0.2775    -0.0003     2.5018     0.1088    91.9132     9.7368     8.9005     8.9717   -17.0073
  254.0000     8.1734     0.2728     0.0025     2.4948     0.1086    90.7929    10.0320     9.0757     9.0878   -17.0296
  254.5000     8.1730     0.2693     0.0232     2.4866     0.1118    91.3432    10.3805     9.0669     9.2696   -17.0503
  255.0000     8.1726     0.2741     0.0319     2.4794     0.1148    91.8929    10.5131     9.0570     9.3214   -17.0713
  255.5000     8.1721     0.2814     0.0317     2.4732     0.1185    92.4480    10.3307     9.0470     9.1801   -16.7938
  256.0000     8.1717     0.2860     0.0254     2.4688     0.1217    92.4024    10.0036     9.0362     9.0520   -16.8166
  256.5000     8.1713     0.2787     0.0155     2.4672     0.1245    92.3565     9.5155     9.0272     8.7972   -16.8395
  257.0000     8.1709     0.2686     0.0030     2.4672     0.1256    92.9231     9.3761     8.8946     8.7897   -16.5619
  257.5000     8.1704     0.2641     0.0055     2.4701     0.1234    93.7968     9.2083     8.7620     8.5445   -16.5828
  258.0000     8.1700     0.2619     0.0271     2.4744     0.1210    94.9270     8.9770     8.5169     8.5363   -16.6035
  258.5000     8.1696     0.2601     0.0205     2.4774     0.1192    95.2663     8.7226     8.4982     8.5267   -16.6260
  259.0000     8.1692     0.2661    -0.0071     2.4710     0.1228    95.1124     8.7136     8.2691     8.5195   -16.6443
  259.5000     8.1687     0.2774     0.0068     2.4668     0.1252    94.4793     8.7034     8.2585     8.5117   -16.3667
  260.0000     8.1683     0.2792     0.0334     2.4686     0.1240    92.0637     8.8784     8.2505     8.5036   -16.0983
  260.5000     8.1679     0.2774     0.0273     2.4722     0.1223    90.8437     9.0472     8.2420     8.4955   -16.1166
  261.0000     8.1674     0.2804     0.0094     2.4762     0.1211    90.1381     9.1692     8.2329     8.4873   -16.1361
  261.5000     8.1670     0.2872     0.0003     2.4777     0.1200    89.1184     9.4081     8.2240     8.4792   -16.1568
  262.0000     8.1666     0.2954     0.0096     2.4799     0.1193    88.3487     9.2654     8.2150     8.4710   -16.1807
  262.5000     8.1662     0.2933     0.0334     2.4813     0.1187    90.0872     9.1297     8.2060     8.4629   -16.4948
  263.0000     8.1657     0.2773     0.0444     2.4812     0.1183    91.8258     8.9955     8.1970     8.4548   -16.5680
  263.5000     8.1653     0.2631     0.0443     2.4796     0.1183    92.3809     8.9418     8.1880     8.3317   -16.8314
  264.0000     8.1649     0.2526     0.0401     2.4736     0.1192    91.7343     8.8504     8.1790     8.2104   -16.8548
  264.5000     8.1645     0.2520     0.0308     2.4691     0.1226    90.5142     8.9635     8.1700     8.2017   -16.8731
  265.0000     8.1640     0.2529     0.0335     2.4706     0.1230    89.8817     9.0780     8.1611     8.1946   -16.8935
  265.5000     8.1636     0.2607     0.0377     2.4747     0.1173    91.0197     9.1940     8.1521     8.1868   -16.7673
  266.0000     8.1632     0.2737     0.0197     2.4859     0.1126    98.6702     9.3066     8.1418     8.1789   -16.6391
  266.5000     8.1628     0.2779     0.0018     2.4882     0.1120   100.4087     9.2970     8.1339     8.1704   -16.3637
  267.0000     8.1623     0.2815     0.0076     2.4869     0.1144    99.6055     9.2866     8.1253     8.1633   -16.3846
  267.5000     8.1619     0.2875     0.0193     2.4851     0.1150    99.1338     9.2210     8.1164     8.1554   -16.4094
