~VERSION INFORMATION
 VERS.                2.0:   CWLS LOG ASCII STANDARD - VERSION 2.0
 WRAP.                 NO:   ONE LINE PER DEPTH STEP
~WELL INFORMATION
#MNEM.UNIT      DATA TYPE    INFORMATION
#----------   ------------   ------------------------------
 STRT.F          250.0000:   START DEPTH
 STOP.F         1798.0000:   STOP DEPTH
 STEP.F            0.5000:   STEP LENGTH
 NULL.          -999.2500:   NO VALUE
 COMP. BROWN JOHN E&C INC:   COMPANY
 WELL. NPR 3 STX-10 #57-10:   WELL
 FLD .  TEAPOT DOME NPR 3:   FIELD
 LOC .      S10 T38N R78W:   LOCATION
 CNTY.            NATRONA:   COUNTY
 STAT.            WYOMING:   STATE
 CTRY. UNITED STATES OF AMERICA:   COUNTRY
 SRVC.           BIRDWELL:   SERVICE COMPANY
 DATE.        24-FEB-1979:   LOGDATE
 API .       490251096900:   API NUMBER
~CURVE INFORMATION
#MNEM.UNIT       API CODE    CURVE DESCRIPTION
#----------   ------------   ------------------------------
 DEPT.F                  :   
 GRD .GAPI   45 310 01 00:   GAMMA RAY FROM DENSITY LOG
 CALD.IN     45 280 60 00:   CALIPER
 RHOB.G/C3   45 350 01 00:   BULK DENSITY
 DPHI.DEC    45 890 12 00:   DENSITY POROSITY SANDSTONE
 CORR.G/C3   45 356 01 00:   DENSITY CORRECTION
~PARAMETER INFORMATION
#MNEM.UNIT          VALUE    DESCRIPTION
#----------   ------------   ------------------------------
 PD  .                 GL:   PERMANENT DATUM
 EPD .F              5201:   ELEVATION PERMANENT DATUM
 LMF .                 KB:   LOG MEASURED FROM
 DAPD.F                10:   FEET ABOVE PERMANENT DATUM
 DMF .                 KB:   DRILLING MEASURED FROM
 EKB .F              5211:   KELLING BUSHING
 EGL .F              5201:   GROUND LEVEL
 RUN .                  1:   RUN NUMBER
 DD  .F              1802:   DEPTH DRILLER
 DL  .F              1793:   DEPTH LOGGER
 BLI .F              1793:   BOTTOM LOG INTERVAL
 TLI .F               250:   TOP LOG INTERVAL
 CS  .IN            9.625:   CASING SIZE
 CBD .F               500:   CASING BOTTOM DRILLER
 CBL .F               490:   CASING BOTTOM LOGGER
 BS  .IN             8.75:   BIT SIZE
 BSD .F              1802:   BIT SIZE AT DEPTH
 DFT .                OIL:   DRILLING FLUID TYPE
 BHT .F                90:   BOTTOM HOLE TEMPERATURE
 TCS .HRS               4:   TIME CURCULATED STOPPED
 MRT .F                90:   MAXIMUM RECORDED TEMPERATURE
 LUN .               3029:   LOGGING UNIT NUMBER
 LUL .             CASPER:   LOGGING UNIT LOCATION
 ENGI.            ROLLINS:   RECORDING ENGINEER
 WITN.              AMEND:   WITNESSED BY
 CLNT.            A2DTECH:   CLIENT CODE
 ORIG.       2", 5" PRINT:   ORIGIN OF DATA
 UWI .       490251096900:   UNIQUE WELL ID
 DICO. A2D Technologies, Inc.:   DIGITIZING COMPANY
~OTHER INFORMATION
~A   DEPT       GRD        CALD       RHOB       DPHI      CORR  
# ...
 1043.0000   131.5029     9.2842     2.5112     0.0253     0.1890
 1043.5000   136.4553     9.2491     2.5193     0.0161     0.2163
 1044.0000   142.5234     9.2139     2.5422     0.0040     0.2458
 1044.5000   139.9403     9.1787     2.5653    -0.0088     0.2758
 1045.0000   137.6144     9.1438     2.5701    -0.0088     0.2670
 1045.5000   136.7840     9.1108     2.5595    -0.0030     0.2490
 1046.0000   143.2146     9.0946     2.5487     0.0016     0.2312
 1046.5000   147.3198     9.0775     2.5455     0.0058     0.2133
 1047.0000   144.3710     9.0604     2.5475     0.0088     0.1921
 1047.5000   141.5627     9.0433     2.5364     0.0117     0.1698
 1048.0000   138.8266     9.0261     2.5279     0.0140     0.1474
 1048.5000   137.0587     9.0089     2.5222     0.0188     0.1250
 1049.0000   140.3586     8.9943     2.5164     0.0275     0.1026
 1049.5000   142.9912     9.0048     2.5078     0.0298     0.0802
 1050.0000   145.6131     9.0455     2.4903     0.0417     0.0578
 1050.5000   139.9395     9.0847     2.4734     0.0537     0.0392
 1051.0000   133.4349     9.1240     2.4627     0.0501     0.0369
 1051.5000   130.4530     9.1633     2.4693     0.0469     0.0596
 1052.0000   127.9807     9.2025     2.4753     0.0436     0.0850
 1052.5000   126.6881     9.2418     2.4814     0.0409     0.1087
 1053.0000   130.1388     9.2811     2.4901     0.0374     0.1272
 1053.5000   134.1453     9.3204     2.5016     0.0307     0.1450
 1054.0000   132.4558     9.3598     2.5131     0.0223     0.1629
 1054.5000   128.9129     9.3959     2.5245     0.0138     0.1729
 1055.0000   128.8455     9.3966     2.5318     0.0116     0.1666
 1055.5000   129.9404     9.3969     2.5281     0.0116     0.1607
 1056.0000   131.8297     9.3705     2.5232     0.0165     0.1563
 1056.5000   133.7341     9.3313     2.5179     0.0220     0.1717
 1057.0000   135.7892     9.2919     2.5174     0.0166     0.2042
 1057.5000   133.7439     9.2525     2.5415     0.0052     0.2365
 1058.0000   131.1984     9.2132     2.5691    -0.0094     0.2686
 1058.5000   128.6471     9.1738     2.5944    -0.0235     0.2939
 1059.0000   126.5368     9.1344     2.5946    -0.0240     0.2894
 1059.5000   128.9718     9.0950     2.5884    -0.0210     0.2746
 1060.0000   134.9684     9.0556     2.5823    -0.0176     0.2499
 1060.5000   140.3730     9.0164     2.5767    -0.0144     0.2136
 1061.0000   138.7615     8.9776     2.5783    -0.0115     0.1772
 1061.5000   136.6997     8.9610     2.5620    -0.0024     0.1396
 1062.0000   136.1250     8.9788     2.5368     0.0126     0.0963
 1062.5000   136.4557     8.9964     2.5104     0.0253     0.0720
 1063.0000   136.8550     9.0136     2.5037     0.0283     0.0711
 1063.5000   132.6977     9.0143     2.5078     0.0260     0.0706
 1064.0000   127.7578     9.0140     2.4975     0.0357     0.0599
 1064.5000   123.5219     9.0116     2.4705     0.0512     0.0477
 1065.0000   124.3155     9.0929     2.4677     0.0462     0.0545
 1065.5000   125.0093     9.1925     2.4691     0.0500     0.0645
 1066.0000   124.7017     9.2930     2.4675     0.0556     0.0744
 1066.5000   122.5887     9.3927     2.4599     0.0522     0.0962
 1067.0000   120.1622     9.4524     2.4707     0.0466     0.1193
 1067.5000   122.5326     9.4178     2.4819     0.0422     0.1167
 1068.0000   125.7669     9.3831     2.4929     0.0361     0.1116
 1068.5000   129.0507     9.3999     2.5020     0.0407     0.1063
 1069.0000   132.3210     9.4302     2.4959     0.0421     0.1160
 1069.5000   135.1803     9.4527     2.4875     0.0346     0.1439
 1070.0000   135.6807     9.4248     2.5043     0.0254     0.1717
 1070.5000   134.3340     9.3966     2.5315     0.0164     0.1844
 1071.0000   131.4568     9.3685     2.5196     0.0194     0.1602
 1071.5000   128.5810     9.3405     2.5049     0.0265     0.1468
 1072.0000   126.3279     9.3124     2.4902     0.0336     0.1522
 1072.5000   128.3762     9.2844     2.4824     0.0393     0.1841
 1073.0000   130.4627     9.2563     2.4938     0.0283     0.2203
 1073.5000   131.9092     9.2282     2.5195     0.0175     0.2570
 1074.0000   130.5733     9.2002     2.5343     0.0066     0.2939
 1074.5000   129.1196     9.1721     2.5515    -0.0042     0.3029
 1075.0000   127.6922     9.1441     2.5770    -0.0150     0.3044
 1075.5000   127.0315     9.1160     2.5848    -0.0180     0.2869
 1076.0000   128.5881     9.0879     2.5719    -0.0063     0.2360
 1076.5000   130.0759     9.0597     2.5467     0.0133     0.1853
 1077.0000   131.5617     9.0352     2.5218     0.0249     0.1348
 1077.5000   133.0385     9.0520     2.5034     0.0332     0.1034
 1078.0000   134.5105     9.0690     2.4870     0.0414     0.0768
 1078.5000   134.8665     9.0858     2.4728     0.0473     0.0624
 1079.0000   131.8877     9.1023     2.4756     0.0419     0.0755
 1079.5000   129.5792     9.1110     2.4840     0.0325     0.0846
 1080.0000   126.6166     9.0932     2.4851     0.0399     0.0750
 1080.5000   127.4551     9.0766     2.4789     0.0477     0.0656
 1081.0000   128.9155     9.1515     2.4726     0.0477     0.0564
 1081.5000   130.1238     9.2416     2.4673     0.0428     0.0615
 1082.0000   126.4523     9.3321     2.4940     0.0308     0.0942
 1082.5000   122.7054     9.4225     2.5224     0.0189     0.1273
 1083.0000   118.5664     9.4386     2.5391     0.0064     0.1358
 1083.5000   120.8188     9.3896     2.5255     0.0154     0.1189
 1084.0000   123.6603     9.3685     2.5146     0.0248     0.0990
 1084.5000   126.5372     9.3455     2.5092     0.0289     0.1223
 1085.0000   129.3942     9.3225     2.5270     0.0036     0.1536
 1085.5000   131.0036     9.2996     2.5413    -0.0010     0.1860
 1086.0000   128.8290     9.2768     2.5556    -0.0057     0.1908
 1086.5000   126.6323     9.2539     2.5699    -0.0096     0.1800
 1087.0000   125.7178     9.2311     2.5685    -0.0049     0.1688
 1087.5000   130.2162     9.2082     2.5535     0.0022     0.1573
 1088.0000   133.6406     9.1854     2.5374     0.0092     0.1506
 1088.5000   131.1433     9.1625     2.5326     0.0120     0.1760
 1089.0000   124.3544     9.1397     2.5525    -0.0098     0.2036
 1089.5000   120.8731     9.1238     2.5814    -0.0156     0.2100
 1090.0000   119.5395     9.1098     2.5814    -0.0110     0.2041
 1090.5000   118.1972     9.0958     2.5607    -0.0024     0.1968
 1091.0000   119.7073     9.0819     2.5490     0.0016     0.1901
 1091.5000   121.6581     9.0679     2.5478     0.0016     0.1811
 1092.0000   123.3375     9.0539     2.5455     0.0027     0.1567
 1092.5000   121.9579     9.0398     2.5373     0.0110     0.1321
 1093.0000   120.1691     9.0260     2.5290     0.0200     0.1076
 1093.5000   118.4027     9.0167     2.5197     0.0197     0.0832
 1094.0000   117.6276     9.0379     2.5067     0.0184     0.0586
 1094.5000   125.6647     9.0587     2.4942     0.0345     0.0380
 1095.0000   124.2957     9.0794     2.4879     0.0330     0.0381
 1095.5000   121.5841     9.1000     2.4973     0.0320     0.0403
 1096.0000   119.5648     9.1213     2.5040     0.0389     0.0429
 1096.5000   125.9063     9.1554     2.4957     0.0393     0.0462
 1097.0000   131.2660     9.2271     2.4875     0.0309     0.0612
 1097.5000   131.0935     9.2965     2.5024     0.0245     0.0868
 1098.0000   130.2005     9.3659     2.5192     0.0184     0.1134
 1098.5000   126.7202     9.4353     2.5223     0.0180     0.1145
 1099.0000   123.3490     9.4972     2.5125     0.0288     0.1073
 1099.5000   119.9831     9.4745     2.5023     0.0258     0.1003
 1100.0000   116.6026     9.4425     2.4955     0.0193     0.0945
 1100.5000   113.2111     9.4104     2.5233     0.0188     0.1086
 1101.0000   110.3052     9.3784     2.5174     0.0239     0.1305
 1101.5000   112.9464     9.3464     2.5076     0.0286     0.1367
 1102.0000   115.5768     9.3144     2.4991     0.0329     0.1380
 1102.5000   116.7890     9.2824     2.5105     0.0325     0.1700
 1103.0000   115.7360     9.2504     2.5218     0.0198     0.2129
 1103.5000   114.7543     9.2184     2.5330     0.0068     0.2487
