~VERSION INFORMATION
 VERS.                2.0:   CWLS LOG ASCII STANDARD - VERSION 2.0
 WRAP.                 NO:   ONE LINE PER DEPTH STEP
~WELL INFORMATION
#MNEM.UNIT      DATA TYPE    INFORMATION
#----------   ------------   ------------------------------
 STRT.F           28.0000:   START DEPTH
 STOP.F          884.0000:   STOP DEPTH
 STEP.F            0.5000:   STEP LENGTH
 NULL.          -999.2500:   NO VALUE
 COMP. U S NAVY-INTEX OIL:   COMPANY
 WELL. NPR 3 TEAPOT DOM #43-SX-2:   WELL
 FLD .             TEAPOT:   FIELD
 LOC .       S2 T38N R78W:   LOCATION
 CNTY.            NATRONA:   COUNTY
 STAT.            WYOMING:   STATE
 CTRY. UNITED STATES OF AMERICA:   COUNTRY
 SRVC.       Schlumberger:   SERVICE COMPANY
 DATE.        19-JUL-1963:   LOGDATE
 API .       490250967900:   API NUMBER
~CURVE INFORMATION
#MNEM.UNIT       API CODE    CURVE DESCRIPTION
#----------   ------------   ------------------------------
 DEPT.F                  :   
 ASN .OHMM   05 041 16 00:   AMPLIFIED SHORT NORMAL 16"
 CILD.MMHO   05 110 46 00:   CONDUCTIVITY INDUCTION LOG DEEP
 ILD .OHMM   05 120 46 00:   INDUCTION LOG DEEP
 SPR .MV     05 010 01 00:   SPONTANEOUS POTENTIAL FROM RES.
 GR  .GAPI   30 310 01 00:   GAMMA RAY
~PARAMETER INFORMATION
#MNEM.UNIT          VALUE    DESCRIPTION
#----------   ------------   ------------------------------
 LMF .                 KB:   LOG MEASURED FROM
 DMF .                 KB:   DRILLING MEASURED FROM
 EKB .F              5151:   KELLING BUSHING
 EGL .F              5146:   GROUND LEVEL
 DATE.        19-JUL-1963:   RUN DATE
 RUN .                  1:   RUN NUMBER
 DD  .F               881:   DEPTH DRILLER
 DL  .F               885:   DEPTH LOGGER
 BLI .F               884:   BOTTOM LOG INTERVAL
 TLI .F                30:   TOP LOG INTERVAL
 CS  .IN            8.625:   CASING SIZE
 CBD .F                12:   CASING BOTTOM DRILLER
 BS  .IN             6.75:   BIT SIZE
 BSD .F               881:   BIT SIZE AT DEPTH
 DFT .           GEL- OIL:   DRILLING FLUID TYPE
 DFD .                9.6:   DRILLING FLUID DENSITY
 DFV .                 39:   DRILLING FLUID VISCOSITY
 DFPH.                8.5:   DRILLING FLUID PH
 DFL .                4.4:   DRILLING FLUID LOSS
 RMS .OHMM           2.58:   RESISTIVITY MUD SAMPLE
 MST .F                72:   MUD SAMPLE TEMPERATURE
 RMF .OHMM           2.26:   RESISTIVITY MUD FILTRATE SAMPLE
 MFST.F                72:   MUD FILTRATE SAMPLE TEMPERATURE
 TCS .HRS               3:   TIME CURCULATED STOPPED
 LUN .               4507:   LOGGING UNIT NUMBER
 LUL .             CASPER:   LOGGING UNIT LOCATION
 ENGI.            WINKLER:   RECORDING ENGINEER
 WITN.          JORGENSEN:   WITNESSED BY
 CLNT.            A2DTECH:   CLIENT CODE
 ORIG.      2.5" 5" PRINT:   ORIGIN OF DATA
 UWI .       490250967900:   UNIQUE WELL ID
 DICO. A2D Technologies, Inc.:   DIGITIZING COMPANY
~OTHER INFORMATION
~A   DEPT      ASN         CILD       ILD       SPR         GR   
# ...
  150.0000     6.2085   181.6109     6.1364   -39.0061  -999.2500
  150.5000     6.0878   183.1086     5.9841   -39.0076  -999.2500
  151.0000     6.1181   181.5654     6.1349   -39.0091  -999.2500
  151.5000     6.2693   181.5425     6.1341   -39.0105  -999.2500
  152.0000     6.4206   180.0000     6.1333   -39.0121  -999.2500
  152.5000     6.5718   178.4574     6.1326   -39.0136  -999.2500
  153.0000     6.6928   176.3677     5.9803   -39.0151  -999.2500
  153.5000     6.6264   175.3723     5.9795   -39.0166  -999.2500
  154.0000     6.3853   175.3495     5.8273   -39.0181  -999.2500
  154.5000     6.3307   176.9681     5.8265   -39.3208  -999.2500
  155.0000     6.3671   179.8588     5.8258   -39.3223  -999.2500
  155.5000     6.3914   181.3564     5.6733   -39.3238  -999.2500
  156.0000     6.3915   181.3374     5.5211   -39.3253  -999.2500
  156.5000     6.4219   181.3146     5.5204   -39.0256  -999.2500
  157.0000     6.4221   181.2918     5.5196   -39.0274  -999.2500
  157.5000     6.4222   180.9144     5.6704   -39.0288  -999.2500
  158.0000     6.4526   179.7264     5.8212   -39.0303  -999.2500
  158.5000     6.4527   177.6469     5.9720   -39.3330  -999.2500
  159.0000     6.4529   175.1216     5.9742   -39.0332  -999.2500
  159.5000     6.5135   173.5790     6.1220   -39.0347  -999.2500
  160.0000     6.5438   173.5562     6.2728   -39.0361  -999.2500
  160.5000     6.5742   173.5289     6.2720   -38.7364  -999.2500
  161.0000     6.6650   171.9870     6.2712   -38.7380  -999.2500
  161.5000     6.7860   167.4056     6.3164   -38.7395  -999.2500
  162.0000     6.9070   164.3440     6.4213   -38.7410  -999.2500
  162.5000     6.9071   161.0309     6.4836   -39.0437  -999.2500
  163.0000     6.9677   159.7416     6.5712   -39.3464  -999.2500
  163.5000     7.0013   161.6743     6.4902   -39.6491  -999.2500
  164.0000     7.0634   166.3020     6.0263   -39.6506  -999.2500
  164.5000     7.0890   168.7963     5.8112   -39.6521  -999.2500
  165.0000     6.9501   173.2269     5.5075   -39.6536  -999.2500
  165.5000     6.7279   176.4261     5.3552   -39.3539  -999.2500
  166.0000     6.6362   180.2533     5.3545   -39.3556  -999.2500
  166.5000     6.5631   185.4140     5.3537   -39.3571  -999.2500
  167.0000     6.4722   191.4709     5.5045   -39.3586  -999.2500
  167.5000     6.3326   191.8060     5.8068   -39.3600  -999.2500
  168.0000     6.2868   189.9069     5.8121   -39.3615  -999.2500
  168.5000     6.3047   185.3255     5.9715   -39.0617  -999.2500
  169.0000     6.3351   180.7441     6.1308   -38.7620  -999.2500
  169.5000     6.4258   174.6327     6.2902   -38.7636  -999.2500
  170.0000     6.5166   171.3778     6.4092   -38.7149  -999.2500
  170.5000     6.7887   166.8060     6.4083   -38.4652  -999.2500
  171.0000     6.6378   163.6525     6.4076   -38.4669  -999.2500
  171.5000     6.6681   162.0187     6.4068   -38.4684  -999.2500
  172.0000     6.8512   160.8511     6.2545   -38.5904  -999.2500
  172.5000     7.0310   160.8283     6.2538   -38.9106  -999.2500
  173.0000     7.0311   162.3252     6.2529   -39.2309  -999.2500
  173.5000     7.0313   163.0421     6.2521   -39.3780  -999.2500
  174.0000     7.0616   163.7994     6.2515   -39.3798  -999.2500
  174.5000     7.0533   165.2964     6.2507   -39.0798  -999.2500
  175.0000     7.0217   165.2699     6.4015   -39.0815  -999.2500
  175.5000     6.9783   165.2477     6.4007   -38.7816  -999.2500
  176.0000     6.9281   166.7477     6.4000   -38.7832  -999.2500
  176.5000     6.8964   166.7232     6.3992   -38.7847  -999.2500
  177.0000     6.8648   166.7011     6.3894   -38.7862  -999.2500
  177.5000     6.8210   168.1991     6.2462   -38.7877  -999.2500
  178.0000     6.7910   168.1766     6.2455   -38.7892  -999.2500
  178.5000     6.7609   171.1940     6.2099   -38.7907  -999.2500
  179.0000     6.7006   171.1702     6.0924   -38.7922  -999.2500
  179.5000     6.7008   172.6695     6.0917   -38.7937  -999.2500
  180.0000     6.7009   172.6444     6.0909   -38.4937  -999.2500
  180.5000     6.7011   172.6216     6.0902   -38.4955  -999.2500
  181.0000     6.7314   172.5988     6.0894   -38.4970  -999.2500
  181.5000     6.7928   172.5760     6.0886   -38.4985  -999.2500
  182.0000     6.8852   172.5532     6.0877   -38.5000  -999.2500
  182.5000     6.9776   172.5304     6.0870   -38.2006  -999.2500
  183.0000     7.0096   172.5035     6.2378   -38.2020  -999.2500
  183.5000     7.0041   172.4813     6.2370   -38.2035  -999.2500
  184.0000     7.0042   170.9394     6.3878   -37.9038  -999.2500
  184.5000     7.0044   167.8778     6.3871   -37.9052  -999.2500
  185.0000     7.0166   164.8161     6.3864   -37.9067  -999.2500
  185.5000     7.1090   160.2348     6.5442   -37.9082  -999.2500
  186.0000     7.3082   155.6533     7.1909   -37.9096  -999.2500
  186.5000     7.9101   150.9295     8.0508   -37.9111  -999.2500
  187.0000     8.4553   143.1258     8.0207   -37.9127  -999.2500
  187.5000     8.5159   136.8415     7.7462   -37.9142  -999.2500
  188.0000     9.0901   131.2462     7.5939   -37.9157  -999.2500
  188.5000     9.1176   133.6145     7.2351   -37.9172  -999.2500
  189.0000     8.7580   138.3333     7.0742   -37.9187  -999.2500
  189.5000     8.4863   142.4342     6.9134   -37.9202  -999.2500
  190.0000     8.3354   147.0618     6.6818   -37.9217  -999.2500
  190.5000     8.0938   151.7706     6.5294   -37.9232  -999.2500
  191.0000     7.8196   155.4255     6.5287   -37.9250  -999.2500
  191.5000     7.7316   155.3988     6.4831   -37.9264  -999.2500
  192.0000     7.6926   155.3767     6.5273   -37.9279  -999.2500
  192.5000     7.6050   152.3150     6.6780   -38.2306  -999.2500
  193.0000     7.5507   149.2534     6.9803   -38.2320  -999.2500
  193.5000     7.5602   147.7115     7.2825   -38.5347  -999.2500
  194.0000     7.6332   143.1301     7.5848   -38.5362  -999.2500
  194.5000     7.8002   141.5780     7.7422   -38.5377  -999.2500
  195.0000     8.0166   138.4246     7.9167   -38.5392  -999.2500
  195.5000     8.2029   136.7908     8.2124   -38.2394  -999.2500
  196.0000     8.4193   132.1176     8.3717   -38.2410  -999.2500
  196.5000     8.6395   128.9640     8.6418   -38.2425  -999.2500
  197.0000     8.8209   124.2908     8.6409   -38.2440  -999.2500
  197.5000     9.0325   120.5801     8.6402   -38.2455  -999.2500
  198.0000     9.3045   118.6322     8.6394   -37.9458  -999.2500
  198.5000     9.4860   121.6085     8.7139   -37.9473  -999.2500
  199.0000     9.5465   127.1580     8.7894   -37.9488  -999.2500
  199.5000     9.3654   133.7570     8.4855   -37.6491  -999.2500
  200.0000     9.0606   138.3838     8.1822   -37.9518  -999.2500
  200.5000     8.8116   143.0303     7.6689   -38.2560  -999.2500
  201.0000     8.5379   146.1617     7.2066   -38.2590  -999.2500
  201.5000     8.2662   149.2929     6.9652   -38.2620  -999.2500
  202.0000     7.7974   150.9091     6.9636   -38.2651  -999.2500
  202.5000     7.5639   153.1485     6.8106   -38.2681  -999.2500
  203.0000     7.4403   153.1706     6.8091   -38.2711  -999.2500
  203.5000     7.3667   151.6743     6.6558   -38.2741  -999.2500
  204.0000     7.3369   151.6998     6.8061   -38.2771  -999.2500
  204.5000     7.6883   150.2068     6.8043   -38.2801  -999.2500
  205.0000     7.6126   148.7138     6.8028   -38.2831  -999.2500
  205.5000     7.6577   147.2208     6.8014   -38.2861  -999.2500
  206.0000     7.8139   145.7278     6.6484   -38.2892  -999.2500
  206.5000     8.0060   145.7576     6.6469   -38.2922  -999.2500
  207.0000     7.7640   148.8889     6.6455   -38.2952  -999.2500
  207.5000     7.6432   153.5353     6.5997   -38.2988  -999.2500
  208.0000     7.5831   156.6666     6.4909   -38.0000  -999.2500
  208.5000     7.4926   159.4773     6.4894   -38.3047  -999.2500
  209.0000     7.4022   159.5000     6.4879   -38.0064  -999.2500
  209.5000     7.3117   159.5227     6.4864   -38.0094  -999.2500
  210.0000     7.1606   159.5455     6.3333   -38.0123  -999.2500
  210.5000     7.0096   160.2020     6.3318   -38.0153  -999.2500
