~VERSION INFORMATION
 VERS.                2.0:   CWLS LOG ASCII STANDARD - VERSION 2.0
 WRAP.                 NO:   ONE LINE PER DEPTH STEP
~WELL INFORMATION
#MNEM.UNIT      DATA TYPE    INFORMATION
#----------   ------------   ------------------------------
 STRT.F           36.0000:   START DEPTH
 STOP.F          564.0000:   STOP DEPTH
 STEP.F            0.5000:   STEP LENGTH
 NULL.          -999.2500:   NO VALUE
 COMP.    FENIX & SCISSON:   COMPANY
 WELL.        NPR #73-S-3:   WELL
 FLD .             TEAPOT:   FIELD
 LOC .       S3 T38N R78W:   LOCATION
 CNTY.            NATRONA:   COUNTY
 STAT.            WYOMING:   STATE
 CTRY. UNITED STATES OF AMERICA:   COUNTRY
 SRVC.       Schlumberger:   SERVICE COMPANY
 DATE.        19-FEB-1977:   LOGDATE
 API .       490251027900:   API NUMBER
~CURVE INFORMATION
#MNEM.UNIT       API CODE    CURVE DESCRIPTION
#----------   ------------   ------------------------------
 DEPT.F                  :   
 SPR .MV     07 010 01 00:   SPONTANEOUS POTENTIAL
 ILD .OHMM   07 120 46 00:   INDUCTION LOG DEEP
 ILM .OHMM   07 120 44 00:   INDUCTION LOG MEDIUM
 LL8 .OHMM   07 220 08 00:   LATEROLOG-8 RES.
 CALD.IN     45 280 60 00:   CALIPER FROM DENSITY LOG
 CORR.G/C3   45 356 01 00:   DENSITY CORRECTION
 RHOB.G/C3   45 350 01 00:   BULK DENSITY
 DPHI.DEC    45 890 12 00:   DENSITY POROSITY SANDSTONE
 GRD .GAPI   45 310 01 00:   GAMMA RAY FROM DENSITY LOG
~PARAMETER INFORMATION
#MNEM.UNIT          VALUE    DESCRIPTION
#----------   ------------   ------------------------------
 PD  .                 GL:   PERMANENT DATUM
 EPD .F              5128:   ELEVATION PERMANENT DATUM
 LMF .                 GL:   LOG MEASURED FROM
 DAPD.F                 5:   FEET ABOVE PERMANENT DATUM
 DMF .                 KB:   DRILLING MEASURED FROM
 EKB .F              5133:   KELLING BUSHING
 EGL .F              5128:   GROUND LEVEL
 DATE.        19-FEB-1977:   RUN DATE
 RUN .                  1:   RUN NUMBER
 DD  .F               570:   DEPTH DRILLER
 DL  .F               565:   DEPTH LOGGER
 BLI .F               564:   BOTTOM LOG INTERVAL
 TLI .F                36:   TOP LOG INTERVAL
 CS  .IN            8.625:   CASING SIZE
 CBD .F                40:   CASING BOTTOM DRILLER
 CBL .F                41:   CASING BOTTOM LOGGER
 BS  .IN            7.875:   BIT SIZE
 BSD .F               570:   BIT SIZE AT DEPTH
 DFT .                FGM:   DRILLING FLUID TYPE
 DFD .                8.9:   DRILLING FLUID DENSITY
 DFV .                 31:   DRILLING FLUID VISCOSITY
 DFPH.                8.2:   DRILLING FLUID PH
 DFL .                9.2:   DRILLING FLUID LOSS
 MSS .            MUD PIT:   MUD SAMPLE SOURCE
 RMS .OHMM           .244:   RESISTIVITY MUD SAMPLE
 MST .F                78:   MUD SAMPLE TEMPERATURE
 RMF .OHMM           .233:   RESISTIVITY MUD FILTRATE SAMPLE
 MFST.F                68:   MUD FILTRATE SAMPLE TEMPERATURE
 RMC .OHMM            .36:   RESISTIVITY MUD CAKE
 MCST.F                78:   MUD CAKE SAMPLE TEMPERATURE
 MFSS.               MEAS:   MUD FILTRATE SAMPLE SOURCE
 MCSS.               CALC:   MUD CAKE SAMPLE SOURCE
 RMB .OHMM            .35:   RESISTIVITY MUD AT BHT
 BHT .F                55:   BOTTOM HOLE TEMPERATURE
 TCS .HRS               2:   TIME CURCULATED STOPPED
 MRT .F                55:   MAXIMUM RECORDED TEMPERATURE
 LUN .               7711:   LOGGING UNIT NUMBER
 LUL .               CSPR:   LOGGING UNIT LOCATION
 ENGI.                FIX:   RECORDING ENGINEER
 WITN.           VOORHEES:   WITNESSED BY
 CLNT.            A2DTECH:   CLIENT CODE
 ORIG.           5" PRINT:   ORIGIN OF DATA
 UWI .       490251027900:   UNIQUE WELL ID
 DICO. A2D Technologies, Inc.:   DIGITIZING COMPANY
~OTHER INFORMATION
~A   DEPT      SPR        ILD        ILM        LL8       CALD       CORR       RHOB       DPHI        GRD   
# ...
  474.0000   -48.6138    14.1595    12.1734    12.1361     8.2846     0.0235     2.4409     0.1268    99.8258
  474.5000   -48.4500    14.1692    12.0144    11.9778     8.2860     0.0311     2.4515     0.1205   100.1373
  475.0000   -48.4352    14.0778    11.8575    11.9030     8.2876     0.0282     2.4718     0.1117   100.2997
  475.5000   -48.2712    14.0874    11.7835    11.9925     8.2893     0.0320     2.4636     0.1150   100.0118
  476.0000   -48.2563    13.9965    11.7909    11.9998     8.2909     0.0358     2.4780     0.1084    96.8989
  476.5000   -48.2414    13.9100    11.8796    12.0900     8.2925     0.0306     2.4600     0.1156    93.9317
  477.0000   -48.2265    13.7273    11.9800    12.1809     8.2942     0.0381     2.4676     0.1146    92.9020
  477.5000   -48.2122    13.5470    12.0588    12.1883     8.2958     0.0312     2.4684     0.1107    92.9154
  478.0000   -48.3465    13.4596    11.8215    11.8651     8.2975     0.0261     2.4549     0.1188    93.3759
  478.5000   -48.4807    13.2828    11.6654    11.6301     8.2991     0.0247     2.4542     0.1173    93.8365
  479.0000   -48.7603    13.1989    11.5148    11.4783     8.3007     0.0210     2.4573     0.1166    96.2344
  479.5000   -48.8983    13.1161    11.4429    11.4067     8.3024     0.0212     2.4452     0.1217    98.1853
  480.0000   -49.0325    12.9450    11.3715    11.2579     8.3040     0.0235     2.4514     0.1238    98.3478
  480.5000   -49.3158    12.8630    11.2987    11.1887     8.3057     0.0267     2.4507     0.1190    98.5102
  481.0000   -49.5954    12.7820    11.3074    11.3506     8.3073     0.0295     2.4656     0.1132    98.8218
  481.5000   -49.8787    12.8773    11.5502    11.6741     8.2940     0.0296     2.4711     0.1108    98.9842
  482.0000   -50.1657    12.8844    11.8797    12.0897     8.2957     0.0248     2.4659     0.1147    98.8486
  482.5000   -50.7433    12.9805    12.1349    12.3492     8.2660     0.0177     2.4530     0.1201    97.3718
  483.0000   -51.0303    12.9876    12.1423    12.1046     8.2542     0.0185     2.4553     0.1179    95.5969
  483.5000   -51.4589    13.0844    11.9838    11.9466     8.2546     0.0155     2.4639     0.1149    94.2690
  484.0000   -51.7422    13.0916    11.8273    11.7908     8.2539     0.0224     2.4680     0.1058    93.5373
  484.5000   -51.7274    13.0989    11.6729    11.7172     8.2532     0.0187     2.4782     0.1028    93.2493
  485.0000   -51.7126    13.1059    11.5205    11.5643     8.2525     0.0164     2.4730     0.1025    98.1842
  485.5000   -51.3998    12.9338    11.4468    11.4921     8.2518     0.0173     2.4640     0.1139   103.1157
  486.0000   -51.0869    12.7639    11.2990    11.3422     8.2511     0.0218     2.4611     0.1166   104.1723
  486.5000   -50.9231    12.5963    11.2268    11.2714     8.2501     0.0181     2.4497     0.1210   102.5464
  487.0000   -50.6103    12.2625    11.0819    11.2783     8.2482     0.0166     2.4462     0.1210    97.7909
  487.5000   -50.5955    12.0185    11.0124    11.2080     8.2464     0.0227     2.4430     0.1246    97.2048
  488.0000   -50.5807    11.7792    10.9439    11.1380     8.2445     0.0280     2.4474     0.1216    97.2216
  488.5000   -50.4169    11.6230    10.9506    11.0685     8.2426     0.0273     2.4572     0.1161    97.2351
  489.0000   -50.4021    11.5495    10.9573    10.9241     8.2407     0.0214     2.4525     0.1191    97.2485
  489.5000   -50.3874    11.4766    10.8142    10.7816     8.2389     0.0267     2.4569     0.1161    96.8149
  490.0000   -50.3726    11.4056    10.5272    10.6409     8.2370     0.0282     2.4766     0.1082    96.1699
  490.5000   -50.3577    11.3336    10.3163    10.4301     8.2351     0.0200     2.4564     0.1178    95.7952
  491.0000   -50.3428    11.3398    10.1140    10.2940     8.2346     0.0186     2.4549     0.1187    96.7571
  491.5000   -50.3279    11.2666    10.2606    10.0563     8.2345     0.0224     2.4498     0.1205    98.2832
  492.0000   -50.3130    11.2743    10.3376    10.1667     8.2345     0.0337     2.4618     0.1138    99.1148
  492.5000   -50.2981    11.1247    10.0520    10.1382     8.2345     0.0382     2.4762     0.1105    99.1282
  493.0000   -50.4292    10.9048     9.7966     9.7682     8.2344     0.0323     2.4778     0.1087    98.9717
  493.5000   -50.4145    10.6877     9.8703     9.4763     8.2344     0.0256     2.4575     0.1171   100.7228
  494.0000   -50.6977    10.4750    10.2219     9.1940     8.2344     0.0309     2.4621     0.1161   102.4828
  494.5000   -50.9810    10.3367    10.3699     9.0740     8.2343     0.0355     2.4667     0.1110   104.0000
  495.0000   -51.4133    10.0572    10.0947     9.0174     8.2343     0.0325     2.4660     0.1101   105.4844
  495.5000   -51.7003     9.6516     9.3584     8.9611     8.2356     0.0281     2.4690     0.1133   106.9985
  496.0000   -52.1289     9.0559     8.4405     8.6637     8.2373     0.0221     2.4871     0.1055   108.3368
  496.5000   -52.2632     8.1212     7.9441     8.4339     8.2389     0.0147     2.4774     0.1049   109.5395
  497.0000   -52.4011     7.4691     7.3989     8.0982     8.2405     0.0132     2.4527     0.1196   111.0402
  497.5000   -52.3827     6.6051     6.5878     7.8294     8.2422     0.0170     2.4475     0.1211   112.4142
  498.0000   -52.3679     6.1505     6.1755     6.7812     8.2438     0.0148     2.4273     0.1276   118.8821
  498.5000   -52.2041     5.9456     6.0116     4.9122     8.2455     0.0133     2.3973     0.1422   125.0850
  499.0000   -52.0402     5.9073     6.0986     3.8115     8.2471     0.0434     2.3868     0.1610   126.2772
  499.5000   -51.7274     5.8700     6.2726     4.5601     8.2487     0.0735     2.3756     0.1664   126.1401
  500.0000   -51.2655     5.9554     6.8631     9.0108     8.2504     0.0736     2.3826     0.1585   123.7735
  500.5000   -50.8032     6.2959     8.0989    10.1325     8.2520     0.0247     2.3787     0.1651   117.8524
  501.0000   -50.7867     6.8895     8.4442    10.1374     8.2536     0.0196     2.4333     0.1212   110.9763
  501.5000   -50.7702     8.2450     8.6244     9.8672     8.2404     0.0204     2.4991     0.1073   105.0255
  502.0000   -50.7537     9.4678     8.9305     9.6705     8.2517     0.0204     2.5006     0.1070   101.7572
  502.5000   -50.7372    10.4321     9.7036     9.6752     8.2380     0.0083     2.4782     0.1070   100.1283
  503.0000   -50.7206    10.8787    10.0480     9.7466     8.2395     0.0141     2.4707     0.1063    99.6890
  503.5000   -50.7041    11.0364    10.0528     9.7513     8.2407     0.0213     2.4746     0.1048   101.3413
  504.0000   -50.6863    10.8175    10.0577     9.8233     8.2418     0.0161     2.4709     0.1072   103.5872
  504.5000   -50.6711    10.4580    10.2019    10.0328     8.2430     0.0219     2.4875     0.1054   106.4292
  505.0000   -50.6546    10.2506    10.2773    10.2468     8.2290     0.0274     2.4838     0.0984   108.0790
  505.5000   -50.6381    10.3278    10.3532    10.3936     8.2153     0.0289     2.4838     0.0996   108.8345
  506.0000   -50.7707    10.5499    10.5742    10.5426     8.2019     0.0275     2.4839     0.1008   108.8449
  506.5000   -50.9032    10.8511    10.9494    10.8417     8.1880     0.0230     2.4780     0.1053   106.6199
  507.0000   -50.8867    11.1610    11.4163    11.1493     8.1894     0.0246     2.4720     0.1088   103.5006
  507.5000   -50.8702    11.7192    11.6599    11.2316     8.1906     0.0276     2.4759     0.1051   100.9775
  508.0000   -50.8537    12.1371    11.9088    11.0836     8.1918     0.0209     2.4812     0.1010    99.9421
  508.5000   -50.6881    12.3981    12.1629    11.3200     8.1930     0.0172     2.4797     0.1009   102.0415
  509.0000   -50.5226    12.5778    12.3374    11.8022     8.1942     0.0179     2.4790     0.1009   103.5423
  509.5000   -50.2080    12.7600    12.5143    12.1371     8.1954     0.0210     2.4821     0.1009   104.2978
  510.0000   -49.8935    12.8561    12.6938    11.6524     8.1966     0.0218     2.4799     0.1045   104.1592
