~VERSION INFORMATION
 VERS.                2.0:   CWLS LOG ASCII STANDARD - VERSION 2.0
 WRAP.                 NO:   ONE LINE PER DEPTH STEP
~WELL INFORMATION
#MNEM.UNIT      DATA TYPE    INFORMATION
#----------   ------------   ------------------------------
 STRT.F           75.0000:   START DEPTH
 STOP.F          859.0000:   STOP DEPTH
 STEP.F            0.5000:   STEP LENGTH
 NULL.          -999.2500:   NO VALUE
 COMP. U S NAVY/INTEX OIL CO:   COMPANY
 WELL.     NPR ##3 14S-35:   WELL
 FLD .             TEAPOT:   FIELD
 LOC .      S35 T39N R78W:   LOCATION
 CNTY.            NATRONA:   COUNTY
 STAT.            WYOMING:   STATE
 CTRY. UNITED STATES OF AMERICA:   COUNTRY
 SRVC. Schlumberger Well Surveying Corp:   SERVICE COMPANY
 DATE.        27-FEB-1961:   LOGDATE
 API .       490251023000:   API NUMBER
~CURVE INFORMATION
#MNEM.UNIT       API CODE    CURVE DESCRIPTION
#----------   ------------   ------------------------------
 DEPT.F                  :   
 GRN .CPS    35 310 30 00:   GAMMA RAY
 SPR .MV     05 010 01 00:   SPONTANEOUS POTENTIAL FROM RES.
 ILD .OHMM   05 120 46 00:   INDUCTION LOG DEEP
 ASN .OHMM   05 041 16 00:   AMPLIFIED SHORT NORMAL 16"
 CILD.MMHO   05 110 46 00:   CONDUCTIVITY INDUCTION LOG DEEP
~PARAMETER INFORMATION
#MNEM.UNIT          VALUE    DESCRIPTION
#----------   ------------   ------------------------------
 PD  .                 GL:   PERMANENT DATUM
 EPD .F              5110:   ELEVATION PERMANENT DATUM
 LMF .                 KB:   LOG MEASURED FROM
 DAPD.F                 4:   FEET ABOVE PERMANENT DATUM
 DMF .                 KB:   DRILLING MEASURED FROM
 EKB .F              5114:   KELLING BUSHING
 EGL .F              5110:   GROUND LEVEL
 DATE.            2-27-61:   RUN DATE
 RUN .                  1:   RUN NUMBER
 DD  .F               862:   DEPTH DRILLER
 DL  .F               860:   DEPTH LOGGER
 BLI .F               859:   BOTTOM LOG INTERVAL
 TLI .F                84:   TOP LOG INTERVAL
 CBD .F                12:   CASING BOTTOM DRILLER
 BS  .IN            7.875:   BIT SIZE
 BSD .F               862:   BIT SIZE AT DEPTH
 DFT .       GEL-OIL EMUL:   DRILLING FLUID TYPE
 DFD .                9.4:   DRILLING FLUID DENSITY
 DFV .                 33:   DRILLING FLUID VISCOSITY
 DFPH.                  8:   DRILLING FLUID PH
 DFL .               19.4:   DRILLING FLUID LOSS
 MSS .          FLOW LINE:   MUD SAMPLE SOURCE
 RMS .OHMM            .76:   RESISTIVITY MUD SAMPLE
 MST .F                73:   MUD SAMPLE TEMPERATURE
 RMF .OHMM            .52:   RESISTIVITY MUD FILTRATE SAMPLE
 MFST.F                73:   MUD FILTRATE SAMPLE TEMPERATURE
 RMC .OHMM            1.7:   RESISTIVITY MUD CAKE
 MCST.F                73:   MUD CAKE SAMPLE TEMPERATURE
 MFSS.                  M:   MUD FILTRATE SAMPLE SOURCE
 MCSS.                  M:   MUD CAKE SAMPLE SOURCE
 RMB .OHMM            .73:   RESISTIVITY MUD AT BHT
 BHT .F                77:   BOTTOM HOLE TEMPERATURE
 TCS .HRS               1:   TIME CURCULATED STOPPED
 MRT .F                77:   MAXIMUM RECORDED TEMPERATURE
 LUN .               2523:   LOGGING UNIT NUMBER
 LUL .               CSPR:   LOGGING UNIT LOCATION
 ENGI.             KNOBEL:   RECORDING ENGINEER
 WITN.          JORGENSEN:   WITNESSED BY
 CLNT.            A2DTECH:   CLIENT CODE
 ORIG.       2", 5" PRINT:   ORIGIN OF DATA
 UWI .       490251023000:   UNIQUE WELL ID
 DICO. A2D Technologies, Inc.:   DIGITIZING COMPANY
~OTHER INFORMATION
~A   DEPT      GRN        SPR        ILD        ASN       CILD   
# ...
  807.0000    44.8171   -25.5430    19.2896    20.5123    49.1308
  807.5000    45.6501   -25.5098    18.4636    19.6888    51.7850
  808.0000    42.5092   -25.4788    17.6409    18.9592    54.4392
  808.5000    45.5874   -25.4509    16.9649    18.4634    57.0934
  809.0000    50.1796   -25.4128    16.6975    18.0187    59.7476
  809.5000    55.7051   -25.4686    16.4183    17.6567    61.2821
  810.0000    54.3468   -25.6882    16.1548    17.4263    62.0023
  810.5000    55.6785   -25.8344    15.8664    17.1964    62.7224
  811.0000    58.5220   -26.0557    15.7525    16.9638    63.4546
  811.5000    61.1361   -26.2054    15.6515    16.7787    64.1712
  812.0000    56.6983   -26.4891    15.5496    16.6622    64.8880
  812.5000    58.8480   -26.3132    15.4450    16.6471    65.6049
  813.0000    62.1021   -25.3389    15.3438    16.6841    66.3220
  813.5000    63.4724   -25.5135    15.2436    16.7203    66.8994
  814.0000    57.7287   -25.5443    15.2797    16.7579    66.5554
  814.5000    62.7098   -25.4813    15.3617    16.7950    66.2680
  815.0000    60.9790   -25.2838    15.4344    16.8327    65.9812
  815.5000    57.6840   -25.0127    15.5074    16.8698    65.6950
  816.0000    59.5955   -24.7034    15.5859    16.9079    65.4100
  816.5000    53.6414   -24.4094    15.6519    16.9440    65.1267
  817.0000    54.0519   -24.1079    15.7488    16.9827    64.8959
  817.5000    53.0710   -23.8156    15.6362    17.0191    64.8999
  818.0000    50.7351   -23.5060    15.3261    17.0405    64.9014
  818.5000    48.3545   -23.2269    15.0368    16.8033    66.5894
  819.0000    49.3722   -22.8921    14.7335    16.4866    68.2061
  819.5000    51.1589   -22.9394    14.4412    16.1848    69.8359
  820.0000    51.8579   -23.3134    14.1372    15.8724    71.4656
  820.5000    47.7570   -23.5165    13.8494    15.5725    73.0954
  821.0000    48.8066   -22.9455    13.5368    15.2557    74.7252
  821.5000    49.9669   -22.4170    13.4493    15.1194    76.3550
  822.0000    47.3254   -22.3569    13.5319    15.1189    76.9618
  822.5000    49.6723   -22.3157    13.5840    15.0967    76.3810
  823.0000    54.1015   -22.2892    13.6492    15.0854    75.9118
  823.5000    55.8788   -22.2336    13.7101    15.0683    75.4427
  824.0000    56.8017   -22.2300    13.7690    15.0542    74.9497
  824.5000    54.6737   -21.9525    13.8328    15.0390    74.9497
  825.0000    49.4883   -21.6333    13.8271    15.0239    74.9497
  825.5000    51.1487   -21.3440    13.9064    15.0095    74.9497
  826.0000    49.6050   -21.1799    13.8417    14.9925    74.9497
  826.5000    45.3788   -21.4274    13.7078    14.9805    74.9497
  827.0000    47.0199   -21.6691    13.5903    14.9594    74.9497
  827.5000    49.3338   -21.9244    13.4656    14.9562    75.0880
  828.0000    51.4947   -22.1747    13.3444    14.8509    75.5181
  828.5000    54.4435   -22.4220    13.2215    14.6539    75.9557
  829.0000    50.9128   -22.6825    13.0982    14.4759    77.2233
  829.5000    52.1690   -22.8257    12.9518    14.2893    78.5136
  830.0000    51.4843   -22.8609    12.7742    14.1064    79.9799
  830.5000  -999.2500   -22.9133    12.5976    13.9229    81.1300
  831.0000  -999.2500   -22.9569    12.4171    13.7376    82.4619
  831.5000  -999.2500   -23.0052    12.2416    13.5557    83.7937
  832.0000  -999.2500   -23.0511    12.0435    13.3506    85.1256
  832.5000  -999.2500   -23.0981    11.9853    13.2382    86.4575
  833.0000  -999.2500   -23.1445    11.9456    13.1363    88.0282
  833.5000  -999.2500   -23.1938    11.9020    13.1347    87.9609
  834.0000  -999.2500   -23.2538    11.8584    13.1433    87.8790
  834.5000  -999.2500   -23.3182    11.8230    13.1516    87.7971
  835.0000  -999.2500   -23.3783    11.8265    13.1592    87.7152
  835.5000  -999.2500   -23.4461    11.8327    13.1674    87.6333
  836.0000  -999.2500   -23.5001    11.8389    13.1752    87.5513
  836.5000  -999.2500   -23.5807    11.8447    13.1832    87.4694
  837.0000  -999.2500   -23.4961    11.8507    13.1910    87.3875
  837.5000  -999.2500   -23.2688    11.8566    13.1987    87.3056
  838.0000  -999.2500   -23.0712    11.8625    13.2065    87.2237
  838.5000  -999.2500   -22.8589    11.8684    13.2143    87.1417
  839.0000  -999.2500   -22.6551    11.8743    13.2220    87.0598
  839.5000  -999.2500   -22.4454    11.8801    13.2298    86.9558
  840.0000  -999.2500   -22.2410    11.8861    13.2375    86.8329
  840.5000  -999.2500   -22.0307    11.8919    13.2453    86.7100
  841.0000  -999.2500   -21.8268    11.8979    13.2531    86.5871
  841.5000  -999.2500   -21.6132    11.9037    13.2608    86.4643
  842.0000  -999.2500   -21.7098    11.9097    13.2686    86.3414
  842.5000  -999.2500   -21.8801    11.9157    13.2764    86.2185
  843.0000  -999.2500   -22.0380    11.9193    13.2842    86.0956
  843.5000  -999.2500   -22.2004    11.8920    13.2920    86.0768
  844.0000  -999.2500   -22.3616    11.8588    13.2998    86.2488
  844.5000  -999.2500   -22.5223    11.8260    13.3076    86.4209
  845.0000  -999.2500   -22.6848    11.8099    13.3152    86.5929
  845.5000  -999.2500   -22.8446    11.7831    13.3235    86.7649
  846.0000  -999.2500   -22.9896    11.7573    13.3278    86.9370
  846.5000  -999.2500   -22.9863    11.7306    13.3076    87.3620
  847.0000  -999.2500   -23.0111    11.7044    13.2868    88.0352
  847.5000  -999.2500   -22.8265    11.6780    13.2659    88.7083
  848.0000  -999.2500   -22.6324    11.6517    13.2453    89.3815
  848.5000  -999.2500   -22.5208    11.6253    13.2244    90.0402
  849.0000  -999.2500   -22.3840    11.5990    13.2037    89.9445
  849.5000  -999.2500   -22.2594    11.5726    13.1827    89.8507
  850.0000  -999.2500   -22.1288    11.5462    13.1624    89.7568
  850.5000  -999.2500   -22.0005    11.5212    13.1404    89.6644
  851.0000  -999.2500   -21.8721    11.5187    13.1223    89.5711
  851.5000  -999.2500   -21.7418    11.5190    13.1094    89.4769
  852.0000  -999.2500   -21.6166    11.5190    13.0948    89.3825
  852.5000  -999.2500   -21.4825    11.5190    13.0811    89.2881
  853.0000  -999.2500   -21.3644    11.5191    13.0672    89.1943
  853.5000  -999.2500   -21.2177    11.5192    13.0550    89.1005
  854.0000  -999.2500   -21.2962    11.5192    13.0382    89.0068
  854.5000  -999.2500   -21.5398    11.5192    13.0392    88.9130
  855.0000  -999.2500   -21.7340    11.5193    13.0930    88.8192
  855.5000  -999.2500   -21.9610    11.5180    13.1606    88.7255
  856.0000  -999.2500   -21.8330    11.5002    13.1965    88.6317
  856.5000  -999.2500   -21.6306    11.4794    13.1716    88.5379
  857.0000  -999.2500   -21.4104    11.4590    12.4789    88.4442
  857.5000  -999.2500   -21.3363    11.4383    11.9072    88.3504
  858.0000  -999.2500   -21.2651    11.4199    11.6840    88.2566
  858.5000  -999.2500   -21.2174    11.4183    11.7306    88.1629
  859.0000  -999.2500   -21.0790    11.4184    11.9396    88.0691
