~VERSION INFORMATION
 VERS.                2.0:   CWLS LOG ASCII STANDARD - VERSION 2.0
 WRAP.                 NO:   ONE LINE PER DEPTH STEP
~WELL INFORMATION
#MNEM.UNIT      DATA TYPE    INFORMATION
#----------   ------------   ------------------------------
 STRT.F            0.0000:   START DEPTH
 STOP.F          586.0000:   STOP DEPTH
 STEP.F            0.5000:   STEP LENGTH
 NULL.          -999.2500:   NO VALUE
 COMP. Fluor Daniel (NPOSR) Inc:   COMPANY
 WELL.    NPR 3 #52-6-X-3:   WELL
 FLD .             TEAPOT:   FIELD
 LOC .       S3 T38N R78W:   LOCATION
 CNTY.            NATRONA:   COUNTY
 STAT.            WYOMING:   STATE
 CTRY. UNITED STATES OF AMERICA:   COUNTRY
 SRVC.      Western Atlas:   SERVICE COMPANY
 DATE.        17-APR-1996:   LOGDATE
 API .       490252277700:   API NUMBER
~CURVE INFORMATION
#MNEM.UNIT       API CODE    CURVE DESCRIPTION
#----------   ------------   ------------------------------
 DEPT.F                  :   
 GRR .GAPI   07 310 01 00:   GAMMA RAY FROM RES. LOG.
 RILD.OHMM   07 120 46 00:   INDUCTION LOG DEEP RESISTIVITY
 RILM.OHMM   07 120 44 00:   INDUCTION LOG MEDIUM
~PARAMETER INFORMATION
#MNEM.UNIT          VALUE    DESCRIPTION
#----------   ------------   ------------------------------
 PD  .                 GL:   PERMANENT DATUM
 EPD .F              5070:   ELEVATION PERMANENT DATUM
 LMF .                 KB:   LOG MEASURED FROM
 DAPD.F                10:   FEET ABOVE PERMANENT DATUM
 DMF .                 KB:   DRILLING MEASURED FROM
 EKB .F              5080:   KELLING BUSHING
 EDF .F              5079:   DRILLING FLOOR
 EGL .F              5070:   GROUND LEVEL
 DATE.            4-17-96:   RUN DATE
 RUN .                  1:   RUN NUMBER
 DD  .F               594:   DEPTH DRILLER
 DL  .F               594:   DEPTH LOGGER
 BLI .F               586:   BOTTOM LOG INTERVAL
 CS  .IN            9.625:   CASING SIZE
 CBD .F                58:   CASING BOTTOM DRILLER
 CBL .F                59:   CASING BOTTOM LOGGER
 BS  .IN             8.75:   BIT SIZE
 BSD .F               594:   BIT SIZE AT DEPTH
 DFT .                AIR:   DRILLING FLUID TYPE
 MRT .F                86:   MAXIMUM RECORDED TEMPERATURE
 LUN .            HL-6530:   LOGGING UNIT NUMBER
 LUL .             CASPER:   LOGGING UNIT LOCATION
 ENGI.             RAUTIO:   RECORDING ENGINEER
 WITN.              HARDY:   WITNESSED BY
 CLNT.            A2DTECH:   CLIENT CODE
 ORIG.       2", 5" PRINT:   ORIGIN OF DATA
 UWI .       490252277700:   UNIQUE WELL ID
 DICO. A2D Technologies, Inc.:   DIGITIZING COMPANY
~OTHER INFORMATION
~A    DEPT      GRR      RILD       RILM   
# ...
  364.0000    95.3466    12.8393    13.0795
  364.5000    96.8059    12.5611    12.9261
  365.0000    96.3566    12.6772    12.7746
  365.5000    94.1543    12.5013    12.6248
  366.0000    93.6666    12.3560    12.4768
  366.5000    93.9335    12.2120    12.3305
  367.0000    94.2014    12.0697    12.1860
  367.5000    94.8632    11.9291    12.0493
  368.0000    96.2822    11.7769    11.7676
  368.5000    96.9318    11.7447    11.7841
  369.0000    97.3454    11.7093    11.7786
  369.5000    98.7381    11.6739    11.7769
  370.0000   100.1713    11.6689    11.7769
  370.5000    99.9109    11.7295    11.8767
  371.0000    99.3484    11.9132    12.0697
  371.5000    97.4326    12.0998    12.2658
  372.0000    95.5493    12.2894    12.4651
  372.5000    94.6639    12.4819    12.6677
  373.0000    93.8604    12.6774    12.7947
  373.5000    93.0577    12.6774    12.7947
  374.0000    92.2526    12.6774    12.7947
  374.5000    92.3088    12.6347    12.7947
  375.0000    94.0647    12.5535    12.7947
  375.5000    95.9572    12.4728    12.7066
  376.0000    97.8510    12.3581    12.5035
  376.5000    99.7316    12.1756    12.3035
  377.0000   101.8394    11.9958    12.1068
  377.5000   101.6813    11.8187    11.9132
  378.0000    99.5838    11.6441    11.7792
  378.5000    98.4451    11.4720    11.6559
  379.0000   100.0748    11.3021    11.5340
  379.5000   100.6165    11.1421    11.4126
  380.0000   100.9174    11.1420    11.3507
  380.5000   102.5473    11.2509    11.4313
  381.0000   104.1922    11.3326    11.6334
  381.5000   103.9237    11.6727    11.9391
  382.0000   100.7525    12.3603    13.0898
  382.5000    97.6686    13.4193    14.6027
  383.0000    96.2860    14.5434    16.4719
  383.5000    93.3942    15.7409    18.4605
  384.0000    87.4873    17.1459    20.4659
  384.5000    80.2747    18.8043    22.1580
  385.0000    75.1251    20.6318    23.8248
  385.5000    74.4046    22.6341    24.8330
  386.0000    77.8484    24.8173    24.8330
  386.5000    79.8651    24.6976    24.8330
  387.0000    78.8993    24.5488    24.8330
  387.5000    77.8415    24.3798    24.8330
  388.0000    77.1692    24.4678    24.9836
  388.5000    77.3456    24.5709    25.2111
  389.0000    77.5176    24.6744    25.4408
  389.5000    76.9836    24.7784    25.7650
  390.0000    76.3562    24.8330    25.7650
  390.5000    78.2339    24.2511    24.9965
  391.0000    81.1653    23.8609    24.4889
  391.5000    85.1282    23.4342    23.9917
  392.0000    87.2043    22.9842    23.5045
  392.5000    85.1804    22.5439    23.0273
  393.0000    83.0642    22.1121    22.5647
  393.5000    82.4078    21.6885    22.1325
  394.0000    83.8105    21.2339    21.7085
  394.5000    84.3586    20.9774    21.2927
  395.0000    82.6488    20.6975    20.9500
  395.5000    81.1498    20.4214    20.7175
  396.0000    81.6297    20.2340    20.2782
  396.5000    83.3585    20.1413    20.3125
  397.0000    85.3171    20.0491    20.3781
  397.5000    87.1389    19.9573    20.4659
  398.0000    86.7614    19.8659    20.3425
  398.5000    84.6982    19.7749    20.1589
  399.0000    82.4008    19.6844    19.9770
  399.5000    80.4070    19.5942    19.8912
  400.0000    82.5101    19.5045    19.8640
  400.5000    84.6741    19.4152    19.8368
  401.0000    86.0832    19.3263    19.8097
  401.5000    86.8495    19.2378    19.7826
  402.0000    87.4846    19.1699    19.7554
  402.5000    88.1182    19.1283    19.7285
  403.0000    88.7459    19.0867    19.7257
  403.5000    89.1560    19.0453    19.7264
  404.0000    89.1225    19.0040    19.7270
  404.5000    90.2499    18.9627    19.5372
  405.0000    91.6268    18.9214    19.3513
  405.5000    92.2939    18.8806    19.1672
  406.0000    90.8063    18.8378    18.9848
  406.5000    88.0758    18.6601    18.8042
  407.0000    85.4295    18.4302    18.6252
  407.5000    84.4425    18.2032    18.4480
  408.0000    85.6396    17.9790    18.2727
  408.5000    87.2567    17.7576    18.0973
  409.0000    87.3239    17.5852    17.9538
  409.5000    87.5415    17.3802    17.7386
  410.0000    88.5832    17.1776    17.5279
  410.5000    90.9648    16.9774    17.3197
  411.0000    91.6206    16.7795    17.1803
  411.5000    89.0617    16.5839    16.7992
  412.0000    87.2056    16.3906    16.5768
  412.5000    88.0545    16.1995    16.4054
  413.0000    90.1807    16.0107    16.2358
  413.5000    92.1149    15.8240    16.0679
  414.0000    92.7863    15.6122    15.8390
  414.5000    93.8300    15.2601    15.4965
  415.0000    94.6678    14.9159    15.1619
  415.5000    93.7455    14.5794    14.8345
  416.0000    92.7952    14.2506    14.5143
  416.5000    91.8601    13.9291    14.2010
  417.0000    91.4029    13.6149    13.8945
  417.5000    92.6452    13.3078    13.5946
  418.0000    93.8467    13.0077    13.3011
  418.5000    93.8059    12.8607    13.1223
  419.0000    91.2412    12.7751    13.0182
  419.5000    88.2720    12.6350    12.9131
  420.0000    85.6235    12.4964    12.8124
  420.5000    86.6340    12.3592    12.7107
  421.0000    90.0391    12.2243    12.6098
  421.5000    93.1739    12.0944    12.5098
  422.0000    93.9084    11.9984    12.4105
  422.5000    92.8695    11.8858    12.3102
  423.0000    92.9557    11.8977    12.2037
  423.5000    94.8332    11.9166    12.1068
  424.0000    94.7997    11.9356    12.1423
  424.5000    93.5557    11.9547    12.1752
  425.0000    93.3429    11.9738    12.2082
  425.5000    95.0598    11.9926    12.2413
  426.0000    96.8527    12.0272    12.2745
  426.5000    96.7953    12.0643    12.3077
  427.0000    96.3158    12.1015    12.3411
  427.5000    95.9594    12.1389    12.3745
  428.0000    96.0576    12.1764    12.4080
  428.5000    97.0642    12.2140    12.4460
  429.0000    98.3182    12.2188    12.4211
  429.5000    98.4643    12.2189    12.3925
  430.0000    98.1633    12.2189    12.3639
  430.5000    99.0129    12.2191    12.3355
  431.0000    99.8282    12.2188    12.3071
  431.5000    99.7279    12.1952    12.2788
  432.0000    96.7210    12.1122    12.2506
  432.5000    92.7206    12.0298    12.2224
  433.0000    93.4281    11.9479    12.1942
  433.5000    95.1941    11.8791    12.1662
  434.0000    96.3698    11.8507    12.1382
  434.5000    97.9707    11.8225    12.1103
  435.0000   101.5686    11.7942    12.0824
  435.5000   104.3589    11.7602    12.0546
  436.0000   103.4704    11.7171    12.0270
  436.5000   101.1626    11.6691    11.9948
  437.0000   100.4769    11.7098    12.0451
  437.5000   100.8471    11.7565    12.1173
  438.0000   102.3512    11.8035    12.1899
  438.5000   104.6160    11.8506    12.2629
  439.0000   106.6170    11.8980    12.3364
  439.5000   106.5289    11.9457    12.4104
  440.0000   105.0191    11.9958    12.4460
  440.5000   103.6442    11.9615    12.3849
  441.0000   103.2152    11.9158    12.3311
  441.5000   102.2552    11.8703    12.2776
  442.0000   101.2613    11.8250    12.2244
  442.5000   102.6256    11.7769    12.1715
  443.0000   103.4035    11.7353    12.1180
  443.5000   101.9357    11.6793    12.0693
  444.0000   100.5875    11.6236    12.0054
  444.5000   102.7957    11.5682    11.9418
  445.0000   106.6581    11.5373    11.8782
  445.5000   108.1330    11.5100    11.8195
  446.0000   106.0381    11.4831    11.6637
  446.5000   104.5711    11.4559    11.5862
  447.0000   105.0754    11.2908    11.4466
  447.5000   106.6468    11.1332    11.3108
  448.0000   107.9123    10.9777    11.1761
  448.5000   107.6817    10.7355    10.9523
  449.0000   109.6323    10.4708    10.7045
  449.5000   111.4308    10.2127    10.4628
  450.0000   113.1724     9.9609    10.2238
  450.5000   114.1814     9.6875    10.0343
  451.0000   114.9853     9.3670     9.7537
  451.5000   116.8876     8.7938     9.4840
  452.0000   118.8290     7.9181     8.5933
  452.5000   119.7061     7.1536     7.5372
  453.0000   120.9871     6.4928     6.6110
  453.5000   124.6127     6.0102     5.7986
  454.0000   132.8148     6.0253     5.3831
  454.5000   143.3407     6.0559     5.3337
