~VERSION INFORMATION
 VERS.                2.0:   CWLS LOG ASCII STANDARD - VERSION 2.0
 WRAP.                 NO:   ONE LINE PER DEPTH STEP
~WELL INFORMATION
#MNEM.UNIT      DATA TYPE    INFORMATION
#----------   ------------   ------------------------------
 STRT.F           46.0000:   START DEPTH
 STOP.F          457.0000:   STOP DEPTH
 STEP.F            0.5000:   STEP LENGTH
 NULL.          -999.2500:   NO VALUE
 COMP. BROWN JOHN E&C INC:   COMPANY
 WELL. NPR 3 X10 #54-52-10:   WELL
 FLD .             TEAPOT:   FIELD
 LOC .      S10 T38N R78W:   LOCATION
 CNTY.            NATRONA:   COUNTY
 STAT.            WYOMING:   STATE
 CTRY. UNITED STATES OF AMERICA:   COUNTRY
 SRVC.       Schlumberger:   SERVICE COMPANY
 DATE.        27-SEP-1990:   LOGDATE
 API .       490251131700:   API NUMBER
~CURVE INFORMATION
#MNEM.UNIT       API CODE    CURVE DESCRIPTION
#----------   ------------   ------------------------------
 DEPT.F                  :   
 GRR .GAPI   07 310 01 00:   GAMMA RAY
 ILD .OHMM   07 120 46 00:   INDUCTION LOG DEEP
 ILM .OHMM   07 120 44 00:   INDUCTION LOG MEDIUM
~PARAMETER INFORMATION
#MNEM.UNIT          VALUE    DESCRIPTION
#----------   ------------   ------------------------------
 PD  .                 GL:   PERMANENT DATUM
 EPD .F              5190:   ELEVATION PERMANENT DATUM
 LMF .                 KB:   LOG MEASURED FROM
 DAPD.F              10.0:   FEET ABOVE PERMANENT DATUM
 DMF .                 KB:   DRILLING MEASURED FROM
 EKB .F              5200:   KELLING BUSHING
 EDF .F              5199:   DRILLING FLOOR
 EGL .F              5190:   GROUND LEVEL
 DATE.        27-SEP-1990:   RUN DATE
 RUN .                  1:   RUN NUMBER
 DD  .F               460:   DEPTH DRILLER
 DL  .F               463:   DEPTH LOGGER
 BLI .F               467:   BOTTOM LOG INTERVAL
 TLI .F                48:   TOP LOG INTERVAL
 CS  .IN            8.625:   CASING SIZE
 CBD .F                48:   CASING BOTTOM DRILLER
 CBL .F                62:   CASING BOTTOM LOGGER
 BS  .IN            7.875:   BIT SIZE
 BSD .F               460:   BIT SIZE AT DEPTH
 DFT .                AIR:   DRILLING FLUID TYPE
 TCS .HRS            1900:   TIME CURCULATED STOPPED
 TLAB.HRS            1618:   TIME LOGGER AT BOTTOM
 LUN .               6882:   LOGGING UNIT NUMBER
 LUL .               CODY:   LOGGING UNIT LOCATION
 ENGI.        MICK FISHER:   RECORDING ENGINEER
 WITN.       GARRY STRONG:   WITNESSED BY
 CLNT.            A2DTECH:   CLIENT CODE
 ORIG.           5" PRINT:   ORIGIN OF DATA
 UWI .       490251131700:   UNIQUE WELL ID
 DICO. A2D Technologies, Inc.:   DIGITIZING COMPANY
~OTHER INFORMATION
~A   DEPT       GRR       ILD        ILM   
# ...
  410.0000   125.4628     9.9870     9.7040
  410.5000   123.6176    10.2675    10.1696
  411.0000   123.8984    10.5552    10.6036
  411.5000   124.7795    10.8525    10.9025
  412.0000   125.9699    11.1573    11.1321
  412.5000   122.9115    11.4700    11.3654
  413.0000   119.2462    11.7100    11.4429
  413.5000   115.5808    11.8717    11.7654
  414.0000   113.1290    12.1202    12.0126
  414.5000   113.4035    12.3730    12.1789
  415.0000   115.5044    12.4573    12.4347
  415.5000   119.1228    12.7180    12.5195
  416.0000   122.1342    12.8038    12.7832
  416.5000   123.9317    12.7994    12.7800
  417.0000   120.2663    12.7960    12.7773
  417.5000   120.2428    12.7924    12.7742
  418.0000   120.2994    12.7882    12.7716
  418.5000   123.2248    13.0558    13.0399
  419.0000   121.3804    13.1448    13.1295
  419.5000   119.2325    13.1404    13.1262
  420.0000   117.3880    13.2291    13.1235
  420.5000   117.6680    13.1333    13.1208
  421.0000   117.6445    13.1296    13.1175
  421.5000   115.1319    13.1253    13.1149
  422.0000   113.9498    13.1218    13.0207
  422.5000   113.9263    12.8459    12.7476
  423.0000   113.9028    12.7529    12.7450
  423.5000   112.6653    12.7401    12.7425
  424.0000   111.4279    12.7460    12.7399
  424.5000   112.6183    12.7417    12.9162
  425.0000   115.0228    12.7383    12.9136
  425.5000   117.4272    12.7348    12.8209
  426.0000   117.3978    12.7314    12.7289
  426.5000   116.1604    12.7280    12.7263
  427.0000   114.9229    12.6359    12.6350
  427.5000   114.8994    12.3701    12.4539
  428.0000   115.7864    12.0249    12.2806
  428.5000   116.1276    11.6900    11.9391
  429.0000   114.8285    11.3645    11.3660
  429.5000   114.4961    11.2036    11.0500
  430.0000   115.3830    11.2799    11.2822
  430.5000   117.1863    11.1975    11.0455
  431.0000   119.2814    10.8785    10.7384
  431.5000   120.1743    10.6561    10.6498
  432.0000   117.4135    10.5053    10.5843
  432.5000   115.8725    10.4292    10.5083
  433.0000   114.6343    10.3538    10.5062
  433.5000   113.3917    10.2072    10.4308
  434.0000   113.3682    10.2044    10.3560
  434.5000   113.3447    10.1305    10.1387
  435.0000   113.0178     9.9169     9.9957
  435.5000   112.9943     9.8452     9.9236
  436.0000   112.6673     9.9122     9.9917
  436.5000  -999.2500    10.1197     9.9892
  437.0000  -999.2500    10.1163     9.9872
  437.5000  -999.2500    10.1135     9.8464
  438.0000  -999.2500     9.8907     9.7757
  438.5000  -999.2500     9.5574     9.5630
  439.0000  -999.2500     9.5549     9.5015
  439.5000  -999.2500     9.5523     9.5668
  440.0000  -999.2500     9.6174     9.5643
  440.5000  -999.2500     9.5471     9.2984
  441.0000  -999.2500     9.2149     9.0399
  441.5000  -999.2500     8.9593     8.9124
  442.0000  -999.2500     8.7709     8.9732
  442.5000  -999.2500     8.7686     8.8462
  443.0000  -999.2500     8.7662     8.7827
  443.5000  -999.2500     8.7638     8.7197
  444.0000  -999.2500     8.6398     8.5968
  444.5000  -999.2500     8.5175     8.5351
  445.0000  -999.2500     8.3378     8.3561
  445.5000  -999.2500     8.2198     8.2339
  446.0000  -999.2500     8.0470     8.0088
  446.5000  -999.2500     7.8229     7.8408
  447.0000  -999.2500     7.8208     7.7845
  447.5000  -999.2500     7.7642     7.6748
  448.0000  -999.2500     7.8165     7.6732
  448.5000  -999.2500     7.9801     7.7798
  449.0000  -999.2500     8.1465     8.0020
  449.5000  -999.2500     8.3754     8.2822
  450.0000  -999.2500     8.6711     8.5750
  450.5000  -999.2500     8.9147     8.8167
  451.0000  -999.2500     8.9748     9.1288
  451.5000  -999.2500     9.0988     9.3861
  452.0000  -999.2500     9.1602     9.5165
  452.5000  -999.2500     9.1571     9.7846
  453.0000  -999.2500     9.1546     9.9200
  453.5000  -999.2500     9.0883    10.0583
  454.0000  -999.2500     9.0226    10.1264
  454.5000  -999.2500     8.9573    10.1955
  455.0000  -999.2500     8.9548    10.1934
  455.5000  -999.2500     8.9518    10.2004
  456.0000  -999.2500     8.9494    10.2608
  456.5000  -999.2500     9.0098    10.2586
  457.0000  -999.2500     9.0074    10.2561
