~VERSION INFORMATION
 VERS.                2.0:   CWLS LOG ASCII STANDARD - VERSION 2.0
 WRAP.                 NO:   ONE LINE PER DEPTH STEP
~WELL INFORMATION
#MNEM.UNIT      DATA TYPE    INFORMATION
#----------   ------------   ------------------------------
 STRT.F          520.5000:   START DEPTH
 STOP.F         2062.0000:   STOP DEPTH
 STEP.F            0.5000:   STEP LENGTH
 NULL.          -999.2500:   NO VALUE
 COMP. LAWRENCE-ALLISON &AS:   COMPANY
 WELL.     NPR 3 #18-X-28:   WELL
 FLD .             TEAPOT:   FIELD
 LOC .      S28 T39N R78W:   LOCATION
 CNTY.            NATRONA:   COUNTY
 STAT.            WYOMING:   STATE
 CTRY. UNITED STATES OF AMERICA:   COUNTRY
 SRVC.            Unknown:   SERVICE COMPANY
 DATE.        08-DEC-1987:   LOGDATE
 API .       490251119700:   API NUMBER
~CURVE INFORMATION
#MNEM.UNIT       API CODE    CURVE DESCRIPTION
#----------   ------------   ------------------------------
 DEPT.F                  :   
 ROP .MIN/FT 91 810 01 00:   RAT OF DRILLING PENETRATION
 TGAS.UNITS  91 830 01 00:   TOTAL GAS FROM HOTWIRE
~PARAMETER INFORMATION
#MNEM.UNIT          VALUE    DESCRIPTION
#----------   ------------   ------------------------------
 EKB .F              5090:   KELLING BUSHING
 EGL .F              5080:   GROUND LEVEL
 DATE.            12-8-87:   RUN DATE
 DD  .F              2062:   DEPTH DRILLER
 CS  .IN                7:   CASING SIZE
 CBD .F               513:   CASING BOTTOM DRILLER
 TCS .HRS            1000:   TIME CURCULATED STOPPED
 TLAB.HRS            0432:   TIME LOGGER AT BOTTOM
 ENGI.              TOWER:   RECORDING ENGINEER
 WITN.               HUSK:   WITNESSED BY
 CLNT.            A2DTECH:   CLIENT CODE
 ORIG.           5" PRINT:   ORIGIN OF DATA
 UWI .       490251119700:   UNIQUE WELL ID
 DICO. A2D Technologies, Inc.:   DIGITIZING COMPANY
~OTHER INFORMATION
~A   DEPT      ROP         TGAS 
# ...
 1128.0000     0.3023     0.0004
 1128.5000     0.3024     0.0004
 1129.0000     0.3026     0.0004
 1129.5000     0.3027     0.0004
 1130.0000     0.3028     0.0004
 1130.5000     0.3029     0.0004
 1131.0000     0.3031     0.0004
 1131.5000     0.2928     0.0004
 1132.0000     0.2930     0.0004
 1132.5000     0.2931     0.0004
 1133.0000     0.2932     0.0004
 1133.5000     0.2934     0.0004
 1134.0000     0.2935     0.0004
 1134.5000     0.2936     0.0004
 1135.0000     0.2937     0.0004
 1135.5000     0.2939     0.0004
 1136.0000     0.2940     0.0004
 1136.5000     0.2941     0.0004
 1137.0000     0.2943     0.0004
 1137.5000     0.2944     0.0004
 1138.0000     0.2945     0.0004
 1138.5000     0.2843     0.0004
 1139.0000     0.2844     0.0004
 1139.5000     0.2742     0.0004
 1140.0000     0.2743     0.0004
 1140.5000     0.2641     0.0004
 1141.0000     0.2642     0.0004
 1141.5000     0.2747     0.0004
 1142.0000     0.2956     0.0004
 1142.5000     0.3065     0.0004
 1143.0000     0.3476     0.0004
 1143.5000     0.3788     0.0004
 1144.0000     0.3996     0.0004
 1144.5000     0.3997     0.0004
 1145.0000     0.3999     0.0004
 1145.5000     0.4000     0.0004
 1146.0000     0.4105     0.0004
 1146.5000     0.4106     0.0004
 1147.0000     0.4004     0.0004
 1147.5000     0.4005     0.0004
 1148.0000     0.3903     0.0004
 1148.5000     0.3904     0.0004
 1149.0000     0.3905     0.0004
 1149.5000     0.3907     0.0004
 1150.0000     0.4011     0.0004
 1150.5000     0.4013     0.0004
 1151.0000     0.4118     0.0004
 1151.5000     0.4119     0.0004
 1152.0000     0.4224     0.0004
 1152.5000     0.4225     0.0004
 1153.0000     0.4123     0.0004
 1153.5000     0.4020     0.0004
 1154.0000     0.4022     0.0004
 1154.5000     0.4230     0.0004
 1155.0000     0.4542     0.0004
 1155.5000     0.4854     0.0004
 1156.0000     0.4959     0.0004
 1156.5000     0.4856     0.0004
 1157.0000     0.4858     0.0004
 1157.5000     0.4755     0.0004
 1158.0000     0.4757     0.0004
 1158.5000     0.4758     0.0004
 1159.0000     0.4656     0.3479
 1159.5000     0.3829     0.3833
 1160.0000     0.3106     0.0004
 1160.5000     0.3210     0.0004
 1161.0000     0.3212     0.0004
 1161.5000     0.3213     0.0004
 1162.0000     0.3214     0.0004
 1162.5000     0.3216     0.0004
 1163.0000     0.3217     0.0004
 1163.5000     0.3115     0.0004
 1164.0000     0.3116     0.1256
 1164.5000     0.3117     0.5599
 1165.0000     0.3119     0.9973
 1165.5000     0.3120     1.0127
 1166.0000     0.3121     1.0282
 1166.5000     0.3122     1.0437
 1167.0000     0.3124     1.0592
 1167.5000     0.3125     1.0747
 1168.0000     0.3127     1.0902
 1168.5000     0.3128     1.1057
 1169.0000     0.3129     1.1212
 1169.5000     0.3130     0.7180
 1170.0000     0.3132     0.7335
 1170.5000     0.3133     0.0004
 1171.0000     0.3134     0.0004
 1171.5000     0.3136     0.0004
 1172.0000     0.3137     0.0004
 1172.5000     0.3138     0.0004
 1173.0000     0.3139     0.0004
 1173.5000     0.3141     0.0004
 1174.0000     0.3245     0.0004
 1174.5000     0.3247     0.0004
 1175.0000     0.3248     0.0004
 1175.5000     0.3249     0.0004
 1176.0000     0.3251     0.0004
 1176.5000     0.3252     0.0004
 1177.0000     0.3149     0.0004
 1177.5000     0.3151     0.0004
 1178.0000     0.3152     0.0004
 1178.5000     0.3153     0.0004
 1179.0000     0.3155     0.0004
 1179.5000     0.3156     0.0004
 1180.0000     0.3054     0.0004
 1180.5000     0.3055     0.0004
 1181.0000     0.3056     0.0004
 1181.5000     0.3172     0.2564
 1182.0000     0.3487     0.0004
 1182.5000     0.3699     0.2878
 1183.0000     0.3890     0.3035
 1183.5000     0.4098     0.0004
 1184.0000     0.4203     0.0004
 1184.5000     0.4204     0.0004
 1185.0000     0.4206     0.0004
 1185.5000     0.4207     0.0004
 1186.0000     0.4208     0.0004
 1186.5000     0.4210     0.0004
 1187.0000     0.4211     0.0120
 1187.5000     0.4212     0.0004
 1188.0000     0.4213     0.0004
 1188.5000     0.4215     0.0004
 1189.0000     0.4216     0.0004
 1189.5000     0.4217     0.0004
 1190.0000     0.4115     0.0004
 1190.5000     0.3909     0.0004
 1191.0000     0.3911     0.0004
 1191.5000     0.3912     0.0004
 1192.0000     0.3809     0.0004
 1192.5000     0.3811     0.0004
 1193.0000     0.3812     0.0004
 1193.5000     0.3813     0.0004
 1194.0000     0.3815     0.0004
 1194.5000     0.3816     0.0004
 1195.0000     0.3817     0.0004
 1195.5000     0.3819     0.0004
 1196.0000     0.3820     0.0004
 1196.5000     0.3832     0.0004
 1197.0000     0.3926     0.0004
 1197.5000     0.3927     0.0004
 1198.0000     0.4032     0.0004
 1198.5000     0.4137     0.0004
 1199.0000     0.4242     0.0004
 1199.5000     0.4347     0.0004
 1200.0000     0.4348     0.0004
 1200.5000     0.4453     0.0004
 1201.0000     0.4138     0.0004
 1201.5000     0.4137     0.0004
 1202.0000     0.4136     0.0004
 1202.5000     0.4134     0.0004
 1203.0000     0.4133     0.0004
 1203.5000     0.4028     0.0004
 1204.0000     0.4027     0.0004
 1204.5000     0.4025     0.0004
 1205.0000     0.4024     0.0004
 1205.5000     0.4023     0.0004
 1206.0000     0.3918     0.0004
 1206.5000     0.3917     0.0004
 1207.0000     0.3915     0.0004
 1207.5000     0.3914     0.0004
 1208.0000     0.3913     0.0004
 1208.5000     0.3912     0.0004
 1209.0000     0.3910     0.0004
 1209.5000     0.3909     0.0004
 1210.0000     0.3908     0.0004
 1210.5000     0.3906     0.0004
 1211.0000     0.3802     0.0004
 1211.5000     0.3904     0.0004
 1212.0000     0.3903     0.0004
 1212.5000     0.3901     0.0004
 1213.0000     0.3900     0.0004
 1213.5000     0.3899     0.0004
 1214.0000     0.3897     0.0004
 1214.5000     0.3896     0.0004
 1215.0000     0.3791     0.0004
 1215.5000     0.3790     0.0004
 1216.0000     0.3789     0.0004
 1216.5000     0.3891     0.0004
 1217.0000     0.3890     0.4186
 1217.5000     0.3888     0.8372
 1218.0000     0.3887     1.2558
 1218.5000     0.3886     1.2558
 1219.0000     0.3884     1.6744
 1219.5000     0.3883     1.6744
 1220.0000     0.3882     1.6744
 1220.5000     0.3881     1.6744
 1221.0000     0.3879     1.2558
 1221.5000     0.3878     1.2558
 1222.0000     0.3877     1.2558
 1222.5000     0.3875     1.2558
 1223.0000     0.3874     1.2558
 1223.5000     0.3873     1.2558
 1224.0000     0.3872     0.8372
 1224.5000     0.3767     0.8372
 1225.0000     0.3765     0.4186
 1225.5000     0.3764     0.4186
 1226.0000     0.3763     0.4186
 1226.5000     0.3762     0.4186
 1227.0000     0.3760     0.4186
 1227.5000     0.3759     0.4186
 1228.0000     0.3758     0.4186
 1228.5000     0.3756     0.4186
 1229.0000     0.3755     0.4186
 1229.5000     0.3754     0.4186
 1230.0000     0.3753     0.4186
 1230.5000     0.3751     0.0004
 1231.0000     0.3750     0.0004
 1231.5000     0.3748     0.0004
 1232.0000     0.3644     0.0004
 1232.5000     0.3642     0.0004
 1233.0000     0.3641     0.0004
 1233.5000     0.3640     0.0004
 1234.0000     0.3639     0.0004
 1234.5000     0.3637     0.0004
 1235.0000     0.3636     0.0004
 1235.5000     0.3635     0.0004
 1236.0000     0.3633     0.0004
 1236.5000     0.3632     0.0004
 1237.0000     0.3631     0.0004
 1237.5000     0.3630     0.0004
 1238.0000     0.3628     0.0004
 1238.5000     0.3627     0.0004
 1239.0000     0.3626     0.0004
 1239.5000     0.3624     0.0004
 1240.0000     0.3520     0.0004
 1240.5000     0.3626     0.0004
 1241.0000     0.3629     0.0744
 1241.5000     0.3631     0.0004
 1242.0000     0.3530     0.0004
 1242.5000     0.3533     0.1904
 1243.0000     0.3639     0.0004
 1243.5000     0.3641     0.0004
 1244.0000     0.3540     0.0004
 1244.5000     0.3543     0.0004
 1245.0000     0.3546     0.0004
 1245.5000     0.3548     0.0004
 1246.0000     0.3551     0.0004
 1246.5000     0.3553     0.0576
 1247.0000     0.3556     0.0942
 1247.5000     0.3662     0.1377
 1248.0000     0.3665     0.1734
 1248.5000     0.3771     0.2091
 1249.0000     0.3774     0.2448
