~VERSION INFORMATION
 VERS.                2.0:   CWLS LOG ASCII STANDARD - VERSION 2.0
 WRAP.                 NO:   ONE LINE PER DEPTH STEP
~WELL INFORMATION
#MNEM.UNIT      DATA TYPE    INFORMATION
#----------   ------------   ------------------------------
 STRT.F           30.0000:   START DEPTH
 STOP.F          634.0000:   STOP DEPTH
 STEP.F            0.5000:   STEP LENGTH
 NULL.          -999.2500:   NO VALUE
 COMP. FENIX & SCISSON INC:   COMPANY
 WELL.     26-S-11 #26-11:   WELL
 FLD .             TEAPOT:   FIELD
 LOC .      S11 T38N R78W:   LOCATION
 CNTY.            NATRONA:   COUNTY
 STAT.            WYOMING:   STATE
 CTRY. UNITED STATES OF AMERICA:   COUNTRY
 SRVC.              Welex:   SERVICE COMPANY
 DATE.        26-APR-1977:   LOGDATE
 API .       490251034300:   API NUMBER
~CURVE INFORMATION
#MNEM.UNIT       API CODE    CURVE DESCRIPTION
#----------   ------------   ------------------------------
 DEPT.F                  :   
 SPR .MV     07 010 01 00:   SPONTANEOUS POTENTIAL
 ILD .OHMM   07 120 46 00:   INDUCTION LOG DEEP
 ILM .OHMM   07 120 44 00:   INDUCTION LOG MEDIUM
 SGRD.OHMM   07 221 05 00:   SHALLOW SHORT GUARD RESISTIVITY
 CALD.IN     45 280 60 00:   CALIPER FROM DENSITY LOG
 GRD .GAPI   45 310 01 00:   GAMMA RAY FROM DENSITY LOG
 CORR.G/C3   45 356 01 00:   DENSITY CORRECTION
 DPHI.DEC    45 890 12 00:   DENSITY POROSITY SANDSTONE
 RHOB.G/C3   45 350 01 00:   BULK DENSITY
~PARAMETER INFORMATION
#MNEM.UNIT          VALUE    DESCRIPTION
#----------   ------------   ------------------------------
 PD  .                 GL:   PERMANENT DATUM
 EPD .F              5179:   ELEVATION PERMANENT DATUM
 LMF .                 GL:   LOG MEASURED FROM
 DMF .                 GL:   DRILLING MEASURED FROM
 EGL .F              5179:   GROUND LEVEL
 DATE.          4-24-1977:   RUN DATE
 RUN .                  1:   RUN NUMBER
 DD  .F               645:   DEPTH DRILLER
 DL  .F               634:   DEPTH LOGGER
 BLI .F               632:   BOTTOM LOG INTERVAL
 TLI .F                40:   TOP LOG INTERVAL
 CS  .IN            8.625:   CASING SIZE
 CBD .F                40:   CASING BOTTOM DRILLER
 CBL .F                42:   CASING BOTTOM LOGGER
 BS  .IN            7.875:   BIT SIZE
 BSD .F               645:   BIT SIZE AT DEPTH
 DFT .            KCL MUD:   DRILLING FLUID TYPE
 DFD .                8.8:   DRILLING FLUID DENSITY
 DFV .                 33:   DRILLING FLUID VISCOSITY
 DFPH.                7.5:   DRILLING FLUID PH
 DFL .                 96:   DRILLING FLUID LOSS
 MSS .           FLOWLINE:   MUD SAMPLE SOURCE
 RMS .OHMM            .17:   RESISTIVITY MUD SAMPLE
 MST .F                81:   MUD SAMPLE TEMPERATURE
 RMF .OHMM            .16:   RESISTIVITY MUD FILTRATE SAMPLE
 MFST.F                81:   MUD FILTRATE SAMPLE TEMPERATURE
 RMC .OHMM            .21:   RESISTIVITY MUD CAKE
 MCST.F                81:   MUD CAKE SAMPLE TEMPERATURE
 MFSS.           FANN KIT:   MUD FILTRATE SAMPLE SOURCE
 MCSS.           FANN KIT:   MUD CAKE SAMPLE SOURCE
 RMB .OHMM            .19:   RESISTIVITY MUD AT BHT
 BHT .F                72:   BOTTOM HOLE TEMPERATURE
 TCS .HRS             1.5:   TIME CURCULATED STOPPED
 MRT .F                72:   MAXIMUM RECORDED TEMPERATURE
 LUN .                861:   LOGGING UNIT NUMBER
 LUL .           GILLETTE:   LOGGING UNIT LOCATION
 ENGI.             JOYNER:   RECORDING ENGINEER
 WITN.           ROB LYON:   WITNESSED BY
 CLNT.            A2DTECH:   CLIENT CODE
 ORIG.         2.5" PRINT:   ORIGIN OF DATA
 UWI .       490251034300:   UNIQUE WELL ID
 DICO. A2D Technologies, Inc.:   DIGITIZING COMPANY
~OTHER INFORMATION
~A   DEPT      SPR        ILD        ILM       SGRD       CALD        GRD       CORR       DPHI       RHOB   
# ...
  468.0000   -19.3474    14.2606    16.5203    22.0195     7.8663    86.1057     0.0132     0.1714     2.3614
  468.5000   -19.3520    14.2587    15.9697    22.0179     7.8660    87.0064     0.0132     0.1695     2.3643
  469.0000   -19.3565    14.0641    15.3867    21.7080     7.8657    88.4330     0.0131     0.1677     2.3672
  469.5000   -19.3610    14.0622    15.6582    21.7064     7.8654    89.3094     0.0161     0.1661     2.3701
  470.0000   -19.3656    13.8703    15.8180    21.7049     7.8651    89.9315     0.0160     0.1644     2.3716
  470.5000   -19.3701    13.8684    15.3737    21.5970     7.8648    90.7688     0.0160     0.1620     2.3760
  471.0000   -19.3746    13.8665    15.0565    21.3979     7.8645    91.3519     0.0159     0.1638     2.3775
  471.5000   -19.3792    13.8647    14.7194    20.9834     7.8935    91.6417     0.0159     0.1720     2.3671
  472.0000   -19.4602    13.6755    15.3578    20.7998     7.9226    91.8889     0.0158     0.1713     2.3626
  472.5000   -19.6903    13.3066    15.9143    20.9214     7.9223    91.0337     0.0128     0.1694     2.3655
  473.0000   -19.6948    12.9476    16.3630    21.3919     7.9220    88.3607     0.0098     0.1709     2.3611
  473.5000   -19.7880    12.5984    16.1327    20.7954     7.9510    89.0806     0.0038     0.1759     2.3522
  474.0000   -20.0061    12.4265    15.7824    20.3687     7.9507    91.4253     0.0038     0.1783     2.3551
  474.5000   -20.0106    12.2569    15.4621    20.2142     7.9504    88.3479     0.0008     0.1743     2.3580
  475.0000   -20.0151    12.2552    15.3347    20.2127     7.9501    89.6139    -0.0022     0.1753     2.3565
  475.5000   -20.0197    12.4214    15.0297    20.2112     7.9499    90.7845    -0.0052     0.1814     2.3417
  476.0000   -20.0242    12.5899    14.8182    20.2098     7.9789    90.9740    -0.0083     0.1854     2.3357
  476.5000   -20.1415    12.5882    15.0278    20.2084     7.9786    89.9858    -0.0113     0.1889     2.3327
  477.0000   -20.3354    12.7590    15.2402    20.2070     7.9783    89.3402    -0.0143     0.1937     2.3283
  477.5000   -20.3399    13.1090    15.2389    20.2056     7.9780    88.0283    -0.0173     0.1982     2.3238
  478.0000   -20.3444    13.2868    15.2379    20.4908     8.0070    89.4155    -0.0173     0.2006     2.3164
  478.5000   -20.3489    13.2850    14.8130    21.0756     8.0067    90.8254    -0.0174     0.1959     2.3238
  479.0000   -20.3535    13.2832    14.1983    21.3738     8.0065    91.9971    -0.0115     0.1862     2.3370
  479.5000   -20.3580    13.2814    13.6091    20.7776     8.0355    93.1110    -0.0056     0.1794     2.3478
  480.0000   -20.5036    13.2796    13.2296    20.7761     8.0352    94.1647     0.0003     0.1669     2.3680
  480.5000   -20.6692    13.2778    12.8607    20.4837     8.0349    93.6877     0.0032     0.1534     2.3851
  481.0000   -20.6737    13.2760    12.8598    20.1954     8.0346    92.1026     0.0061     0.1480     2.3904
  481.5000   -20.8313    13.2742    13.2268    20.1940     8.0343    92.2214     0.0091     0.1432     2.3992
  482.0000   -21.1420    13.2724    13.4138    20.1926     8.0340    92.9741     0.0120     0.1461     2.4057
  482.5000   -21.2915    13.2706    13.7966    20.4782     8.0337    93.6828     0.0119     0.1456     2.4049
  483.0000   -21.2961    13.2688    13.9916    20.7676     8.0334    94.5601     0.0149     0.1417     2.4049
  483.5000   -21.3006    13.2670    13.9906    21.3603     8.0331    95.0137     0.0148     0.1391     2.4134
  484.0000   -21.3051    13.2652    13.7937    20.7645     8.0328    91.7440     0.0148     0.1367     2.4211
  484.5000   -21.3096    13.2592    13.5995    19.6240     8.0326    89.3211     0.0147     0.1349     2.4171
  485.0000   -21.3151    13.0765    13.2203    18.8097     8.0323    87.0137     0.0117     0.1371     2.4033
  485.5000   -21.3196    12.7221    12.8517    18.0291     8.0320    87.2859     0.0117     0.1446     2.3941
  486.0000   -21.3241    12.3772    12.6708    17.5264     8.0317    88.7508     0.0116     0.1540     2.3873
  486.5000   -21.3286    11.8790    12.4925    17.5252     8.0314    90.1442     0.0086     0.1645     2.3708
  487.0000   -21.3331    11.4008    12.3167    17.5239     8.0311    91.3147     0.0056     0.1664     2.3700
  487.5000   -21.3376    11.0918    12.1433    17.5227     8.0015    91.7527     0.0056     0.1631     2.3776
  488.0000   -21.3421    10.6588    11.9724    17.5215     8.0012    87.8573     0.0055     0.1593     2.3826
  488.5000   -21.3466    10.6424    11.8039    17.5203     8.0009    87.0519     0.0055     0.1557     2.3868
  489.0000   -21.3511    10.5119    11.8025    17.5190     7.9713    89.1114     0.0054     0.1557     2.3867
  489.5000   -21.3556    10.5282    11.6369    17.5178     7.9710    91.3798     0.0054     0.1600     2.3858
  490.0000   -21.6622    10.6531    11.6361    17.5166     7.9707    93.0596     0.0053     0.1581     2.3808
  490.5000   -21.6667    10.7975    11.6353    17.5154     7.9704    94.1510     0.0083     0.1574     2.3793
  491.0000   -21.6712    10.7959    11.7998    17.5141     7.9994    95.0274     0.0082     0.1613     2.3748
  491.5000   -21.6757    10.7707    11.9798    17.5129     7.9991    95.2367     0.0111     0.1635     2.3733
  492.0000   -21.6802    10.6472    12.1357    17.5117     7.9988    95.3138     0.0141     0.1548     2.3747
  492.5000   -21.6847    10.5019    12.3072    17.2652     7.9985    96.4009     0.0140     0.1470     2.3865
  493.0000   -21.6892    10.3315    12.2850    17.2397     8.0276    93.7572     0.0140     0.1396     2.4043
  493.5000   -21.9959    10.1891    12.1331    17.0209     8.0272    96.0989     0.0169     0.1343     2.4146
  494.0000   -22.0004    10.0778    12.1062    16.9565     8.0270    94.4555     0.0198     0.1301     2.4234
  494.5000   -22.0049    10.0460    11.7939    16.5105     8.0267    93.1569     0.0227     0.1278     2.4293
  495.0000   -22.0094     9.9075    11.7628    16.0838     8.0264    93.2405     0.0227     0.1284     2.4293
  495.5000   -22.0139     9.7710    11.6271    15.6354     8.0261    93.4420     0.0227     0.1308     2.4307
  496.0000   -22.3205     9.6364    11.6263    15.5905     8.0258    93.1671     0.0226     0.1296     2.4307
  496.5000   -22.3250     9.5375    11.4626    15.4143     8.0255    89.2565     0.0226     0.1260     2.4322
  497.0000   -22.3295     9.5362    11.4618    15.6322     8.0252    88.1502     0.0225     0.1272     2.4336
  497.5000   -22.6361     9.4061    11.4610    15.6865     8.0249    92.0211     0.0225     0.1302     2.4365
  498.0000   -22.6406     9.4048    11.4602    15.8520     8.0246    94.7683     0.0224     0.1267     2.4424
  498.5000   -22.9472     9.4035    11.2989    15.6288     8.0243    95.7617     0.0224     0.1207     2.4542
  499.0000   -22.9517     9.4022    11.2981    15.6277     8.0240    94.5843     0.0253     0.1160     2.4646
  499.5000   -22.9562     9.4010    11.2973    15.6265     8.0238    96.5322     0.0253     0.1125     2.4719
  500.0000   -22.9607     9.3997    11.4571    15.6254     8.0235    97.5081     0.0252     0.1112     2.4749
  500.5000   -22.9622     9.5274    11.4559    15.6221     8.0199    96.6188     0.0218     0.1089     2.4748
  501.0000   -22.9638     9.6565    11.4535    15.8407     8.0164    96.9150     0.0184     0.1166     2.4585
  501.5000   -22.9655     9.8360    11.6148    16.0623     8.0128    98.0939     0.0149     0.1238     2.4451
  502.0000   -22.9670     9.9202    11.7778    16.0589     8.0092    99.8184     0.0132     0.1291     2.4333
  502.5000   -22.9685    10.0547    11.9435    16.2893     8.0057    98.5924     0.0102     0.1339     2.4214
  503.0000   -22.9700    10.0531    12.1117    16.5114     8.0021    96.5044     0.0071     0.1398     2.4125
  503.5000   -22.9715     9.9822    11.9401    16.5079     7.9986    93.7421     0.0013     0.1458     2.4036
  504.0000   -22.9731     9.9808    11.6063    16.4952     7.9950    90.3988     0.0012     0.1494     2.3991
