~VERSION INFORMATION
 VERS.                2.0:   CWLS LOG ASCII STANDARD - VERSION 2.0
 WRAP.                 NO:   ONE LINE PER DEPTH STEP
~WELL INFORMATION
#MNEM.UNIT      DATA TYPE    INFORMATION
#----------   ------------   ------------------------------
 STRT.F           70.0000:   START DEPTH
 STOP.F          990.0000:   STOP DEPTH
 STEP.F            0.5000:   STEP LENGTH
 NULL.          -999.2500:   NO VALUE
 COMP. U S NAVY/INTEX OIL CO:   COMPANY
 WELL.      NPR 3 #55 S-2:   WELL
 FLD .            WILDCAT:   FIELD
 LOC .       S2 T38N R78W:   LOCATION
 CNTY.            NATRONA:   COUNTY
 STAT.            WYOMING:   STATE
 CTRY. UNITED STATES OF AMERICA:   COUNTRY
 SRVC.         Lane Wells:   SERVICE COMPANY
 DATE.        23-MAR-1960:   LOGDATE
 API .       490250968000:   API NUMBER
~CURVE INFORMATION
#MNEM.UNIT       API CODE    CURVE DESCRIPTION
#----------   ------------   ------------------------------
 DEPT.F                  :   
 SPR .MV     05 010 01 00:   SPONTANEOUS POTENTIAL FROM RES.
 ASN .OHMM   05 041 16 00:   AMPLIFIED SHORT NORMAL 16"
 ILD .OHMM   05 120 46 00:   INDUCTION LOG DEEP
 CILD.MMHO   05 110 46 00:   CONDUCTIVITY INDUCTION LOG DEEP
~PARAMETER INFORMATION
#MNEM.UNIT          VALUE    DESCRIPTION
#----------   ------------   ------------------------------
 PD  .                 GL:   PERMANENT DATUM
 EPD .F              5163:   ELEVATION PERMANENT DATUM
 LMF .                 KB:   LOG MEASURED FROM
 DAPD.F                 5:   FEET ABOVE PERMANENT DATUM
 DMF .                 KB:   DRILLING MEASURED FROM
 EKB .F              5168:   KELLING BUSHING
 EGL .F              5163:   GROUND LEVEL
 DATE.        23-MAR-1960:   RUN DATE
 RUN .                  1:   RUN NUMBER
 DD  .F              1010:   DEPTH DRILLER
 DL  .F               992:   DEPTH LOGGER
 BLI .F               990:   BOTTOM LOG INTERVAL
 TLI .F                70:   TOP LOG INTERVAL
 CS  .IN            8.625:   CASING SIZE
 CBD .F                12:   CASING BOTTOM DRILLER
 BS  .IN            7.875:   BIT SIZE
 BSD .F              1010:   BIT SIZE AT DEPTH
 DFT .   GEL-OIL EMULSION:   DRILLING FLUID TYPE
 DFD .                9.5:   DRILLING FLUID DENSITY
 DFV .                 40:   DRILLING FLUID VISCOSITY
 MSS .           FLOWLINE:   MUD SAMPLE SOURCE
 RMS .OHMM            2.8:   RESISTIVITY MUD SAMPLE
 MST .F                74:   MUD SAMPLE TEMPERATURE
 RMF .OHMM            2.0:   RESISTIVITY MUD FILTRATE SAMPLE
 MFST.F                74:   MUD FILTRATE SAMPLE TEMPERATURE
 RMC .OHMM            3.9:   RESISTIVITY MUD CAKE
 MCST.F                74:   MUD CAKE SAMPLE TEMPERATURE
 MFSS.          MUD PRESS:   MUD FILTRATE SAMPLE SOURCE
 MCSS.          MUD PRESS:   MUD CAKE SAMPLE SOURCE
 RMB .OHMM            2.8:   RESISTIVITY MUD AT BHT
 BHT .F                74:   BOTTOM HOLE TEMPERATURE
 MRT .F                74:   MAXIMUM RECORDED TEMPERATURE
 LUN .             L-4474:   LOGGING UNIT NUMBER
 LUL .             CASPER:   LOGGING UNIT LOCATION
 ENGI.             NELSON:   RECORDING ENGINEER
 WITN.          JORGENSEN:   WITNESSED BY
 CLNT.            A2DTECH:   CLIENT CODE
 ORIG.       2", 5" PRINT:   ORIGIN OF DATA
 UWI .       490250968000:   UNIQUE WELL ID
 DICO. A2D Technologies, Inc.:   DIGITIZING COMPANY
~OTHER INFORMATION
~A   DEPT      SPR          ASN        ILD      CILD  
# ...
  289.0000   -43.7457     6.3568     5.2530   193.6814
  289.5000   -43.7944     6.4790     5.1844   195.0550
  290.0000   -43.8798     6.6095     5.1836   195.0550
  290.5000   -44.0927     6.6557     5.1830   196.5339
  291.0000   -44.4467     6.6011     5.1823   197.8022
  291.5000   -44.6952     6.5273     5.1815   198.2096
  292.0000   -44.8816     6.3967     5.1810   199.1758
  292.5000   -44.9658     6.2823     5.1802   200.5494
  293.0000   -44.9645     6.1853     5.1796   202.0969
  293.5000   -44.8022     6.1106     5.1789   203.2968
  294.0000   -44.4151     6.1021     5.1781   203.2968
  294.5000   -44.1730     6.1648     5.1553   203.2968
  295.0000   -43.7295     6.2435     5.1088   204.6704
  295.5000   -43.2384     6.2898     5.1082   206.0440
  296.0000   -43.1803     6.3140     5.0394   207.4176
  296.5000   -43.1788     6.3024     5.0387   209.3360
  297.0000   -43.1776     6.2582     4.9701   211.5570
  297.5000   -43.1762     6.1839     4.9013   215.1330
  298.0000   -43.1749     6.0190     4.7936   218.7179
  298.5000   -43.3103     5.7283     4.7517   222.5274
  299.0000   -43.5818     5.5081     4.6271   226.5019
  299.5000   -43.8261     5.3830     4.5585   230.8471
  300.0000   -44.2623     5.3152     4.4898   237.6519
  300.5000   -44.5107     5.3370     4.4891   244.5054
  301.0000   -44.8270     5.3332     4.4884   244.5054
  301.5000   -44.9454     5.3195     4.4877   244.7641
  302.0000   -44.5355     5.3059     4.4870   245.8792
  302.5000   -44.2054     5.3058     4.4864   245.8792
  303.0000   -43.9845     5.3237     4.4857   244.5054
  303.5000   -43.7636     5.3465     4.4851   244.5054
  304.0000   -43.6794     5.3823     4.4843   244.1208
  304.5000   -43.4426     5.4522     4.5516   241.7582
  305.0000   -43.4426     5.5639     4.5510   240.3846
  305.5000   -43.3060     5.6285     4.5546   238.8256
  306.0000   -43.3060     5.6590     4.6177   237.6374
  306.5000   -43.3060     5.6373     4.6364   235.7533
  307.0000   -43.3060     5.6181     4.6843   233.5164
  307.5000   -43.3060     5.6180     4.7183   232.6809
  308.0000   -43.3333     5.6296     4.7511   230.4579
  308.5000   -43.7158     5.6592     4.7502   228.0220
  309.0000   -44.1075     5.6810     4.7497   227.3857
  309.5000   -44.4057     5.7235     4.8170   223.7889
  310.0000   -44.6266     5.7809     4.8163   221.1538
  310.5000   -44.8087     5.8275     4.8958   218.9060
  311.0000   -44.3989     5.9216     4.9510   215.6594
  311.5000   -44.0506     6.0801     5.0183   212.7610
  312.0000   -43.6794     6.2767     5.0177   209.9269
  312.5000   -43.3060     6.3929     5.0596   207.4176
  313.0000   -43.1193     6.4479     5.0845   206.0440
  313.5000   -42.8962     6.4744     5.1516   206.0440
  314.0000   -42.8962     6.4743     5.1510   206.0440
  314.5000   -43.0624     6.4693     5.1504   206.4081
  315.0000   -43.3060     6.4197     5.1495   208.7912
  315.5000   -43.7022     6.3475     5.1289   210.8538
  316.0000   -44.0073     6.2275     5.0122   213.4069
  316.5000   -44.3989     6.0658     4.9410   221.1538
  317.0000   -44.7541     5.8522     4.7980   228.6079
  317.5000   -44.9454     5.5178     4.6019   239.0110
  318.0000   -45.0092     5.1843     4.4413   252.7017
  318.5000   -44.6311     4.8873     4.2605   263.8163
  319.0000   -43.9891     4.6505     4.1526   277.4726
  319.5000   -43.5587     4.4573     4.0423   285.5724
  320.0000   -42.7596     4.3048     3.9863   287.0880
  320.5000   -42.2655     4.2101     4.0817   282.9670
  321.0000   -42.2131     4.2577     4.1891   280.3436
  321.5000   -42.2131     4.4869     4.2316   273.3516
  322.0000   -42.2769     4.8284     4.3406   264.1483
  322.5000   -42.4977     5.2588     4.4591   250.5040
  323.0000   -42.7596     5.6159     4.5905   239.0110
  323.5000   -43.2559     5.8659     4.7466   231.3462
  324.0000   -43.7158     6.1056     5.0012   223.8283
  324.5000   -44.2760     6.2734     5.1102   215.8035
  325.0000   -44.5583     6.3844     5.2721   209.1348
  325.5000   -44.5355     6.4591     5.3074   201.9230
  326.0000   -44.3989     6.5020     5.4164   197.8387
  326.5000   -44.2623     6.5542     5.5421   193.3931
  327.0000   -44.1758     6.6280     5.6343   189.5604
  327.5000   -43.9550     6.7516     5.7449   186.3438
  328.0000   -43.8525     6.9214     5.7842   184.0660
  328.5000   -43.7158     6.9935     5.8116   183.2716
  329.0000   -43.5519     7.0443     5.8108   182.6924
  329.5000   -43.3060     7.0393     5.7815   182.6924
  330.0000   -43.1239     6.9184     5.7392   184.6612
  330.5000   -42.8962     6.6489     5.6289   188.2579
  331.0000   -42.7596     6.4734     5.5186   190.4806
  331.5000   -42.7846     6.3267     5.3312   194.4739
  332.0000   -43.1694     6.1181     5.2299   200.5494
  332.5000   -43.8070     5.9353     5.0516   208.9282
  333.0000   -44.5492     5.6554     4.8529   222.1386
  333.5000   -44.9454     5.5017     4.7629   233.5164
  334.0000   -45.0820     5.2443     4.5796   241.0986
  334.5000   -44.9454     4.8524     4.3696   248.6264
  335.0000   -44.6721     4.6700     4.1497   258.3563
  335.5000   -44.3830     4.4169     3.8972   271.4901
  336.0000   -43.9891     4.2066     3.7097   296.7034
  336.5000   -43.6202     3.9437     3.4877   323.2943
  337.0000   -43.3060     3.8045     3.4871   329.7940
  337.5000   -42.8165     3.8101     3.4864   332.4176
  338.0000   -42.7596     3.8588     3.5537   331.9690
  338.5000   -42.7596     3.8364     3.6211   328.2966
  339.0000   -42.9554     3.8178     3.6233   320.3068
  339.5000   -43.3128     3.8722     3.7323   306.4453
  340.0000   -43.6247     4.4345     3.8412   293.9560
  340.5000   -43.9299     4.7878     3.8904   285.0141
  341.0000   -44.2623     4.8788     3.9578   274.5244
  341.5000   -44.3989     4.9140     4.0252   267.4314
  342.0000   -44.3807     4.9603     4.0924   265.1098
  342.5000   -43.9891     4.9532     4.0919   265.1098
  343.0000   -43.8024     4.9176     4.0911   265.1098
  343.5000   -43.7158     4.8648     4.0225   266.4836
  344.0000   -43.4972     4.8051     3.9429   267.8572
  344.5000   -43.4130     4.7150     3.8849   271.6072
  345.0000   -43.3060     4.5717     3.7222   276.0990
  345.5000   -43.3060     4.4100     3.5435   282.6989
  346.0000   -43.1694     4.1434     3.3923   294.2314
  346.5000   -43.0328     3.8477     3.2404   322.8022
  347.0000   -42.7596     3.4887     3.0652   360.0727
  347.5000   -42.6230     3.1802     2.9665   394.0945
  348.0000   -42.4863     2.9787     2.8563   421.7034
  348.5000   -42.4863     2.9164     2.7911   433.0311
  349.0000   -42.6230     2.9700     2.7905   436.8132
  349.5000   -42.6754     3.0743     2.7897   435.3066
  350.0000   -42.7596     3.2585     2.8912   426.9685
  350.5000   -42.8438     3.4903     3.0681   403.8462
  351.0000   -43.0647     3.7618     3.2638   382.3758
  351.5000   -43.3060     3.9858     3.3540   362.3091
  352.0000   -43.4335     4.1620     3.5347   338.7363
  352.5000   -43.7272     4.2513     3.6021   323.0660
  353.0000   -43.9891     4.2874     3.6695   307.6924
  353.5000   -44.1257     4.3329     3.7366   302.8913
  354.0000   -44.1257     4.3674     3.7360   302.0422
  354.5000   -43.9140     4.3892     3.7351   300.8242
  355.0000   -43.4198     4.4143     3.6667   300.8242
  355.5000   -43.1694     4.3716     3.6505   300.8242
  356.0000   -43.2240     4.3053     3.5972   300.8242
  356.5000   -43.3106     4.2183     3.4979   302.7614
  357.0000   -43.7523     4.1306     3.3876   309.0660
  357.5000   -43.8866     4.0330     3.2313   320.1803
  358.0000   -43.9891     3.9242     3.0309   338.5730
  358.5000   -43.7864     3.7699     2.9136   361.2638
  359.0000   -43.4153     3.5286     2.7769   381.6697
  359.5000   -42.8962     3.1675     2.6916   418.9560
  360.0000   -42.5319     2.8354     2.5033   446.3370
  360.5000   -42.0765     2.7005     2.5027   469.8638
  361.0000   -41.9399     2.6312     2.5020   483.5164
  361.5000   -42.1015     2.6991     2.5400   488.7043
