~VERSION INFORMATION
 VERS.                2.0:   CWLS LOG ASCII STANDARD - VERSION 2.0
 WRAP.                 NO:   ONE LINE PER DEPTH STEP
~WELL INFORMATION
#MNEM.UNIT      DATA TYPE    INFORMATION
#----------   ------------   ------------------------------
 STRT.F           60.0000:   START DEPTH
 STOP.F          945.0000:   STOP DEPTH
 STEP.F            0.5000:   STEP LENGTH
 NULL.          -999.2500:   NO VALUE
 COMP.          U.S. NAVY:   COMPANY
 WELL. RES 3 TEAPOT DOM #48S-35:   WELL
 FLD .           TEAPOT E:   FIELD
 LOC .      S35 T39N R78W:   LOCATION
 CNTY.            NATRONA:   COUNTY
 STAT.            WYOMING:   STATE
 CTRY. UNITED STATES OF AMERICA:   COUNTRY
 SRVC.       Schlumberger:   SERVICE COMPANY
 DATE.        15-JUL-1964:   LOGDATE
 API .       490250649200:   API NUMBER
~CURVE INFORMATION
#MNEM.UNIT       API CODE    CURVE DESCRIPTION
#----------   ------------   ------------------------------
 DEPT.F                  :   
 SPR .MV     05 010 01 00:   SPONTANEOUS POTENTIAL FROM RES.
 ILD .OHMM   05 120 46 00:   INDUCTION LOG DEEP
 ASN .OHMM   05 041 18 00:   AMPLIFIED SHORT NORMAL 18"
 CILD.MMHO   05 110 46 00:   CONDUCTIVITY INDUCTION LOG DEEP
 CALS.IN     60 280 50 00:   CALIPER FROM SONIC LOG
 DT  .US/F   60 520 00 00:   INTERVAL TRANSIT TIME
 GR  .GAPI   30 310 01 00:   GAMMA RAY
~PARAMETER INFORMATION
#MNEM.UNIT          VALUE    DESCRIPTION
#----------   ------------   ------------------------------
 PD  .                 GL:   PERMANENT DATUM
 EPD .F              5123:   ELEVATION PERMANENT DATUM
 LMF .                 KB:   LOG MEASURED FROM
 DAPD.F                 5:   FEET ABOVE PERMANENT DATUM
 DMF .                 KB:   DRILLING MEASURED FROM
 EKB .F              5128:   KELLING BUSHING
 EGL .F              5123:   GROUND LEVEL
 DATE.        15-JUL-1964:   RUN DATE
 RUN .                  1:   RUN NUMBER
 DD  .F               945:   DEPTH DRILLER
 DL  .F               946:   DEPTH LOGGER
 BLI .F               945:   BOTTOM LOG INTERVAL
 TLI .F                94:   TOP LOG INTERVAL
 CS  .IN            8.625:   CASING SIZE
 CBD .F                10:   CASING BOTTOM DRILLER
 BS  .IN             6.75:   BIT SIZE
 BSD .F               945:   BIT SIZE AT DEPTH
 DFT .                GEL:   DRILLING FLUID TYPE
 DFD .                9.5:   DRILLING FLUID DENSITY
 DFV .                 44:   DRILLING FLUID VISCOSITY
 DFPH.                8.0:   DRILLING FLUID PH
 DFL .               10.5:   DRILLING FLUID LOSS
 MSS .           FLOWLINE:   MUD SAMPLE SOURCE
 RMS .OHMM           3.37:   RESISTIVITY MUD SAMPLE
 MST .F                74:   MUD SAMPLE TEMPERATURE
 RMF .OHMM           2.97:   RESISTIVITY MUD FILTRATE SAMPLE
 MFST.F                78:   MUD FILTRATE SAMPLE TEMPERATURE
 MFSS.                 FP:   MUD FILTRATE SAMPLE SOURCE
 TCS .HRS             1.5:   TIME CURCULATED STOPPED
 MRT .F       T. L. T. M.:   MAXIMUM RECORDED TEMPERATURE
 LUN .               3527:   LOGGING UNIT NUMBER
 LUL .               CSPR:   LOGGING UNIT LOCATION
 ENGI.            WINKLER:   RECORDING ENGINEER
 WITN.          JORGENSEN:   WITNESSED BY
 CLNT.            A2DTECH:   CLIENT CODE
 ORIG.           2" PRINT:   ORIGIN OF DATA
 UWI .       490250649200:   UNIQUE WELL ID
 DICO. A2D Technologies, Inc.:   DIGITIZING COMPANY
~OTHER INFORMATION
~A   DEPT      SPR        ILD        ASN       CILD         CALS       DT         GR   
# ...
  560.5000   -47.3171     9.9109    10.7638   102.2815     6.6243   100.9737    79.9930
  561.0000   -47.1679    10.0550    11.0712   101.7349     6.5633   100.1297    74.5704
  561.5000   -46.9767    10.1485    11.5251   101.1664     6.5023    99.3190    68.6984
  562.0000   -46.7197    10.2879    11.8241   101.9062     6.4414    98.7176    66.2852
  562.5000   -46.7205    10.3636    11.8243   102.4621     6.3956    98.7944    67.3287
  563.0000   -46.7211    10.2716    11.8076   105.0833     6.3648    99.0219    73.3365
  563.5000   -46.7219    10.2152    11.5247   110.1950     6.3643    99.1741    78.1413
  564.0000   -46.7228     9.9250    11.1105   111.3032     6.3942    99.0178    78.5869
  564.5000   -46.7234     9.5929    10.8038   112.5768     6.4845    96.9166    71.9613
  565.0000   -46.7242     9.3166    10.2493   113.1818     6.6202    95.7123    72.1044
  565.5000   -46.7250     9.1688     9.9859   113.9242     6.6198    94.8848    73.3002
  566.0000   -46.7256     9.0195     9.8745   113.9090     6.6346    94.4341    75.0956
  566.5000   -46.5764     8.9452     9.7997   113.8938     6.6492    94.1342    76.7425
  567.0000   -46.5773     8.9461     9.7249   114.6336     6.6486    94.3703    76.7352
  567.5000   -46.5779     8.9468     9.7252   114.9180     6.6482    95.3431    77.9309
  568.0000   -46.5787     8.9475     9.6505   115.4343     6.6630    96.7010    80.1793
  568.5000   -46.4295     8.9483     9.6507   116.1060     6.6624    97.5314    81.2247
  569.0000   -46.4304     8.9058     9.5760   116.0909     6.6620    98.0604    84.6761
  569.5000   -46.4310     8.8747     9.5763   116.0757     6.6009    98.4386    86.4715
  570.0000   -46.4218     8.8756     9.6517   116.8173     6.4946    98.3446    86.3139
  570.5000   -46.2826     8.8015     9.7443   116.8030     6.4337    97.8390    84.0509
  571.0000   -46.2154     8.8021     9.9526   116.7879     6.4937    98.0665    80.7354
  571.5000   -46.1341     8.7279    10.2902   116.7728     6.5689    98.8215    80.2788
  572.0000   -46.1350     8.7287    10.5538   116.7550     6.6593    98.9733    82.0743
  572.5000   -46.1357     8.7294    10.5516   117.0518     6.7041    98.2216    79.2099
  573.0000   -45.9864     8.7302    10.3292   117.5681     6.7037    98.7736    79.3533
  573.5000   -45.9873     8.6560    10.2236   118.2273     6.7032    99.5813    82.0513
  574.0000   -45.9880     8.6567    10.0965   118.9697     6.7028    99.8841    90.3147
  574.5000   -45.9888     8.6574     9.9547   119.1174     6.7024    96.1930   102.3375
  575.0000   -45.9895     8.6582     9.9700   119.6969     6.7172    94.0845   103.3847
  575.5000   -45.8403     8.6589     9.9853   120.9079     6.6711    93.2567   100.6670
  576.0000   -45.8411     8.6366     9.9855   121.9422     6.6253    93.8616    95.8477
  576.5000   -45.8418     8.5855     9.9859   121.9244     6.6097    94.8427    94.6374
  577.0000   -45.8427     8.5863     9.9862   122.6667     6.5790    95.6731    94.9309
  577.5000   -45.7733     8.5576     9.9865   122.9736     6.5786    96.6542    95.5252
  578.0000   -45.6702     8.4377     9.9716   124.2473     6.6085   101.1018    95.9709
  578.5000   -45.5449     8.3637     9.9121   125.6500     6.6534   102.2336    96.1140
  579.0000   -45.3958     8.2179     9.8429   127.5531     6.6982   101.0297    90.3888
  579.5000   -45.3965     8.0523     9.7428   129.3537     6.6978   100.2022    88.7274
  580.0000   -45.2474     7.9161     9.6727   133.9388     6.6973    99.9772    94.2840
  580.5000   -45.2481     7.7248     9.6505   137.1593     6.6818   101.0340    95.7823
  581.0000   -45.2009     7.5235     9.6282   140.9897     6.6662   101.5630    98.1793
  581.5000   -45.0997     7.3186     9.6135   144.5582     6.6658   102.2491   103.2848
  582.0000   -44.9507     7.1209     9.4983   147.5128     6.6652   102.6966   103.5801
  582.5000   -44.9513     6.9196     9.1704   150.3535     6.6497   102.4720    99.2083
  583.0000   -44.9520     6.7934     8.8937   154.5202     6.6492   102.0966    95.4416
  583.5000   -44.9529     6.6470     8.4886   155.8031     6.6337   101.9470    95.5847
  584.0000   -44.9535     6.5727     8.3089   155.7878     6.6332   102.4009    96.3293
  584.5000   -44.9543     6.5735     8.0335   155.0152     6.6328   103.3259    98.5777
  585.0000   -44.9551     6.5743     7.9490   153.4844     6.6323   105.1924    98.8730
  585.5000   -44.9558     6.5750     7.9492   150.4736     6.6318   105.8717    91.3452
  586.0000   -44.9565     6.6507     8.0234   147.6163     6.6314   105.0443    90.2852
  586.5000   -44.9573     6.8014     8.4304   145.8219     6.6158   106.7039    91.7799
  587.0000   -44.9580     6.9218     8.7507   144.3312     6.6306   107.4590    92.6749
  587.5000   -44.9088     7.1246     8.8251   143.2135     6.6301   107.8434    89.5098
  588.0000   -44.8096     7.2534     8.8366   141.7879     6.6295   108.0647    83.3371
  588.5000   -44.8105     7.4792     8.8369   136.7109     6.6291   106.7854    84.9839
  589.0000   -44.7491     7.6112     8.8526   133.9014     6.6286   105.3551    86.7830
  589.5000   -44.6619     7.7054     8.9621   132.1364     6.6282   103.9247    81.3604
  590.0000   -44.6628     7.6313     9.2133   132.8785     6.6278   103.1726    77.7441
  590.5000   -44.6634     7.5570     9.3853   133.6212     6.6273   102.2542    81.4944
  591.0000   -44.6642     7.5460     9.5648   133.8863     6.6268   101.7440    79.5323
  591.5000   -44.8149     7.4835     9.6045   135.2149     6.6264   101.7455    80.7280
  592.0000   -45.1375     7.3683     9.4264   137.3616     6.6259   101.6712    85.3824
  592.5000   -45.6858     7.2600     9.1246   139.5834     6.6255   101.5223    88.6834
  593.0000   -46.4663     7.1859     9.2150   142.7701     6.6251    99.7152    89.7288
  593.5000   -46.5649     7.1867     9.2453   143.3788     6.6399    96.4866    90.3212
  594.0000   -46.6177     7.1123     9.0509   143.3636     6.6393    94.8202    90.4680
  594.5000   -46.6184     7.1881     8.7805   142.1640     6.6388    94.6705    85.4947
  595.0000   -46.6193     7.2640     8.7958   139.5453     6.6383    96.1795    84.7373
  595.5000   -46.6200     7.3705     8.8381   136.4972     6.6379    96.4070    87.8861
  596.0000   -46.6027     7.4153     8.9057   135.7273     6.6375    97.2374    88.4822
  596.5000   -46.3217     7.4911     8.9769   134.8875     6.6370    99.5645    86.0689
  597.0000   -46.0205     7.4917     9.0368   134.1799     6.6366   102.3650    89.5167
  597.5000   -45.6634     7.4925     9.0936   134.1667     6.6514   103.3461    87.7049
  598.0000   -45.4243     7.4933     9.1880   134.1515     6.6507   103.4979    86.4946
  598.5000   -45.0992     7.4940     9.2657   134.1354     6.6656   102.5200    84.9836
  599.0000   -44.8260     7.4947     9.3087   135.3309     6.6802   102.4461    86.1794
  599.5000   -44.6769     7.4955     9.2640   135.6239     6.6949   102.8491    87.6758
  600.0000   -44.6287     7.4963     9.1742   136.3636     6.6960   102.9765    81.9534
  600.5000   -44.5049     7.4978     9.0501   136.3561     6.7037   101.9493    82.3960
  601.0000   -44.3811     7.4240     9.0052   136.3482     6.7082   101.6273    85.2445
  601.5000   -44.2573     7.3509     8.9945   136.3409     6.7071   101.9332    90.1961
  602.0000   -44.1335     7.2774     9.0029   136.3333     6.7064   102.1629    90.9394
  602.5000   -44.0741     7.2037     9.0184   136.3251     6.7210   102.4026    91.6826
  603.0000   -44.0735     7.2055     9.0850   136.3182     6.7199   102.6230    93.3282
  603.5000   -44.0727     7.2069     9.1513   136.3106     6.7192   102.4005    94.6729
  604.0000   -44.0719     7.2084     9.1904   136.3019     6.7185   102.1027    93.7599
  604.5000   -44.0712     7.2101     9.1906   136.2955     6.7178   101.8771    93.6009
  605.0000   -44.0705     7.2114     9.1584   137.0456     6.7019   101.5078    94.4945
  605.5000   -44.0696     7.2129     9.1152   137.0379     6.7010   100.9085    96.1400
