~VERSION INFORMATION
 VERS.                2.0:   CWLS LOG ASCII STANDARD - VERSION 2.0
 WRAP.                 NO:   ONE LINE PER DEPTH STEP
~WELL INFORMATION
#MNEM.UNIT      DATA TYPE    INFORMATION
#----------   ------------   ------------------------------
 STRT.F            0.0000:   START DEPTH
 STOP.F         2720.0000:   STOP DEPTH
 STEP.F            0.5000:   STEP LENGTH
 NULL.          -999.2500:   NO VALUE
 COMP. DEPARTMENT OF ENERGY:   COMPANY
 WELL.       NPR-3 #410-A:   WELL
 FLD . TEAPOT NAVAL RESERVE:   FIELD
 LOC .      S20 T39N R78W:   LOCATION
 CNTY.            NATRONA:   COUNTY
 STAT.            WYOMING:   STATE
 CTRY. UNITED STATES OF AMERICA:   COUNTRY
 SRVC.      NL McCullough:   SERVICE COMPANY
 DATE.        26-JUL-1965:   LOGDATE
 API .       490251144500:   API NUMBER
~CURVE INFORMATION
#MNEM.UNIT       API CODE    CURVE DESCRIPTION
#----------   ------------   ------------------------------
 DEPT.F                  :   
 GR  .GAPI   30 310 01 00:   GAMMA RAY
 CALI.IN     30 280 01 00:   CALIPER
~PARAMETER INFORMATION
#MNEM.UNIT          VALUE    DESCRIPTION
#----------   ------------   ------------------------------
 PD  .                 GL:   PERMANENT DATUM
 LMF .                 GL:   LOG MEASURED FROM
 DATE.            7-16-65:   RUN DATE
 RUN .                  1:   RUN NUMBER
 DD  .F              2720:   DEPTH DRILLER
 TLI .F              2100:   TOP LOG INTERVAL
 CS  .IN            6.875:   CASING SIZE
 DFT .              WATER:   DRILLING FLUID TYPE
 ENGI. FITZSIMMONE/COWLTHORPE:   RECORDING ENGINEER
 WITN.             HUDSON:   WITNESSED BY
 CLNT.            A2DTECH:   CLIENT CODE
 ORIG.           5" PRINT:   ORIGIN OF DATA
 UWI .       490251144500:   UNIQUE WELL ID
 DICO. A2D Technologies, Inc.:   DIGITIZING COMPANY
~OTHER INFORMATION
~A    DEPT      GR         CALI 
# ...
 1822.5000  -999.2500     5.9189
 1823.0000  -999.2500     5.9177
 1823.5000  -999.2500     5.9165
 1824.0000  -999.2500     5.9153
 1824.5000  -999.2500     5.9141
 1825.0000  -999.2500     5.9129
 1825.5000  -999.2500     5.9117
 1826.0000  -999.2500     5.9105
 1826.5000  -999.2500     5.9070
 1827.0000  -999.2500     5.8978
 1827.5000  -999.2500     5.8888
 1828.0000  -999.2500     5.8797
 1828.5000  -999.2500     5.8703
 1829.0000  -999.2500     5.8782
 1829.5000  -999.2500     5.8883
 1830.0000  -999.2500     5.8984
 1830.5000  -999.2500     5.9085
 1831.0000  -999.2500     5.9187
 1831.5000  -999.2500     5.9286
 1832.0000  -999.2500     5.9226
 1832.5000  -999.2500     5.9145
 1833.0000  -999.2500     5.9065
 1833.5000  -999.2500     5.8984
 1834.0000  -999.2500     5.8900
 1834.5000  -999.2500     5.9027
 1835.0000  -999.2500     5.9176
 1835.5000  -999.2500     5.9326
 1836.0000  -999.2500     5.9477
 1836.5000  -999.2500     5.9459
 1837.0000  -999.2500     5.9411
 1837.5000  -999.2500     5.9363
 1838.0000  -999.2500     5.9316
 1838.5000  -999.2500     5.9269
 1839.0000  -999.2500     5.9221
 1839.5000  -999.2500     5.9174
 1840.0000  -999.2500     5.9127
 1840.5000  -999.2500     5.9096
 1841.0000  -999.2500     5.9096
 1841.5000  -999.2500     5.9096
 1842.0000  -999.2500     5.9096
 1842.5000  -999.2500     5.9137
 1843.0000  -999.2500     5.9217
 1843.5000  -999.2500     5.9298
 1844.0000  -999.2500     5.9378
 1844.5000  -999.2500     5.9458
 1845.0000  -999.2500     5.9453
 1845.5000  -999.2500     5.9364
 1846.0000  -999.2500     5.9275
 1846.5000  -999.2500     5.9185
 1847.0000  -999.2500     5.9096
 1847.5000  -999.2500     5.9006
 1848.0000  -999.2500     5.8913
 1848.5000  -999.2500     5.8964
 1849.0000  -999.2500     5.9054
 1849.5000  -999.2500     5.9146
 1850.0000  -999.2500     5.9236
 1850.5000  -999.2500     5.9312
 1851.0000  -999.2500     5.9355
 1851.5000  -999.2500     5.9399
 1852.0000  -999.2500     5.9442
 1852.5000  -999.2500     5.9489
 1853.0000  -999.2500     5.9422
 1853.5000  -999.2500     5.9318
 1854.0000  -999.2500     5.9213
 1854.5000  -999.2500     5.9107
 1855.0000  -999.2500     5.9170
 1855.5000  -999.2500     5.9279
 1856.0000  -999.2500     5.9115
 1856.5000  -999.2500     5.8909
 1857.0000  -999.2500     5.9123
 1857.5000  -999.2500     5.9346
 1858.0000  -999.2500     5.9564
 1858.5000  -999.2500     5.9627
 1859.0000  -999.2500     5.9437
 1859.5000  -999.2500     5.9251
 1860.0000  -999.2500     5.9064
 1860.5000  -999.2500     5.8876
 1861.0000  -999.2500     5.8696
 1861.5000  -999.2500     5.8809
 1862.0000  -999.2500     5.8950
 1862.5000  -999.2500     5.9090
 1863.0000  -999.2500     5.9229
 1863.5000  -999.2500     5.9369
 1864.0000  -999.2500     5.9497
 1864.5000  -999.2500     5.9512
 1865.0000  -999.2500     5.9524
 1865.5000  -999.2500     5.9536
 1866.0000  -999.2500     5.9548
 1866.5000  -999.2500     5.9560
 1867.0000  -999.2500     5.9573
 1867.5000  -999.2500     5.9585
 1868.0000  -999.2500     5.9597
 1868.5000  -999.2500     5.9610
 1869.0000  -999.2500     5.9622
 1869.5000  -999.2500     5.9634
 1870.0000  -999.2500     5.9647
 1870.5000  -999.2500     5.9659
 1871.0000  -999.2500     5.9671
 1871.5000  -999.2500     5.9684
 1872.0000  -999.2500     5.9699
 1872.5000  -999.2500     5.9591
 1873.0000  -999.2500     5.9448
 1873.5000  -999.2500     5.9306
 1874.0000  -999.2500     5.9162
 1874.5000  -999.2500     5.9136
 1875.0000  -999.2500     5.9207
 1875.5000  -999.2500     5.9279
 1876.0000  -999.2500     5.9352
 1876.5000  -999.2500     5.9424
 1877.0000  -999.2500     5.9495
 1877.5000  -999.2500     5.9469
 1878.0000  -999.2500     5.9437
 1878.5000  -999.2500     5.9407
 1879.0000  -999.2500     5.9376
 1879.5000  -999.2500     5.9345
 1880.0000  -999.2500     5.9314
 1880.5000  -999.2500     5.9281
 1881.0000  -999.2500     5.9243
 1881.5000  -999.2500     5.9206
 1882.0000  -999.2500     5.9168
 1882.5000  -999.2500     5.9130
 1883.0000  -999.2500     5.9100
 1883.5000  -999.2500     5.9176
 1884.0000  -999.2500     5.9250
 1884.5000  -999.2500     5.9298
 1885.0000  -999.2500     5.9297
 1885.5000  -999.2500     5.9297
 1886.0000  -999.2500     5.9297
 1886.5000  -999.2500     5.9297
 1887.0000  -999.2500     5.9297
 1887.5000  -999.2500     5.9297
 1888.0000  -999.2500     5.9297
 1888.5000  -999.2500     5.9297
 1889.0000  -999.2500     5.9313
 1889.5000  -999.2500     5.9342
 1890.0000  -999.2500     5.9371
 1890.5000  -999.2500     5.9400
 1891.0000  -999.2500     5.9429
 1891.5000  -999.2500     5.9459
 1892.0000  -999.2500     5.9487
 1892.5000  -999.2500     5.9595
 1893.0000  -999.2500     5.9745
 1893.5000  -999.2500     5.9892
 1894.0000  -999.2500     5.9771
 1894.5000  -999.2500     5.9633
 1895.0000  -999.2500     5.9496
 1895.5000  -999.2500     5.9359
 1896.0000  -999.2500     5.9425
 1896.5000  -999.2500     5.9661
 1897.0000  -999.2500     5.9628
 1897.5000  -999.2500     5.9541
 1898.0000  -999.2500     5.9570
 1898.5000  -999.2500     5.9708
 1899.0000  -999.2500     5.9849
 1899.5000  -999.2500     5.9882
 1900.0000  -999.2500     5.9857
 1900.5000  -999.2500     5.9830
 1901.0000  -999.2500     5.9803
 1901.5000  -999.2500     5.9776
 1902.0000  -999.2500     5.9750
 1902.5000  -999.2500     5.9723
 1903.0000  -999.2500     5.9699
 1903.5000  -999.2500     5.9699
 1904.0000  -999.2500     5.9699
 1904.5000  -999.2500     5.9699
 1905.0000  -999.2500     5.9699
 1905.5000  -999.2500     5.9699
 1906.0000  -999.2500     5.9699
 1906.5000  -999.2500     5.9699
 1907.0000  -999.2500     5.9699
 1907.5000  -999.2500     5.9699
 1908.0000  -999.2500     5.9699
 1908.5000  -999.2500     5.9699
 1909.0000  -999.2500     5.9699
 1909.5000  -999.2500     5.9699
 1910.0000  -999.2500     5.9699
 1910.5000  -999.2500     5.9699
 1911.0000  -999.2500     5.9699
 1911.5000  -999.2500     5.9699
 1912.0000  -999.2500     5.9699
 1912.5000  -999.2500     5.9698
 1913.0000  -999.2500     5.9716
 1913.5000  -999.2500     5.9858
 1914.0000  -999.2500     5.9999
 1914.5000  -999.2500     6.0142
 1915.0000  -999.2500     6.0290
 1915.5000  -999.2500     6.0079
 1916.0000  -999.2500     5.9819
 1916.5000  -999.2500     5.9550
 1917.0000  -999.2500     5.9581
 1917.5000  -999.2500     5.9690
 1918.0000  -999.2500     5.9801
 1918.5000  -999.2500     5.9893
 1919.0000  -999.2500     5.9778
 1919.5000  -999.2500     5.9755
 1920.0000  -999.2500     5.9933
 1920.5000  -999.2500     6.0089
 1921.0000  -999.2500     5.9870
 1921.5000  -999.2500     5.9638
 1922.0000  -999.2500     5.9407
 1922.5000  -999.2500     5.9329
 1923.0000  -999.2500     5.9422
 1923.5000  -999.2500     5.9516
 1924.0000  -999.2500     5.9611
 1924.5000  -999.2500     5.9705
 1925.0000  -999.2500     5.9799
 1925.5000  -999.2500     5.9893
 1926.0000  -999.2500     5.9988
 1926.5000  -999.2500     6.0088
 1927.0000  -999.2500     5.9945
 1927.5000  -999.2500     5.9751
 1928.0000  -999.2500     5.9552
 1928.5000  -999.2500     5.9579
 1929.0000  -999.2500     5.9694
 1929.5000  -999.2500     5.9809
 1930.0000  -999.2500     5.9900
 1930.5000  -999.2500     5.9834
 1931.0000  -999.2500     5.9769
 1931.5000  -999.2500     5.9701
 1932.0000  -999.2500     5.9604
 1932.5000  -999.2500     5.9500
 1933.0000  -999.2500     5.9395
 1933.5000  -999.2500     5.9302
 1934.0000  -999.2500     5.9371
 1934.5000  -999.2500     5.9443
 1935.0000  -999.2500     5.9515
 1935.5000  -999.2500     5.9586
 1936.0000  -999.2500     5.9657
 1936.5000  -999.2500     5.9661
 1937.0000  -999.2500     5.9570
 1937.5000  -999.2500     5.9481
 1938.0000  -999.2500     5.9390
 1938.5000  -999.2500     5.9301
 1939.0000  -999.2500     5.9272
 1939.5000  -999.2500     5.9242
 1940.0000  -999.2500     5.9210
 1940.5000  -999.2500     5.9179
 1941.0000  -999.2500     5.9148
 1941.5000  -999.2500     5.9117
 1942.0000  -999.2500     5.9078
 1942.5000  -999.2500     5.8970
 1943.0000  -999.2500     5.8863
 1943.5000  -999.2500     5.8755
