~VERSION INFORMATION
 VERS.                2.0:   CWLS LOG ASCII STANDARD - VERSION 2.0
 WRAP.                 NO:   ONE LINE PER DEPTH STEP
~WELL INFORMATION
#MNEM.UNIT      DATA TYPE    INFORMATION
#----------   ------------   ------------------------------
 STRT.F           15.0000:   START DEPTH
 STOP.F          550.0000:   STOP DEPTH
 STEP.F            0.5000:   STEP LENGTH
 NULL.          -999.2500:   NO VALUE
 COMP. LAWRENCE/ALLISON INC:   COMPANY
 WELL. NPR 3 #43-21 SX 10:   WELL
 FLD .             TEAPOT:   FIELD
 LOC .      S10 T38N R78W:   LOCATION
 CNTY.            NATRONA:   COUNTY
 STAT.            WYOMING:   STATE
 CTRY. UNITED STATES OF AMERICA:   COUNTRY
 SRVC.           Gearhart:   SERVICE COMPANY
 DATE.        05-JUL-1986:   LOGDATE
 API .       490251110100:   API NUMBER
~CURVE INFORMATION
#MNEM.UNIT       API CODE    CURVE DESCRIPTION
#----------   ------------   ------------------------------
 DEPT.F                  :   
 GRR .GAPI   07 310 01 00:   GAMMA RAY
 RILD.OHMM   07 120 46 00:   INDUCTION LOG DEEP
 RILM.OHMM   07 120 44 00:   INDUCTION LOG MEDIUM
~PARAMETER INFORMATION
#MNEM.UNIT          VALUE    DESCRIPTION
#----------   ------------   ------------------------------
 PD  .                 GL:   PERMANENT DATUM
 EPD .F              5205:   ELEVATION PERMANENT DATUM
 LMF .                 KB:   LOG MEASURED FROM
 DAPD.F                 5:   FEET ABOVE PERMANENT DATUM
 DMF .                 KB:   DRILLING MEASURED FROM
 EKB .F              5210:   KELLING BUSHING
 EGL .F              5205:   GROUND LEVEL
 DATE.        05-JUL-1986:   RUN DATE
 RUN .                  1:   RUN NUMBER
 DD  .F               560:   DEPTH DRILLER
 DL  .F               560:   DEPTH LOGGER
 BLI .F               550:   BOTTOM LOG INTERVAL
 TLI .F                15:   TOP LOG INTERVAL
 CS  .IN            8.625:   CASING SIZE
 CBD .F                47:   CASING BOTTOM DRILLER
 CBL .F                47:   CASING BOTTOM LOGGER
 BS  .IN            7.875:   BIT SIZE
 BSD .F               560:   BIT SIZE AT DEPTH
 DFT .                AIR:   DRILLING FLUID TYPE
 TCS .HRS            2100:   TIME CURCULATED STOPPED
 TLAB.HRS            2230:   TIME LOGGER AT BOTTOM
 MRT .F                83:   MAXIMUM RECORDED TEMPERATURE
 LUN .               7609:   LOGGING UNIT NUMBER
 LUL .           GILLETTE:   LOGGING UNIT LOCATION
 ENGI.              BAUER:   RECORDING ENGINEER
 WITN.              FIVAS:   WITNESSED BY
 CLNT.            A2DTECH:   CLIENT CODE
 ORIG.           5" PRINT:   ORIGIN OF DATA
 UWI .       490251110100:   UNIQUE WELL ID
 DICO. A2D Technologies, Inc.:   DIGITIZING COMPANY
~OTHER INFORMATION
~A   DEPT      GRR       RILD       RILM   
# ...
  470.0000    95.7061    13.9087    14.0462
  470.5000    99.0425    13.8085    13.9459
  471.0000   102.3789    13.8055    13.9440
  471.5000   100.5403    13.8026    13.9420
  472.0000    97.4840    13.7997    13.8425
  472.5000    95.3409    13.7968    13.7436
  473.0000    94.7199    13.6973    13.5500
  473.5000    96.5342    13.5986    13.4532
  474.0000    98.9574    13.5005    13.2636
  474.5000   100.4703    13.4816    13.2618
  475.0000    99.8463    13.3066    13.2599
  475.5000    98.6165    13.1181    13.2580
  476.0000    97.6910    13.0090    13.1634
  476.5000    97.0700    12.8251    12.9779
  477.0000    97.0579    12.6437    12.6165
  477.5000    97.0457    12.3907    12.4387
  478.0000    97.0335    12.2888    12.2634
  478.5000    97.0214    12.0423    12.0906
  479.0000    97.3167    11.9438    11.8368
  479.5000    97.3015    11.7037    11.7523
  480.0000    97.2893    11.4465    11.5056
  480.5000    97.5846    11.2949    11.4234
  481.0000    98.4826    11.1251    11.1836
  481.5000    98.7779    11.0547    11.1037
  482.0000   102.1113    10.8982    10.8706
  482.5000   107.2741    10.7438    10.7930
  483.0000   109.6973    10.6664    10.6409
  483.5000   110.9058    10.5153    10.5650
  484.0000   107.5420    10.4395    10.4895
  484.5000   106.6166    10.3643    10.4146
  485.0000   105.9956    10.2175    10.3403
  485.5000   106.5923    10.2084    10.2664
  486.0000   107.1920    10.1417    10.2650
  486.5000   106.5680    10.1395    10.1917
  487.0000   106.2544    10.1312    10.1903
  487.5000   108.0657    10.0585    10.1175
  488.0000   111.4021     9.9218    10.1161
  488.5000   114.4341     9.8503     9.9735
  489.0000   114.7294     9.7792     9.9023
  489.5000   111.9744     9.6360     9.8316
  490.0000   109.5269     9.5668     9.8302
  490.5000   107.3839     9.4315     9.9679
  491.0000   105.5452     9.2331     9.9665
  491.5000   104.3154     9.1026     9.8954
  492.0000   103.9988     9.0405     9.8940
  492.5000   103.6853     9.0386     9.8233
  493.0000   105.8010     9.0338     9.8912
  493.5000   107.3109     8.7818    10.0297
  494.0000   109.1252     8.5345    10.7582
  494.5000   110.9395     8.2385    11.7854
  495.0000   110.9273     8.0672    11.8668
  495.5000   110.6108     7.8975    11.6996
  496.0000   110.9030     7.7873    10.9812
  496.5000   111.8041     7.7844     9.5404
  497.0000   111.1831     7.7296     8.5850
  497.5000   109.6489     7.7279     7.8345
  498.0000   109.0279     7.8364     8.0003
  498.5000   109.3232     8.0578     8.3435
  499.0000   109.9168     8.4624     8.8247
  499.5000   110.8178     9.0122     9.1389
  500.0000   111.9240     9.3980     9.5982
  500.5000   116.5906     9.7156    10.2229
  501.0000   117.8082    10.0789    10.2928
  501.5000   115.3729    10.2201    10.4356
  502.0000   113.5464    10.5840    10.5070
  502.5000   112.3288    10.6575    10.5788
  503.0000   112.0244    10.6556    10.6517
  503.5000   111.4155    10.6541    10.7245
  504.0000   109.8935    10.6526    10.7217
  504.5000   108.3714    10.5765    10.7194
  505.0000   106.8493    10.4866    10.7172
  505.5000   105.6317    10.4263    10.7149
  506.0000   104.4140    10.4984    10.7126
  506.5000   105.6317    10.4969    10.7104
  507.0000   106.8493    10.4954    10.7081
  507.5000   107.7626    10.4205    10.6309
  508.0000   105.6317    10.4190    10.5542
  508.5000   103.8052    10.4175    10.5520
  509.0000   103.5008    10.4161    10.4759
  509.5000   104.1096    10.4088    10.4737
  510.0000   105.6317    10.3403    10.3982
  510.5000   107.4581    10.2626    10.3232
  511.0000   108.0670     9.8385    10.1057
  511.5000   105.6317     9.4302     9.8929
  512.0000   105.9361     8.9773     9.6845
  512.5000   106.8493     8.4284     9.3483
  513.0000   107.4581     7.9666     9.0237
  513.5000   106.8493     7.2193     8.3508
  514.0000   106.5449     6.6347     7.9714
  514.5000   107.4581     6.0548     7.1751
  515.0000   108.0670     5.5645     6.3841
  515.5000   109.2846     4.6675     5.3967
  516.0000   110.8067     4.0837     4.6308
  516.5000   111.7199     3.8329     4.1537
  517.0000   113.8508     3.5724     3.8666
  517.5000   114.1553     3.4486     3.5841
  518.0000   109.2846     3.3526     3.4620
  518.5000   106.2405     3.3521     3.4387
  519.0000   105.6317     3.4714     3.4380
  519.5000   104.4140     3.8567     3.4871
  520.0000   103.5008     4.3149     3.8453
  520.5000   103.1964     4.7602     4.3628
  521.0000   101.9787     5.6734     4.9847
  521.5000   103.8052     6.2150     5.4221
  522.0000   106.8493     6.8564     5.9812
  522.5000   109.5890     7.3544     6.5980
  523.0000   111.4155     7.7785     7.0767
  523.5000   110.8067     7.9993     7.4318
  524.0000   108.0670     7.9979     7.8048
  524.5000   107.4581     8.0535     7.9694
  525.0000   108.6758     8.1091     8.0239
  525.5000   111.7199     8.1077     8.1930
  526.0000   113.8508     8.0498     8.2490
  526.5000   112.9376     8.1057     8.2473
  527.0000   111.7199     8.1617     8.2455
  527.5000   112.6332     8.1602     8.2438
  528.0000   114.1553     8.2166     8.2421
  528.5000   115.3729     8.2155     8.2403
  529.0000   115.0685     8.1568     8.2386
  529.5000   114.7641     8.1556     8.2368
  530.0000   115.0685     8.1545     8.2351
  530.5000   114.1553     8.0963     8.2333
  531.0000   110.8067     8.0384     8.2316
  531.5000   108.9802     8.0373     8.2298
  532.0000   111.4155     8.0931     8.2861
  532.5000   114.1553     8.0350     8.5205
  533.0000   115.3729     8.0339     9.0112
  533.5000   114.1553     8.0328    11.4400
  534.0000   112.3288     8.0316    16.4813
  534.5000   112.0244     8.0305    23.2490
  535.0000   113.5769     8.1430    24.7612
  535.5000  -999.2500     8.1995    23.9015
  536.0000  -999.2500     8.1981    17.5422
  536.5000  -999.2500     8.1969    13.5239
  537.0000  -999.2500     8.1958    10.8157
  537.5000  -999.2500     8.1946     8.9786
  538.0000  -999.2500     8.0792     8.2577
  538.5000  -999.2500     7.9653     7.8065
  539.0000  -999.2500     7.8531     7.4355
  539.5000  -999.2500     7.7424     7.5932
  540.0000  -999.2500     7.4741     7.5376
  540.5000  -999.2500     7.2660     7.3271
  541.0000  -999.2500     7.1134     7.1226
  541.5000  -999.2500     6.9641     7.0712
  542.0000  -999.2500     6.8659     6.9711
  542.5000  -999.2500     6.8749     6.9208
  543.0000  -999.2500     6.9127     6.9194
  543.5000  -999.2500     7.0095     7.0653
  544.0000  -999.2500     7.1739     7.1637
  544.5000  -999.2500     7.4726     7.4706
  545.0000  -999.2500     7.7452     7.8455
  545.5000  -999.2500     8.1329     8.0674
  546.0000  -999.2500     8.6674     8.2374
  546.5000  -999.2500  -999.2500     8.4116
  547.0000  -999.2500  -999.2500     8.7100
  547.5000  -999.2500  -999.2500     8.8941
  548.0000  -999.2500  -999.2500     8.9549
  548.5000  -999.2500  -999.2500     9.0797
  549.0000  -999.2500  -999.2500     9.1418
  549.5000  -999.2500  -999.2500     9.1394
  550.0000  -999.2500  -999.2500     9.1376
