~VERSION INFORMATION
 VERS.                2.0:   CWLS LOG ASCII STANDARD - VERSION 2.0
 WRAP.                 NO:   ONE LINE PER DEPTH STEP
~WELL INFORMATION
#MNEM.UNIT      DATA TYPE    INFORMATION
#----------   ------------   ------------------------------
 STRT.F            0.0000:   START DEPTH
 STOP.F          586.0000:   STOP DEPTH
 STEP.F            0.5000:   STEP LENGTH
 NULL.          -999.2500:   NO VALUE
 COMP. Fluor Daniel (NPOSR) Inc:   COMPANY
 WELL.    NPR 3 #52-6-X-3:   WELL
 FLD .             TEAPOT:   FIELD
 LOC .       S3 T38N R78W:   LOCATION
 CNTY.            NATRONA:   COUNTY
 STAT.            WYOMING:   STATE
 CTRY. UNITED STATES OF AMERICA:   COUNTRY
 SRVC.      Western Atlas:   SERVICE COMPANY
 DATE.        17-APR-1996:   LOGDATE
 API .       490252277700:   API NUMBER
~CURVE INFORMATION
#MNEM.UNIT       API CODE    CURVE DESCRIPTION
#----------   ------------   ------------------------------
 DEPT.F                  :   
 GRR .GAPI   07 310 01 00:   GAMMA RAY FROM RES. LOG.
 RILD.OHMM   07 120 46 00:   INDUCTION LOG DEEP RESISTIVITY
 RILM.OHMM   07 120 44 00:   INDUCTION LOG MEDIUM
~PARAMETER INFORMATION
#MNEM.UNIT          VALUE    DESCRIPTION
#----------   ------------   ------------------------------
 PD  .                 GL:   PERMANENT DATUM
 EPD .F              5070:   ELEVATION PERMANENT DATUM
 LMF .                 KB:   LOG MEASURED FROM
 DAPD.F                10:   FEET ABOVE PERMANENT DATUM
 DMF .                 KB:   DRILLING MEASURED FROM
 EKB .F              5080:   KELLING BUSHING
 EDF .F              5079:   DRILLING FLOOR
 EGL .F              5070:   GROUND LEVEL
 DATE.            4-17-96:   RUN DATE
 RUN .                  1:   RUN NUMBER
 DD  .F               594:   DEPTH DRILLER
 DL  .F               594:   DEPTH LOGGER
 BLI .F               586:   BOTTOM LOG INTERVAL
 CS  .IN            9.625:   CASING SIZE
 CBD .F                58:   CASING BOTTOM DRILLER
 CBL .F                59:   CASING BOTTOM LOGGER
 BS  .IN             8.75:   BIT SIZE
 BSD .F               594:   BIT SIZE AT DEPTH
 DFT .                AIR:   DRILLING FLUID TYPE
 MRT .F                86:   MAXIMUM RECORDED TEMPERATURE
 LUN .            HL-6530:   LOGGING UNIT NUMBER
 LUL .             CASPER:   LOGGING UNIT LOCATION
 ENGI.             RAUTIO:   RECORDING ENGINEER
 WITN.              HARDY:   WITNESSED BY
 CLNT.            A2DTECH:   CLIENT CODE
 ORIG.       2", 5" PRINT:   ORIGIN OF DATA
 UWI .       490252277700:   UNIQUE WELL ID
 DICO. A2D Technologies, Inc.:   DIGITIZING COMPANY
~OTHER INFORMATION
~A    DEPT      GRR      RILD       RILM   
# ...
   91.0000   131.1335     8.7385     8.9337
   91.5000   132.1703     8.7150     8.9340
   92.0000   132.0885     8.6902     8.9344
   92.5000   129.0123     8.5856     8.8592
   93.0000   125.9818     8.4752     8.7247
   93.5000   124.6649     8.3661     8.5927
   94.0000   127.5583     8.2585     8.4534
   94.5000   130.0015     8.1522     8.3684
   95.0000   129.9344     8.0472     8.2777
   95.5000   130.3562     7.9443     8.1879
   96.0000   133.5929     7.8485     8.0991
   96.5000   135.8319     7.8195     8.0111
   97.0000   135.5909     7.7891     7.9250
   97.5000   133.1806     7.7591     7.9257
   98.0000   130.6266     7.7286     7.9256
   98.5000   130.9131     7.7097     7.9256
   99.0000   132.6366     7.8371     7.9856
   99.5000   134.0327     7.9337     8.0908
  100.0000   132.6656     8.0314     8.1974
  100.5000   128.5386     8.1304     8.3054
  101.0000   126.0891     8.2305     8.4148
  101.5000   126.3019     8.3319     8.5256
  102.0000   128.1610     8.4346     8.6379
  102.5000   130.0896     8.5385     8.7517
  103.0000   132.0446     8.6437     8.8670
  103.5000   134.0296     8.7502     8.9838
  104.0000   136.0166     8.8580     9.1035
  104.5000   137.6986     9.0163     9.1833
  105.0000   136.3964     8.9658     9.1094
  105.5000   133.2457     8.8751     9.0524
  106.0000   129.9328     8.7854     8.9962
  106.5000   126.5208     8.6902     8.9404
  107.0000   126.4592     8.6768     8.8849
  107.5000   127.6261     8.6624     8.8474
  108.0000   129.7369     8.6480     8.8266
  108.5000   132.3953     8.6336     8.8058
  109.0000   131.7095     8.6192     8.7851
  109.5000   130.9405     8.6037     8.7645
  110.0000   130.0169     8.5864     8.7438
  110.5000   130.5368     8.5691     8.7232
  111.0000   130.7024     8.5524     8.7017
  111.5000   129.9992     8.5316     8.6905
  112.0000   128.0171     8.6754     8.9379
  112.5000   127.8380     8.8555     9.1217
  113.0000   128.3846     9.0395     9.3091
  113.5000   127.5919     9.2272     9.5002
  114.0000   125.7287     9.4188     9.6953
  114.5000   123.9297     9.6145     9.8934
  115.0000   122.1585     9.8141    10.0998
  115.5000   121.9215    10.0180    10.3257
  116.0000   124.4918    10.2260    10.5567
  116.5000   125.4449    10.4366    10.7928
  117.0000   123.5730    10.6879    11.0342
  117.5000   120.4043    10.9711    11.3692
  118.0000   117.1578    11.2642    11.7389
  118.5000   114.5007    11.5646    12.1072
  119.0000   113.3015    11.8731    12.4870
  119.5000   115.0081    12.1898    12.8802
  120.0000   115.9731    12.4741    13.2773
  120.5000   112.9372    12.6086    13.2749
  121.0000   109.9530    12.7445    13.2059
  121.5000   108.4738    12.9131    13.1057
  122.0000   108.9691    12.8595    13.0062
  122.5000   109.6164    12.7947    12.9131
  123.0000   110.5573    12.6757    12.8054
  123.5000   111.5479    12.5642    12.7043
  124.0000   112.6951    12.4537    12.6040
  124.5000   114.2885    12.3441    12.5045
  125.0000   116.0627    12.2355    12.4059
  125.5000   115.2639    12.1278    12.3080
  126.0000   113.7818    12.0211    12.2108
  126.5000   112.4452    11.9154    12.1144
  127.0000   112.4064    11.8106    12.0188
  127.5000   114.1593    11.7066    11.9241
  128.0000   115.8284    11.6037    11.8300
  128.5000   117.4995    11.5016    11.7319
  129.0000   118.1354    11.4004    11.4594
  129.5000   117.2830    11.3434    11.4809
  130.0000   115.2195    11.3286    11.5167
  130.5000   113.9085    11.3138    11.5526
  131.0000   112.7750    11.2991    11.5886
  131.5000   113.4029    11.2844    11.6248
  132.0000   114.5954    11.2693    11.6689
  132.5000   115.2358    11.2549    11.5593
  133.0000   112.7539    11.1872    11.4206
  133.5000   110.4137    11.0606    11.2936
  134.0000   110.6745    10.9337    11.1783
  134.5000   114.2264    10.8083    11.0641
  135.0000   115.6255    10.6842    10.9510
  135.5000   115.8950    10.5616    10.8392
  136.0000   115.4852    10.4404    10.7284
  136.5000   114.2685    10.3201    10.6188
  137.0000   111.4171    10.2055    10.5104
  137.5000   110.0862    10.0653    10.4030
  138.0000   113.5685    10.0664    10.3513
  138.5000   116.9445    10.0700    10.3516
  139.0000   116.9727    10.0700    10.3527
  139.5000   115.4908    10.0706    10.3087
  140.0000   113.9943    10.0139    10.2432
  140.5000   113.6208     9.9619    10.1781
  141.0000   114.3376     9.9105    10.1134
  141.5000   113.6407     9.8597    10.0491
  142.0000   116.3651     9.8080     9.9853
  142.5000   117.8201     9.7407     9.9218
  143.0000   117.0282     9.6422     9.8588
  143.5000   115.3365     9.5447     9.7962
  144.0000   113.9134     9.4413     9.7339
  144.5000   113.8220     9.4917     9.7058
  145.0000   114.3155     9.5607     9.7854
  145.5000   115.1660     9.6302     9.8446
  146.0000   115.4311     9.7058     9.9042
  146.5000   111.6248     9.6083     9.9777
  147.0000   108.2612     9.5035     9.8977
  147.5000   106.2390     9.3998     9.7621
  148.0000   107.1988     9.2973     9.6168
  148.5000   110.7441     9.0375     9.2975
  149.0000   114.5702     8.7263     8.9599
  149.5000   116.9534     8.4258     8.6338
  150.0000   118.4957     8.1356     8.3184
  150.5000   120.0712     7.8529     7.9959
  151.0000   119.6768     7.8529     8.0003
  151.5000   115.9770     7.8529     7.9979
  152.0000   112.9720     7.8529     7.9989
  152.5000   116.0046     7.8529     7.9989
  153.0000   119.4657     7.8817     8.0616
  153.5000   119.4056     7.9412     8.1339
  154.0000   119.2600     8.0011     8.2068
  154.5000   120.7142     8.0615     8.2804
  155.0000   122.2473     8.2550     8.3547
  155.5000   121.6247     8.3747     8.4296
  156.0000   119.7861     8.3002     8.5052
  156.5000   118.3993     8.3759     8.5815
  157.0000   119.2386     8.4649     8.6585
  157.5000   120.6120     8.5603     8.7726
  158.0000   121.2294     8.6567     8.9853
  158.5000   119.3784     8.8395     9.0991
  159.0000   117.2845     9.0721     8.8526
  159.5000   116.8372     9.1840     8.9493
  160.0000   118.6699     9.1840     9.0375
  160.5000   120.6015     9.1840     9.1270
  161.0000   120.4395     9.1840     9.2174
  161.5000   123.0543     9.1510     9.3090
  162.0000   125.5591     9.0806     9.3465
  162.5000   125.9159     9.0107     9.2260
  163.0000   123.3344     8.9414     9.1407
  163.5000   121.0842     8.8726     9.0565
  164.0000   121.2581     8.8044     8.9730
  164.5000   121.5953     8.7360     8.8903
  165.0000   121.4149     8.6894     8.8084
  165.5000   122.8459     8.6904     8.7706
  166.0000   124.9963     8.6901     8.8199
  166.5000   123.6384     8.7020     8.7711
  167.0000   121.7082     8.7168     8.8080
  167.5000   121.5469     8.7316     8.8687
  168.0000   121.9979     8.7465     8.9337
  168.5000   121.7806     8.7616     8.9337
  169.0000   121.8241     8.7705     8.9339
  169.5000   122.7868     8.7103     8.9333
  170.0000   122.4984     8.6667     8.9350
  170.5000   121.0755     8.6233     8.7927
  171.0000   121.2467     8.5802     8.6614
  171.5000   124.9035     8.5373     8.5322
  172.0000   127.6117     8.4946     8.4048
  172.5000   126.5051     8.4534     8.2794
  173.0000   125.2989     8.3653     8.1558
  173.5000   126.2059     8.2612     7.9989
  174.0000   126.4336     8.1583     8.0927
  174.5000   125.4402     8.1476     8.1313
  175.0000   122.7379     7.8124     8.1476
  175.5000   121.1485     7.4751     7.6901
  176.0000   119.8774     7.1541     7.3763
  176.5000   120.0441     6.8490     7.0753
  177.0000   121.7279     6.5842     6.7866
  177.5000   125.1315     6.5482     6.6532
  178.0000   125.6792     6.5084     6.6041
  178.5000   123.3294     6.4719     6.5318
  179.0000   122.1654     6.5253     6.7026
  179.5000   123.4839     6.6471     6.9109
  180.0000   124.8345     6.8197     7.1257
  180.5000   126.0132     6.9718     7.3472
  181.0000   125.5151     7.0021     7.5756
  181.5000   123.0437     7.0312     7.7731
