~VERSION INFORMATION
 VERS.                2.0:   CWLS LOG ASCII STANDARD - VERSION 2.0
 WRAP.                 NO:   ONE LINE PER DEPTH STEP
~WELL INFORMATION
#MNEM.UNIT      DATA TYPE    INFORMATION
#----------   ------------   ------------------------------
 STRT.F           60.0000:   START DEPTH
 STOP.F         1143.0000:   STOP DEPTH
 STEP.F            0.5000:   STEP LENGTH
 NULL.          -999.2500:   NO VALUE
 COMP. U S NAVY-INTEX OIL:   COMPANY
 WELL.    N.P.R . 3 #63-2:   WELL
 FLD .             TEAPOT:   FIELD
 LOC .       S2 T38N R78W:   LOCATION
 CNTY.            NATRONA:   COUNTY
 STAT.            WYOMING:   STATE
 CTRY. UNITED STATES OF AMERICA:   COUNTRY
 SRVC. Schlumberger Well Surveying Corp:   SERVICE COMPANY
 DATE.        24-MAY-1964:   LOGDATE
 API .       490250645500:   API NUMBER
~CURVE INFORMATION
#MNEM.UNIT       API CODE    CURVE DESCRIPTION
#----------   ------------   ------------------------------
 DEPT.F                  :   
 SPR .MV     05 010 01 00:   SPONTANEOUS POTENTIAL FROM RES.
 ASN .OHMM   05 041 16 00:   AMPLIFIED SHORT NORMAL 16"
 ILD .OHMM   05 120 46 00:   INDUCTION LOG DEEP
 CILD.MMHO   05 110 46 00:   CONDUCTIVITY INDUCTION LOG DEEP
 CALS.IN     60 280 50 00:   CALIPER FROM SONIC LOG
 DT  .US/F   60 520 33 00:   INTERVAL TRANSIT TIME
~PARAMETER INFORMATION
#MNEM.UNIT          VALUE    DESCRIPTION
#----------   ------------   ------------------------------
 PD  .                 GL:   PERMANENT DATUM
 EPD .F              5181:   ELEVATION PERMANENT DATUM
 LMF .                 KB:   LOG MEASURED FROM
 DAPD.F                 5:   FEET ABOVE PERMANENT DATUM
 DMF .                 KB:   DRILLING MEASURED FROM
 EKB .F              5186:   KELLING BUSHING
 EGL .F              5181:   GROUND LEVEL
 DATE.        24-MAY-1964:   RUN DATE
 RUN .                  1:   RUN NUMBER
 DD  .F              1140:   DEPTH DRILLER
 DL  .F              1144:   DEPTH LOGGER
 BLI .F              1143:   BOTTOM LOG INTERVAL
 TLI .F                82:   TOP LOG INTERVAL
 CS  .IN            8.625:   CASING SIZE
 CBD .F                10:   CASING BOTTOM DRILLER
 BS  .IN            7.875:   BIT SIZE
 BSD .F              1140:   BIT SIZE AT DEPTH
 DFT .            GEL/OIL:   DRILLING FLUID TYPE
 DFD .                9.0:   DRILLING FLUID DENSITY
 DFV .                 63:   DRILLING FLUID VISCOSITY
 DFPH.                8.0:   DRILLING FLUID PH
 DFL .                7.6:   DRILLING FLUID LOSS
 MSS .           FLOWLINE:   MUD SAMPLE SOURCE
 RMS .OHMM           0.87:   RESISTIVITY MUD SAMPLE
 MST .F                84:   MUD SAMPLE TEMPERATURE
 RMF .OHMM           0.43:   RESISTIVITY MUD FILTRATE SAMPLE
 MFST.F                84:   MUD FILTRATE SAMPLE TEMPERATURE
 RMC .OHMM           1.52:   RESISTIVITY MUD CAKE
 MCST.F                84:   MUD CAKE SAMPLE TEMPERATURE
 MFSS.                 FP:   MUD FILTRATE SAMPLE SOURCE
 MCSS.                 FP:   MUD CAKE SAMPLE SOURCE
 TCS .HRS               2:   TIME CURCULATED STOPPED
 LUN .               4507:   LOGGING UNIT NUMBER
 LUL .               CSPR:   LOGGING UNIT LOCATION
 ENGI.             DANNER:   RECORDING ENGINEER
 WITN.          JORGENSEN:   WITNESSED BY
 CLNT.            A2DTECH:   CLIENT CODE
 ORIG.       2", 5" PRINT:   ORIGIN OF DATA
 UWI .       490250645500:   UNIQUE WELL ID
 DICO. A2D Technologies, Inc.:   DIGITIZING COMPANY
~OTHER INFORMATION
~A   DEPT      SPR          ASN        ILD      CILD      CALS         DT   
# ...
  736.0000   -42.6385     8.6057     6.4565   153.6145     7.8236   100.1343
  736.5000   -42.5447     8.6659     6.5315   152.8615     7.8238   100.6234
  737.0000   -42.2634     8.7613     6.5475   151.1019     7.8087   101.1895
  737.5000   -42.2628     8.8456     6.6817   149.8494     7.7787   101.1885
  738.0000   -42.2620     8.9018     6.7908   148.6597     7.7638   101.3387
  738.5000   -42.1107     8.9505     6.8373   147.4385     7.7639   101.6401
  739.0000   -42.1445     8.9602     6.9820   146.0843     7.7641   101.4127
  739.5000   -42.2598     8.9700     7.0806   144.9962     7.7642   100.8837
  740.0000   -42.4800     8.9805     7.1321   144.4776     7.7644   100.3546
  740.5000   -42.5722     9.0549     7.2072   142.3193     7.7494   100.2029
  741.0000   -42.8598     9.1791     7.2823   141.5663     7.6892   100.2778
  741.5000   -42.8592     9.4061     7.3574   140.8132     7.5987   100.0505
  742.0000   -42.8584     9.5840     7.3574   139.6435     7.5233    99.4460
  742.5000   -43.0083     9.7620     7.3574   139.1753     7.5990    99.5209
  743.0000   -43.0075     9.9121     7.3574   138.5542     7.7351    98.5388
  743.5000   -43.0067     9.9250     7.3779   138.5542     7.7956    97.7079
  744.0000   -43.0060     9.9250     7.4324   138.5542     7.8260    97.2543
  744.5000   -43.0053     9.9250     7.4324   138.5542     7.8262    97.2536
  745.0000   -42.9067     9.9250     7.4324   137.5878     7.8414    97.1773
  745.5000   -42.8532     9.9250     7.4324   136.2952     7.8567    97.0257
  746.0000   -42.8524     9.9261     7.4604   134.7487     7.8719    96.8740
  746.5000   -42.8516    10.0556     7.5826   132.3068     7.8872    96.4159
  747.0000   -42.7003    10.1851     7.7037   129.5181     7.8873    95.7293
  747.5000   -42.6994    10.3146     7.7678   127.4224     7.8875    95.2025
  748.0000   -42.5482    10.4373     7.9580   125.7230     7.8876    94.8332
  748.5000   -42.5474    10.6447     8.0686   122.7600     7.8726    94.6814
  749.0000   -42.4568    10.6784     8.2653   120.8857     7.8577    94.5297
  749.5000   -42.3953    10.8740     8.4084   119.0114     7.8277    94.4535
  750.0000   -42.3945    10.9945     8.5836   117.1371     7.7909    94.5284
  750.5000   -42.3938    11.1900     8.7087   115.2628     7.7575    94.4392
  751.0000   -42.5437    11.3943     8.9019   113.3885     7.7374    94.3789
  751.5000   -42.5428    11.5811     9.0380   111.5142     7.7678    94.5306
  752.0000   -42.6929    11.7766     9.1714   109.6399     7.8284    94.6168
  752.5000   -42.8426    11.9190     9.1957   107.7655     7.8437    94.5698
  753.0000   -42.8419    11.9940     9.2200   107.6028     7.8438    93.6273
  753.5000   -42.8411    11.9190     9.2342   108.4337     7.8591    93.4771
  754.0000   -42.8403    11.9190     9.1372   109.2923     7.8592    92.7232
  754.5000   -42.8396    11.8441     9.0841   110.6928     7.8594    92.4973
  755.0000   -42.8389    11.8441     8.9689   111.4458     7.8596    92.3471
  755.5000   -42.8381    11.7423     8.9339   111.4497     7.8597    92.4235
  756.0000   -42.8374    11.6942     8.8589   112.6706     7.8599    93.1035
  756.5000   -42.8365    11.5761     8.8294   113.1386     7.8600    93.7080
  757.0000   -42.8359    11.4556     8.7828   114.4578     7.8602    93.7088
  757.5000   -42.8188    11.3193     8.7087   114.4578     7.8603    93.7095
  758.0000   -42.5330    11.2444     8.6897   115.2108     7.8605    93.7103
  758.5000   -42.5324    11.1688     8.6336   115.9639     7.8606    94.0884
  759.0000   -42.3810    11.0482     8.5586   116.2324     7.8456    94.5420
  759.5000   -42.2297    11.0195     8.4835   117.4699     7.8005    94.7691
  760.0000   -42.2289    11.0195     8.4835   117.4699     7.8006    95.0718
  760.5000   -42.2281    11.0945     8.4820   118.3900     7.7857    95.1480
  761.0000   -42.2274    11.2444     8.4084   118.9759     7.7556    95.0731
  761.5000   -42.2267    11.2937     8.4084   119.7289     7.7104    94.7721
  762.0000   -42.2259    11.3193     8.3333   120.4819     7.6954    94.3955
  762.5000   -42.2691    11.2444     8.3333   120.4819     7.7107    93.7925
  763.0000   -42.3750    11.1332     8.3333   120.7304     7.7260    93.7731
  763.5000   -42.4538    10.9445     8.3333   121.2349     7.7564    94.5487
  764.0000   -42.5462    10.8696     8.3333   121.9880     7.7716    94.8513
  764.5000   -42.6739    10.7946     8.2583   121.9880     7.7718    95.2294
  765.0000   -42.8238    10.7946     8.2583   122.7410     7.7568    95.6076
  765.5000   -42.8230    10.7946     8.2418   122.7410     7.7570    96.0637
  766.0000   -42.8223    10.7946     8.1832   122.7410     7.7874    96.5298
  766.5000   -42.9722    10.7946     8.1832   122.7410     7.8328    97.1192
  767.0000   -43.1219    10.7946     8.1832   122.7410     7.8481    96.5615
  767.5000   -43.1213    10.7727     8.1832   122.7410     7.8633    95.9886
  768.0000   -43.1205    10.6447     8.1832   122.7410     7.8635    96.5179
  768.5000   -43.2702    10.6010     8.1832   122.7410     7.8636    96.7450
  769.0000   -43.2696    10.4626     8.1411   123.4940     7.8486    96.7458
  769.5000   -43.2688    10.3243     8.0330   124.8672     7.8488    96.5201
  770.0000   -43.2681    10.1860     7.8829   127.3346     7.8490    96.3698
  770.5000   -43.2673    10.0477     7.7012   130.9976     7.8491    96.1443
  771.0000   -43.4171     9.9416     7.5045   134.6612     7.8341    95.9941
  771.5000   -43.4164     9.8621     7.3333   138.5542     7.8343    95.7682
  772.0000   -43.4157     9.7301     7.0901   143.5245     7.8345    95.6935
  772.5000   -43.4149     9.4648     6.8318   147.9099     7.8346    96.1473
  773.0000   -43.4142     9.1904     6.6787   150.6024     7.8196    96.7518
  773.5000   -43.4134     9.0340     6.5315   153.4414     7.7896    97.5827
  774.0000   -43.4126     8.8948     6.5315   155.1256     7.7293    98.7910
  774.5000   -43.2612     8.7856     6.5315   155.8735     7.6539    99.3201
  775.0000   -43.2605     8.7706     6.5315   154.9323     7.6087    99.9246
  775.5000   -43.2545     8.8006     6.6532   152.1084     7.6694   100.6801
  776.0000   -43.1084     9.1004     6.7748   148.7349     7.8055   101.2089
  776.5000   -43.0667     9.3950     6.8318   144.4054     7.8812   100.0023
  777.0000   -42.9563     9.5502     6.9429   141.5663     7.8813    98.8710
  777.5000   -42.8049     9.6227     7.0646   139.5205     7.8361    97.9661
  778.0000   -42.7852     9.6402     7.1321   137.8012     7.8061    96.8347
  778.5000   -42.5021     9.6158     7.3078   136.5953     7.7910    96.1562
  779.0000   -42.2962     9.6102     7.4324   136.2952     7.7761    95.6287
  779.5000   -42.1995     9.6702     7.4324   136.2952     7.7914    95.7049
  780.0000   -42.1988     9.7284     7.4324   137.3997     7.7916    95.7811
  780.5000   -42.5321     9.7601     7.4324   138.6208     7.7917    95.7064
  781.0000   -42.7996     9.7404     7.3994   140.0602     7.8070    95.6317
  781.5000   -42.8675     9.6656     7.3529   141.5663     7.8222    95.6325
  782.0000   -43.1104     9.5202     7.2072   143.0723     7.8526    95.7187
  782.5000   -43.2493     9.4461     7.2072   143.8253     7.8527    96.1875
  783.0000   -43.3992     9.4130     7.1321   144.5783     7.8378    96.7669
  783.5000   -43.3983     9.3853     7.1321   143.8253     7.8228    96.6922
  784.0000   -43.3976     9.3853     7.2072   143.1628     7.8230    97.0703
  784.5000   -43.3968     9.4453     7.2823   141.4272     7.7929    97.9765
  785.0000   -43.3960     9.5352     7.3574   138.5542     7.7629    97.9018
  785.5000   -43.3953     9.6299     7.4324   136.5886     7.7328    98.3556
  786.0000   -43.3946     9.7151     7.4805   134.0361     7.7178    98.6582
  786.5000   -43.3938     9.7593     7.5826   132.8701     7.7331    98.4326
  787.0000   -43.3931     9.8051     7.6577   132.5301     7.7484    97.1503
  787.5000   -43.3923     9.8509     7.6577   132.5301     7.8089    97.3774
