~VERSION INFORMATION
 VERS.                2.0:   CWLS LOG ASCII STANDARD - VERSION 2.0
 WRAP.                 NO:   ONE LINE PER DEPTH STEP
~WELL INFORMATION
#MNEM.UNIT      DATA TYPE    INFORMATION
#----------   ------------   ------------------------------
 STRT.F           34.0000:   START DEPTH
 STOP.F          496.0000:   STOP DEPTH
 STEP.F            0.5000:   STEP LENGTH
 NULL.          -999.2500:   NO VALUE
 COMP. LAWRENCE/ALLISON INC:   COMPANY
 WELL.   55-55 SX FI #3-3:   WELL
 FLD .             TEAPOT:   FIELD
 LOC .       S3 T38N R78W:   LOCATION
 CNTY.            NATRONA:   COUNTY
 STAT.            WYOMING:   STATE
 CTRY. UNITED STATES OF AMERICA:   COUNTRY
 SRVC.       Schlumberger:   SERVICE COMPANY
 DATE.        18-JUL-1982:   LOGDATE
 API .       490251089500:   API NUMBER
~CURVE INFORMATION
#MNEM.UNIT       API CODE    CURVE DESCRIPTION
#----------   ------------   ------------------------------
 DEPT.F                  :   
 CALD.IN     45 280 60 00:   CALIPER FROM DENSITY LOG
 GRD .GAPI   45 310 01 00:   GAMMA RAY FROM DENSITY LOG
 CORR.G/C3   45 356 01 00:   DENSITY CORRECTION
 RHOB.G/C3   45 350 01 00:   BULK DENSITY
 DPHI.DEC    45 890 12 00:   DENSITY POROSITY SANDSTONE
 SPR .MV     07 010 01 00:   SPONTANEOUS POTENTIAL
 ILD .OHMM   07 120 46 00:   INDUCTION LOG DEEP
 ILM .OHMM   07 120 44 00:   INDUCTION LOG MEDIUM
 SFL .OHMM   07 220 01 00:   SHALLOW FOCUSED LOG RESISTIVITY
~PARAMETER INFORMATION
#MNEM.UNIT          VALUE    DESCRIPTION
#----------   ------------   ------------------------------
 PD  .                 GL:   PERMANENT DATUM
 EPD .F              5167:   ELEVATION PERMANENT DATUM
 LMF .                 KB:   LOG MEASURED FROM
 DAPD.F                 9:   FEET ABOVE PERMANENT DATUM
 DMF .                 KB:   DRILLING MEASURED FROM
 EKB .F              5176:   KELLING BUSHING
 EDF .F                  :   DRILLING FLOOR
 EGL .F              5167:   GROUND LEVEL
 DATE.        18-JUL-1982:   RUN DATE
 RUN .                  1:   RUN NUMBER
 DD  .F               500:   DEPTH DRILLER
 DL  .F               499:   DEPTH LOGGER
 BLI .F               436:   BOTTOM LOG INTERVAL
 TLI .F                50:   TOP LOG INTERVAL
 CS  .IN           13.375:   CASING SIZE
 CBD .F                50:   CASING BOTTOM DRILLER
 CBL .F                50:   CASING BOTTOM LOGGER
 BS  .IN            12.25:   BIT SIZE
 BSD .F               500:   BIT SIZE AT DEPTH
 DFT .         KCL FILLED:   DRILLING FLUID TYPE
 DFD .                   :   DRILLING FLUID DENSITY
 DFV .                   :   DRILLING FLUID VISCOSITY
 DFPH.                   :   DRILLING FLUID PH
 DFL .                   :   DRILLING FLUID LOSS
 MSS .           WELLHEAD:   MUD SAMPLE SOURCE
 RMS .OHMM           2.82:   RESISTIVITY MUD SAMPLE
 MST .F                80:   MUD SAMPLE TEMPERATURE
 RMF .OHMM               :   RESISTIVITY MUD FILTRATE SAMPLE
 MFST.F                  :   MUD FILTRATE SAMPLE TEMPERATURE
 RMC .OHMM               :   RESISTIVITY MUD CAKE
 MCST.F                  :   MUD CAKE SAMPLE TEMPERATURE
 MFSS.                   :   MUD FILTRATE SAMPLE SOURCE
 MCSS.                   :   MUD CAKE SAMPLE SOURCE
 RMB .OHMM           2.62:   RESISTIVITY MUD AT BHT
 BHT .F                86:   BOTTOM HOLE TEMPERATURE
 TCS .HRS            1530:   TIME CURCULATED STOPPED
 TLAB.HRS            1800:   TIME LOGGER AT BOTTOM
 MRT .F                86:   MAXIMUM RECORDED TEMPERATURE
 LUN .               8035:   LOGGING UNIT NUMBER
 LUL .             CASPER:   LOGGING UNIT LOCATION
 ENGI.              PENNY:   RECORDING ENGINEER
 WITN.             TAYLOR:   WITNESSED BY
 CLNT.            A2DTECH:   CLIENT CODE
 ORIG.           5" PRINT:   ORIGIN OF DATA
 UWI .       490251089500:   UNIQUE WELL ID
 DICO. A2D Technologies, Inc.:   DIGITIZING COMPANY
 OS  .                   :   OTHER SERVICES
 PWI .                   :   PRIMARY WELL IDENTIFIER
 R1  . POROSITY WITH SANDSTONE:   REMARKS 1
 R2  .                   :   REMARKS 2
 LSRV.                   :   LOG MNEMONIC
~OTHER INFORMATION
~A   DEPT     CALD         GRD      CORR       RHOB       DPHI        SPR        ILD        ILM        SFL   
# ...
  472.0000    11.9717    80.2555     0.0083     2.4844     0.1132   -81.7362     8.0254     8.0834     8.1148
  472.5000    11.9714    81.1466     0.0105     2.4956     0.1092   -81.7474     7.8545     7.9119     8.0527
  473.0000    11.9711    79.5563     0.0120     2.4992     0.1074   -81.6071     7.6341     7.7440     8.0466
  473.5000    11.9708    78.4172     0.0066     2.4976     0.1083   -81.6161     7.4715     7.5797     8.0979
  474.0000    11.9705    80.6616     0.0035     2.4790     0.1178   -81.6250     7.2618     7.4188     8.2045
  474.5000    11.9702    82.9060     0.0016     2.4601     0.1257   -81.9325     7.1071     7.3118     7.9730
  475.0000    11.9850    83.1203    -0.0004     2.4623     0.1322   -82.0907     6.9557     7.2564     7.6429
  475.5000    11.9847    81.7528    -0.0005     2.4653     0.1252   -82.2489     6.8548     7.2514     7.2258
  476.0000    11.9693    80.8421    -0.0021     2.4789     0.1127   -82.2578     6.9452     7.2980     6.8789
  476.5000    11.9690    81.0564    -0.0013     2.4986     0.1075   -82.1175     7.1844     7.3933     7.1651
  477.0000    11.9838    81.7219     0.0017     2.4985     0.1057   -82.1265     7.5355     7.6483     7.7259
  477.5000    11.9835    81.0186     0.0047     2.4855     0.1149   -81.9839     7.9588     8.0781     8.3885
  478.0000    11.9832    79.8856     0.0084     2.4823     0.1179   -81.8436     8.4642     8.5320     8.9207
  478.5000    11.9829    79.2068     0.0114     2.4845     0.1170   -81.7033     8.8778     8.8876     9.2918
  479.0000    11.9826    78.9699     0.0143     2.4882     0.1146   -81.5630     9.2475     9.1942     9.5472
  479.5000    11.9814    78.9586     0.0173     2.4942     0.1079   -81.4227     9.4344     9.3806     9.7382
  480.0000    11.9669    79.1731     0.0203     2.5033     0.1003   -81.2824     9.6252     9.5047     9.8664
  480.5000    11.9817    79.3874     0.0233     2.5192     0.0936   -81.2936     9.6179     9.5658     9.9982
  481.0000    11.9814    79.6196     0.0263     2.5259     0.0900   -81.3025     9.6106     9.6924    10.1299
  481.5000    11.9660    80.7571     0.0217     2.5205     0.0915   -81.1622     9.6033     9.7530    10.2613
  482.0000    11.9643    84.6252     0.0118     2.5128     0.0998   -81.3204     9.5960     9.8123    10.3267
  482.5000    11.9489    86.8309     0.0079     2.5081     0.1025   -81.3294     9.5226     9.7379    10.3169
  483.0000    11.9050    87.9262     0.0132     2.5111     0.0989   -81.3383     9.5153     9.7312    10.3090
  483.5000    11.8879    88.1169     0.0169     2.5163     0.0968   -81.3473     9.4425     9.7245    10.3012
  484.0000    11.8442    87.4014     0.0168     2.5124     0.0998   -81.2070     9.4353     9.6508    10.2934
  484.5000    11.8270    86.0068     0.0198     2.5063     0.1001   -81.0667     9.3631     9.6441    10.2147
  485.0000    11.7965    84.2181     0.0258     2.5130     0.0941   -80.9241     9.3560     9.6375    10.2069
  485.5000    11.7832    83.5605     0.0326     2.5213     0.0889   -80.6368     9.3489     9.6308    10.1992
  486.0000    11.7829   116.1651     0.0462     2.5296     0.0874   -80.4942     9.2774     9.5578    10.2641
  486.5000    11.7826   162.2589     0.0408     2.5265     0.0892   -80.2069     9.2703     9.5512    10.3256
  487.0000    11.7823   215.2552     0.0317     2.5157     0.0966   -80.2159     9.1994     9.5447    10.3914
  487.5000    11.7794   292.3858     0.0248     2.5019     0.1027   -80.0733     9.1290     9.6045    10.5993
  488.0000    11.7666   300.0000     0.0225     2.4995     0.1031   -79.9330     9.1220     9.7316    10.8885
  488.5000    11.7486  -999.2500     0.0224     2.5139     0.1000   -79.6457     8.9277     9.8604    10.8052
  489.0000    11.7209  -999.2500     0.0231     2.5115     0.0994   -79.5032     8.8003     9.8535    10.3183
  489.5000    11.7206  -999.2500     0.0223     2.5099     0.1006  -999.2500  -999.2500  -999.2500  -999.2500
  490.0000    11.7052  -999.2500     0.0277     2.5182     0.0936  -999.2500  -999.2500  -999.2500  -999.2500
  490.5000    11.6748  -999.2500     0.0377     2.5349     0.0845  -999.2500  -999.2500  -999.2500  -999.2500
  491.0000    11.6595  -999.2500     0.0555     2.5394     0.0823  -999.2500  -999.2500  -999.2500  -999.2500
  491.5000    11.6291  -999.2500     0.0554     2.5347     0.0879  -999.2500  -999.2500  -999.2500  -999.2500
  492.0000    11.6138  -999.2500     0.0493     2.5163     0.0995  -999.2500  -999.2500  -999.2500  -999.2500
  492.5000    11.5984  -999.2500     0.0182     2.4797     0.1202  -999.2500  -999.2500  -999.2500  -999.2500
  493.0000    11.6133  -999.2500     0.0158     2.4781     0.1156  -999.2500  -999.2500  -999.2500  -999.2500
  493.5000    11.5978  -999.2500     0.0272     2.4886     0.1117  -999.2500  -999.2500  -999.2500  -999.2500
  494.0000    11.5825  -999.2500     0.0340     2.4977     0.1093  -999.2500  -999.2500  -999.2500  -999.2500
  494.5000    11.5371  -999.2500     0.0370     2.4740     0.1209  -999.2500  -999.2500  -999.2500  -999.2500
  495.0000    11.5217  -999.2500     0.0399     2.4282     0.1580  -999.2500  -999.2500  -999.2500  -999.2500
  495.5000    11.4763  -999.2500     0.0406     2.3146     0.1936  -999.2500  -999.2500  -999.2500  -999.2500
  496.0000    11.4761  -999.2500     0.0349     2.2559     0.2337  -999.2500  -999.2500  -999.2500  -999.2500
