~VERSION INFORMATION
 VERS.                2.0:   CWLS LOG ASCII STANDARD - VERSION 2.0
 WRAP.                 NO:   ONE LINE PER DEPTH STEP
~WELL INFORMATION
#MNEM.UNIT      DATA TYPE    INFORMATION
#----------   ------------   ------------------------------
 STRT.F          103.0000:   START DEPTH
 STOP.F          898.0000:   STOP DEPTH
 STEP.F            0.5000:   STEP LENGTH
 NULL.          -999.2500:   NO VALUE
 COMP. LAWRENCE/ALLISON INC:   COMPANY
 WELL. NPR 3 32-66 SX #2-2:   WELL
 FLD .             TEAPOT:   FIELD
 LOC .       S2 T38N R78W:   LOCATION
 CNTY.            NATRONA:   COUNTY
 STAT.            WYOMING:   STATE
 CTRY. UNITED STATES OF AMERICA:   COUNTRY
 SRVC.      Dresser Atlas:   SERVICE COMPANY
 DATE.        30-JAN-1986:   LOGDATE
 API .       490251106900:   API NUMBER
~CURVE INFORMATION
#MNEM.UNIT       API CODE    CURVE DESCRIPTION
#----------   ------------   ------------------------------
 DEPT.F                  :   
 RILD.OHMM   07 120 46 00:   INDUCTION LOG DEEP RESISTIVITY
 RILM.OHMM   07 120 44 00:   INDUCTION LOG MEDIUM RESISTIVITY
 CALD.IN     45 280 60 00:   CALIPER FROM DENSITY
 GRD .GAPI   45 310 01 00:   GAMMA RAY FROM DENSITY LOG
 CORR.G/C3   45 356 01 00:   DENSITY CORRECTION
 PORD.DEC    45 890 10 00:   POROSITY DENSITY LIMESTONE
 DEN .G/C3   45 350 01 00:   COMPENSATED BULK DENSITY
~PARAMETER INFORMATION
#MNEM.UNIT          VALUE    DESCRIPTION
#----------   ------------   ------------------------------
 PD  .                 GL:   PERMANENT DATUM
 EPD .F              5136:   ELEVATION PERMANENT DATUM
 LMF .                 GL:   LOG MEASURED FROM
 DMF .                 GL:   DRILLING MEASURED FROM
 EGL .F              5136:   GROUND LEVEL
 DATE.        30-JAN-1986:   RUN DATE
 RUN .                  1:   RUN NUMBER
 DD  .F               885:   DEPTH DRILLER
 DL  .F               902:   DEPTH LOGGER
 BLI .F               894:   BOTTOM LOG INTERVAL
 CS  .IN            8.625:   CASING SIZE
 CBD .F               130:   CASING BOTTOM DRILLER
 CBL .F               126:   CASING BOTTOM LOGGER
 BS  .IN             6.25:   BIT SIZE
 BSD .F               885:   BIT SIZE AT DEPTH
 DFT .                AIR:   DRILLING FLUID TYPE
 LUN .            HL-6264:   LOGGING UNIT NUMBER
 LUL .           GILLETTE:   LOGGING UNIT LOCATION
 ENGI.     P. M. FAHLSING:   RECORDING ENGINEER
 WITN.        LINDA FIVAS:   WITNESSED BY
 CLNT.            A2DTECH:   CLIENT CODE
 ORIG.           5" PRINT:   ORIGIN OF DATA
 UWI .       490251106900:   UNIQUE WELL ID
 DICO. A2D Technologies, Inc.:   DIGITIZING COMPANY
 R1  . POROSITY WITH LIMESTONE:   REMARKS 1
~OTHER INFORMATION
~A   DEPT     RILD       RILM       CALD        GRD       CORR       PORD        DEN   
# ...
  330.5000     6.9671     6.9671     7.0582   148.6611     0.1175     0.1378     2.4574
  331.0000     6.9726     6.9725     7.0591   147.1782     0.1432     0.1209     2.4752
  331.5000     6.9285     6.9779     7.0600   145.9919     0.1553     0.1193     2.4805
  332.0000     6.9352     6.9833     7.0609   144.2049     0.1417     0.1226     2.4775
  332.5000     6.9406     6.9888     7.0618   143.0186     0.1010     0.1311     2.4533
  333.0000     6.9931     7.0012     7.0627   142.9930     0.0527     0.1392     2.4458
  333.5000     6.9984     7.0471     7.0787   147.2526     0.0482     0.1413     2.4458
  334.0000     7.0038     7.0524     7.0946   154.7750     0.0859     0.1377     2.4519
  334.5000     7.0579     7.0579     7.0955   161.3965     0.1010     0.1341     2.4564
  335.0000     7.1619     7.1125     7.0964   159.9099     0.0935     0.1310     2.4610
  335.5000     7.1674     7.1675     7.1124   155.0702     0.1026     0.1277     2.4648
  336.0000     7.3236     7.2229     7.0982   149.0289     0.1207     0.1235     2.4701
  336.5000     7.4315     7.2285     7.0991   144.8799     0.1192     0.1195     2.4777
  337.0000     7.3845     7.2342     7.1000   143.0730     0.1162     0.1159     2.4837
  337.5000     7.3392     7.2398     7.1009   141.2663     0.1132     0.1134     2.4883
  338.0000     7.1953     7.2454     7.1018   140.4835     0.1224     0.1117     2.4906
  338.5000     7.1018     7.1020     7.1027   140.1943     0.1346     0.1117     2.4921
  339.0000     6.9132     6.9443     7.1038   140.2129     0.1404     0.1123     2.4913
  339.5000     6.7656     6.7284     7.1047   139.6235     0.1339     0.1141     2.4898
  340.0000     6.5891     6.5952     7.1206   139.0378     0.1178     0.1180     2.4852
  340.5000     6.4172     6.3317     7.1063   142.9603     0.1012     0.1249     2.4681
  341.0000     6.2927     6.2492     7.1074   144.4767     0.0801     0.1303     2.4581
  341.5000     6.2109     6.2543     7.1083   144.1913     0.0756     0.1309     2.4687
  342.0000     6.2158     6.2592     7.1090   143.3053     0.0892     0.1273     2.4733
  342.5000     6.2206     6.2640     7.1099   139.1160     0.1179     0.1243     2.4688
  343.0000     6.1398     6.2244     7.1110   138.5266     0.1194     0.1291     2.4657
  343.5000     6.1446     6.2305     7.1119   140.6473     0.1134     0.1252     2.4733
  344.0000     6.1493     6.2353     7.1127   149.9715     0.1028     0.1134     2.4945
  344.5000     6.1541     6.1971     7.1136   152.9894     0.0923     0.1104     2.4991
  345.0000     6.2017     6.2010     7.1145   153.9051     0.0863     0.1140     2.4900
  345.5000     6.2065     6.2093     7.1154   155.4215     0.0833     0.1206     2.4764
  346.0000     6.2113     6.2536     7.1163   156.6376     0.1014     0.1275     2.4674
  346.5000     6.1720     6.2584     7.1172   158.4543     0.1165     0.1296     2.4628
  347.0000     6.1770     6.2633     7.1181   159.0698     0.1105     0.1299     2.4621
  347.5000     6.3129     6.3556     7.1190   157.2829     0.1075     0.1293     2.4631
  348.0000     6.5388     6.5392     7.1199   151.4325     0.1045     0.1247     2.4795
  348.5000     6.6813     6.7281     7.1208   147.7130     0.1075     0.1190     2.4886
  349.0000     6.7329     6.7801     7.1217   145.9231     0.1136     0.1133     2.4947
  349.5000     6.7381     6.8800     7.1377   144.1332     0.1347     0.1091     2.5007
  350.0000     7.1270     6.9529     7.1536   142.3433     0.1528     0.1084     2.4992
  350.5000     7.2331     7.1848     7.1484   141.1511     0.1526     0.1115     2.4902
  351.0000     7.2397     7.2419     7.1431   141.1659     0.1328     0.1218     2.4736
  351.5000     7.1963     7.2475     7.1399   142.0787     0.1130     0.1284     2.4630
  352.0000     7.1039     7.2043     7.1555   142.9915     0.0900     0.1296     2.4675
  352.5000     7.1104     7.1616     7.1559   141.5019     0.0865     0.1224     2.4797
  353.0000     7.0678     7.1192     7.1865   140.6126     0.0971     0.1180     2.4842
  353.5000     6.9288     7.0769     7.1869   140.6249     0.0926     0.1166     2.4857
  354.0000     6.7926     6.9866     7.1874   140.6368     0.0835     0.1175     2.4797
  354.5000     6.7053     6.8493     7.1878   137.0451     0.0745     0.1247     2.4676
  355.0000     6.5281     6.7154     7.1883   136.4564     0.0926     0.1253     2.4661
  355.5000     6.3900     6.5838     7.1887   138.6336     0.1138     0.1253     2.4692
  356.0000     6.3161     6.4103     7.1740   141.9500     0.1349     0.1262     2.4677
  356.5000     6.4122     6.2831     7.1594   144.9440     0.1304     0.1283     2.4646
  357.0000     6.5506     6.3345     7.1298   146.8228     0.1138     0.1319     2.4586
  357.5000     6.6480     6.5189     7.1303   149.1315     0.0882     0.1349     2.4511
  358.0000     6.7469     6.6163     7.1307   150.3416     0.0625     0.1386     2.4443
  358.5000     6.8949     6.8088     7.1161   147.9541     0.0580     0.1401     2.4435
  359.0000     6.9975     6.9586     7.1015   145.5636     0.0716     0.1389     2.4458
  359.5000     7.1509     7.0219     7.1020   141.9719     0.0867     0.1361     2.4489
  360.0000     7.3077     7.2164     7.1024   140.7796     0.0988     0.1337     2.4526
  360.5000     7.5199     7.3788     7.1330   144.9987     0.0837     0.1343     2.4542
  361.0000     7.7382     7.6430     7.1334   149.2148     0.0747     0.1355     2.4527
  361.5000     7.9079     7.8104     7.1489   151.6291     0.0656     0.1361     2.4512
  362.0000     7.9702     7.8724     7.1494   149.8392     0.0703     0.1340     2.4551
  362.5000     7.8659     7.8802     7.1649   146.8451     0.0862     0.1295     2.4636
  363.0000     7.6533     7.8316     7.1655   146.2564     0.0989     0.1238     2.4733
  363.5000     7.3521     7.6800     7.1659   148.0731     0.0989     0.1210     2.4770
  364.0000     7.1094     7.4259     7.1663   149.2862     0.0959     0.1247     2.4728
  364.5000     6.9215     7.1803     7.1819   149.8987     0.0944     0.1337     2.4543
  365.0000     6.7386     6.9427     7.1823   149.3100     0.1005     0.1379     2.4483
  365.5000     6.6061     6.7597     7.1676   145.4180     0.1020     0.1415     2.4422
  366.0000     6.4315     6.4910     7.1681   143.3278     0.0912     0.1430     2.4400
  366.5000     6.3474     6.2763     7.1686   144.5409     0.0729     0.1433     2.4385
  367.0000     6.2658     6.2375     7.1690   148.1564     0.0580     0.1442     2.4377
  367.5000     6.3605     6.2886     7.1544   148.7689     0.0471     0.1473     2.4332
  368.0000     6.5452     6.3449     7.1398   146.9790     0.0447     0.1530     2.4196
  368.5000     6.6887     6.5267     7.1403   145.1751     0.0492     0.1566     2.4151
  369.0000     6.7870     6.7113     7.1407   143.3633     0.0659     0.1566     2.4196
  369.5000     6.8878     6.7645     7.1412   141.0087     0.0900     0.1493     2.4333
  370.0000     6.9419     6.7711     7.1416   142.3023     0.1006     0.1417     2.4454
  370.5000     6.9482     6.8249     7.1421   145.3393     0.1021     0.1348     2.4575
  371.0000     7.0029     6.9269     7.1425   146.7531     0.0961     0.1302     2.4651
  371.5000     7.0580     6.9819     7.1429   146.4625     0.0901     0.1260     2.4696
  372.0000     7.1136     7.0862     7.1434   146.4766     0.0841     0.1221     2.4757
  372.5000     7.2194     7.1425     7.1288   146.4885     0.0750     0.1189     2.4787
  373.0000     7.3268     7.1992     7.1443   146.5004     0.0811     0.1155     2.4818
  373.5000     7.3845     7.3068     7.1447   146.5123     0.0962     0.1113     2.4863
  374.0000     7.5465     7.4160     7.1602   146.5242     0.1128     0.1089     2.5000
  374.5000     7.6587     7.5269     7.1758   142.9325     0.1264     0.1071     2.5015
  375.0000     7.7190     7.6393     7.1762   140.5420     0.1234     0.1083     2.4955
  375.5000     7.7798     7.7535     7.1616   140.2507     0.1008     0.1149     2.4864
