~VERSION INFORMATION
 VERS.                2.0:   CWLS LOG ASCII STANDARD - VERSION 2.0
 WRAP.                 NO:   ONE LINE PER DEPTH STEP
~WELL INFORMATION
#MNEM.UNIT      DATA TYPE    INFORMATION
#----------   ------------   ------------------------------
 STRT.F           34.0000:   START DEPTH
 STOP.F         1014.5000:   STOP DEPTH
 STEP.F            0.5000:   STEP LENGTH
 NULL.          -999.2500:   NO VALUE
 COMP. FENIX & SCISSON INC:   COMPANY
 WELL.       NPR-3 #54-14:   WELL
 FLD .             TEAPOT:   FIELD
 LOC .      S14 T38N R78W:   LOCATION
 CNTY.            NATRONA:   COUNTY
 STAT.            WYOMING:   STATE
 CTRY. UNITED STATES OF AMERICA:   COUNTRY
 SRVC.            Unknown:   SERVICE COMPANY
 DATE.        20-APR-1978:   LOGDATE
 API .       490251062100:   API NUMBER
~CURVE INFORMATION
#MNEM.UNIT       API CODE    CURVE DESCRIPTION
#----------   ------------   ------------------------------
 DEPT.F                  :   
 SPR .MV     05 010 01 00:   SPONTANEOUS POTENTIAL FROM RES.
 SN  .OHMM   05 040 16 00:   SHORT NORMAL 16"
 ILD .OHMM   05 120 46 00:   INDUCTION LOG DEEP
 CALD.IN     45 280 60 00:   CALIPER
 GRD .GAPI   45 310 01 00:   GAMMA RAY FROM DENSITY LOG
 RHOB.G/C3   45 350 01 00:   BULK DENSITY
 DPOR.DEC    45 890 12 00:   DENSITY POROSITY SANDSTONE
 CORR.G/C3   45 356 01 00:   DENSITY CORRECTION
~PARAMETER INFORMATION
#MNEM.UNIT          VALUE    DESCRIPTION
#----------   ------------   ------------------------------
 PD  .                 GL:   PERMANENT DATUM
 EPD .F              5268:   ELEVATION PERMANENT DATUM
 LMF .                 KB:   LOG MEASURED FROM
 DAPD.F                 4:   FEET ABOVE PERMANENT DATUM
 DMF .                 KB:   DRILLING MEASURED FROM
 EKB .F              5272:   KELLING BUSHING
 EGL .F              5268:   GROUND LEVEL
 DATE.          4-20-1978:   RUN DATE
 RUN .                  1:   RUN NUMBER
 DD  .F              1030:   DEPTH DRILLER
 DL  .F              1021:   DEPTH LOGGER
 BLI .F              1014:   BOTTOM LOG INTERVAL
 TLI .F                50:   TOP LOG INTERVAL
 CS  .IN            8.625:   CASING SIZE
 CBD .F                40:   CASING BOTTOM DRILLER
 BS  .IN            7.875:   BIT SIZE
 BSD .F              1030:   BIT SIZE AT DEPTH
 DFT .                KCL:   DRILLING FLUID TYPE
 DFD .                8.6:   DRILLING FLUID DENSITY
 DFV .                 33:   DRILLING FLUID VISCOSITY
 DFPH.                 10:   DRILLING FLUID PH
 DFL .                  8:   DRILLING FLUID LOSS
 MSS .          FLOW LINE:   MUD SAMPLE SOURCE
 RMS .OHMM            .34:   RESISTIVITY MUD SAMPLE
 MST .F                64:   MUD SAMPLE TEMPERATURE
 RMF .OHMM            .36:   RESISTIVITY MUD FILTRATE SAMPLE
 MFST.F                60:   MUD FILTRATE SAMPLE TEMPERATURE
 RMC .OHMM            .48:   RESISTIVITY MUD CAKE
 MCST.F                68:   MUD CAKE SAMPLE TEMPERATURE
 MFSS.               MEAS:   MUD FILTRATE SAMPLE SOURCE
 MCSS.               MEAS:   MUD CAKE SAMPLE SOURCE
 RMB .OHMM            .29:   RESISTIVITY MUD AT BHT
 BHT .F                74:   BOTTOM HOLE TEMPERATURE
 TCS .HRS               6:   TIME CURCULATED STOPPED
 MRT .F                74:   MAXIMUM RECORDED TEMPERATURE
 LUN .               2958:   LOGGING UNIT NUMBER
 LUL .               CASP:   LOGGING UNIT LOCATION
 ENGI.             MILLER:   RECORDING ENGINEER
 WITN.           MCGINELY:   WITNESSED BY
 CLNT.            A2DTECH:   CLIENT CODE
 ORIG.       2", 5" PRINT:   ORIGIN OF DATA
 UWI .       490251062100:   UNIQUE WELL ID
 DICO. A2D Technologies, Inc.:   DIGITIZING COMPANY
~OTHER INFORMATION
~A   DEPT      SPR         SN        ILD       CALD         GRD      RHOB       DPOR       CORR   
# ...
  722.5000   -31.4266     7.5250     6.1070     7.7904   103.0568     2.4773     0.1144     0.0512
  723.0000   -31.4381     7.6146     6.2207     7.7792   101.2156     2.4894     0.1105     0.0431
  723.5000   -31.4497     7.7046     6.2520     7.8003   105.3303     2.4950     0.1125     0.0352
  724.0000   -31.4612     7.7956     6.3450     7.8274   108.7711     2.4908     0.1103     0.0273
  724.5000   -31.4727     7.8876     6.4394     7.8545   112.2721     2.4947     0.1094     0.0195
  725.0000   -31.4843     7.9808     6.5351     7.8578   113.1076     2.4895     0.1111     0.0117
  725.5000   -31.4958     8.0751     6.6323     7.8587   109.9499     2.4889     0.1152     0.0038
  726.0000   -31.5074     8.1706     6.7311     7.8120   106.5717     2.4823     0.1193    -0.0041
  726.5000   -31.5189     8.2674     6.8314     7.7494   109.3129     2.4731     0.1228    -0.0046
  727.0000   -31.5305     8.2809     6.8854     7.6864   110.6400     2.4663     0.1236    -0.0045
  727.5000   -31.5420     8.2809     6.8801     7.6236   110.5642     2.4701     0.1232    -0.0031
  728.0000   -31.5534     8.2809     6.8765     7.5608   109.7455     2.4745     0.1180     0.0060
  728.5000   -31.5651     8.2809     6.8729     7.4979   108.9345     2.4802     0.1119     0.0149
  729.0000   -31.5841     8.2809     6.8693     7.4351   108.4765     2.4882     0.1087     0.0233
  729.5000   -31.6316     8.2809     6.8657     7.3722   111.4033     2.4963     0.1084     0.0240
  730.0000   -31.6779     8.2809     6.8622     7.3094   114.6849     2.4930     0.1125     0.0245
  730.5000   -31.7244     8.2809     6.8586     7.2455   115.1453     2.4821     0.1189     0.0250
  731.0000   -31.7715     8.2809     6.8550     7.2064   110.0846     2.4714     0.1253     0.0256
  731.5000   -31.7492     8.2809     6.8514     7.2016    99.6762     2.4655     0.1295     0.0196
  732.0000   -31.7168     8.2809     6.8478     7.2446    89.3733     2.4574     0.1332     0.0131
  732.5000   -31.6844     8.2809     6.8443     7.4758    84.9382     2.4425     0.1419     0.0075
  733.0000   -31.6521     8.2810     6.8407     7.5334    88.5082     2.4296     0.1436     0.0095
  733.5000   -31.6199     8.2810     6.8371     7.5939    94.4490     2.4332     0.1408     0.0174
  734.0000   -31.5876     8.2805     6.8336     7.6548   100.3912     2.4517     0.1318     0.0259
  734.5000   -31.5554     8.2814     6.8301     7.7152   104.4820     2.4653     0.1225     0.0275
  735.0000   -31.5231     8.1369     6.8264     7.7517   101.4581     2.4790     0.1132     0.0275
  735.5000   -31.4909     8.0304     6.8229     7.7197    96.7783     2.4866     0.1096     0.0275
  736.0000   -31.4586     7.9254     6.7599     7.6894    91.9850     2.4994     0.1113     0.0275
  736.5000   -31.4263     7.8219     6.6549     7.6605    92.2062     2.4947     0.1130     0.0274
  737.0000   -31.3944     7.7197     6.5515     7.6856    94.0616     2.4881     0.1175     0.0270
  737.5000   -31.3828     7.6188     6.4497     7.8774    94.6779     2.4755     0.1226     0.0401
  738.0000   -31.4053     7.5193     6.3495     8.1290    94.5222     2.4630     0.1278     0.0713
  738.5000   -31.4273     7.4211     6.2509     8.1141    95.0020     2.4567     0.1329     0.0930
  739.0000   -31.4494     7.3241     6.1538     8.0640    96.3922     2.4521     0.1381     0.1120
  739.5000   -31.4715     7.1749     6.0583     8.0126    96.9734     2.4438     0.1433     0.1309
  740.0000   -31.4936     6.9794     5.9641     7.9431    97.8802     2.4324     0.1484     0.1497
  740.5000   -31.5151     6.7892     5.8714     7.8063   101.8233     2.4249     0.1536     0.1635
  741.0000   -31.5364     6.5497     5.6411     7.6745   108.1329     2.4144     0.1587     0.1704
  741.5000   -31.5635     6.0731     5.3176     7.5436   112.3276     2.3971     0.1627     0.2091
  742.0000   -31.8725     5.6311     4.9450     7.4336   107.9335     2.4045     0.1593     0.2217
  742.5000   -32.7002     5.2213     4.5473     7.3639   102.0418     2.4120     0.1611     0.1910
  743.0000   -33.5201     4.8413     4.0296     7.2931    97.3058     2.3851     0.1779     0.1415
  743.5000   -34.3414     4.4026     3.5716     7.2682    98.8850     2.3589     0.1947     0.0922
  744.0000   -35.1661     3.9626     3.1652     7.2521   101.3741     2.3173     0.2116     0.0557
  744.5000   -35.9213     3.5667     2.8051     7.2362   100.4557     2.2784     0.2285     0.0437
  745.0000   -35.9557     3.2100     2.4859     7.2218    93.1287     2.2570     0.2462     0.0427
  745.5000   -35.8348     2.8875     2.2355     7.2219    86.6013     2.2420     0.2484     0.0420
  746.0000   -35.7193     2.5890     2.0556     7.2344    86.8615     2.2521     0.2416     0.0395
  746.5000   -35.6084     2.5416     2.0367     7.2738    96.5194     2.2948     0.2190     0.0340
  747.0000   -35.2678     2.5183     2.0367     7.3134   105.0479     2.3375     0.1964     0.0284
  747.5000   -34.7614     2.7031     2.2414     7.3423   113.7028     2.3793     0.1739     0.0270
  748.0000   -34.2529     3.0467     2.4941     7.5527   115.4165     2.4153     0.1513     0.0264
  748.5000   -33.7447     3.4339     2.8094     7.7914   112.7875     2.4375     0.1389     0.0258
  749.0000   -33.2377     3.8703     3.1644     8.0192   110.8326     2.4425     0.1392     0.0281
  749.5000   -32.9669     4.3623     3.5644     8.1185   112.6019     2.4419     0.1387     0.0336
  750.0000   -32.9681     4.9167     4.0149     8.1654   116.2729     2.4429     0.1383     0.0464
  750.5000   -32.9678     5.5417     4.5223     8.2131   115.8873     2.4460     0.1379     0.0619
  751.0000   -32.9681     5.8316     4.9850     8.2071   114.6918     2.4444     0.1374     0.0860
  751.5000   -32.9681     5.9403     5.0778     8.1936   114.6578     2.4429     0.1370     0.1177
  752.0000   -32.9681     5.9403     4.9823     8.0686   114.6154     2.4479     0.1356     0.1493
  752.5000   -32.9683     5.9219     4.8205     7.9346   117.8253     2.4544     0.1323     0.1817
  753.0000   -32.9678     5.9064     4.6640     7.8008   122.5199     2.4609     0.1311     0.1840
  753.5000   -32.9707     5.8846     4.5126     7.6674   126.2517     2.4574     0.1330     0.1467
  754.0000   -32.7944     5.8905     4.3660     7.5393   123.3661     2.4330     0.1349     0.1078
  754.5000   -32.5321     5.5468     4.2243     7.4597   117.2062     2.4071     0.1401     0.0710
  755.0000   -32.2659     5.3169     4.1449     7.3482   115.4208     2.4188     0.1444     0.0470
  755.5000   -32.0004     5.3176     4.1068     7.1719   115.9699     2.4334     0.1444     0.0287
  756.0000   -31.7740     5.2687     4.0691     6.9599   116.1849     2.4312     0.1440     0.0212
  756.5000   -31.8398     5.3492     4.1068     7.0234   116.0680     2.4294     0.1437     0.0203
  757.0000   -31.9009     5.4340     4.1449     7.1359   115.9434     2.4350     0.1388     0.0190
  757.5000   -31.9638     5.6235     4.3007     7.2490   116.0992     2.4466     0.1324     0.0178
  758.0000   -31.8890     5.8874     4.5146     7.3451   117.1531     2.4581     0.1260     0.0156
  758.5000   -31.7855     6.1635     4.7326     7.3533   118.3119     2.4683     0.1261     0.0132
  759.0000   -31.6815     6.4527     4.9611     7.3703   119.4248     2.4676     0.1265     0.0107
  759.5000   -31.5778     6.7554     5.2006     7.4185   118.3619     2.4654     0.1269     0.0083
  760.0000   -31.4741     7.0723     5.4517     7.4656   116.6758     2.4651     0.1274     0.0058
  760.5000   -31.3704     7.4040     5.7149     7.5025   116.4296     2.4647     0.1290     0.0055
  761.0000   -31.2667     7.6916     5.9923     7.5099   117.3594     2.4569     0.1328     0.0068
  761.5000   -31.1628     7.7629     6.2207     7.5170   119.5044     2.4493     0.1384     0.0121
  762.0000   -31.0587     7.7629     6.3366     7.5659   120.7098     2.4464     0.1346     0.0171
  762.5000   -30.9737     7.7629     6.3954     7.6296   120.9004     2.4541     0.1280     0.0224
