~VERSION INFORMATION
 VERS.                2.0:   CWLS LOG ASCII STANDARD - VERSION 2.0
 WRAP.                 NO:   ONE LINE PER DEPTH STEP
~WELL INFORMATION
#MNEM.UNIT      DATA TYPE    INFORMATION
#----------   ------------   ------------------------------
 STRT.F            1.0000:   START DEPTH
 STOP.F          478.0000:   STOP DEPTH
 STEP.F            0.1000:   STEP LENGTH
 NULL.          -999.2500:   NO VALUE
 COMP. LAWRENCE/ALLISON INC:   COMPANY
 WELL.     58-61 SX #58-3:   WELL
 FLD .             TEAPOT:   FIELD
 LOC .       S3 T38N R78W:   LOCATION
 CNTY.            NATRONA:   COUNTY
 STAT.            WYOMING:   STATE
 CTRY. UNITED STATES OF AMERICA:   COUNTRY
 SRVC.           Gearhart:   SERVICE COMPANY
 DATE.        08-JUL-1988:   LOGDATE
 API .       490251123400:   API NUMBER
~CURVE INFORMATION
#MNEM.UNIT       API CODE    CURVE DESCRIPTION
#----------   ------------   ------------------------------
 DEPT.F                  :   
 GRR .GAPI   07 310 01 00:   GAMMA RAY
 RILD.OHMM   07 120 46 00:   INDUCTION LOG DEEP RESISTIVITY
 RILM.OHMM   07 120 44 00:   INDUCTION LOG MEDIUM RESISTIVITY
~PARAMETER INFORMATION
#MNEM.UNIT          VALUE    DESCRIPTION
#----------   ------------   ------------------------------
 PD  .                 GL:   PERMANENT DATUM
 EPD .F              5184:   ELEVATION PERMANENT DATUM
 LMF .                 KB:   LOG MEASURED FROM
 DAPD.F                 5:   FEET ABOVE PERMANENT DATUM
 DMF .                 KB:   DRILLING MEASURED FROM
 EKB .F              5189:   KELLING BUSHING
 EGL .F              5184:   GROUND LEVEL
 DATE.        08-JUL-1988:   RUN DATE
 RUN .                  1:   RUN NUMBER
 DD  .F               485:   DEPTH DRILLER
 DL  .F               486:   DEPTH LOGGER
 BLI .F               478:   BOTTOM LOG INTERVAL
 CS  .IN            9.625:   CASING SIZE
 CBD .F                45:   CASING BOTTOM DRILLER
 CBL .F                44:   CASING BOTTOM LOGGER
 BS  .IN             8.75:   BIT SIZE
 BSD .F               485:   BIT SIZE AT DEPTH
 DFT .                AIR:   DRILLING FLUID TYPE
 TCS .HRS            2200:   TIME CURCULATED STOPPED
 TLAB.HRS            2315:   TIME LOGGER AT BOTTOM
 LUN .               7597:   LOGGING UNIT NUMBER
 LUL .           GILLETTE:   LOGGING UNIT LOCATION
 ENGI.           JOHNSTON:   RECORDING ENGINEER
 WITN.              FIVAS:   WITNESSED BY
 CLNT.            A2DTECH:   CLIENT CODE
 ORIG.           5" PRINT:   ORIGIN OF DATA
 UWI .       490251123400:   UNIQUE WELL ID
 DICO. A2D Technologies, Inc.:   DIGITIZING COMPANY
~OTHER INFORMATION
~A    DEPT     GRR       RILD       RILM   
# ...
  365.0000    76.6110    34.5880    46.7600
  365.1000    74.5101    34.3878    45.9848
  365.2000    74.0531    34.2518    45.3984
  365.3000    73.7362    34.2295    44.7512
  365.4000    73.7242    34.0058    43.9190
  365.5000    73.9737    34.0029    42.9266
  365.6000    74.2281    33.8750    41.8046
  365.7000    75.2168    33.6790    41.0153
  365.8000    76.2056    33.4840    40.2294
  365.9000    77.3284    33.2833    39.4620
  366.0000    78.7175    33.0975    38.5705
  366.1000    80.4653    33.0448    37.6371
  366.2000    82.7379    33.0415    36.8522
  366.3000    85.2512    32.9847    36.3078
  366.4000    88.0589    32.7937    35.8007
  366.5000    90.2973    32.5722    35.2411
  366.6000    91.8932    32.4153    34.8380
  366.7000    94.2855    32.2278    34.2481
  366.8000    96.5625    32.0413    33.6679
  366.9000    98.1781    31.8557    33.0970
  367.0000    99.4135    31.6577    32.4153
  367.1000   100.5361    31.3225    31.5201
  367.2000   101.2807    31.0876    30.7211
  367.3000   101.7750    30.8248    30.4164
  367.4000   102.0824    30.4718    30.0716
  367.5000   102.3318    30.1226    29.6603
  367.6000   102.5068    29.7783    29.2197
  367.7000   102.5099    29.4377    29.0473
  367.8000   102.5134    29.1009    28.8882
  367.9000   102.5159    28.8233    28.6042
  368.0000   102.5190    28.6379    28.3612
  368.1000   102.5220    28.2734    28.1998
  368.2000   102.5250    28.1282    28.0474
  368.3000   102.5283    27.9654    28.0472
  368.4000   102.3061    27.8036    27.9158
  368.5000   101.7268    27.6426    27.8512
  368.6000   101.2123    27.4796    27.7929
  368.7000   100.9151    27.3236    27.6566
  368.8000   100.4189    27.1655    27.8506
  368.9000    99.9353    27.0898    27.8505
  369.0000    99.4456    27.0405    27.8503
  369.1000    98.9559    26.8956    27.9227
  369.2000    98.3219    26.8925    28.0820
  369.3000    97.3541    27.0211    28.2422
  369.4000    96.4922    27.0765    28.2421
  369.5000    96.0860    27.1353    28.3665
  369.6000    95.5961    27.2878    28.5284
  369.7000    95.2868    27.4499    28.6912
  369.8000    95.2898    27.7451    28.8550
  369.9000    95.2932    27.8316    29.0428
  370.0000    95.5185    27.9070    29.0426
  370.1000    95.6024    28.1065    29.1474
  370.2000    95.8223    28.4199    29.3137
  370.3000    96.3183    28.6100    29.4810
  370.4000    96.8256    28.6077    29.6580
  370.5000    97.5509    28.7006    29.6578
  370.6000    98.1095    28.7443    29.7797
  370.7000    98.6054    28.5993    29.8657
  370.8000    99.1708    28.5962    29.8655
  370.9000    99.8881    28.4465    29.8713
  371.0000   100.1826    28.1731    30.0748
  371.1000   100.1851    27.9221    30.0746
  371.2000   100.3330    27.7605    30.1741
  371.3000   100.4947    27.5996    30.2854
  371.4000   100.4977    27.4401    30.2852
  371.5000   100.5011    27.2813    30.2850
  371.6000   100.2836    27.1234    30.2848
  371.7000   100.0403    27.0155    30.2846
  371.8000    99.6909    26.9986    30.2844
  371.9000    99.2500    26.8215    30.2842
  372.0000    98.9986    26.8192    30.2839
  372.1000    99.0015    26.8166    30.1145
  372.2000    99.0046    26.7509    29.9433
  372.3000    99.0076    26.6244    29.7729
  372.4000    99.0106    26.6217    29.6034
  372.5000    99.0340    26.4737    29.4230
  372.6000    99.6243    26.4309    29.0373
  372.7000    99.8262    26.4283    28.8980
  372.8000   100.0756    26.4257    28.6335
  372.9000   100.2398    26.4231    28.3708
  373.0000   100.2995    26.4201    28.2093
  373.1000   100.8532    26.4180    28.0378
  373.2000   101.0736    26.3250    27.7419
  373.3000   101.3231    26.2286    27.5372
  373.4000   101.6762    26.2260    27.3806
  373.5000   102.1720    26.2232    27.2247
  373.6000   102.6891    26.2209    27.0697
  373.7000   103.1638    26.2183    26.9158
  373.8000   103.6597    26.2157    26.7626
  373.9000   103.9120    26.2132    26.6958
  374.0000   103.8503    26.2081    26.6447
  374.1000   103.6145    26.0565    26.4931
  374.2000   103.6176    26.0227    26.3242
  374.3000   103.4235    26.0201    26.1925
  374.4000   103.0401    25.9678    26.0435
  374.5000   102.7162    25.8174    25.9578
  374.6000   102.6676    25.6506    25.9576
  374.7000   102.1157    25.6484    25.9574
  374.8000   101.9031    25.5500    25.8145
  374.9000   101.5014    25.4645    25.7760
  375.0000   101.0116    25.4324    25.7009
  375.1000   100.5659    25.2819    25.5959
  375.2000   100.3097    25.2795    25.5876
  375.3000   100.0791    25.1690    25.4170
  375.4000    99.6594    25.0234    25.2973
  375.5000    99.2888    24.8785    25.2394
  375.6000    99.0454    24.7446    25.1859
  375.7000    98.8072    24.7418    25.0426
  375.8000    99.0620    24.7397    24.8880
  375.9000    99.5062    24.6502    24.8879
  376.0000   100.0021    24.5624    24.7905
  376.1000   100.4979    24.5368    24.6494
  376.2000   100.9939    24.3861    24.5414
  376.3000   101.5573    24.2536    24.5409
  376.4000   101.7728    24.1133    24.4583
  376.5000   102.0222    24.0402    24.3756
  376.6000   102.2717    24.0023    24.2930
  376.7000   102.4795    23.8634    24.2104
  376.8000   102.4827    23.6987    24.1277
  376.9000   102.2545    23.6968    24.0451
  377.0000   102.0111    23.6163    23.9625
  377.1000   101.7677    23.4795    23.8798
  377.2000   101.4645    23.3605    23.7972
  377.3000   100.9775    23.3580    23.7146
  377.4000   100.7340    23.2363    23.6955
  377.5000   100.4906    23.1018    23.5498
  377.6000   100.2472    22.9681    23.3241
  377.7000    99.9257    22.8352    23.2027
  377.8000    99.4569    22.7023    23.2025
  377.9000    99.1780    22.7001    23.0892
  378.0000    99.1806    22.6978    22.9579
  378.1000    99.1836    22.6257    22.8272
  378.2000    99.2829    22.4947    22.6973
  378.3000    99.5324    22.3644    22.5611
  378.4000    99.7999    22.2172    22.5610
  378.5000   100.0314    22.1064    22.5608
  378.6000   100.2808    22.0583    22.5607
  378.7000   100.4158    22.0047    22.5605
  378.8000   100.4763    21.9001    22.5604
  378.9000   100.7258    21.8979    22.5602
  379.0000   100.9752    21.8958    22.5600
  379.1000   101.2247    21.8937    22.5599
  379.2000   101.3414    21.8915    22.5597
  379.3000   101.3445    21.9241    22.5596
  379.4000   101.3661    22.0411    22.5594
  379.5000   101.6545    22.0384    22.5593
  379.6000   101.6571    22.0366    22.5591
  379.7000   101.6601    22.1099    22.5589
  379.8000   101.6631    22.2342    22.5588
  379.9000   101.7030    22.3592    22.5586
  380.0000   101.9729    22.4952    22.5585
  380.1000   101.9757    22.4932    22.6556
  380.2000   101.9788    22.5801    22.7166
  380.3000   101.9818    22.5868    22.7164
  380.4000   102.0399    22.4560    22.7254
  380.5000   102.2914    22.3245    22.8756
  380.6000   102.2944    22.0693    22.8755
  380.7000   102.2974    21.9146    22.8753
  380.8000   102.3005    21.7877    22.8752
  380.9000   102.3035    21.6208    22.8545
  381.0000   102.3227    21.3732    22.7153
  381.1000   102.6136    21.0992    22.4759
  381.2000   102.6161    20.8870    22.3099
  381.3000   102.7676    20.7247    22.1235
  381.4000   102.9256    20.5550    21.8724
  381.5000   102.9287    20.3427    21.6240
  381.6000   102.9320    20.2218    21.3791
  381.7000   103.1585    19.8862    21.0424
  381.8000   103.2413    19.7136    20.7514
  381.9000   103.3540    19.5418    20.4773
  382.0000   103.5508    19.3180    20.1537
  382.1000   103.5539    19.1040    20.0251
  382.2000   103.5569    18.9759    19.8258
  382.3000   103.5599    18.8836    19.6735
  382.4000   103.5630    18.7089    19.5148
  382.5000   103.4952    18.5765    19.2934
  382.6000   103.2518    18.5575    19.0670
  382.7000   102.9656    18.4432    19.0669
  382.8000   102.9681    18.2460    18.9074
  382.9000   102.8251    18.1101    18.7471
  383.0000   102.5817    18.0548    18.6403
  383.1000   102.3064    18.0267    18.5342
