~VERSION INFORMATION
 VERS.                2.0:   CWLS LOG ASCII STANDARD - VERSION 2.0
 WRAP.                 NO:   ONE LINE PER DEPTH STEP
~WELL INFORMATION
#MNEM.UNIT      DATA TYPE    INFORMATION
#----------   ------------   ------------------------------
 STRT.F            0.0000:   START DEPTH
 STOP.F          814.0000:   STOP DEPTH
 STEP.F            0.5000:   STEP LENGTH
 NULL.          -999.2500:   NO VALUE
 COMP.   FLUOR DANIEL INC:   COMPANY
 WELL. NAVAL PETROLEUM RESERVE 3 SHX- #1-34:   WELL
 FLD .          N.P.R. #3:   FIELD
 LOC .      S34 T39N R78W:   LOCATION
 CNTY.            NATRONA:   COUNTY
 STAT.            WYOMING:   STATE
 CTRY. UNITED STATES OF AMERICA:   COUNTRY
 SRVC.      Western Atlas:   SERVICE COMPANY
 DATE.        24-JAN-1995:   LOGDATE
 API .       490252269400:   API NUMBER
~CURVE INFORMATION
#MNEM.UNIT       API CODE    CURVE DESCRIPTION
#----------   ------------   ------------------------------
 DEPT.F                  :   
 GRR .GAPI   07 310 01 00:   GAMMA RAY FROM RES. LOG.
 RILD.OHMM   07 120 46 00:   INDUCTION LOG DEEP RESISTIVITY
 RILM.OHMM   07 120 44 00:   INDUCTION LOG MEDIUM RESISTIVITY
~PARAMETER INFORMATION
#MNEM.UNIT          VALUE    DESCRIPTION
#----------   ------------   ------------------------------
 PD  .                 GL:   PERMANENT DATUM
 EPD .F              5089:   ELEVATION PERMANENT DATUM
 LMF .                 KB:   LOG MEASURED FROM
 DAPD.F                10:   FEET ABOVE PERMANENT DATUM
 DMF .                 KB:   DRILLING MEASURED FROM
 EKB .F              5099:   KELLING BUSHING
 EDF .F              5098:   DRILLING FLOOR
 EGL .F              5089:   GROUND LEVEL
 DATE.        24-JAN-1995:   RUN DATE
 RUN .                  1:   RUN NUMBER
 DD  .F               826:   DEPTH DRILLER
 DL  .F               824:   DEPTH LOGGER
 BLI .F               817:   BOTTOM LOG INTERVAL
 CS  .IN            9.625:   CASING SIZE
 CBD .F                95:   CASING BOTTOM DRILLER
 CBL .F                94:   CASING BOTTOM LOGGER
 BS  .IN             8.75:   BIT SIZE
 BSD .F               826:   BIT SIZE AT DEPTH
 DFT .                AIR:   DRILLING FLUID TYPE
 MRT .F                90:   MAXIMUM RECORDED TEMPERATURE
 LUN .            HL 6321:   LOGGING UNIT NUMBER
 LUL .         FT. MORGAN:   LOGGING UNIT LOCATION
 ENGI.  MARSHALL BENFIELD:   RECORDING ENGINEER
 WITN.        GARY STRONG:   WITNESSED BY
 CLNT.            A2DTECH:   CLIENT CODE
 ORIG.           5" PRINT:   ORIGIN OF DATA
 UWI .       490252269400:   UNIQUE WELL ID
 DICO. A2D Technologies, Inc.:   DIGITIZING COMPANY
~OTHER INFORMATION
~A    DEPT      GRR      RILD       RILM   
# ...
  455.0000   112.4361     8.2681     8.4118
  455.5000   113.7545     8.2202     8.3507
  456.0000   114.9930     8.1726     8.2900
  456.5000   116.2402     8.1252     8.2297
  457.0000   117.4906     8.0782     8.1699
  457.5000   118.5522     8.0138     8.0882
  458.0000   118.4198     8.0882     8.1704
  458.5000   116.0414     8.0138     8.0824
  459.0000   112.9879     8.0138     8.0893
  459.5000   108.8158     8.0138     8.0882
  460.0000   106.4898     8.0138     8.0882
  460.5000   109.0848     8.0140     8.0882
  461.0000   111.9106     8.0140     8.0887
  461.5000   114.1899     8.0138     8.0888
  462.0000   112.1385     7.8739     7.9204
  462.5000   109.8400     7.6007     7.5930
  463.0000   111.3131     7.3371     7.2797
  463.5000   114.9964     7.0826     7.0258
  464.0000   119.6664     6.8491     6.9517
  464.5000   124.0941     6.7446     6.8783
  465.0000   124.4090     6.6965     6.8057
  465.5000   120.5543     6.6486     6.7338
  466.0000   116.7100     6.6006     6.6619
  466.5000   112.8779     6.6006     6.6619
  467.0000   110.4983     6.7766     6.8395
  467.5000   112.9111     6.8908     6.9548
  468.0000   115.2700     7.0070     7.0720
  468.5000   115.8667     7.1069     7.1737
  469.0000   116.3974     7.1068     7.1726
  469.5000   116.9342     7.1069     7.2065
  470.0000   117.4741     7.1067     7.2318
  470.5000   118.0268     7.1069     7.2977
  471.0000   117.9345     7.1963     7.3854
  471.5000   117.6161     7.2973     7.4741
  472.0000   115.7926     7.3997     7.5640
  472.5000   115.8219     7.5035     7.6549
  473.0000   116.0034     7.5816     7.7234
  473.5000   116.6759     7.5626     7.7007
  474.0000   118.1896     7.5473     7.6797
  474.5000   119.6915     7.5321     7.6588
  475.0000   121.1967     7.5169     7.6379
  475.5000   122.7049     7.5017     7.6171
  476.0000   124.2689     7.4866     7.5964
  476.5000   124.0931     7.4715     7.5757
  477.0000   121.5768     7.4564     7.5550
  477.5000   118.9529     7.4414     7.5344
  478.0000   116.3504     7.4264     7.5139
  478.5000   116.8254     7.4116     7.4934
  479.0000   117.6659     7.3970     7.4729
  479.5000   118.4924     7.3816     7.4528
  480.0000   118.8480     7.3067     7.4424
  480.5000   119.4932     7.3232     7.4429
  481.0000   123.0795     7.3378     7.4429
  481.5000   126.8119     7.3523     7.4430
  482.0000   126.0472     7.3669     7.4431
  482.5000   122.8739     7.3743     7.4435
  483.0000   121.5654     7.3259     7.3940
  483.5000   125.1807     7.2823     7.3499
  484.0000   127.8344     7.2390     7.3061
  484.5000   126.5716     7.1959     7.2627
  485.0000   123.7674     7.1626     7.2291
  485.5000   121.0080     7.1247     7.1908
  486.0000   119.3462     7.0681     7.1337
  486.5000   120.9934     6.9955     7.0605
  487.0000   122.9394     6.9237     6.9879
  487.5000   123.6024     6.8525     6.9161
  488.0000   124.1784     6.7821     6.8451
  488.5000   125.3924     6.7125     6.7748
  489.0000   126.7390     6.6435     6.7052
  489.5000   127.7266     6.5041     6.5734
  490.0000   125.9023     6.2525     6.3421
  490.5000   124.5038     6.0106     6.1189
  491.0000   125.4622     5.7781     5.9039
  491.5000   126.5794     5.5381     5.6388
  492.0000   125.8929     5.5790     5.6692
  492.5000   124.0542     5.6233     5.7510
  493.0000   122.2354     5.6683     5.8340
  493.5000   120.8155     5.7126     5.9182
  494.0000   123.7836     5.7465     6.0372
  494.5000   127.0620     5.9751     6.1966
  495.0000   129.0237     6.1930     6.3601
  495.5000   128.1183     6.4189     6.5280
  496.0000   129.1475     6.6006     6.6619
  496.5000   129.8756     6.6006     6.6619
  497.0000   126.4781     6.6006     6.6619
  497.5000   122.6362     6.6006     6.6619
  498.0000   121.7885     6.6006     6.6619
  498.5000   124.1468     6.6007     6.6620
  499.0000   126.5514     6.5999     6.6614
  499.5000   127.4010     6.5968     6.6602
  500.0000   125.5642     6.6059     6.6619
  500.5000   123.6918     6.4168     6.4763
  501.0000   125.2861     6.2831     6.3414
  501.5000   128.1709     6.1521     6.2092
  502.0000   128.5352     5.9628     6.0182
  502.5000   126.3783     5.6181     5.6753
  503.0000   124.2149     5.2545     5.3158
  503.5000   122.0450     4.9144     4.9790
  504.0000   120.8465     4.6897     4.6636
  504.5000   123.2990     4.6461     4.4368
  505.0000   124.4726     4.6526     4.4368
  505.5000   121.7189     4.6701     4.5486
  506.0000   118.7208     4.6848     4.6465
  506.5000   117.4212     4.7888     4.9166
  507.0000   120.3740     4.9124     5.1991
  507.5000   122.5992     5.1715     5.4977
  508.0000   123.0913     5.4859     5.8135
  508.5000   124.0950     5.8207     6.1475
  509.0000   126.8123     6.1759     6.4027
  509.5000   129.7412     6.5399     6.5873
  510.0000   132.6757     6.6096     6.6844
  510.5000   135.1066     6.6246     6.7217
  511.0000   134.8416     6.6396     6.7593
  511.5000   130.6285     6.6541     6.8134
  512.0000   126.9898     6.7039     6.9085
  512.5000   123.5460     6.8391     7.0044
  513.0000   121.4667     6.9770     7.1020
  513.5000   119.4068     7.1176     7.2007
  514.0000   117.5908     7.2001     7.2672
  514.5000   120.5878     7.2447     7.3120
  515.0000   124.2984     7.2896     7.3573
  515.5000   124.4543     7.3348     7.4029
  516.0000   122.3792     7.3745     7.4429
  516.5000   122.0770     7.3745     7.5126
  517.0000   123.5144     7.3745     7.5879
  517.5000   124.8596     7.3743     7.6640
  518.0000   122.8732     7.3752     7.7231
  518.5000   120.6050     7.3444     7.6245
  519.0000   120.0156     7.3083     7.5453
  519.5000   120.4578     7.2725     7.4669
  520.0000   121.0121     7.2369     7.3894
  520.5000   123.2561     7.2016     7.3126
  521.0000   125.4967     7.1732     7.2366
  521.5000   126.1818     7.1080     7.1615
  522.0000   125.0518     7.0278     7.0871
  522.5000   122.9636     6.9483     7.0136
  523.0000   120.9982     6.8697     6.9406
  523.5000   122.0004     6.7861     6.8685
  524.0000   124.6412     6.4954     6.6779
  524.5000   126.6427     6.1947     6.3688
  525.0000   126.8271     5.9080     6.0740
  525.5000   127.5990     5.5381     5.7929
  526.0000   129.6807     5.0688     5.4367
  526.5000   131.3397     4.5211     4.7833
  527.0000   130.6734     3.9499     4.2345
  527.5000   130.0560     3.4509     3.7487
  528.0000   129.4362     3.0133     3.3186
  528.5000   128.5742     2.6832     2.9378
  529.0000   125.5090     2.4603     2.5401
  529.5000   120.8481     2.2594     2.3026
  530.0000   116.7737     2.2765     2.2604
  530.5000   114.7955     2.3017     2.2854
  531.0000   116.2519     2.3280     2.3896
  531.5000   120.1505     2.3673     2.5805
  532.0000   124.2830     2.6403     2.8384
  532.5000   127.9253     2.9656     3.1955
  533.0000   130.1832     3.3310     3.6235
  533.5000   132.4882     3.7414     4.1088
  534.0000   133.2425     4.2024     4.6591
  534.5000   133.8165     4.7201     5.1554
  535.0000   137.5493     5.2114     5.3673
  535.5000   140.2911     5.6487     5.5879
  536.0000   137.9316     5.9139     5.8176
  536.5000   134.3180     5.9123     6.0182
  537.0000   134.3779     5.8654     6.0740
  537.5000   139.7067     5.8384     6.1304
  538.0000   144.9323     5.8117     6.1304
  538.5000   150.1139     5.7851     5.9626
  539.0000   149.8853     5.7587     5.8364
  539.5000   145.4483     5.6937     5.6997
  540.0000   140.8496     5.4301     5.4515
  540.5000   138.2474     5.1018     5.1312
  541.0000   139.0468     4.7934     4.8297
  541.5000   137.9832     4.5195     4.5615
  542.0000   137.5261     4.4763     4.5178
  542.5000   144.4575     4.3234     4.3635
  543.0000   149.5755     4.1757     4.2133
  543.5000   143.9458     4.0828     4.1183
  544.0000   134.4370     4.0828     4.1173
  544.5000   125.5468     4.2019     4.2430
  545.0000   125.5972     4.4095     4.4522
  545.5000   132.9563     4.6287     4.6737
