~VERSION INFORMATION
 VERS.                2.0:   CWLS LOG ASCII STANDARD - VERSION 2.0
 WRAP.                 NO:   ONE LINE PER DEPTH STEP
~WELL INFORMATION
#MNEM.UNIT      DATA TYPE    INFORMATION
#----------   ------------   ------------------------------
 STRT.F           42.0000:   START DEPTH
 STOP.F          612.0000:   STOP DEPTH
 STEP.F            0.5000:   STEP LENGTH
 NULL.          -999.2500:   NO VALUE
 COMP. FENIX AND SCISSON INCORPORATED:   COMPANY
 WELL. RES 3 TEAPOT DOM #25SX11-11:   WELL
 FLD .             TEAPOT:   FIELD
 LOC .      S11 T38N R78W:   LOCATION
 CNTY.            NATRONA:   COUNTY
 STAT.            WYOMING:   STATE
 CTRY. UNITED STATES OF AMERICA:   COUNTRY
 SRVC.            Unknown:   SERVICE COMPANY
 DATE.        16-FEB-1978:   LOGDATE
 API .       490251058000:   API NUMBER
~CURVE INFORMATION
#MNEM.UNIT       API CODE    CURVE DESCRIPTION
#----------   ------------   ------------------------------
 DEPT.F                  :   
 ILD .OHMM   05 120 46 00:   INDUCTION LOG DEEP
 SN  .OHMM   05 040 16 00:   SHORT NORMAL 16"
 SPR .MV     05 010 01 00:   SPONTANEOUS POTENTIAL FROM RES.
 CALD.IN     45 280 60 00:   CALIPER FROM DENSITY LOG
 CORR.G/C3   45 356 01 00:   DENSITY CORRECTION
 DPHI.DEC    45 890 12 00:   DENSITY POROSITY SANDSTONE
 GRD .GAPI   45 310 01 00:   GAMMA RAY FROM DENSITY LOG
 RHOB.G/C3   45 350 01 00:   BULK DENSITY
~PARAMETER INFORMATION
#MNEM.UNIT          VALUE    DESCRIPTION
#----------   ------------   ------------------------------
 PD  .                 GL:   PERMANENT DATUM
 EPD .F              5167:   ELEVATION PERMANENT DATUM
 LMF .                 KB:   LOG MEASURED FROM
 DAPD.F                 3:   FEET ABOVE PERMANENT DATUM
 DMF .                 KB:   DRILLING MEASURED FROM
 EKB .F              5170:   KELLING BUSHING
 EGL .F              5167:   GROUND LEVEL
 DATE.        16-FEB-1978:   RUN DATE
 RUN .                  1:   RUN NUMBER
 DD  .F               610:   DEPTH DRILLER
 DL  .F               615:   DEPTH LOGGER
 BLI .F               610:   BOTTOM LOG INTERVAL
 TLI .F                40:   TOP LOG INTERVAL
 CS  .IN            8.625:   CASING SIZE
 CBD .F                40:   CASING BOTTOM DRILLER
 CBL .F                40:   CASING BOTTOM LOGGER
 BS  .IN            7.875:   BIT SIZE
 BSD .F               610:   BIT SIZE AT DEPTH
 DFT .        LIGNO/ SULF:   DRILLING FLUID TYPE
 DFD .                8.7:   DRILLING FLUID DENSITY
 DFV .                 30:   DRILLING FLUID VISCOSITY
 DFPH.                 10:   DRILLING FLUID PH
 DFL .                4.6:   DRILLING FLUID LOSS
 MSS .           FLOWLINE:   MUD SAMPLE SOURCE
 RMS .OHMM            1.7:   RESISTIVITY MUD SAMPLE
 MST .F                69:   MUD SAMPLE TEMPERATURE
 RMF .OHMM            1.5:   RESISTIVITY MUD FILTRATE SAMPLE
 MFST.F                70:   MUD FILTRATE SAMPLE TEMPERATURE
 RMC .OHMM            2.5:   RESISTIVITY MUD CAKE
 MCST.F                70:   MUD CAKE SAMPLE TEMPERATURE
 MFSS.               MEAS:   MUD FILTRATE SAMPLE SOURCE
 RMB .OHMM            1.6:   RESISTIVITY MUD AT BHT
 BHT .F                70:   BOTTOM HOLE TEMPERATURE
 TCS .HRS               3:   TIME CURCULATED STOPPED
 MRT .F                70:   MAXIMUM RECORDED TEMPERATURE
 LUN .               2958:   LOGGING UNIT NUMBER
 LUL .             CASPER:   LOGGING UNIT LOCATION
 ENGI.            POINTER:   RECORDING ENGINEER
 WITN.           MCGINLEY:   WITNESSED BY
 CLNT.            A2DTECH:   CLIENT CODE
 ORIG.           5" PRINT:   ORIGIN OF DATA
 UWI .       490251058000:   UNIQUE WELL ID
 DICO. A2D Technologies, Inc.:   DIGITIZING COMPANY
~OTHER INFORMATION
~A   DEPT      ILD         SN         SPR      CALD       CORR       DPHI        GRD       RHOB   
# ...
  204.0000     8.2662     8.4726    -6.1473     7.5806     0.0351     0.1054   106.0265     2.4879
  204.5000     8.1439     8.4680    -6.6120     7.5955     0.0245     0.1051   106.0221     2.4804
  205.0000     8.0698     8.4049    -7.6828     7.6556     0.0244     0.1046   105.8669     2.4743
  205.5000     7.9580     8.4004    -7.2385     7.7308     0.0288     0.1036   105.5609     2.4743
  206.0000     7.9500     8.3959    -6.6424     7.8212     0.0287     0.1028   104.5007     2.4825
  206.5000     7.9974     8.3914    -6.5013     7.8511     0.0255     0.1040   102.6199     2.4877
  207.0000     7.9894     8.3278    -6.6656     7.8659     0.0240     0.1059    99.0610     2.4801
  207.5000     7.9814     8.3234    -6.8273     7.8655     0.0239     0.1071   100.2633     2.4763
  208.0000     7.8632     8.3780    -6.9890     7.8501     0.0253     0.1074   103.1247     2.4770
  208.5000     7.9102     8.4319    -7.6053     7.6686     0.0267     0.1077   103.7247     2.4807
  209.0000     7.9003     8.4263    -8.0700     7.5172     0.0265     0.1071   102.6634     2.4821
  209.5000     7.9494     8.2481    -8.5348     7.6244     0.0264     0.1057   102.2066     2.4836
  210.0000     7.8844     8.1789    -9.3051     7.7734     0.0263     0.1054   101.8904     2.4828
  210.5000     7.8765     8.1256   -10.0728     7.8335     0.0262     0.1066   101.5934     2.4767
  211.0000     7.8141     8.2912    -9.4770     7.8634     0.0261     0.1069   101.2874     2.4737
  211.5000     7.7520     8.4038    -8.8811     7.8631     0.0260     0.1063   100.9813     2.4759
  212.0000     7.6890     8.5761    -8.4368     7.8628     0.0259     0.1040    99.9211     2.4833
  212.5000     7.6281     8.6904    -8.1439     7.8625     0.0273     0.1002    98.2576     2.4885
  213.0000     7.5153     8.7483    -7.3966     7.8622     0.0272     0.0908    95.6892     2.4946
  213.5000     7.5077     8.8638    -8.4699     7.8771     0.0271     0.0890    95.6848     2.5035
  214.0000     7.6051     8.8579    -8.1771     7.8767     0.0270     0.0905    94.9562     2.5117
  214.5000     7.7583     8.7919    -7.5787     7.8764     0.0269     0.0944    92.6584     2.5154
  215.0000     7.9217     8.6659    -6.8338     7.8761     0.0268     0.0897    94.7656     2.5191
  215.5000     8.0155     8.5418    -6.5409     7.8758     0.0267     0.0900    99.7386     2.5078
  216.0000     8.0633     8.5975    -6.8727     7.8906     0.0266     0.0945   102.4492     2.5009
  216.5000     8.0531     8.8342    -7.3215     7.8913     0.0250     0.0957   102.5958     2.5009
  217.0000     8.1032     8.8283    -7.4832     7.9203     0.0219     0.1006   101.9879     2.5023
  217.5000     8.0370     8.8236    -7.3394     7.9351     0.0203     0.1015   101.0608     2.4993
  218.0000     8.0289     8.8189    -7.5036     7.9347     0.0217     0.1036   100.3200     2.4947
  218.5000     8.1310     8.7532    -7.6654     7.8891     0.0276     0.1054   100.7682     2.4894
  219.0000     8.1229     8.6278    -6.6030     7.7529     0.0319     0.1061   100.3102     2.4879
  219.5000     8.0585     8.4976    -6.9307     7.6166     0.0318     0.1052    98.4959     2.4931
  220.0000     8.0505     8.4997    -7.3955     7.4783     0.0302     0.1037   100.6031     2.4953
  220.5000     8.0424     8.7333    -7.4057     7.4347     0.0301     0.1019   102.1071     2.4937
  221.0000     8.0343     8.7906    -7.7189     7.5250     0.0315     0.0995   102.7060     2.4869
  221.5000     8.0260     8.7848    -7.8806     7.7664     0.0449     0.0968   102.5497     2.4786
  222.0000     8.0162     8.2480    -8.1939     7.7510     0.0585     0.0924   101.9420     2.4823
  222.5000     8.0660     8.2435    -8.0551     7.6903     0.0716     0.0894   101.9376     2.4942
  223.0000     8.0558     8.2966    -7.7597     7.6447     0.0820     0.0867   102.2349     2.5047
  223.5000     7.9921     8.3488    -7.3179     7.6121     0.0939     0.0839   103.8896     2.5054
  224.0000     7.8739     8.5212    -7.1740     7.4930     0.1072     0.0783   107.3866     2.5076
  224.5000     7.8659     8.6948    -7.3383     7.4021     0.1116     0.0850   105.8326     2.5233
  225.0000     7.8034     8.5703    -8.4091     7.6737     0.0816     0.0892   103.9266     2.5218
  225.5000     7.7939     8.3310    -7.9409     7.7036     0.0515     0.0901   101.1561     2.5075
  226.0000     7.6787     8.2604    -6.9169     7.7336     0.0393     0.0901    97.3810     2.4901
  226.5000     7.5651     8.2062    -6.7730     7.7483     0.0364     0.0901    97.8291     2.4900
  227.0000     7.4533     8.2018    -6.7858     7.7642     0.0378     0.0899    98.7297     2.5000
  227.5000     7.2922     8.1974    -6.9475     7.7780     0.0407     0.0890   103.0994     2.5080
  228.0000     7.1346     8.1930    -7.2607     7.7928     0.0390     0.0878   104.9050     2.5095
  228.5000     7.1257     8.1320    -7.4409     7.7924     0.0374     0.0866   104.8819     2.5109
  229.0000     7.1186     8.1275    -8.0412     7.8072     0.0373     0.0863   102.4818     2.5154
  229.5000     7.1628     8.2358    -8.2029     7.8220     0.0372     0.0876   100.2150     2.5138
  230.0000     7.3045     8.2314    -8.5162     7.8217     0.0356     0.0873    99.9101     2.5130
  230.5000     7.4508     8.2855    -8.9809     7.8214     0.0325     0.0867   102.7715     2.5122
  231.0000     7.5475     8.4554   -11.1123     7.8211     0.0309     0.0893   101.8610     2.5136
  231.5000     7.6986     8.6277   -10.6439     7.8208     0.0308     0.0964   100.4992     2.5121
  232.0000     7.8509     8.6848    -8.7110     7.8205     0.0307     0.1012    98.6849     2.4978
  232.5000     7.9527     8.7999    -8.5672     7.8202     0.0306     0.1042   100.3385     2.4924
  233.0000     8.0021     8.8554    -8.2769     7.8199     0.0305     0.1027   101.3899     2.4917
  233.5000     8.1039     8.8506    -7.9840     7.8045     0.0304     0.1010   104.7038     2.4984
  234.0000     8.0957     8.8459    -7.9942     7.7867     0.0303     0.0983   105.4547     2.5043
  234.5000     8.1449     8.8412    -8.6105     7.6528     0.0302     0.0977   104.9967     2.5020
  235.0000     8.1925     8.8980    -8.1662     7.6525     0.0301     0.1004   104.3890     2.4982
  235.5000     8.2413     8.8931    -8.4819     7.6522     0.0300     0.1062   103.4686     2.4959
  236.0000     8.2310     8.8873    -8.1891     7.6671     0.0314     0.1074   102.7201     2.4951
  236.5000     8.2227     8.8826    -8.1993     7.6970     0.0313     0.1071   102.8665     2.4920
  237.0000     8.1576     8.8778    -8.2095     7.7118     0.0327     0.1062   105.7279     2.4875
  237.5000     8.1494     8.9361    -8.2197     7.7417     0.0357     0.1077   106.4777     2.4836
  238.0000     8.0847     8.8683    -8.2303     7.7867     0.0399     0.1099   106.3225     2.4798
  238.5000     8.0747     8.8636    -8.2426     7.8015     0.0413     0.1108   104.5081     2.4775
  239.0000     8.0666     8.9206    -8.0988     7.8466     0.0412     0.1096   101.0347     2.4767
  239.5000     8.0585     8.9146    -8.2630     7.8915     0.0411     0.1063   100.4270     2.4797
  240.0000     7.9947     8.9099    -8.7278     7.9215     0.0365     0.1042   100.5734     2.4864
  240.5000     7.9867     8.9672    -9.4956     7.9514     0.0304     0.1070    99.9647     2.4894
  241.0000     7.9787     9.0878    -9.0333     7.9662     0.0288     0.1100    99.0553     2.4794
  241.5000     8.0325     8.9576    -8.4579     7.9658     0.0272     0.1136    97.9951     2.4697
  242.0000     8.0741     8.9526    -8.1625     7.9655     0.0271     0.1151    97.6891     2.4629
  242.5000     8.0639     8.8849    -8.3268     7.9462     0.0285     0.1146    97.5339     2.4689
  243.0000     8.1140     8.8801    -8.7915     7.9196     0.0284     0.1140    97.6803     2.4861
  243.5000     8.1624     8.8140    -9.4078     7.9042     0.0283     0.1125    97.8257     2.4928
  244.0000     8.2090     8.8093    -8.8000     7.9039     0.0282     0.1113    97.5197     2.4815
