~VERSION INFORMATION
 VERS.                2.0:   CWLS LOG ASCII STANDARD - VERSION 2.0
 WRAP.                 NO:   ONE LINE PER DEPTH STEP
~WELL INFORMATION
#MNEM.UNIT      DATA TYPE    INFORMATION
#----------   ------------   ------------------------------
 STRT.F          660.0000:   START DEPTH
 STOP.F         2899.5000:   STOP DEPTH
 STEP.F            0.5000:   STEP LENGTH
 NULL.          -999.2500:   NO VALUE
 COMP. LAWRENCE/ALLISON INC:   COMPANY
 WELL. NPR #3 22 X 10 #22-10:   WELL
 FLD .             TEAPOT:   FIELD
 LOC .      S10 T38N R78W:   LOCATION
 CNTY.            NATRONA:   COUNTY
 STAT.            WYOMING:   STATE
 CTRY. UNITED STATES OF AMERICA:   COUNTRY
 SRVC.            Unknown:   SERVICE COMPANY
 DATE.        11-SEP-1986:   LOGDATE
 API .       490251106200:   API NUMBER
~CURVE INFORMATION
#MNEM.UNIT       API CODE    CURVE DESCRIPTION
#----------   ------------   ------------------------------
 DEPT.F                  :   
 ROP .MIN/FT 91 810 01 00:   RATE OF DRILLING PENETRATION
 TGAS.UNITS  91 830 01 00:   TOTAL GAS FROM HOTWIRE
~PARAMETER INFORMATION
#MNEM.UNIT          VALUE    DESCRIPTION
#----------   ------------   ------------------------------
 DATE.          9-11-1986:   RUN DATE
 DD  .F              2900:   DEPTH DRILLER
 TLI .F              1380:   TOP LOG INTERVAL
 WITN. R. HUSK/K. FREDERICK:   WITNESSED BY
 CLNT.            A2DTECH:   CLIENT CODE
 ORIG.           5" PRINT:   ORIGIN OF DATA
 UWI .       490251106200:   UNIQUE WELL ID
 DICO. A2D Technologies, Inc.:   DIGITIZING COMPANY
~OTHER INFORMATION
~A   DEPT      ROP         TGAS 
# ...
 1996.5000     1.0009   203.3200
 1997.0000     0.9317   203.2688
 1997.5000     0.8571   203.2175
 1998.0000     0.8108   203.1663
 1998.5000     0.8108   203.1150
 1999.0000     0.8108   203.0638
 1999.5000     0.8004   203.0125
 2000.0000     0.8004   202.9613
 2000.5000     0.8002   203.0125
 2001.0000     0.7789   203.0638
 2001.5000     0.7016   203.1150
 2002.0000     0.6258   203.1663
 2002.5000     0.5967   203.2175
 2003.0000     0.5856   203.2688
 2003.5000     0.6034   203.3200
 2004.0000     0.6528   203.3713
 2004.5000     0.7068   203.4225
 2005.0000     0.7608   203.4738
 2005.5000     0.7768   203.5251
 2006.0000     0.7765   203.5763
 2006.5000     0.7866   203.6276
 2007.0000     0.7863   203.6788
 2007.5000     0.7861   203.7301
 2008.0000     0.7859   203.7813
 2008.5000     0.8064   203.8326
 2009.0000     0.8697   203.8838
 2009.5000     0.9003   203.9351
 2010.0000     0.9096   203.9863
 2010.5000     0.9005   204.0376
 2011.0000     0.8460   204.0888
 2011.5000     0.7995   204.1401
 2012.0000     0.7838   204.1913
 2012.5000     0.7871   204.2426
 2013.0000     0.7896   204.2938
 2013.5000     0.7830   204.3451
 2014.0000     0.7827   204.3963
 2014.5000     0.7879   204.4476
 2015.0000     0.7868   204.4989
 2015.5000     0.7820   204.5501
 2016.0000     0.8020   204.6014
 2016.5000     0.8271   204.6526
 2017.0000     0.8562   204.7039
 2017.5000     0.8966   204.7551
 2018.0000     0.8846   204.8064
 2018.5000     0.8323   204.8576
 2019.0000     0.8113   204.9089
 2019.5000     0.8111   204.9601
 2020.0000     0.8004   205.0114
 2020.5000     0.7898   205.1648
 2021.0000     0.7895   205.3183
 2021.5000     0.7895   205.4717
 2022.0000     0.7894   205.6252
 2022.5000     0.7894   205.7786
 2023.0000     0.7893   205.9321
 2023.5000     0.7893   206.0855
 2024.0000     0.7892   206.2390
 2024.5000     0.7891   206.3924
 2025.0000     0.7891   206.5459
 2025.5000     0.7890   206.6993
 2026.0000     0.7890   206.8528
 2026.5000     0.7889   207.0062
 2027.0000     0.7889   207.1597
 2027.5000     0.7888   207.3131
 2028.0000     0.7888   207.4666
 2028.5000     0.7887   207.6200
 2029.0000     0.7887   207.7735
 2029.5000     0.7886   207.9269
 2030.0000     0.7886   208.0804
 2030.5000     0.7885   208.2338
 2031.0000     0.7885   208.3873
 2031.5000     0.7884   208.5407
 2032.0000     0.8295   208.6942
 2032.5000     0.9017   208.8476
 2033.0000     0.9636   209.0011
 2033.5000     0.9944   209.1545
 2034.0000     1.0042   209.3080
 2034.5000     1.0036   209.4614
 2035.0000     1.0044   209.6149
 2035.5000     1.0164   209.7683
 2036.0000     1.0457   209.9218
 2036.5000     1.1099   210.0752
 2037.0000     1.1713   210.2287
 2037.5000     1.2214   210.3821
 2038.0000     1.2568   210.5356
 2038.5000     1.2456   210.6890
 2039.0000     1.1759   210.8425
 2039.5000     1.1047   210.9959
 2040.0000     1.0186   211.1617
 2040.5000     0.9774   211.0672
 2041.0000     0.9677   210.9644
 2041.5000     0.9683   210.8616
 2042.0000     0.9584   210.7587
 2042.5000     0.9693   210.6559
 2043.0000     0.9699   210.5531
 2043.5000     0.9723   210.4503
 2044.0000     0.9813   210.3475
 2044.5000     0.9818   210.2446
 2045.0000     0.9823   210.1418
 2045.5000     0.9828   210.0390
 2046.0000     0.9800   209.9362
 2046.5000     0.9552   209.8334
 2047.0000     0.9023   209.7306
 2047.5000     0.8495   209.6277
 2048.0000     0.8011   209.5249
 2048.5000     0.8020   209.4221
 2049.0000     0.8559   209.3193
 2049.5000     0.9205   209.2165
 2050.0000     0.9732   209.1136
 2050.5000     0.9880   209.0108
 2051.0000     0.9886   208.9080
 2051.5000     0.9891   208.8052
 2052.0000     0.9828   208.7024
 2052.5000     0.9797   208.5996
 2053.0000     0.9876   208.4967
 2053.5000     0.9988   208.3939
 2054.0000     1.0336   208.2911
 2054.5000     1.0768   208.1883
 2055.0000     1.1280   208.0855
 2055.5000     1.1596   207.9827
 2056.0000     1.1290   207.8798
 2056.5000     1.0775   207.7770
 2057.0000     1.0156   207.6742
 2057.5000     0.9850   207.5714
 2058.0000     0.9855   207.4686
 2058.5000     0.9860   207.3657
 2059.0000     0.9865   207.2629
 2059.5000     0.9870   207.1601
 2060.0000     0.9877   207.0657
 2060.5000     0.9904   207.3961
 2061.0000     0.9931   207.7017
 2061.5000     0.9958   208.0073
 2062.0000     0.9985   208.3128
 2062.5000     1.0012   208.6184
 2063.0000     1.0039   208.9240
 2063.5000     1.0077   209.2295
 2064.0000     1.0388   209.5351
 2064.5000     1.0609   209.8407
 2065.0000     1.0915   210.1462
 2065.5000     1.1142   210.4518
 2066.0000     1.1404   210.7573
 2066.5000     1.0912   211.0629
 2067.0000     1.0029   211.3685
 2067.5000     0.9091   211.6740
 2068.0000     0.8389   211.9796
 2068.5000     0.8134   212.2852
 2069.0000     0.8061   212.5907
 2069.5000     0.8139   212.8963
 2070.0000     0.8481   213.2018
 2070.5000     0.9013   213.5074
 2071.0000     0.9496   213.8130
 2071.5000     0.9869   214.1185
 2072.0000     1.0021   214.4241
 2072.5000     1.0018   214.7297
 2073.0000     1.0016   215.0352
 2073.5000     1.0013   215.3408
 2074.0000     1.0010   215.6463
 2074.5000     1.0008   215.9519
 2075.0000     1.0005   216.2575
 2075.5000     0.9926   216.5630
 2076.0000     0.9896   216.8686
 2076.5000     0.9893   217.1742
 2077.0000     0.9786   217.4797
 2077.5000     0.9888   217.7853
 2078.0000     0.9885   218.0909
 2078.5000     0.9883   218.3964
 2079.0000     0.9984   218.7020
 2079.5000     0.9982   219.0075
 2080.0000     0.9979   219.3622
 2080.5000     0.9976   219.1464
 2081.0000     0.9963   218.9472
 2081.5000     0.9950   218.7224
 2082.0000     0.9996   211.9158
 2082.5000     1.0398   196.9418
 2083.0000     1.0733   182.3422
 2083.5000     1.1101   172.8246
 2084.0000     1.1247   172.6196
 2084.5000     1.1237   172.0468
 2085.0000     1.1263   170.1594
 2085.5000     1.1361   169.9544
 2086.0000     1.1414   169.2024
 2086.5000     1.1403   166.8875
 2087.0000     1.1393   164.5726
 2087.5000     1.1438   162.2577
 2088.0000     1.1476   160.7289
 2088.5000     1.1466   159.6781
 2089.0000     1.1522   158.2688
 2089.5000     1.1549   158.0638
 2090.0000     1.1244   158.0990
 2090.5000     1.0803   158.3885
 2091.0000     1.0362   158.6780
 2091.5000     1.0154   158.9675
 2092.0000     1.0456   159.2570
 2092.5000     1.0966   159.5465
 2093.0000     1.1683   159.8360
 2093.5000     1.2297   160.1255
 2094.0000     1.3014   160.4150
 2094.5000     1.2467   160.7045
 2095.0000     1.1798   160.9940
 2095.5000     1.0998   161.2835
 2096.0000     1.0895   161.5730
 2096.5000     1.2324   161.8625
 2097.0000     1.3455   162.1520
 2097.5000     1.4364   162.4415
 2098.0000     1.4821   162.7310
 2098.5000     1.4358   163.0205
 2099.0000     1.3630   163.3100
 2099.5000     1.3054   163.5995
 2100.0000     1.2681   163.8891
 2100.5000     1.2679   163.9993
 2101.0000     1.2573   164.0521
 2101.5000     1.2570   164.1049
 2102.0000     1.2568   164.1577
 2102.5000     1.3219   164.2106
 2103.0000     1.3974   164.2634
 2103.5000     1.4704   164.3162
 2104.0000     1.5173   164.3690
 2104.5000     1.5258   164.4218
 2105.0000     1.5151   164.4746
 2105.5000     1.5148   164.5275
 2106.0000     1.5094   164.5803
 2106.5000     1.4454   164.6331
 2107.0000     1.3910   164.6859
 2107.5000     1.3409   164.7387
 2108.0000     1.3290   164.7915
 2108.5000     1.3859   164.8443
 2109.0000     1.4506   164.8972
 2109.5000     1.4958   164.9500
 2110.0000     1.5021   165.0028
 2110.5000     1.5026   165.0556
 2111.0000     1.5040   165.1084
 2111.5000     1.5055   165.1612
 2112.0000     1.5069   165.2141
 2112.5000     1.5083   165.2669
 2113.0000     1.5098   165.3197
 2113.5000     1.5112   165.3725
 2114.0000     1.5127   165.4253
 2114.5000     1.5141   165.4781
 2115.0000     1.5155   165.5309
 2115.5000     1.5170   165.5838
 2116.0000     1.5184   165.6366
 2116.5000     1.5199   165.6894
 2117.0000     1.5213   165.7422
 2117.5000     1.5228   165.7950
