~VERSION INFORMATION
 VERS.                2.0:   CWLS LOG ASCII STANDARD - VERSION 2.0
 WRAP.                 NO:   ONE LINE PER DEPTH STEP
~WELL INFORMATION
#MNEM.UNIT      DATA TYPE    INFORMATION
#----------   ------------   ------------------------------
 STRT.F           10.0000:   START DEPTH
 STOP.F          570.0000:   STOP DEPTH
 STEP.F            0.5000:   STEP LENGTH
 NULL.          -999.2500:   NO VALUE
 COMP. BROWN JOHN E&C INC:   COMPANY
 WELL.   STX 10 #85-14-10:   WELL
 FLD .             TEAPOT:   FIELD
 LOC .      S10 T38N R78W:   LOCATION
 CNTY.            NATRONA:   COUNTY
 STAT.            WYOMING:   STATE
 CTRY. UNITED STATES OF AMERICA:   COUNTRY
 SRVC.           Gearhart:   SERVICE COMPANY
 DATE.        29-JUN-1986:   LOGDATE
 API .       490251108400:   API NUMBER
~CURVE INFORMATION
#MNEM.UNIT       API CODE    CURVE DESCRIPTION
#----------   ------------   ------------------------------
 DEPT.F                  :   
 LL  .OHMM   07 220 00 00:   LATEROLOG RES.
 RILD.OHMM   07 120 46 00:   INDUCTION LOG DEEP RESISTIVITY
 RILM.OHMM   07 120 44 00:   INDUCTION LOG MEDIUM RESISTIVITY
 SPR .MV     07 010 01 00:   SPONTANEOUS POTENTIAL
 GRR .GAPI   07 310 01 00:   GAMMA RAY FROM RES. LOG.
~PARAMETER INFORMATION
#MNEM.UNIT          VALUE    DESCRIPTION
#----------   ------------   ------------------------------
 PD  .                 GL:   PERMANENT DATUM
 EPD .F              5191:   ELEVATION PERMANENT DATUM
 LMF .                 KB:   LOG MEASURED FROM
 DAPD.F                 5:   FEET ABOVE PERMANENT DATUM
 DMF .                 KB:   DRILLING MEASURED FROM
 EKB .F              5196:   KELLING BUSHING
 EGL .F              5191:   GROUND LEVEL
 DATE.          6-29-1986:   RUN DATE
 RUN .                  1:   RUN NUMBER
 DD  .F               579:   DEPTH DRILLER
 DL  .F               572:   DEPTH LOGGER
 BLI .F               570:   BOTTOM LOG INTERVAL
 CS  .IN            8.625:   CASING SIZE
 CBD .F                47:   CASING BOTTOM DRILLER
 CBL .F                46:   CASING BOTTOM LOGGER
 BS  .IN            7.875:   BIT SIZE
 BSD .F               579:   BIT SIZE AT DEPTH
 DFT .                MUD:   DRILLING FLUID TYPE
 DFD .                8.9:   DRILLING FLUID DENSITY
 DFV .                 32:   DRILLING FLUID VISCOSITY
 DFPH.                  9:   DRILLING FLUID PH
 MSS .           FLOWLINE:   MUD SAMPLE SOURCE
 RMS .OHMM            1.3:   RESISTIVITY MUD SAMPLE
 MST .F                62:   MUD SAMPLE TEMPERATURE
 RMF .OHMM             .9:   RESISTIVITY MUD FILTRATE SAMPLE
 MFST.F                63:   MUD FILTRATE SAMPLE TEMPERATURE
 RMC .OHMM            1.5:   RESISTIVITY MUD CAKE
 MCST.F                63:   MUD CAKE SAMPLE TEMPERATURE
 MFSS.               MEAS:   MUD FILTRATE SAMPLE SOURCE
 MCSS.               MEAS:   MUD CAKE SAMPLE SOURCE
 RMB .OHMM            1.3:   RESISTIVITY MUD AT BHT
 BHT .F                64:   BOTTOM HOLE TEMPERATURE
 TCS .HRS            1300:   TIME CURCULATED STOPPED
 TLAB.HRS            1600:   TIME LOGGER AT BOTTOM
 MRT .F                64:   MAXIMUM RECORDED TEMPERATURE
 LUN .               7609:   LOGGING UNIT NUMBER
 LUL .           GILLETTE:   LOGGING UNIT LOCATION
 ENGI.             WAGNER:   RECORDING ENGINEER
 WITN.            JENNING:   WITNESSED BY
 CLNT.            A2DTECH:   CLIENT CODE
 ORIG.      2" & 5" PRINT:   ORIGIN OF DATA
 UWI .       490251108400:   UNIQUE WELL ID
 DICO. A2D Technologies, Inc.:   DIGITIZING COMPANY
~OTHER INFORMATION
~A   DEPT       LL       RILD       RILM        SPR         GRR  
# ...
  254.0000     8.1141     8.6715     8.5006   -22.5630    92.2082
  254.5000     7.9253     8.5709     8.3501   -23.9417    90.5324
  255.0000     7.7405     8.4714     8.2023   -23.6868    89.3972
  255.5000     7.5549     8.3730     8.0572   -22.3668    91.1574
  256.0000     7.4801     8.2929     7.9146   -20.6343    94.7160
  256.5000     7.4801     8.2547     7.7642   -20.8487    99.1175
  257.0000     7.3419     8.0414     7.4943   -20.7139    99.9015
  257.5000     7.1394     7.8349     7.2133   -19.7649    97.9938
  258.0000     6.7936     7.6208     6.9431   -20.5191    96.7434
  258.5000     6.4288     7.2119     6.6842   -21.1177    94.5771
  259.0000     6.0895     6.7977     6.2818   -20.2777    92.5283
  259.5000     5.7730     6.3838     5.7859   -19.4145    90.8188
  260.0000     5.4729     5.8657     5.3288   -17.7208    89.1475
  260.5000     5.2001     5.3596     4.9079   -16.8734    87.5954
  261.0000     4.8452     4.8972     4.4753   -18.4915    87.4127
  261.5000     4.3959     4.4747     4.0036   -17.6188    87.2099
  262.0000     3.9705     4.0887     3.5817   -16.5516    86.9931
  262.5000     3.5439     3.7359     3.3079   -16.1105    86.4275
  263.0000     3.1463     3.4136     3.0879   -16.0612    84.3344
  263.5000     2.7933     3.1191     2.8825   -17.0112    81.6839
  264.0000     2.4667     2.8635     2.6826   -18.0397    79.0607
  264.5000     2.4439     2.8635     2.6331   -17.8416    76.4161
  265.0000     2.9023     2.8635     2.7395   -15.3732    76.5204
  265.5000     3.3729     3.0704     2.8565   -16.8575    80.5404
  266.0000     3.9198     3.3243     3.0628   -18.2925    84.4663
  266.5000     4.5554     3.7263     3.3365   -18.0156    89.6168
  267.0000     5.3197     4.1769     3.7360   -17.2577    94.9913
  267.5000     5.8618     4.6821     4.1824   -16.3488    97.4590
  268.0000     6.1442     5.1336     4.6821   -15.5701    96.9448
  268.5000     6.3260     5.5359     5.2416   -15.1474    95.2826
  269.0000     6.1515     5.9805     5.5814   -14.7256    95.3179
  269.5000     6.3349     6.1257     5.8064   -14.3034    96.9754
  270.0000     6.4960     6.2789     6.0958   -14.7758    97.6960
  270.5000     6.6263     6.4347     6.0911   -15.8005    98.1565
  271.0000     6.6263     6.5660     6.3301   -16.8530    98.6745
  271.5000     6.6263     6.4029     6.3209   -15.9933   100.1093
  272.0000     6.5648     6.1818     6.0981   -14.9640   101.5129
  272.5000     6.2792     5.9687     5.8768   -14.7149   101.5129
  273.0000     6.0181     5.7632     5.6634   -15.5509   100.1107
  273.5000     5.7680     5.5648     5.4579   -16.3198    98.6480
  274.0000     5.5282     5.3733     5.2488   -16.3796    98.5325
  274.5000     5.2979     5.2472     5.1518   -14.4994    96.2909
  275.0000     5.2001     5.2484     5.1040   -16.1068    93.6666
  275.5000     5.4099     5.0579     5.0097   -16.4975    93.0060
  276.0000     5.5912     5.2438     5.0567   -16.5280    95.3169
  276.5000     5.7786     5.4868     5.2992   -15.5439   101.8057
  277.0000     5.9421     5.7410     5.5526   -15.0776   105.1493
  277.5000     6.1476     6.0069     5.8184   -16.3919   105.3039
  278.0000     6.4279     6.2852     6.0965   -17.0653   104.5499
  278.5000     6.7210     6.5764     6.3838   -16.2756   103.8631
  279.0000     7.0286     6.8550     6.5652   -16.6380   104.5190
  279.5000     7.3398     7.0475     6.7951   -18.0623   103.6031
  280.0000     7.5012     7.2453     7.0330   -19.4676   101.0983
  280.5000     7.6969     7.4486     7.2738   -19.3191    98.6595
  281.0000     7.8989     7.6575     7.3742   -19.1152    96.2606
  281.5000     8.0590     7.8724     7.4983   -19.6190    94.4863
  282.0000     8.0617     7.9104     7.6208   -20.1535    95.0782
  282.5000     7.9844     7.9104     7.5501   -20.5610    98.5292
  283.0000     7.9104     7.7164     7.5501   -21.4842   101.2853
  283.5000     7.7428     7.5290     7.3926   -23.4574   103.1159
  284.0000     7.5963     7.3467     7.2431   -25.0793   104.8660
  284.5000     7.4525     7.1661     7.0966   -26.1620   108.1046
  285.0000     7.3115     7.0235     6.8940   -24.2037   110.1109
  285.5000     7.1440     6.8422     6.6863   -29.5040   112.1686
  286.0000     6.8919     6.6670     6.4848   -22.0817   112.9404
  286.5000     6.6487     6.4962     6.2893   -19.4093   109.5555
  287.0000     6.4141     6.3298     6.0998   -20.7641   102.5510
  287.5000     6.1877     6.1677     5.9250   -22.4950    99.2241
  288.0000     5.9805     6.0097     5.7070   -20.3547    97.9371
  288.5000     5.6342     5.8558     5.5067   -18.5420   101.2698
  289.0000     5.3235     5.7058     5.2469   -19.9362   104.5810
  289.5000     5.1012     5.6552     5.2491   -21.2353   108.7751
  290.0000     5.3391     5.7694     5.3028   -22.0185   113.6226
  290.5000     5.7704     5.9472     5.5339   -21.3278   114.1439
  291.0000     6.2390     6.1305     5.7750   -20.7062   109.2091
  291.5000     6.7437     6.3195     6.0266   -20.2938   105.2336
  292.0000     7.1394     6.5410     6.2891   -19.9991   103.1629
  292.5000     7.1070     6.7840     6.7061   -21.2652   106.4083
  293.0000     7.0815     7.0362     7.1741   -22.4060   107.3569
  293.5000     7.0732     7.2976     7.6748   -22.0521   105.3565
  294.0000     7.3443     7.5688     8.0592   -21.5994   102.8263
  294.5000     7.6061     7.8501     8.1568   -20.9523   103.3504
  295.0000     7.8772     8.0813     8.2696   -20.3046   104.8673
  295.5000     7.9355     8.1606     8.3840   -21.3627   106.3344
  296.0000     7.9727     8.2402     8.4597   -24.2629   106.5720
  296.5000     8.0450     8.3207     8.4926   -25.3596   106.0813
  297.0000     8.1712     8.4023     8.5229   -24.2956   105.6217
  297.5000     8.2109     8.4445     8.4042   -24.1626   105.1561
  298.0000     8.0977     8.4033     8.2968   -25.8265   104.6658
  298.5000     7.9952     8.3658     8.1904   -22.9350   104.9840
  299.0000     7.8940     8.3285     8.0853   -20.1310   106.7110
  299.5000     7.7941     8.2915     7.9807   -17.5246   108.6553
  300.0000     7.7642     8.2109     7.9080   -14.9490   108.0885
  300.5000     7.8262     8.2109     8.1060   -12.4877   106.6360
  301.0000     8.0362     8.4832     8.2908   -11.6699   105.9157
  301.5000     8.2519     8.6988     8.4784   -11.0074   107.0926
  302.0000     8.4733     8.8491     8.6703   -12.0433   108.3026
  302.5000     8.7007     9.0202     8.8665   -14.9590   108.0620
  303.0000     8.9342     9.1953     9.0671   -15.8997   108.2742
  303.5000     9.1740     9.3736     9.2722   -17.0001   109.5039
  304.0000     9.4202     9.5552     9.4820   -17.7231   110.3133
  304.5000     9.6730     9.7403     9.6965   -16.1684   108.5962
  305.0000     9.8035     9.9291     9.8938   -14.4485   106.7247
  305.5000     9.8017    10.1744     9.9742   -17.2918   105.3931
  306.0000     9.8020    10.1951    10.0481   -19.3110   104.4544
  306.5000     9.8933    10.2249    10.1239   -19.0148   103.8691
  307.0000     9.8956    10.2547    10.1772   -16.8854   103.4638
  307.5000     9.6434    10.2697    10.0030   -15.0339   103.7204
  308.0000     9.3556    10.1338     9.8488   -15.0216   103.9676
  308.5000     9.4707     9.8938     9.7083   -14.9385   104.2170
  309.0000     9.6209     9.8938     9.7854   -14.8795   104.4567
  309.5000     9.5115     9.8938     9.8687   -14.8668   104.2659
  310.0000     9.3913     9.8938     9.8938   -14.1280   101.7964
  310.5000     9.2279     9.7443     9.5684   -12.0724    99.4440
  311.0000     9.0486     9.5346     9.3575   -10.7418    97.6374
  311.5000     8.8727     9.3294     9.1512    -9.9582    99.6677
  312.0000     8.6832     9.2688     8.9295    -9.6608   102.5866
  312.5000     8.5229     9.5126     8.8467    -7.0514   105.2933
  313.0000     8.4438     9.7046     9.0870    -5.7418   102.5854
  313.5000     8.5786     9.8020     9.3572    -7.7633   100.8275
  314.0000     8.8121     9.4222     9.3581    -8.4489    99.7830
  314.5000     9.1294     9.1772     9.0221    -6.9786    98.1834
