~VERSION INFORMATION
 VERS.                2.0:   CWLS LOG ASCII STANDARD - VERSION 2.0
 WRAP.                 NO:   ONE LINE PER DEPTH STEP
~WELL INFORMATION
#MNEM.UNIT      DATA TYPE    INFORMATION
#----------   ------------   ------------------------------
 STRT.F           47.0000:   START DEPTH
 STOP.F          790.0000:   STOP DEPTH
 STEP.F            0.5000:   STEP LENGTH
 NULL.          -999.2500:   NO VALUE
 COMP. LAWRENCE/ALLISON INC:   COMPANY
 WELL. NPR #3 #21-16 SX 2:   WELL
 FLD .             NPR #3:   FIELD
 LOC .       S2 T38N R78W:   LOCATION
 CNTY.            NATRONA:   COUNTY
 STAT.            WYOMING:   STATE
 CTRY. UNITED STATES OF AMERICA:   COUNTRY
 SRVC.           Gearhart:   SERVICE COMPANY
 DATE.        16-MAY-1986:   LOGDATE
 API .       490251106700:   API NUMBER
~CURVE INFORMATION
#MNEM.UNIT       API CODE    CURVE DESCRIPTION
#----------   ------------   ------------------------------
 DEPT.F                  :   
 CNS .DEC    42 890 00 00:   NEUTRON POROSITY
 GRD .GAPI   45 310 01 00:   GAMMA RAY FROM DENSITY LOG
~PARAMETER INFORMATION
#MNEM.UNIT          VALUE    DESCRIPTION
#----------   ------------   ------------------------------
 PD  .                 GL:   PERMANENT DATUM
 LMF .                 GL:   LOG MEASURED FROM
 DATE.        16-MAY-1986:   RUN DATE
 RUN .                  1:   RUN NUMBER
 DD  .F               835:   DEPTH DRILLER
 DL  .F               835:   DEPTH LOGGER
 BLI .F               835:   BOTTOM LOG INTERVAL
 TLI .F                70:   TOP LOG INTERVAL
 CS  .IN              4.5:   CASING SIZE
 DFT .              WATER:   DRILLING FLUID TYPE
 LUN .               6084:   LOGGING UNIT NUMBER
 LUL .           GILLETTE:   LOGGING UNIT LOCATION
 ENGI.                COX:   RECORDING ENGINEER
 WITN.             STRONG:   WITNESSED BY
 CLNT.            A2DTECH:   CLIENT CODE
 ORIG.           5" PRINT:   ORIGIN OF DATA
 UWI .       490251106700:   UNIQUE WELL ID
 DICO. A2D Technologies, Inc.:   DIGITIZING COMPANY
 R1  .                 NE:   REMARKS 1
~OTHER INFORMATION
~A   DEPT        CNS       GRD  
# ...
  411.5000     0.2582   102.5172
  412.0000     0.2596   103.1318
  412.5000     0.2510   102.5232
  413.0000     0.2478   101.9147
  413.5000     0.2487   101.0003
  414.0000     0.2560   100.0852
  414.5000     0.2554    98.8657
  415.0000     0.2541    97.6455
  415.5000     0.2461    96.7312
  416.0000     0.2307    95.5110
  416.5000     0.2259    93.9850
  417.0000     0.2265    93.0706
  417.5000     0.2289    92.1554
  418.0000     0.2256    92.1593
  418.5000     0.2238    92.7739
  419.0000     0.2272    93.6944
  419.5000     0.2317    94.9207
  420.0000     0.2242    95.8412
  420.5000     0.2136    97.0675
  421.0000     0.2118    97.6822
  421.5000     0.2091    97.9910
  422.0000     0.2109    97.9941
  422.5000     0.2155    97.9971
  423.0000     0.2212    97.6936
  423.5000     0.2261    97.6974
  424.0000     0.2309    97.7005
  424.5000     0.2346    97.7035
  425.0000     0.2385    97.7066
  425.5000     0.2425    98.0154
  426.0000     0.2449    98.3243
  426.5000     0.2450    98.6331
  427.0000     0.2392    98.9420
  427.5000     0.2292    98.9450
  428.0000     0.2229    99.2539
  428.5000     0.2235    99.5628
  429.0000     0.2281    99.8716
  429.5000     0.2359   100.1805
  430.0000     0.2387   100.1835
  430.5000     0.2378   100.7982
  431.0000     0.2351   101.1073
  431.5000     0.2324   101.4159
  432.0000     0.2315   101.7248
  432.5000     0.2324   102.3395
  433.0000     0.2311   102.9541
  433.5000     0.2287   103.8756
  434.0000     0.2260   105.1051
  434.5000     0.2252   105.7156
  435.0000     0.2284   104.7909
  435.5000     0.2318   103.8736
  436.0000     0.2373   103.2783
  436.5000     0.2491   103.2814
  437.0000     0.2531   103.3069
  437.5000     0.2513   103.5933
  438.0000     0.2425   103.9022
  438.5000     0.2380   103.9052
  439.0000     0.2377   104.2141
  439.5000     0.2420   104.5229
  440.0000     0.2674   104.8725
  440.5000     0.2840   105.1407
  441.0000     0.2870   105.4495
  441.5000     0.2871   105.8084
  442.0000     0.2786   107.7023
  442.5000     0.2629   108.2109
  443.0000     0.2533   107.2375
  443.5000     0.2469   106.3821
  444.0000     0.2460   105.7743
  444.5000     0.2533   104.5541
  445.0000     0.2591   103.0281
  445.5000     0.2627   101.1963
  446.0000     0.2621    89.2727
  446.5000     0.2545    80.1015
  447.0000     0.2271    71.8476
  447.5000     0.1845    68.4860
  448.0000     0.1764    70.0189
  448.5000     0.1779    77.0556
  449.0000     0.2003    86.8446
  449.5000     0.2284    92.6580
  450.0000     0.2449    94.0828
  450.5000     0.2470    97.2044
  451.0000     0.2493   100.0489
  451.5000     0.2502   104.0489
  452.0000     0.2598   107.4373
  452.5000     0.2743   107.6605
  453.0000     0.2734   105.1315
  453.5000     0.2607   102.1683
  454.0000     0.2490    96.5464
  454.5000     0.2429    95.4402
  455.0000     0.2432    97.8905
  455.5000     0.2511   100.0342
  456.0000     0.2635   103.0954
  456.5000     0.2792   104.9333
  457.0000     0.2804   106.1595
  457.5000     0.2729   105.5509
  458.0000     0.2584   104.0249
  458.5000     0.2484   101.2757
  459.0000     0.2457    97.9148
  459.5000     0.2463    95.7764
  460.0000     0.2517    99.1441
  460.5000     0.2617   101.8995
  461.0000     0.2607   102.5141
  461.5000     0.2560   102.5172
  462.0000     0.2520   102.5202
  462.5000     0.2532   100.6884
  463.0000     0.2529    98.2449
  463.5000     0.2523    95.8015
  464.0000     0.2560    95.1922
  464.5000     0.2644   100.0889
  465.0000     0.2623   101.9268
  465.5000     0.2542   103.1531
  466.0000     0.2490   103.1562
  466.5000     0.2469   102.5476
  467.0000     0.2466   101.9390
  467.5000     0.2475   101.0246
  468.0000     0.2566   100.4159
  468.5000     0.3001    99.8073
  469.0000     0.3046    98.8931
  469.5000     0.3031    98.2845
  470.0000     0.2853    99.5108
  470.5000     0.2382   102.2661
  471.0000     0.2258   104.4098
  471.5000     0.2249   105.0245
  472.0000     0.2237   103.7881
  472.5000     0.2352   102.2478
  473.0000     0.2467   101.0358
  473.5000     0.2466    99.8084
  474.0000     0.2369    98.8869
  474.5000     0.2355    98.3149
  475.0000     0.2557    98.9805
  475.5000     0.2829   100.2140
  476.0000     0.2733   101.3829
  476.5000     0.2570   102.9150
  477.0000     0.2515   103.8354
  477.5000     0.2500   104.7559
  478.0000     0.2488   105.0648
  478.5000     0.2533   103.8445
  479.0000     0.2793   102.0127
  479.5000     0.2811    99.5693
  480.0000     0.2603    98.0433
  480.5000     0.2376    97.4347
  481.0000     0.2361    97.1319
  481.5000     0.2361    97.1350
  482.0000     0.2449    97.1380
  482.5000     0.2673    97.1410
  483.0000     0.2658    97.4499
  483.5000     0.2612    97.7587
  484.0000     0.2582    98.0676
  484.5000     0.2733    98.9881
  485.0000     0.2634    99.9085
  485.5000     0.2501   100.5232
  486.0000     0.2431   101.4437
  486.5000     0.2416   101.7525
  487.0000     0.2407   101.4490
  487.5000     0.2398   100.8412
  488.0000     0.2412   100.2318
  488.5000     0.2485    99.3182
  489.0000     0.2613    99.0153
  489.5000     0.2691    98.7126
  490.0000     0.2758    98.4099
  490.5000     0.2854    98.4129
  491.0000     0.2897    98.4160
  491.5000     0.2797    98.1131
  492.0000     0.2586    98.1162
  492.5000     0.2423    98.1193
  493.0000     0.2401    98.1223
  493.5000     0.2395    98.1254
  494.0000     0.2401    98.1284
  494.5000     0.2519    98.1315
  495.0000     0.2495    98.1346
  495.5000     0.2444    98.1376
  496.0000     0.2396    98.1407
  496.5000     0.2474    98.0918
  497.0000     0.2447    97.8408
  497.5000     0.2408    98.4557
  498.0000     0.2371    95.0949
  498.5000     0.2344    91.7340
  499.0000     0.2335    94.7951
  499.5000     0.2375    98.1621
  500.0000     0.2432    99.6942
  500.5000     0.2427    94.6101
  501.0000     0.2422    90.5259
  501.5000     0.2392    88.6941
  502.0000     0.2283    87.8041
  502.5000     0.2206    87.8134
  503.0000     0.2194    87.8227
  503.5000     0.2207    88.1804
  504.0000     0.2246    89.0643
  504.5000     0.2258    89.6850
  505.0000     0.2230    90.3076
  505.5000     0.2199    90.9284
  506.0000     0.2185    91.2433
  506.5000     0.2222    91.5583
  507.0000     0.2272    91.5674
  507.5000     0.2282    91.5765
  508.0000     0.2204    91.5856
  508.5000     0.2186    91.5948
  509.0000     0.2162    91.6039
  509.5000     0.2101    91.3072
  510.0000     0.2011    88.5641
  510.5000     0.1984    82.1512
  511.0000     0.1999    81.5464
  511.5000     0.2126    84.3101
  512.0000     0.2226    86.7657
  512.5000     0.2220    87.6923
  513.0000     0.2175    86.4782
  513.5000     0.2114    84.0408
  514.0000     0.2057    84.3557
  514.5000     0.2003    85.5881
  515.0000     0.1973    87.1263
  515.5000     0.1958    88.3587
  516.0000     0.1949    89.2852
  516.5000     0.2021    90.2118
  517.0000     0.2218    90.8325
  517.5000     0.2323    91.4533
  518.0000     0.2387    91.7682
  518.5000     0.2408    92.0832
  519.0000     0.2411    91.7865
  519.5000     0.2375    92.1014
  520.0000     0.2306    92.4164
  520.5000     0.2288    92.4255
  521.0000     0.2366    92.4346
  521.5000     0.2385    92.4437
  522.0000     0.2388    92.4529
  522.5000     0.2348    92.1560
  523.0000     0.2300    91.8595
  523.5000     0.2225    91.8686
  524.0000     0.2158    91.5719
  524.5000     0.2101    90.9695
  525.0000     0.2128    90.0612
  525.5000     0.2225    88.2237
  526.0000     0.2334    87.6329
  526.5000     0.2428    89.8192
  527.0000     0.2476    91.9813
  527.5000     0.2525    94.4188
  528.0000     0.2534    95.9635
  528.5000     0.2473    96.2413
  529.0000     0.2392    92.4831
  529.5000     0.2338    92.9508
  530.0000     0.2311    95.6593
  530.5000     0.2407    97.8091
  531.0000     0.2510    98.7357
  531.5000     0.2640    97.5216
  532.0000     0.2812    95.3900
  532.5000     0.3094    93.5643
