~VERSION INFORMATION
 VERS.                2.0:   CWLS LOG ASCII STANDARD - VERSION 2.0
 WRAP.                 NO:   ONE LINE PER DEPTH STEP
~WELL INFORMATION
#MNEM.UNIT      DATA TYPE    INFORMATION
#----------   ------------   ------------------------------
 STRT.F            0.0000:   START DEPTH
 STOP.F         3315.0000:   STOP DEPTH
 STEP.F            0.5000:   STEP LENGTH
 NULL.          -999.2500:   NO VALUE
 COMP. LAWRENCE/ALLISON INC     84-AX-:   COMPANY
 WELL.          SHX3 #1-3:   WELL
 FLD .            WILDCAT:   FIELD
 LOC .       S3 T38N R78W:   LOCATION
 CNTY.            NATRONA:   COUNTY
 STAT.            WYOMING:   STATE
 CTRY. UNITED STATES OF AMERICA:   COUNTRY
 SRVC.      Dresser Atlas:   SERVICE COMPANY
 DATE.        20-JAN-1986:   LOGDATE
 API .       490251104200:   API NUMBER
~CURVE INFORMATION
#MNEM.UNIT       API CODE    CURVE DESCRIPTION
#----------   ------------   ------------------------------
 DEPT.F                  :   
 SPR .MV     07 010 01 00:   SPONTANEOUS POTENTIAL
 RILD.OHMM   07 120 46 00:   INDUCTION LOG DEEP RESISTIVITY
 RILM.OHMM   07 120 44 00:   INDUCTION LOG MEDIUM RESISTIVITY
 RFOC.OHMM   07 220 04 00:   RESISTIVITY FOCUSED LOG
 AC  .US/F   60 520 00 00:   ACCOUSTIC
 CALD.IN     45 280 60 00:   CALIPER FROM DENSITY
 CORR.G/C3   45 356 01 00:   DENSITY CORRECTION
 DEN .G/C3   45 350 01 00:   COMPENSATED BULK DENSTIY
 PORD.DEC    45 890 12 00:   POROSITY DENSITY SANDSTONE
 CNC .DEC    42 890 03 00:   NEUTRON POROSITY SANDSTONE
 GRR .GAPI   07 310 01 00:   GAMMA RAY
~PARAMETER INFORMATION
#MNEM.UNIT          VALUE    DESCRIPTION
#----------   ------------   ------------------------------
 PD  .                 GL:   PERMANENT DATUM
 EPD .F              5136:   ELEVATION PERMANENT DATUM
 LMF .                 KB:   LOG MEASURED FROM
 DAPD.F                11:   FEET ABOVE PERMANENT DATUM
 DMF .                 KB:   DRILLING MEASURED FROM
 EKB .F              5147:   KELLING BUSHING
 EGL .F              5136:   GROUND LEVEL
 DATE.        26-JAN-1986:   RUN DATE
 RUN .                  1:   RUN NUMBER
 DD  .F              3320:   DEPTH DRILLER
 DL  .F              3317:   DEPTH LOGGER
 BLI .F              3315:   BOTTOM LOG INTERVAL
 CS  .IN            8.625:   CASING SIZE
 CBD .F               550:   CASING BOTTOM DRILLER
 CBL .F               592:   CASING BOTTOM LOGGER
 BS  .IN            7.875:   BIT SIZE
 BSD .F              3320:   BIT SIZE AT DEPTH
 DFT .        POLYMER KCL:   DRILLING FLUID TYPE
 DFD .                9.1:   DRILLING FLUID DENSITY
 DFV .                 38:   DRILLING FLUID VISCOSITY
 DFPH.                 10:   DRILLING FLUID PH
 DFL .                8.5:   DRILLING FLUID LOSS
 MSS .           FLOWLINE:   MUD SAMPLE SOURCE
 RMS .OHMM           .435:   RESISTIVITY MUD SAMPLE
 MST .F                72:   MUD SAMPLE TEMPERATURE
 RMF .OHMM           .352:   RESISTIVITY MUD FILTRATE SAMPLE
 MFST.F                72:   MUD FILTRATE SAMPLE TEMPERATURE
 RMC .OHMM            .54:   RESISTIVITY MUD CAKE
 MCST.F                72:   MUD CAKE SAMPLE TEMPERATURE
 MFSS.               MEAS:   MUD FILTRATE SAMPLE SOURCE
 MCSS.               MEAS:   MUD CAKE SAMPLE SOURCE
 RMB .OHMM            .29:   RESISTIVITY MUD AT BHT
 BHT .F               108:   BOTTOM HOLE TEMPERATURE
 TCS .HRS               3:   TIME CURCULATED STOPPED
 MRT .F               108:   MAXIMUM RECORDED TEMPERATURE
 LUN .               6274:   LOGGING UNIT NUMBER
 LUL .               GLTE:   LOGGING UNIT LOCATION
 ENGI.             RAUTIO:   RECORDING ENGINEER
 WITN.             STRONG:   WITNESSED BY
 CLNT.            A2DTECH:   CLIENT CODE
 ORIG.       2", 5" PRINT:   ORIGIN OF DATA
 UWI .       490251104200:   UNIQUE WELL ID
 DICO. A2D Technologies, Inc.:   DIGITIZING COMPANY
~OTHER INFORMATION
~A    DEPT     SPR       RILD       RILM       RFOC         AC       CALD       CORR        DEN       PORD        CNC        GRR   
# ...
 2836.5000   -43.5928     8.7098     9.0005    10.4729    74.2048     8.5882     0.0440     2.5674     0.0515     0.1990    51.0014
 2837.0000   -44.0376     8.7710     9.1276    10.1140    74.4334     8.5876     0.0424     2.5697     0.0503     0.1894    50.1042
 2837.5000   -44.3250     8.8943     9.3751     9.6946    74.5867     8.5870     0.0332     2.5719     0.0488     0.1833    49.3584
 2838.0000   -44.3129     9.0192     9.5953     9.3755    74.5145     8.5864     0.0180     2.5742     0.0469     0.1809    48.1586
 2838.5000   -44.3008     9.1459     9.8156     9.8748    73.0889     8.5858     0.0109     2.5749     0.0460     0.1797    46.8076
 2839.0000   -44.1374     9.2744     9.9633    10.9986    71.8137     8.5852     0.0155     2.5726     0.0454     0.1791    45.9105
 2839.5000   -44.1253     9.2750    10.0292    12.2902    70.6889     8.5846     0.0200     2.5666     0.0454     0.1828    45.3159
 2840.0000   -44.1132     9.2757     9.8867    13.2655    70.1655     8.5840     0.0245     2.5583     0.0470     0.1967    45.6291
 2840.5000   -44.1010     9.0852     9.5462    13.8301    70.3189     8.5834     0.0245     2.5530     0.0524     0.1994    47.1525
 2841.0000   -44.0889     8.8370     9.0275    13.2673    71.4497     8.5828     0.0110     2.5500     0.0575     0.1979    48.2221
 2841.5000   -44.0768     8.4771     8.5369    12.2086    73.0316     8.5821    -0.0010     2.5484     0.0612     0.1973    49.1404
 2842.0000   -44.3703     8.3022     8.0172    11.0031    74.9220     8.5814    -0.0025     2.5515     0.0624     0.2003    49.7561
 2842.5000   -44.5095     8.1306     7.7950     9.5787    76.0502     8.5808     0.0080     2.5568     0.0566     0.1976    50.2205
 2843.0000   -44.4943     8.0180     7.7384     8.4551    76.0401     8.5802     0.0186     2.5604     0.0539     0.1964    49.7772
 2843.5000   -44.4822     7.8562     7.7357     8.6334    75.3305     8.5949     0.0261     2.5537     0.0527     0.1986    47.8211
 2844.0000   -44.4701     7.7974     7.7330     9.5806    74.3037     8.6095     0.0337     2.5446     0.0566     0.2059    45.4111
 2844.5000   -44.6093     7.6954     7.7303    10.7058    73.8013     8.6087     0.0412     2.5356     0.0630     0.2120    44.0601
 2845.0000   -44.8997     7.6427     7.6211    11.0077    73.8802     8.6081     0.0487     2.5288     0.0678     0.2247    46.3399
 2845.5000   -45.0419     7.6351     7.4615    10.4867    75.6125     8.6075     0.0217     2.5235     0.0714     0.2312    48.3172
 2846.0000   -45.0268     7.5818     7.2045     8.8180    77.1945     8.6069     0.0036     2.5220     0.0742     0.2292    49.2355
 2846.5000   -44.8634     7.3227     6.6265     7.8924    78.6260     8.6063     0.0082     2.5219     0.0793     0.2247    49.3974
 2847.0000   -44.5487     6.8414     5.9692     8.1714    79.0042     8.5906     0.0127     2.5204     0.0790     0.2215    49.5592
 2847.5000   -44.3853     6.2951     5.3772     8.6382    78.7816     8.5900     0.0052     2.5136     0.0787     0.2276    50.0237
 2848.0000   -44.3732     5.4416     4.3347     9.0059    78.7094     8.5894     0.0088     2.4993     0.0790     0.2457    51.5471
 2848.5000   -44.9662     4.6070     3.6683     9.0692    79.9913     8.5737     0.0271     2.4797     0.0935     0.2617    56.2475
 2849.0000   -45.4080     3.8200     3.0616     8.7001    80.7462     8.5579     0.0473     2.4533     0.1128     0.2725    62.7634
 2849.5000   -45.7015     2.9756     2.5909     7.5214    82.3281     8.5422     0.0293     2.4172     0.1246     0.2816    70.7921
 2850.0000   -45.8484     2.4673     2.0598     4.9960    84.2860     8.5416     0.0125     2.4051     0.1453     0.2864    79.8267
 2850.5000   -45.9414     2.1274     1.8173     3.8874    88.9526     8.5407     0.0086     2.4017     0.1483     0.2965    87.9024
 2851.0000   -46.1362     1.7199     1.6370     3.6318    91.9646     8.5398     0.0114     2.3922     0.1509     0.3064    88.8146
 2851.5000   -46.2845     1.5456     1.4953     3.6321    93.0969     8.5388     0.0189     2.3575     0.1635     0.3284    91.6935
 2852.0000   -46.3056     1.4407     1.4140     3.5433    93.9284     8.5532     0.0142     2.3229     0.1833     0.3191    96.6904
 2852.5000   -46.4298     1.3539     1.3940     2.9824    97.6923     8.5672     0.0222     2.3341     0.1983     0.3091   106.2259
 2853.0000   -46.2748     1.2927     1.3936     2.2049   102.8847     8.5814    -0.0033     2.3454     0.1853     0.3333   103.9611
 2853.5000   -46.2718     1.2398     1.4029     1.9462   104.4682     8.5959    -0.0565     2.3265     0.1844     0.3644   100.9680
 2854.0000   -45.8149     1.2057     1.4219     2.4811   104.2471     8.6101     0.0081     2.2518     0.2103     0.3505    92.6241
 2854.5000   -45.2068     1.1973     1.4513     3.2520   104.8530     8.6243     0.1299     2.2388     0.2448     0.2959    90.9633
 2855.0000   -44.2961     1.3010     1.5125     3.2976   107.7147     8.5173     0.1886     2.2416     0.2493     0.2715    91.4228
 2855.5000   -42.9315     1.5154     1.7251     2.3971   107.9447     8.4710     0.0758     2.3337     0.2550     0.2483    87.9477
 2856.0000   -42.0208     1.8149     2.1835     1.9605   105.3176     8.4855     0.0006     2.4742     0.1524     0.2338    76.4544
 2856.5000   -41.4127     2.1287     2.5784     2.0869    99.6078     8.4997     0.0066     2.5227     0.1168     0.2329    63.9022
 2857.0000   -41.2584     2.4454     3.0659     2.7928    92.9957     8.4986     0.0231     2.5393     0.0688     0.2480    53.0141
 2857.5000   -41.7092     2.8091     3.5704     5.5882    86.0077     8.4977     0.0396     2.5415     0.0660     0.2544    49.9929
 2858.0000   -41.8583     3.2495     4.0162     6.1584    82.1776     8.4968     0.0516     2.5362     0.0660     0.2532    49.0885
 2858.5000   -42.0066     4.0012     4.4245     5.9078    82.5580     8.5110     0.0441     2.5354     0.0685     0.2535    49.2454
 2859.0000   -41.8515     4.7586     4.8743     5.8673    84.8933     8.5101     0.0260     2.5338     0.0682     0.2547    49.5525
 2859.5000   -41.8485     5.2801     5.3699     6.0328    85.8752     8.5092     0.0110     2.5270     0.0691     0.2496    49.4057
 2860.0000   -41.8455     5.9405     6.0403     6.3774    85.5038     8.5234     0.0020     2.5217     0.0739     0.2268    49.1065
 2860.5000   -41.6913     6.4109     6.6544     6.4670    84.9020     8.5225    -0.0041     2.5277     0.0775     0.1974    49.4147
 2861.0000   -41.6883     6.9186     7.3309     6.5124    83.9036     8.5216    -0.0101     2.5389     0.0715     0.1558    49.2679
 2861.5000   -41.6853     7.5708     8.0203     6.6961    81.4118     8.5207    -0.0146     2.5487     0.0642     0.1265    47.9108
 2862.0000   -41.6823     8.4004     8.8973     8.3028    78.4853     8.5198    -0.0177     2.5561     0.0591     0.1217    44.1332
 2862.5000   -41.5280     9.5832    10.4336    11.1112    73.2450     8.5189    -0.0056     2.5659     0.0552     0.1190    41.2632
 2863.0000   -41.5190    11.7184    12.8444    13.5875    68.2385     8.5178     0.0049     2.5764     0.0512     0.1164    38.6661
 2863.5000   -41.3707    14.0339    15.3793    15.2888    65.2354     8.5169     0.0154     2.5816     0.0463     0.1161    36.5580
 2864.0000   -41.3858    16.0224    16.9429    21.9685    63.8865     8.5160     0.0244     2.5853     0.0424     0.1191    35.5279
 2864.5000   -41.5160    17.0546    17.6573    26.4826    63.5891     8.5000     0.0244     2.5868     0.0391     0.1229    37.7472
 2865.0000   -41.5123    17.7741    17.4043    25.1356    63.7451     8.4991     0.0259     2.5815     0.0386     0.1270    40.0765
 2865.5000   -41.6613    17.7425    16.3383    20.4071    63.9000     8.4982     0.0304     2.5709     0.0401     0.1315    40.8375
 2866.0000   -41.6576    16.5828    15.0015    19.4959    64.1300     8.4822     0.0334     2.5648     0.0464     0.1424    40.9921
 2866.5000   -41.5033    14.1195    13.1486    20.3261    64.5856     8.4966     0.0363     2.5632     0.0531     0.1623    40.5439
