~VERSION INFORMATION
 VERS.                2.0:   CWLS LOG ASCII STANDARD - VERSION 2.0
 WRAP.                 NO:   ONE LINE PER DEPTH STEP
~WELL INFORMATION
#MNEM.UNIT      DATA TYPE    INFORMATION
#----------   ------------   ------------------------------
 STRT.F           12.0000:   START DEPTH
 STOP.F          660.0000:   STOP DEPTH
 STEP.F            0.5000:   STEP LENGTH
 NULL.          -999.2500:   NO VALUE
 COMP. LAWRENCE/ALLISON INC:   COMPANY
 WELL.    24-11 SX #11-11:   WELL
 FLD .             TEAPOT:   FIELD
 LOC .      S11 T38N R78W:   LOCATION
 CNTY.            NATRONA:   COUNTY
 STAT.            WYOMING:   STATE
 CTRY. UNITED STATES OF AMERICA:   COUNTRY
 SRVC.           Gearhart:   SERVICE COMPANY
 DATE.        21-JUN-1986:   LOGDATE
 API .       490251109900:   API NUMBER
~CURVE INFORMATION
#MNEM.UNIT       API CODE    CURVE DESCRIPTION
#----------   ------------   ------------------------------
 DEPT.F                  :   
 GRR .GAPI   07 310 01 00:   GAMMA RAY FROM RES. LOG.
 ILM .OHMM   07 120 44 00:   INDUCTION LOG MEDIUM
 ILD .OHMM   07 120 46 00:   INDUCTION LOG DEEP
~PARAMETER INFORMATION
#MNEM.UNIT          VALUE    DESCRIPTION
#----------   ------------   ------------------------------
 PD  .                 GL:   PERMANENT DATUM
 EPD .F              5157:   ELEVATION PERMANENT DATUM
 LMF .                 KB:   LOG MEASURED FROM
 DAPD.F                 5:   FEET ABOVE PERMANENT DATUM
 DMF .                 KB:   DRILLING MEASURED FROM
 EKB .F              5162:   KELLING BUSHING
 EGL .F              5157:   GROUND LEVEL
 DATE.            6-21-86:   RUN DATE
 RUN .                  1:   RUN NUMBER
 DD  .F               665:   DEPTH DRILLER
 DL  .F               667:   DEPTH LOGGER
 BLI .F               658:   BOTTOM LOG INTERVAL
 CS  .IN            8.625:   CASING SIZE
 CBD .F                47:   CASING BOTTOM DRILLER
 CBL .F                48:   CASING BOTTOM LOGGER
 BS  .IN            7.875:   BIT SIZE
 BSD .F               665:   BIT SIZE AT DEPTH
 DFT .                AIR:   DRILLING FLUID TYPE
 TCS .HRS            1130:   TIME CURCULATED STOPPED
 TLAB.HRS            1315:   TIME LOGGER AT BOTTOM
 MRT .F                67:   MAXIMUM RECORDED TEMPERATURE
 LUN .               7609:   LOGGING UNIT NUMBER
 LUL .           GILLETTE:   LOGGING UNIT LOCATION
 ENGI.            WANGLER:   RECORDING ENGINEER
 WITN.           JENNINGS:   WITNESSED BY
 CLNT.            A2DTECH:   CLIENT CODE
 ORIG.       2", 5" PRINT:   ORIGIN OF DATA
 UWI .       490251109900:   UNIQUE WELL ID
 DICO. A2D Technologies, Inc.:   DIGITIZING COMPANY
~OTHER INFORMATION
~A   DEPT       GRR       ILM        ILD   
# ...
  376.0000   135.0636     7.3935     7.1343
  376.5000   133.0624     7.6307     7.4607
  377.0000   129.9439     7.8755     7.7521
  377.5000   126.8071     8.0146     7.9398
  378.0000   123.6676     8.0146     7.9261
  378.5000   121.9241     8.0444     7.9053
  379.0000   124.2000     8.0727     7.8845
  379.5000   126.7171     8.1011     7.8657
  380.0000   128.5222     8.1295     7.8105
  380.5000   128.3824     8.1581     7.7491
  381.0000   128.2788     8.2479     7.6882
  381.5000   128.1728     8.3636     7.6447
  382.0000   127.9122     8.4809     7.6234
  382.5000   127.3135     8.5584     7.6022
  383.0000   126.8716     8.4081     7.5760
  383.5000   125.5695     8.2983     7.6762
  384.0000   124.1950     8.1893     7.8657
  384.5000   122.8350     8.1150     7.8459
  385.0000   122.1789     8.0494     7.8122
  385.5000   122.6585     7.9847     7.7786
  386.0000   125.3120     7.9204     7.7452
  386.5000   128.3974     7.8566     7.7185
  387.0000   131.4999     7.7933     7.5346
  387.5000   134.5659     7.7306     7.3653
  388.0000   134.9828     7.6679     7.2186
  388.5000   132.8508     7.6038     7.0810
  389.0000   131.8903     7.5387     6.9461
  389.5000   133.3394     7.4196     6.8137
  390.0000   135.7918     7.2459     6.6843
  390.5000   138.2031     7.0763     6.5556
  391.0000   140.3174     6.9107     6.3726
  391.5000   137.5262     6.7284     6.1711
  392.0000   132.7973     6.4172     5.9759
  392.5000   130.6462     6.1203     5.7868
  393.0000   131.8658     5.8372     5.6038
  393.5000   132.6965     5.5970     5.4560
  394.0000   128.4025     5.3889     5.4552
  394.5000   122.9725     5.1885     5.4953
  395.0000   118.7642     5.1093     5.5978
  395.5000   116.0386     5.2060     5.7024
  396.0000   115.7557     5.4898     5.8094
  396.5000   117.4501     5.7934     5.9181
  397.0000   123.4711     6.1138     6.2428
  397.5000   129.3703     6.4519     6.6611
  398.0000   132.5384     6.7887     6.8975
  398.5000   132.6383     7.1179     6.8318
  399.0000   130.7566     7.3658     6.7841
  399.5000   128.1053     7.2330     6.6251
  400.0000   125.4168     7.0428     6.4192
  400.5000   122.7295     6.8576     6.2196
  401.0000   119.9378     6.6325     6.0263
  401.5000   121.1419     6.2176     5.8390
  402.0000   125.5740     5.8555     5.6575
  402.5000   130.3423     5.6660     5.5074
  403.0000   130.5693     5.5578     5.4560
  403.5000   129.4493     5.6514     5.5100
  404.0000   129.2634     5.9122     5.7647
  404.5000   129.5420     6.1853     6.0457
  405.0000   126.7899     6.4712     6.3394
  405.5000   123.0784     6.7823     6.6850
  406.0000   121.9760     7.1595     7.0760
  406.5000   124.3388     7.5578     7.4898
  407.0000   128.2852     7.8676     7.7425
  407.5000   128.3625     8.0435     7.8950
  408.0000   126.1705     8.2232     8.0505
  408.5000   124.0645     8.3342     8.1664
  409.0000   123.8312     8.3836     8.1505
  409.5000   124.8924     8.6144     8.1356
  410.0000   125.2753     9.0751     8.1208
  410.5000   123.4023     9.7280     8.1060
  411.0000   121.8005    10.6068     8.0901
  411.5000   120.3145    11.5651     8.2298
  412.0000   118.8186    12.6099     8.4082
  412.5000   117.3460    13.8081     8.4722
  413.0000   116.4176    13.1673     8.5366
  413.5000   117.7584    12.0421     8.6016
  414.0000   122.0289    10.7928     8.6670
  414.5000   127.3043     9.6731     8.7309
  415.0000   127.8502     9.0539     8.7862
  415.5000   123.3426     9.0717     8.8418
  416.0000   118.5727     9.1392     8.8856
  416.5000   114.7139     9.4383     8.8027
  417.0000   112.9251     9.4886     8.6391
  417.5000   111.3577     9.4886     8.1713
  418.0000   111.3593     8.9883     7.7453
  418.5000   113.0014     8.2733     7.3411
  419.0000   115.8893     7.6152     6.9592
  419.5000   123.7292     7.0094     6.6895
  420.0000   132.4409     6.4519     6.5177
  420.5000   141.3591     5.9925     6.5875
  421.0000   142.7059     5.9925     6.7226
  421.5000   133.0014     6.2473     6.8604
  422.0000   120.7675     6.6880     7.3248
  422.5000   114.0359     7.2193     7.9505
  423.0000   110.9100     8.1114     8.6297
  423.5000   111.6880     9.1109     9.3670
  424.0000   112.6323     9.9017    10.1672
  424.5000   113.0207    10.4919    10.6910
  425.0000   113.4081    10.8200    10.9909
  425.5000   115.2233    11.0805    11.2894
  426.0000   120.0405    11.3392    11.5593
  426.5000   124.9727    11.3935    11.8343
  427.0000   125.7089    11.4479    12.1090
  427.5000   122.3870    11.7950    12.8460
  428.0000   111.2818    12.5177    13.5515
  428.5000    97.4905    13.7220    14.8822
  429.0000    83.2660    15.0558    16.2579
  429.5000    69.4762    16.5153    17.7608
  430.0000    59.8552    18.1164    19.4026
  430.5000    55.0952    19.8726    21.1962
  431.0000    53.2085    21.7991    23.0665
  431.5000    56.2488    23.9123    24.3945
  432.0000    61.5889    26.3750    25.8849
  432.5000    66.8964    26.7696    26.3133
  433.0000    69.9762    27.1956    26.7765
  433.5000    71.0672    27.6414    27.2478
  434.0000    69.9998    28.1694    27.7152
  434.5000    68.4276    28.7242    28.1328
  435.0000    66.1188    29.2899    28.5568
  435.5000    63.8246    29.5881    28.9871
  436.0000    61.7244    29.7638    29.5170
  436.5000    62.2641    29.9405    29.1521
  437.0000    63.0837    30.0760    28.5765
  437.5000    63.9078    29.7571    28.0110
  438.0000    66.2085    29.5170    27.4646
  438.5000    69.0780    28.5026    26.7282
  439.0000    71.3532    27.3687    25.9933
  439.5000    71.4081    26.2798    25.2758
  440.0000    69.8359    25.2342    24.2400
  440.5000    68.2913    24.9318    24.3230
  441.0000    68.0961    24.8211    24.4881
  441.5000    67.9799    24.6989    24.6544
  442.0000    67.8840    25.1841    24.8218
  442.5000    66.2244    25.7411    25.1658
  443.0000    64.1815    26.3981    25.8570
  443.5000    62.6270    27.0735    26.5644
  444.0000    63.4852    27.7661    27.2424
  444.5000    64.2331    28.4779    27.8953
  445.0000    64.9039    29.2038    28.5638
  445.5000    66.6863    29.7918    28.6981
  446.0000    69.9365    29.2415    28.4302
  446.5000    74.8889    28.3828    27.6774
  447.0000    78.2538    27.5652    26.9590
  447.5000    77.6371    26.7712    26.2536
  448.0000    76.7980    26.0001    25.6919
  448.5000    76.5316    25.2512    24.9160
  449.0000    75.7643    24.5239    24.1755
  449.5000    73.1542    23.8175    23.4547
  450.0000    71.4693    23.1315    22.7555
  450.5000    72.1461    22.4649    22.0771
  451.0000    76.1683    21.8175    21.4190
  451.5000    81.3690    21.1929    20.7804
  452.0000    84.7526    20.6674    20.1609
  452.5000    86.1006    20.3127    19.5365
  453.0000    84.7637    19.9452    19.4483
  453.5000    81.9749    19.6797    19.3333
  454.0000    80.3725    19.5722    19.2189
  454.5000    80.6091    19.4653    19.1052
  455.0000    81.5699    19.3590    18.9944
  455.5000    79.7131    19.2533    19.3423
  456.0000    77.3211    19.1734    19.6896
  456.5000    75.2664    19.3729    20.0432
  457.0000    77.2254    19.5674    20.4031
  457.5000    79.2236    19.7698    20.8351
  458.0000    81.2137    20.2066    21.4540
  458.5000    83.1923    21.3389    22.0885
  459.0000    84.9168    22.5214    22.7442
  459.5000    83.5795    23.7693    23.4156
  460.0000    80.5149    25.1667    24.0211
  460.5000    77.5186    24.9430    23.6596
  461.0000    75.7518    24.6990    23.2877
  461.5000    77.9068    24.1017    22.9136
  462.0000    82.0195    23.0871    22.1845
  462.5000    85.6021    22.1152    21.2829
  463.0000    86.5781    21.1842    20.4163
  463.5000    87.6155    20.2924    19.5853
  464.0000    89.0694    19.4381    18.8171
  464.5000    90.7408    18.7389    18.4402
  465.0000    91.0384    18.4279    18.0833
  465.5000    89.5822    18.1216    17.7334
  466.0000    86.6485    17.8216    17.6214
  466.5000    83.2844    17.6457    17.7874
