~VERSION INFORMATION
 VERS.                2.0:   CWLS LOG ASCII STANDARD - VERSION 2.0
 WRAP.                 NO:   ONE LINE PER DEPTH STEP
~WELL INFORMATION
#MNEM.UNIT      DATA TYPE    INFORMATION
#----------   ------------   ------------------------------
 STRT.F           90.0000:   START DEPTH
 STOP.F         1032.5000:   STOP DEPTH
 STEP.F            0.5000:   STEP LENGTH
 NULL.          -999.2500:   NO VALUE
 COMP. U S NAVY/INTEX OIL CO:   COMPANY
 WELL. NAVAL PETROLEUM RESERVE 3  #62-S-14:   WELL
 FLD .        TEAPOT DOME:   FIELD
 LOC .      S14 T38N R78W:   LOCATION
 CNTY.            NATRONA:   COUNTY
 STAT.            WYOMING:   STATE
 CTRY. UNITED STATES OF AMERICA:   COUNTRY
 SRVC.       Schlumberger:   SERVICE COMPANY
 DATE.        04-JUL-1962:   LOGDATE
 API .       490250631700:   API NUMBER
~CURVE INFORMATION
#MNEM.UNIT       API CODE    CURVE DESCRIPTION
#----------   ------------   ------------------------------
 DEPT.F                  :   
 GR  .GAPI   30 310 01 00:   GAMMA RAY
 CALM.IN     15 280 01 00:   CALIPER FROM MICRO LOG
 SPR .MV     06 010 01 00:   SPONTANEOUS POTENTIAL FROM RES.
 ASN .OHMM   06 041 16 00:   AMPLIFIED SHORT NORMAL 16"
 ILD .OHMM   06 120 46 00:   INDUCTION LOG DEEP
 CILD.MMHO   06 110 46 00:   CONDUCTIVITY INDUCTION LOG DEEP
~PARAMETER INFORMATION
#MNEM.UNIT          VALUE    DESCRIPTION
#----------   ------------   ------------------------------
 PD  .                 GL:   PERMANENT DATUM
 EPD .F              5246:   ELEVATION PERMANENT DATUM
 LMF .                 KB:   LOG MEASURED FROM
 DAPD.F                 5:   FEET ABOVE PERMANENT DATUM
 DMF .                 KB:   DRILLING MEASURED FROM
 EKB .F              5251:   KELLING BUSHING
 EGL .F              5246:   GROUND LEVEL
 DATE.             7-4-62:   RUN DATE
 RUN .                  1:   RUN NUMBER
 DD  .F              1036:   DEPTH DRILLER
 DL  .F              1033:   DEPTH LOGGER
 BLI .F              1032:   BOTTOM LOG INTERVAL
 TLI .F                90:   TOP LOG INTERVAL
 CBD .F                10:   CASING BOTTOM DRILLER
 BS  .IN             6.75:   BIT SIZE
 BSD .F              1036:   BIT SIZE AT DEPTH
 DFT .                GEL:   DRILLING FLUID TYPE
 DFD .               10.2:   DRILLING FLUID DENSITY
 DFV .                 48:   DRILLING FLUID VISCOSITY
 DFL .                4.8:   DRILLING FLUID LOSS
 MSS .          FLOW LINE:   MUD SAMPLE SOURCE
 RMS .OHMM            5.6:   RESISTIVITY MUD SAMPLE
 MST .F                70:   MUD SAMPLE TEMPERATURE
 RMF .OHMM           5.57:   RESISTIVITY MUD FILTRATE SAMPLE
 MFST.F                70:   MUD FILTRATE SAMPLE TEMPERATURE
 RMC .OHMM           5.32:   RESISTIVITY MUD CAKE
 MCST.F                70:   MUD CAKE SAMPLE TEMPERATURE
 MFSS.                  M:   MUD FILTRATE SAMPLE SOURCE
 MCSS.                  M:   MUD CAKE SAMPLE SOURCE
 RMB .OHMM            4.3:   RESISTIVITY MUD AT BHT
 BHT .F                90:   BOTTOM HOLE TEMPERATURE
 TCS .HRS               1:   TIME CURCULATED STOPPED
 MRT .F                90:   MAXIMUM RECORDED TEMPERATURE
 LUN .               2503:   LOGGING UNIT NUMBER
 LUL .               CSPR:   LOGGING UNIT LOCATION
 ENGI.             KNOBEL:   RECORDING ENGINEER
 WITN.          JORGENSEN:   WITNESSED BY
 CLNT.            A2DTECH:   CLIENT CODE
 ORIG.   1", 2", 5" PRINT:   ORIGIN OF DATA
 UWI .       490250631700:   UNIQUE WELL ID
 DICO. A2D Technologies, Inc.:   DIGITIZING COMPANY
~OTHER INFORMATION
~A   DEPT       GR       CALM        SPR          ASN        ILD      CILD  
   90.0000  -999.2500  -999.2500   -53.0060     0.6513     4.7595    30.1799
   90.5000  -999.2500  -999.2500   -53.0060     0.7944     5.0609   145.7438
   91.0000  -999.2500  -999.2500   -53.0060     1.3663     5.3423   179.1947
   91.5000  -999.2500  -999.2500   -53.1893     2.9704     5.4840   180.3805
   92.0000  -999.2500  -999.2500   -53.3959     6.6296     5.6058   175.8973
   92.5000  -999.2500  -999.2500   -53.6031     6.6059     5.7297   169.6296
   93.0000  -999.2500  -999.2500   -53.8098     6.6133     5.8524   167.9025
   93.5000  -999.2500  -999.2500   -54.0172     6.6312     5.9722   164.4623
   94.0000  -999.2500  -999.2500   -54.2246     6.7143     6.0336   161.0220
   94.5000  -999.2500  -999.2500   -54.4126     6.9387     6.0987   157.5818
   95.0000  -999.2500  -999.2500   -54.2283     7.1726     6.1605   158.5950
   95.5000  -999.2500  -999.2500   -54.0284     7.4059     6.2639   163.1819
   96.0000  -999.2500  -999.2500   -53.8295     7.6134     6.1311   167.7689
   96.5000  -999.2500  -999.2500   -53.6308     7.0046     5.9717   172.3558
   97.0000  -999.2500  -999.2500   -53.4310     6.2593     5.8124   176.9428
   97.5000  -999.2500  -999.2500   -53.2292     6.3057     5.6536   181.5297
   98.0000  -999.2500  -999.2500   -53.3346     6.6584     5.4947   186.1229
   98.5000  -999.2500  -999.2500   -53.4839     6.1686     5.3356   190.7226
   99.0000  -999.2500  -999.2500   -53.6341     5.9191     5.1776   195.2757
   99.5000  -999.2500  -999.2500   -53.7836     5.8445     5.0719   194.4680
  100.0000  -999.2500  -999.2500   -53.9334     5.9462     5.1392   190.7387
  100.5000  -999.2500  -999.2500   -54.0078     6.1008     5.3910   184.9412
  101.0000  -999.2500  -999.2500   -53.9803     6.2674     5.7182   177.0837
  101.5000  -999.2500  -999.2500   -53.8648     6.4588     6.0468   169.2263
  102.0000  -999.2500  -999.2500   -53.7534     6.7115     6.3741   161.3688
  102.5000  -999.2500  -999.2500   -53.6433     7.3102     6.7037   152.8965
  103.0000  -999.2500  -999.2500   -53.5043     7.3230     6.8187   149.8853
  103.5000  -999.2500  -999.2500   -53.3559     7.1700     6.7392   151.6595
  104.0000  -999.2500  -999.2500   -53.2065     7.1088     6.6571   153.3333
  104.5000  -999.2500  -999.2500   -53.0532     7.1733     6.5744   155.1226
  105.0000  -999.2500  -999.2500   -53.1026     6.9576     6.4919   157.7803
  105.5000  -999.2500  -999.2500   -53.2427     6.7032     6.4095   160.4379
  106.0000  -999.2500  -999.2500   -53.3854     6.5832     6.3271   163.0956
  106.5000  -999.2500  -999.2500   -53.5286     6.5497     6.2447   165.7533
  107.0000  -999.2500  -999.2500   -53.6725     6.5693     6.1623   168.4109
  107.5000  -999.2500  -999.2500   -53.7989     6.5651     6.0799   171.0686
  108.0000  -999.2500  -999.2500   -53.6538     6.5030     5.9974   173.4001
  108.5000  -999.2500  -999.2500   -53.5025     6.3291     5.9151   175.0735
  109.0000  -999.2500  -999.2500   -53.3525     6.3391     5.8327   175.9975
  109.5000  -999.2500  -999.2500   -53.2028     6.4096     5.7387   179.4202
  110.0000  -999.2500  -999.2500   -53.0531     6.3201     5.5832   182.8430
  110.5000  -999.2500  -999.2500   -52.9034     6.1999     5.4250   186.2657
  111.0000  -999.2500  -999.2500   -52.7537     6.1408     5.2674   189.8798
  111.5000  -999.2500  -999.2500   -52.6040     6.0289     5.2594   191.4596
  112.0000  -999.2500  -999.2500   -52.4543     5.9167     5.2602   190.3848
  112.5000  -999.2500  -999.2500   -52.3046     5.8217     5.2606   188.3768
  113.0000  -999.2500  -999.2500   -52.1546     5.8609     5.2599   186.3687
  113.5000  -999.2500  -999.2500   -52.0057     5.9957     5.3435   184.3607
  114.0000  -999.2500  -999.2500   -51.8936     6.1298     5.4922   181.1623
  114.5000  -999.2500  -999.2500   -51.7829     6.2561     5.6414   177.5766
  115.0000  -999.2500  -999.2500   -51.6735     6.3131     5.7908   173.9908
  115.5000  -999.2500  -999.2500   -51.6329     6.3439     5.9401   170.4051
  116.0000  -999.2500  -999.2500   -51.7180     6.4667     6.0896   166.8194
  116.5000  -999.2500  -999.2500   -51.8009     6.5680     6.2381   162.8257
  117.0000  -999.2500  -999.2500   -51.8840     6.6605     6.3681   161.4785
  117.5000  -999.2500  -999.2500   -51.9674     6.7124     6.4514   160.0841
  118.0000  -999.2500  -999.2500   -52.0385     6.7622     6.5460   158.6896
  118.5000  -999.2500  -999.2500   -52.1018     6.8118     6.5113   159.2485
  119.0000  -999.2500  -999.2500   -52.1626     6.8383     6.4452   163.0874
  119.5000  -999.2500  -999.2500   -52.1855     6.8216     6.3797   166.9262
  120.0000  -999.2500  -999.2500   -52.2264     6.8002     6.2039   170.8417
  120.5000  -999.2500  -999.2500   -52.3949     6.5029     6.0003   173.9200
  121.0000  -999.2500  -999.2500   -52.2927     6.1182     5.7961   177.8643
  121.5000  -999.2500  -999.2500   -52.2109     5.9451     5.5920   181.8086
  122.0000  -999.2500  -999.2500   -52.2041     5.9600     5.3880   185.7529
  122.5000  -999.2500  -999.2500   -52.2041     6.0175     5.1861   189.6940
  123.0000  -999.2500  -999.2500   -52.2240     5.9431     5.0894   192.9414
  123.5000  -999.2500  -999.2500   -52.2064     5.8612     5.1722   191.0970
  124.0000  -999.2500  -999.2500   -52.1115     5.7877     5.2521   186.5912
  124.5000  -999.2500  -999.2500   -51.9691     5.9028     5.3325   183.3986
  125.0000  -999.2500  -999.2500   -51.8313     6.0154     5.4128   182.2174
  125.5000  -999.2500  -999.2500   -51.6935     5.9732     5.4932   181.0362
  126.0000  -999.2500  -999.2500   -51.5547     5.9074     5.5735   179.8550
  126.5000  -999.2500  -999.2500   -51.4142     6.1216     5.6539   178.6738
  127.0000  -999.2500  -999.2500   -51.5497     6.3546     5.7342   177.4926
  127.5000  -999.2500  -999.2500   -51.7168     6.3930     5.8133   176.3114
  128.0000  -999.2500  -999.2500   -51.8852     6.2469     5.8217   177.0184
  128.5000  -999.2500  -999.2500   -51.9907     6.2698     5.7203   179.8558
  129.0000  -999.2500  -999.2500   -51.6503     6.3434     5.6471   182.6932
  129.5000  -999.2500  -999.2500   -51.3147     6.1943     5.5744   185.5306
  130.0000  -999.2500  -999.2500   -50.9804     5.9882     5.5024   188.3680
  130.5000  -999.2500  -999.2500   -50.6504     5.7810     5.4307   189.4150
  131.0000  -999.2500  -999.2500   -50.4683     5.6300     5.3590   190.2806
  131.5000  -999.2500  -999.2500   -50.8167     5.6695     5.2872   191.1461
  132.0000  -999.2500  -999.2500   -51.1502     5.7277     5.2156   192.0097
  132.5000  -999.2500  -999.2500   -51.4857     5.7704     5.1538   192.8799
  133.0000  -999.2500  -999.2500   -51.5735     5.7902     5.1286   193.7121
  133.5000  -999.2500  -999.2500   -51.5103     5.7791     5.1029   197.3064
  134.0000  -999.2500  -999.2500   -51.4455     5.6793     5.0772   201.4137
  134.5000  -999.2500  -999.2500   -51.3804     5.5787     5.0514   204.3811
  135.0000  -999.2500  -999.2500   -51.3156     5.4770     5.0257   206.6980
  135.5000  -999.2500  -999.2500   -51.2508     5.3763     4.9999   208.9178
  136.0000  -999.2500  -999.2500   -51.1860     5.2750     4.9745   206.9253
  136.5000  -999.2500  -999.2500   -51.1212     5.1846     4.9692   205.0176
  137.0000  -999.2500  -999.2500   -51.0564     5.2653     4.9906   203.0954
  137.5000  -999.2500  -999.2500   -50.9916     5.4464     5.0118   201.2180
  138.0000  -999.2500  -999.2500   -50.9268     5.6169     5.0330   197.4870
  138.5000  -999.2500  -999.2500   -50.8620     5.7645     5.0542   193.4709
  139.0000  -999.2500  -999.2500   -50.7972     5.8843     5.0754   189.4549
  139.5000  -999.2500  -999.2500   -50.7321     5.9504     5.0966   185.4389
  140.0000  -999.2500  -999.2500   -50.6659     5.9516     5.1178   181.4229
  140.5000  -999.2500  -999.2500   -50.6086     5.8841     5.1391   182.3013
  141.0000  -999.2500  -999.2500   -50.8113     5.8180     5.1603   183.9746
  141.5000  -999.2500  -999.2500   -51.0297     5.8026     5.1815   185.6480
