~VERSION INFORMATION
 VERS.                2.0:   CWLS LOG ASCII STANDARD - VERSION 2.0
 WRAP.                 NO:   ONE LINE PER DEPTH STEP
~WELL INFORMATION
#MNEM.UNIT      DATA TYPE    INFORMATION
#----------   ------------   ------------------------------
 STRT.F            8.0000:   START DEPTH
 STOP.F         3200.0000:   STOP DEPTH
 STEP.F            0.5000:   STEP LENGTH
 NULL.          -999.2500:   NO VALUE
 COMP. BROWN JOHN E&C INC:   COMPANY
 WELL.  62 x 15-17 #62-15:   WELL
 FLD .        N.P.R NO. 3:   FIELD
 LOC .      S15 T38N R78W:   LOCATION
 CNTY.            NATRONA:   COUNTY
 STAT.            WYOMING:   STATE
 CTRY. UNITED STATES OF AMERICA:   COUNTRY
 SRVC.      Western Atlas:   SERVICE COMPANY
 DATE.        17-JUN-1986:   LOGDATE
 API .       490251104300:   API NUMBER
~CURVE INFORMATION
#MNEM.UNIT       API CODE    CURVE DESCRIPTION
#----------   ------------   ------------------------------
 DEPT.F                  :   
 GRR .GAPI   07 310 01 00:   GAMMA RAY
 CALR.IN     07 280 01 00:   CALIPER FROM RESISTIVITY
 SPR .MV     07 010 01 00:   SPONTANEOUS POTENTIAL
 RILD.OHMM   07 120 46 00:   INDUCTION LOG DEEP RESISTIVITY
 RILM.OHMM   07 120 44 00:   INDUCTION LOG MEDIUM RESISTIVITY
 RFOC.OHMM   07 220 04 00:   RESISTIVITY FOCUSED LOG
 PORD.DEC    45 890 12 00:   POROSITY DENSITY SANDSTONE
 CNC .DEC    42 890 03 00:   NEUTRON POROSITY SANDSTONE
 CORR.G/C3   45 356 01 00:   DENSITY CORRECTION
 DEN .G/C3   45 350 01 00:   COMPENSATED BULK DENSTIY
~PARAMETER INFORMATION
#MNEM.UNIT          VALUE    DESCRIPTION
#----------   ------------   ------------------------------
 PD  .                 GL:   PERMANENT DATUM
 EPD .F              5242:   ELEVATION PERMANENT DATUM
 LMF .                 KB:   LOG MEASURED FROM
 DAPD.F                11:   FEET ABOVE PERMANENT DATUM
 DMF .                 KB:   DRILLING MEASURED FROM
 EKB .F              5253:   KELLING BUSHING
 EGL .F              5242:   GROUND LEVEL
 DATE.            6-17-86:   RUN DATE
 RUN .                  1:   RUN NUMBER
 DD  .F              3200:   DEPTH DRILLER
 DL  .F              3202:   DEPTH LOGGER
 BLI .F              3200:   BOTTOM LOG INTERVAL
 CS  .IN            8.625:   CASING SIZE
 CBD .F               573:   CASING BOTTOM DRILLER
 CBL .F               573:   CASING BOTTOM LOGGER
 BS  .IN            7.875:   BIT SIZE
 BSD .F              3200:   BIT SIZE AT DEPTH
 DFT .            KCL/GEL:   DRILLING FLUID TYPE
 DFD .                8.9:   DRILLING FLUID DENSITY
 DFV .                 37:   DRILLING FLUID VISCOSITY
 DFPH.                8.5:   DRILLING FLUID PH
 DFL .               10.2:   DRILLING FLUID LOSS
 MSS .           MUD TANK:   MUD SAMPLE SOURCE
 RMS .OHMM            .39:   RESISTIVITY MUD SAMPLE
 MST .F                80:   MUD SAMPLE TEMPERATURE
 RMF .OHMM            .29:   RESISTIVITY MUD FILTRATE SAMPLE
 MFST.F                80:   MUD FILTRATE SAMPLE TEMPERATURE
 RMC .OHMM            .49:   RESISTIVITY MUD CAKE
 MCST.F                80:   MUD CAKE SAMPLE TEMPERATURE
 MFSS.               CALC:   MUD FILTRATE SAMPLE SOURCE
 MCSS.               CALC:   MUD CAKE SAMPLE SOURCE
 RMB .OHMM            .24:   RESISTIVITY MUD AT BHT
 BHT .F               130:   BOTTOM HOLE TEMPERATURE
 TCS .HRS               5:   TIME CURCULATED STOPPED
 MRT .F               130:   MAXIMUM RECORDED TEMPERATURE
 LUN .            HL 6264:   LOGGING UNIT NUMBER
 LUL .           GILLETTE:   LOGGING UNIT LOCATION
 ENGI.      P.H. FAHLSING:   RECORDING ENGINEER
 WITN.             STRONG:   WITNESSED BY
 CLNT.            A2DTECH:   CLIENT CODE
 UWI .       490251104300:   UNIQUE WELL ID
 DICO. A2D Technologies, Inc.:   DIGITIZING COMPANY
~OTHER INFORMATION
~A    DEPT     GRR       CALR        SPR       RILD       RILM       RFOC       PORD        CNC       CORR        DEN   
# ...
 1281.0000    97.9038    10.2445   -49.2502     8.9059     8.3436     9.6793  -999.2500  -999.2500  -999.2500  -999.2500
 1281.5000    92.6508    10.2443   -48.9436     8.9059     8.2849     9.6800  -999.2500  -999.2500  -999.2500  -999.2500
 1282.0000    91.7587    10.2442   -48.7874     8.8445     8.2266     9.6806  -999.2500  -999.2500  -999.2500  -999.2500
 1282.5000    96.5781    10.2440   -48.6311     8.7836     8.1687     9.6813  -999.2500  -999.2500  -999.2500  -999.2500
 1283.0000    99.2925    10.2439   -48.3245     8.7231     8.1113     9.6819  -999.2500  -999.2500  -999.2500  -999.2500
 1283.5000   101.1060    10.2437   -48.1683     8.7231     8.1102     9.6826  -999.2500  -999.2500  -999.2500  -999.2500
 1284.0000    96.6132    10.2585   -48.1624     8.6630     8.1091     9.6832  -999.2500  -999.2500  -999.2500  -999.2500
 1284.5000    94.5228    10.2583   -48.1564     8.6033     8.1643     9.6839  -999.2500  -999.2500  -999.2500  -999.2500
 1285.0000    92.7228    10.2433   -48.1493     8.6033     8.2200     9.6845  -999.2500  -999.2500  -999.2500  -999.2500
 1285.5000    91.5431    10.2431   -48.4442     8.6140     8.2760     9.6853  -999.2500  -999.2500  -999.2500  -999.2500
 1286.0000    92.1583    10.2430   -48.7406     8.6329     8.3324     9.6860  -999.2500  -999.2500  -999.2500  -999.2500
 1286.5000    93.9718    10.2578   -49.1844     8.6519     8.3891     9.6866  -999.2500  -999.2500  -999.2500  -999.2500
 1287.0000    95.7853    10.2576   -49.6297     8.7231     8.4463     9.6873  -999.2500  -999.2500  -999.2500  -999.2500
 1287.5000    96.3947    10.2574   -50.0750     8.7231     8.5035     9.6879  -999.2500  -999.2500  -999.2500  -999.2500
 1288.0000    95.8058    10.2723   -50.2196     8.7836     8.5024     9.7559  -999.2500  -999.2500  -999.2500  -999.2500
 1288.5000    97.6222    10.2870   -50.2135     8.8499     8.5603     9.7565  -999.2500  -999.2500  -999.2500  -999.2500
 1289.0000    95.8321    10.2869   -50.2075     8.9677     8.5589     9.7572  -999.2500  -999.2500  -999.2500  -999.2500
 1289.5000    94.9429    10.3016   -50.0501     9.0299     8.5577     9.7580  -999.2500  -999.2500  -999.2500  -999.2500
 1290.0000    97.4375    10.2866   -50.0442     9.0299     8.6163     9.7586  -999.2500  -999.2500  -999.2500  -999.2500
 1290.5000    99.4737    10.2864   -49.8880     9.0926     8.6750     9.6918  -999.2500  -999.2500  -999.2500  -999.2500
 1291.0000   100.0830    10.2862   -49.5814     9.1557     8.7341     9.6258  -999.2500  -999.2500  -999.2500  -999.2500
 1291.5000    95.5932    10.2861   -49.4252     9.0926     8.7327     9.6265  -999.2500  -999.2500  -999.2500  -999.2500
 1292.0000    91.1003    10.2860   -49.1186     9.0926     8.7315     9.7613  -999.2500  -999.2500  -999.2500  -999.2500
 1292.5000    90.8088    10.2858   -48.9624     9.0926     8.7303    10.0359  -999.2500  -999.2500  -999.2500  -999.2500
 1293.0000    92.3249    10.2857   -48.8060     9.0926     8.7291    10.1788  -999.2500  -999.2500  -999.2500  -999.2500
 1293.5000    94.4387    10.3004   -48.6484     9.0926     8.7277    10.2478  -999.2500  -999.2500  -999.2500  -999.2500
 1294.0000    92.3444    10.3152   -48.4922     9.0926     8.7265    10.1780  -999.2500  -999.2500  -999.2500  -999.2500
 1294.5000    92.4715    10.3150   -48.4864     9.0299     8.7253    10.0386  -999.2500  -999.2500  -999.2500  -999.2500
 1295.0000    95.0773    10.3149   -48.4281     8.9677     8.7241     9.9013  -999.2500  -999.2500  -999.2500  -999.2500
 1295.5000    95.6896    10.3148   -48.3602     8.9059     8.6628     9.7660  -999.2500  -999.2500  -999.2500  -999.2500
 1296.0000    95.4010    10.3146   -48.6192     8.8445     8.6018     9.6992  -999.2500  -999.2500  -999.2500  -999.2500
 1296.5000    94.5118    10.3145   -48.9141     8.7836     8.4824     9.7000  -999.2500  -999.2500  -999.2500  -999.2500
 1297.0000    92.7217    10.3292   -49.2090     8.7836     8.4227     9.7006  -999.2500  -999.2500  -999.2500  -999.2500
 1297.5000    90.3310    10.3291   -49.5187     8.7231     8.3057     9.7013  -999.2500  -999.2500  -999.2500  -999.2500
 1298.0000    89.1415    10.3439   -49.9492     8.7231     8.1901     9.7021  -999.2500  -999.2500  -999.2500  -999.2500
 1298.5000    88.5517    10.3437   -50.0937     8.7231     8.0764     9.7701  -999.2500  -999.2500  -999.2500  -999.2500
 1299.0000    88.5646    10.3585   -50.0864     8.7231     8.0195     9.7708  -999.2500  -999.2500  -999.2500  -999.2500
 1299.5000    89.4798    10.3583   -49.9302     8.7231     8.0185     9.7714  -999.2500  -999.2500  -999.2500  -999.2500
 1300.0000    92.4479    10.3732   -49.7754     8.6630     7.9622     9.7477  -999.2500  -999.2500  -999.2500  -999.2500
 1300.5000    95.6153    10.3627   -49.9163     8.6150     7.9616     9.5979  -999.2500  -999.2500  -999.2500  -999.2500
 1301.0000    98.5289    10.3738   -49.7531     8.5671     7.9611     9.4482  -999.2500  -999.2500  -999.2500  -999.2500
 1301.5000    99.1441    10.3741   -49.7429     8.4829     7.9605     9.3727  -999.2500  -999.2500  -999.2500  -999.2500
 1302.0000    97.6178    10.3744   -49.5820     8.3593     7.9599     9.3719  -999.2500  -999.2500  -999.2500  -999.2500
 1302.5000    96.4742    10.3896   -49.2687     8.1374     7.9044     9.3067  -999.2500  -999.2500  -999.2500  -999.2500
 1303.0000    95.8846    10.4197   -48.9577     8.0251     7.7414     9.2419  -999.2500  -999.2500  -999.2500  -999.2500
 1303.5000    95.9028    10.4200   -48.6467     7.8598     7.5817     9.1775  -999.2500  -999.2500  -999.2500  -999.2500
 1304.0000    95.9174    10.3904   -48.4861     7.7513     7.4253     8.9884  -999.2500  -999.2500  -999.2500  -999.2500
 1304.5000    95.0274    10.3609   -48.3255     7.6974     7.3227     8.6222  -999.2500  -999.2500  -999.2500  -999.2500
 1305.0000    96.5471    10.3612   -48.3153     7.6969     7.3729     8.5602  -999.2500  -999.2500  -999.2500  -999.2500
 1305.5000    99.5647    10.3615   -48.3050     7.6963     7.4237     8.6268  -999.2500  -999.2500  -999.2500  -999.2500
 1306.0000   100.4802    10.3768   -48.1444     7.6958     7.4749     8.8013  -999.2500  -999.2500  -999.2500  -999.2500
 1306.5000    95.0931    10.3472   -48.1338     7.7487     7.6312     9.0476  -999.2500  -999.2500  -999.2500  -999.2500
 1307.0000    92.7016    10.3475   -48.5725     7.8019     7.7908     9.1732  -999.2500  -999.2500  -999.2500  -999.2500
 1307.5000    95.1223    10.3478   -49.0134     7.8556     7.8990     9.3004  -999.2500  -999.2500  -999.2500  -999.2500
 1308.0000    99.0407    10.3630   -49.1561     7.9095     8.0086     9.2355  -999.2500  -999.2500  -999.2500  -999.2500
 1308.5000   103.2595    10.3782   -49.4441     8.0190     8.0081     9.1080  -999.2500  -999.2500  -999.2500  -999.2500
 1309.0000   104.1714    10.3786   -49.5868     8.0741     7.9521     9.0445  -999.2500  -999.2500  -999.2500  -999.2500
 1309.5000    96.0815    10.3938   -49.7269     8.1297     7.8422     8.9816  -999.2500  -999.2500  -999.2500  -999.2500
 1310.0000    96.9970    10.4090   -49.8645     8.1854     7.8417     8.9808  -999.2500  -999.2500  -999.2500  -999.2500
 1310.5000   100.0150    10.4242   -49.8541     8.1285     7.7870     8.9802  -999.2500  -999.2500  -999.2500  -999.2500
 1311.0000   100.0328    10.4245   -49.8196     8.0719     7.7865     8.9796  -999.2500  -999.2500  -999.2500  -999.2500
 1311.5000    98.8462    10.4248   -49.6808     7.9604     7.6789     8.8556  -999.2500  -999.2500  -999.2500  -999.2500
 1312.0000    94.6566    10.4251   -49.5202     7.9050     7.6254     8.6731  -999.2500  -999.2500  -999.2500  -999.2500
 1312.5000    91.9685    10.4254   -49.2092     7.7959     7.5723     8.6127  -999.2500  -999.2500  -999.2500  -999.2500
 1313.0000    93.1843    10.4257   -48.8983     7.7417     7.5194     8.6719  -999.2500  -999.2500  -999.2500  -999.2500
 1313.5000    97.4031    10.4260   -48.7376     7.6878     7.4155     8.7920  -999.2500  -999.2500  -999.2500  -999.2500
 1314.0000   100.7210    10.4263   -48.5770     7.5817     7.3130     8.7914  -999.2500  -999.2500  -999.2500  -999.2500
