~VERSION INFORMATION
 VERS.                2.0:   CWLS LOG ASCII STANDARD - VERSION 2.0
 WRAP.                 NO:   ONE LINE PER DEPTH STEP
~WELL INFORMATION
#MNEM.UNIT      DATA TYPE    INFORMATION
#----------   ------------   ------------------------------
 STRT.F           94.0000:   START DEPTH
 STOP.F          939.0000:   STOP DEPTH
 STEP.F            0.5000:   STEP LENGTH
 NULL.          -999.2500:   NO VALUE
 COMP. U S NAVY/INTEX OIL CO:   COMPANY
 WELL.    NPR #3 #88-S-27:   WELL
 FLD .             TEAPOT:   FIELD
 LOC .      S27 T39N R78W:   LOCATION
 CNTY.            NATRONA:   COUNTY
 STAT.            WYOMING:   STATE
 CTRY. UNITED STATES OF AMERICA:   COUNTRY
 SRVC.       Schlumberger:   SERVICE COMPANY
 DATE.        30-JUL-1963:   LOGDATE
 API .       490250658100:   API NUMBER
~CURVE INFORMATION
#MNEM.UNIT       API CODE    CURVE DESCRIPTION
#----------   ------------   ------------------------------
 DEPT.F                  :   
 SPR .MV     05 010 01 00:   SPONTANEOUS POTENTIAL FROM RES.
 CILD.MMHO   05 110 46 00:   CONDUCTIVITY INDUCTION LOG DEEP
 ASN .OHMM   05 041 16 00:   AMPLIFIED SHORT NORMAL 16"
 ILD .OHMM   05 120 46 00:   INDUCTION LOG DEEP
 GR  .GAPI   30 310 01 00:   GAMMA RAY
~PARAMETER INFORMATION
#MNEM.UNIT          VALUE    DESCRIPTION
#----------   ------------   ------------------------------
 PD  .                 GL:   PERMANENT DATUM
 EPD .F              5069:   ELEVATION PERMANENT DATUM
 LMF .                 KB:   LOG MEASURED FROM
 DAPD.F                 5:   FEET ABOVE PERMANENT DATUM
 DMF .                 KB:   DRILLING MEASURED FROM
 EKB .F              5074:   KELLING BUSHING
 EGL .F              5069:   GROUND LEVEL
 DATE.          7-30-1969:   RUN DATE
 RUN .                  1:   RUN NUMBER
 DD  .F               940:   DEPTH DRILLER
 DL  .F               940:   DEPTH LOGGER
 BLI .F               939:   BOTTOM LOG INTERVAL
 TLI .F                94:   TOP LOG INTERVAL
 CS  .IN            8.625:   CASING SIZE
 CBD .F                10:   CASING BOTTOM DRILLER
 BS  .IN             6.75:   BIT SIZE
 BSD .F               940:   BIT SIZE AT DEPTH
 DFT .            GEL/OIL:   DRILLING FLUID TYPE
 DFD .                9.6:   DRILLING FLUID DENSITY
 DFV .                 40:   DRILLING FLUID VISCOSITY
 DFPH.                  9:   DRILLING FLUID PH
 DFL .                  6:   DRILLING FLUID LOSS
 MSS .          FLOW LINE:   MUD SAMPLE SOURCE
 RMS .OHMM           2.94:   RESISTIVITY MUD SAMPLE
 MST .F                89:   MUD SAMPLE TEMPERATURE
 RMF .OHMM           2.19:   RESISTIVITY MUD FILTRATE SAMPLE
 MFST.F                87:   MUD FILTRATE SAMPLE TEMPERATURE
 MFSS.           MEASURED:   MUD FILTRATE SAMPLE SOURCE
 TCS .HRS               1:   TIME CURCULATED STOPPED
 LUN .               4507:   LOGGING UNIT NUMBER
 LUL .               CSPR:   LOGGING UNIT LOCATION
 ENGI.            WINKLER:   RECORDING ENGINEER
 WITN.          JORGENSEN:   WITNESSED BY
 CLNT.            A2DTECH:   CLIENT CODE
 ORIG.           5" PRINT:   ORIGIN OF DATA
 UWI .       490250658100:   UNIQUE WELL ID
 DICO. A2D Technologies, Inc.:   DIGITIZING COMPANY
~OTHER INFORMATION
~A   DEPT      SPR        CILD         ASN        ILD       GR   
# ...
  460.0000   -39.2570   143.5511     7.9425     6.9936  -999.2500
  460.5000   -39.2570   143.2161     8.0145     7.0245  -999.2500
  461.0000   -39.2570   142.2111     8.0864     7.0550  -999.2500
  461.5000   -39.2568   142.2111     8.1507     7.0854  -999.2500
  462.0000   -39.2576   142.2111     8.1508     7.1159  -999.2500
  462.5000   -39.2903   142.2111     8.1057     7.1463  -999.2500
  463.0000   -39.3257   142.2111     8.0553     7.1767  -999.2500
  463.5000   -39.3611   141.7265     8.0051     7.2130  -999.2500
  464.0000   -39.3964   141.1881     7.9694     7.2516  -999.2500
  464.5000   -39.4317   140.6497     7.9913     7.2903  -999.2500
  465.0000   -39.4670   140.1113     8.0669     7.3289  -999.2500
  465.5000   -39.5023   139.5729     8.1892     7.3677  -999.2500
  466.0000   -39.5376   139.1960     8.3297     7.3871  -999.2500
  466.5000   -39.5729   139.1960     8.4728     7.3886  -999.2500
  467.0000   -39.6081   139.1960     8.5118     7.2986  -999.2500
  467.5000   -39.6437   142.1680     8.4100     7.1736  -999.2500
  468.0000   -39.6584   145.4702     8.1675     7.0478  -999.2500
  468.5000   -39.6586   148.7724     7.8745     6.9221  -999.2500
  469.0000   -39.6587   152.0747     7.6956     6.7965  -999.2500
  469.5000   -39.6587   155.3769     7.5611     6.6710  -999.2500
  470.0000   -39.6587   158.6791     7.4486     6.5450  -999.2500
  470.5000   -39.6579   161.9813     7.3910     6.4148  -999.2500
  471.0000   -39.6114   162.3152     7.3323     6.2911  -999.2500
  471.5000   -39.4840   162.7257     7.2905     6.2796  -999.2500
  472.0000   -39.3625   163.1792     7.2886     6.2746  -999.2500
  472.5000   -39.2677   163.6364     7.3108     6.2126  -999.2500
  473.0000   -39.0622   164.0932     7.3270     6.1495  -999.2500
  473.5000   -39.0579   164.9128     7.3267     6.0866  -999.2500
  474.0000   -39.0559   166.0953     7.3084     6.0240  -999.2500
  474.5000   -39.0562   167.2798     7.2507     5.9785  -999.2500
  475.0000   -39.0562   168.3473     7.1884     6.0093  -999.2500
  475.5000   -39.0564   168.3473     7.1260     6.0510  -999.2500
  476.0000   -39.0552   167.4761     7.0628     6.0929  -999.2500
  476.5000   -39.1441   165.7352     7.0458     6.1348  -999.2500
  477.0000   -39.2871   163.9930     7.0816     6.1766  -999.2500
  477.5000   -39.4330   162.2536     7.2109     6.2186  -999.2500
  478.0000   -39.4579   160.5141     7.3386     6.2604  -999.2500
  478.5000   -39.4584   158.1008     7.4662     6.3818  -999.2500
  479.0000   -39.4578   154.1154     7.5939     6.5829  -999.2500
  479.5000   -39.4374   150.1300     7.7175     6.7838  -999.2500
  480.0000   -39.3291   146.1425     7.8098     6.9851  -999.2500
  480.5000   -39.2229   142.1507     7.8983     7.1860  -999.2500
  481.0000   -39.1176   138.1608     8.1858     7.3868  -999.2500
  481.5000   -39.0557   136.1809     8.5485     7.4645  -999.2500
  482.0000   -39.0562   138.6162     8.9133     7.3829  -999.2500
  482.5000   -39.0569   141.3220     9.0500     7.3027  -999.2500
  483.0000   -39.0067   143.2161     8.8328     7.2222  -999.2500
  483.5000   -38.9296   143.2161     8.8163     7.1415  -999.2500
  484.0000   -38.8570   144.5800     8.8104     7.0401  -999.2500
  484.5000   -38.8566   149.1266     8.2919     6.8845  -999.2500
  485.0000   -38.9429   153.6731     7.7536     6.7298  -999.2500
  485.5000   -39.1447   158.2197     7.5711     6.5748  -999.2500
  486.0000   -39.2578   162.3116     7.4447     6.4198  -999.2500
  486.5000   -39.2569   163.3371     7.4597     6.2825  -999.2500
  487.0000   -39.2571   163.3276     7.5030     6.3222  -999.2500
  487.5000   -39.2570   160.3070     7.5036     6.4696  -999.2500
  488.0000   -39.2571   156.9514     7.4660     6.6148  -999.2500
  488.5000   -39.2571   153.6013     7.4490     6.7598  -999.2500
  489.0000   -39.2561   150.2513     7.5550     6.9047  -999.2500
  489.5000   -39.2060   146.9012     7.7323     7.0497  -999.2500
  490.0000   -39.0929   143.5511     7.9089     7.1946  -999.2500
  490.5000   -39.0797   140.2010     8.0856     7.3396  -999.2500
  491.0000   -39.1827   136.8509     8.2623     7.4847  -999.2500
  491.5000   -39.2586   133.5008     8.4393     7.6304  -999.2500
  492.0000   -39.2570   131.1558     8.6152     7.7743  -999.2500
  492.5000   -39.2570   131.1558     8.7118     7.7723  -999.2500
  493.0000   -39.2588   133.2716     8.7748     7.6100  -999.2500
  493.5000   -39.3586   136.9743     8.6434     7.4455  -999.2500
  494.0000   -39.5752   140.6771     8.4579     7.2818  -999.2500
  494.5000   -39.7925   144.3798     8.2714     7.1182  -999.2500
  495.0000   -39.8597   148.0825     8.0851     6.9545  -999.2500
  495.5000   -39.7965   151.7852     7.8993     6.7908  -999.2500
  496.0000   -39.7066   155.4880     7.7321     6.6273  -999.2500
  496.5000   -39.6872   159.1907     7.6140     6.4636  -999.2500
  497.0000   -39.7472   161.3154     7.5081     6.3818  -999.2500
  497.5000   -39.8077   161.3189     7.5069     6.3819  -999.2500
  498.0000   -39.8466   159.7123     7.5075     6.4301  -999.2500
  498.5000   -39.6084   157.4167     7.5075     6.5270  -999.2500
  499.0000   -39.3761   155.1286     7.5831     6.6237  -999.2500
  499.5000   -39.3749   152.8404     7.7342     6.7204  -999.2500
  500.0000   -39.6144   150.5523     7.8838     6.8172  -999.2500
  500.5000   -39.8523   148.2641     8.0281     6.9139  -999.2500
  501.0000   -40.0703   145.9760     8.1520     7.0107  -999.2500
  501.5000   -40.0107   143.6879     8.2100     7.1076  -999.2500
  502.0000   -39.8268   141.3997     8.2107     7.2042  -999.2500
  502.5000   -39.6981   139.1116     8.2099     7.2871  -999.2500
  503.0000   -39.5764   137.1859     8.2299     7.3509  -999.2500
  503.5000   -39.4745   137.1859     8.3023     7.3860  -999.2500
  504.0000   -39.9922   137.1859     8.4277     7.3854  -999.2500
  504.5000   -40.5588   136.8153     8.5529     7.4497  -999.2500
  505.0000   -40.6638   136.1809     8.6547     7.5298  -999.2500
  505.5000   -40.5402   135.5465     8.6160     7.6111  -999.2500
  506.0000   -40.3374   135.5075     8.5928     7.6826  -999.2500
  506.5000   -40.3537   137.0302     8.5989     7.5747  -999.2500
  507.0000   -40.5710   138.5528     8.6075     7.4609  -999.2500
  507.5000   -40.7902   140.0754     8.5907     7.3478  -999.2500
  508.0000   -40.8627   141.5980     8.5393     7.2350  -999.2500
  508.5000   -40.8637   143.1206     8.4903     7.1209  -999.2500
  509.0000   -40.8615   144.2211     8.3633     7.0859  -999.2500
  509.5000   -40.7503   144.2211     8.2041     7.0853  -999.2500
  510.0000   -40.5153   144.2211     8.0385     7.0853  -999.2500
  510.5000   -40.2818   144.4436     8.0295     7.0780  -999.2500
  511.0000   -40.0476   145.1687     8.1009     7.0523  -999.2500
  511.5000   -39.8163   145.8938     8.1786     7.0269  -999.2500
  512.0000   -39.6560   146.6188     8.2345     7.0015  -999.2500
  512.5000   -39.6590   147.3440     8.1047     6.9761  -999.2500
  513.0000   -39.6585   148.0693     8.1215     6.9507  -999.2500
  513.5000   -39.6586   148.7996     8.2116     6.9253  -999.2500
  514.0000   -39.6586   149.2462     8.1712     6.9005  -999.2500
  514.5000   -39.6586   149.2462     8.0148     6.9025  -999.2500
  515.0000   -39.6586   148.7702     8.0114     6.9515  -999.2500
  515.5000   -39.6590   147.9688     8.0855     6.9998  -999.2500
  516.0000   -39.6575   147.1674     8.1623     7.0481  -999.2500
  516.5000   -39.7648   146.3660     8.2394     7.0863  -999.2500
  517.0000   -39.8587   145.5647     8.3138     7.0855  -999.2500
  517.5000   -39.7443   144.7633     8.1672     7.0854  -999.2500
  518.0000   -39.6175   143.9619     7.9874     7.0854  -999.2500
  518.5000   -39.4226   143.1605     8.2470     7.0852  -999.2500
  519.0000   -39.2346   142.3592     8.3266     7.0856  -999.2500
  519.5000   -39.0468   141.5578     8.2414     7.1006  -999.2500
  520.0000   -38.8574   140.7564     8.2687     7.1648  -999.2500
  520.5000   -38.6643   140.2064     8.4293     7.2266  -999.2500
