~VERSION INFORMATION
 VERS.                2.0:   CWLS LOG ASCII STANDARD - VERSION 2.0
 WRAP.                 NO:   ONE LINE PER DEPTH STEP
~WELL INFORMATION
#MNEM.UNIT      DATA TYPE    INFORMATION
#----------   ------------   ------------------------------
 STRT.F          283.5000:   START DEPTH
 STOP.F         3026.0000:   STOP DEPTH
 STEP.F            0.5000:   STEP LENGTH
 NULL.          -999.2500:   NO VALUE
 COMP. DEPARTMENT OF ENERGY:   COMPANY
 WELL. RES 3 TEAPOT DOM "AX" #62-29:   WELL
 FLD .        TEAPOT DOME:   FIELD
 LOC .      S29 T39N R78W:   LOCATION
 CNTY.            NATRONA:   COUNTY
 STAT.            WYOMING:   STATE
 CTRY. UNITED STATES OF AMERICA:   COUNTRY
 SRVC.       Schlumberger:   SERVICE COMPANY
 DATE.        27-JUL-1971:   LOGDATE
 API .       490250659800:   API NUMBER
~CURVE INFORMATION
#MNEM.UNIT       API CODE    CURVE DESCRIPTION
#----------   ------------   ------------------------------
 DEPT.F                  :   
 GRD .GAPI   45 310 01 00:   GAMMA RAY FROM DENSITY LOG
 CALD.IN     45 280 60 00:   CALIPER FROM DENSITY LOG
 RHOB.G/C3   45 350 01 00:   BULK DENSITY
 DPHI.DEC    45 890 12 00:   DENSITY POROSITY SANDSTONE
 CORR.G/C3   45 356 01 00:   DENSITY CORRECTION
 SPR .MV     05 010 01 00:   SPONTANEOUS POTENTIAL FROM RES.
 ASN .OHMM   05 041 16 00:   AMPLIFIED SHORT NORMAL 16"
 ILD .OHMM   05 120 46 00:   INDUCTION LOG DEEP
 CILD.MMHO   05 110 46 00:   CONDUCTIVITY INDUCTION LOG DEEP
~PARAMETER INFORMATION
#MNEM.UNIT          VALUE    DESCRIPTION
#----------   ------------   ------------------------------
 PD  .                 GL:   PERMANENT DATUM
 EPD .F              4998:   ELEVATION PERMANENT DATUM
 LMF .                 KB:   LOG MEASURED FROM
 DAPD.F                11:   FEET ABOVE PERMANENT DATUM
 DMF .                 KB:   DRILLING MEASURED FROM
 EKB .F              5009:   KELLING BUSHING
 EGL .F              4998:   GROUND LEVEL
 DATE.            7-27-71:   RUN DATE
 RUN .                  1:   RUN NUMBER
 DD  .F              3023:   DEPTH DRILLER
 DL  .F              3024:   DEPTH LOGGER
 BLI .F              3023:   BOTTOM LOG INTERVAL
 TLI .F               286:   TOP LOG INTERVAL
 CS  .IN            10.75:   CASING SIZE
 CBD .F               287:   CASING BOTTOM DRILLER
 CBL .F               286:   CASING BOTTOM LOGGER
 BS  .IN                9:   BIT SIZE
 BSD .F              3023:   BIT SIZE AT DEPTH
 DFT .      FRESH GEL MUD:   DRILLING FLUID TYPE
 DFD .                 10:   DRILLING FLUID DENSITY
 DFV .                 90:   DRILLING FLUID VISCOSITY
 DFPH.                7.6:   DRILLING FLUID PH
 DFL .                5.8:   DRILLING FLUID LOSS
 MSS .          FLOW LINE:   MUD SAMPLE SOURCE
 RMS .OHMM           1.74:   RESISTIVITY MUD SAMPLE
 MST .F                75:   MUD SAMPLE TEMPERATURE
 RMF .OHMM            1.5:   RESISTIVITY MUD FILTRATE SAMPLE
 MFST.F                75:   MUD FILTRATE SAMPLE TEMPERATURE
 MFSS.                  C:   MUD FILTRATE SAMPLE SOURCE
 RMB .OHMM           1.12:   RESISTIVITY MUD AT BHT
 BHT .F               116:   BOTTOM HOLE TEMPERATURE
 TCS .HRS               5:   TIME CURCULATED STOPPED
 MRT .F               116:   MAXIMUM RECORDED TEMPERATURE
 LUN .               7041:   LOGGING UNIT NUMBER
 LUL .               CSPR:   LOGGING UNIT LOCATION
 ENGI.             KNOBEL:   RECORDING ENGINEER
 WITN.                MAY:   WITNESSED BY
 CLNT.            A2DTECH:   CLIENT CODE
 ORIG.     1", 2.5" PRINT:   ORIGIN OF DATA
 UWI .       490250659800:   UNIQUE WELL ID
 DICO. A2D Technologies, Inc.:   DIGITIZING COMPANY
~OTHER INFORMATION
~A   DEPT      GRD       CALD       RHOB       DPHI       CORR        SPR        ASN        ILD       CILD   
# ...
 2181.5000   110.3563    10.5705     2.5629     0.0516     0.0577   -37.1387     5.9543     4.7951   205.5803
 2182.0000   111.4069    10.4716     2.5884     0.0357     0.0762   -37.2208     6.0760     4.9529   200.6805
 2182.5000   114.3763    10.5222     2.6107     0.0206     0.0883   -37.2408     6.0835     4.9809   194.6095
 2183.0000   115.9533    10.5922     2.6150     0.0242     0.0984   -37.2775     6.0074     4.8989   189.3866
 2183.5000   117.3925    10.5983     2.6036     0.0258     0.0839   -37.3554     5.9281     4.7723   197.0590
 2184.0000   119.1603    10.5080     2.5642     0.0561     0.0590   -37.4262     5.8755     4.6202   206.3226
 2184.5000   122.2864    10.4238     2.5703     0.0536     0.0643   -37.4585     5.7945     4.4407   214.7495
 2185.0000   120.2659    10.3874     2.5845     0.0451     0.0729   -37.4679     5.6366     4.2939   220.9391
 2185.5000   123.6321    10.4043     2.5894     0.0365     0.0828   -37.4495     5.4492     4.2727   218.6623
 2186.0000   124.2546    10.4247     2.5945     0.0327     0.0968   -37.3518     5.3345     4.3978   214.3762
 2186.5000   121.4967    10.4421     2.5788     0.0438     0.1123   -37.1822     5.3472     4.6026   208.9109
 2187.0000   119.1726    10.4627     2.5675     0.0501     0.1621   -37.0881     5.4815     4.8181   208.9109
 2187.5000   116.5285    10.4160     2.5493     0.0655     0.1460   -37.2036     5.7287     5.0280   206.9307
 2188.0000   115.9313    10.3349     2.5052     0.0857     0.0820   -37.4229     6.0759     5.2522   195.5860
 2188.5000   117.4946    10.3091     2.5127     0.0766     0.0378   -37.4864     6.4537     5.5086   185.2763
 2189.0000   118.7386    10.3118     2.5607     0.0632     0.0358   -37.3200     6.7491     5.7753   174.9667
 2189.5000   120.1385    10.3181     2.5555     0.0550     0.0289   -37.1276     6.9024     5.9807   161.3861
 2190.0000   120.6703    10.3241     2.5529     0.0596     0.0336   -37.1006     6.9574     6.0660   160.4510
 2190.5000   120.0494    10.3310     2.5639     0.0485     0.0510   -37.1962     7.0003     6.0550   159.0814
 2191.0000   117.6497    10.3373     2.5653     0.0521     0.0358   -37.2758     7.0724     6.0269   157.7118
 2191.5000   114.1866    10.3440     2.5731     0.0495     0.0431   -37.3113     7.1575     6.0304   156.3421
 2192.0000   112.9563    10.3497     2.5991     0.0311     0.0479   -37.3564     7.2387     6.0569   154.9725
 2192.5000   115.6835    10.3504     2.5753     0.0446     0.0396   -37.4238     7.3282     6.0854   153.6029
 2193.0000   115.0632    10.3416     2.5874     0.0397     0.0413   -37.4853     7.4346     6.1142   152.2332
 2193.5000   112.3599    10.3272     2.5826     0.0457     0.0405   -37.5371     7.5329     6.1527   151.4852
 2194.0000   109.7554    10.3203     2.5636     0.0525     0.0410   -37.5938     7.5936     6.2016   152.3406
 2194.5000   109.6005    10.2787     2.5893     0.0414     0.0523   -37.6520     7.6155     6.2382   153.6555
 2195.0000   111.9853    10.2718     2.6018     0.0287     0.0590   -37.7030     7.5986     6.2275   154.9703
 2195.5000   115.4575    10.2707     2.5973     0.0320     0.0521   -37.7602     7.5166     6.1554   156.2852
 2196.0000   116.4995    10.2723     2.5833     0.0390     0.0456   -37.8334     7.3607     6.0449   157.6000
 2196.5000   117.3991    10.2714     2.5981     0.0337     0.0616   -37.8912     7.1900     5.9288   159.4059
 2197.0000   119.4422    10.2716     2.5876     0.0319     0.0571   -37.8865     7.0850     5.8210   161.3861
 2197.5000   118.2380    10.2717     2.5785     0.0446     0.0443   -37.8149     7.0615     5.7204   161.3861
 2198.0000   118.1469    10.2716     2.5869     0.0358     0.0696   -37.7199     7.0715     5.6181   166.4158
 2198.5000   118.6805    10.2717     2.6148     0.0176     0.1076   -37.6370     7.0647     5.5019   171.3465
 2199.0000   119.2983    10.2716     2.5992     0.0275     0.0893   -37.5632     7.0150     5.3759   176.2772
 2199.5000   120.3363    10.2717     2.5840     0.0430     0.0695   -37.4854     6.9092     5.2745   183.1683
 2200.0000   124.5002    10.2720     2.5748     0.0465     0.0496   -37.4050     6.7523     5.2320   181.8438
 2200.5000   128.7313    10.2709     2.5628     0.0549     0.0316   -37.3254     6.5903     5.2518   179.6450
 2201.0000   132.9549    10.2727     2.5698     0.0498     0.0471   -37.2428     6.5034     5.3271   177.4463
 2201.5000   137.0349    10.2715     2.5866     0.0413     0.0646   -37.1642     6.5701     5.4672   175.2475
 2202.0000   136.8133    10.2640     2.5918     0.0343     0.0800   -37.1119     6.8200     5.6698   169.0594
 2202.5000   131.5161    10.2170     2.5734     0.0564     0.0844   -37.0964     7.2115     5.9002   162.8713
 2203.0000   124.2989    10.2074     2.5569     0.0524     0.0604   -37.1017     7.6529     6.1335   156.6832
 2203.5000   117.3466    10.1903     2.5685     0.0477     0.0399   -37.1058     8.0473     6.3772   150.4951
 2204.0000   111.4780    10.1757     2.5626     0.0556     0.0226   -37.1035     8.3225     6.6187   144.3069
 2204.5000   111.4367    10.1603     2.5765     0.0461     0.0283   -37.1013     8.4449     6.7937   135.6436
 2205.0000   111.3901    10.1528     2.5887     0.0377     0.0426   -37.1021     8.4310     6.8550   136.0396
 2205.5000   114.3175    10.1514     2.6021     0.0293     0.0586   -37.1037     8.3420     6.8391   136.6997
 2206.0000   118.5403    10.1480     2.6165     0.0184     0.0618   -37.1043     8.2556     6.8209   137.3597
 2206.5000   116.4580    10.1446     2.6030     0.0250     0.0567   -37.1015     8.2348     6.8286   138.0198
 2207.0000   111.8536    10.1415     2.5938     0.0344     0.0554   -37.0917     8.3072     6.8394   138.6799
 2207.5000   108.9952    10.1382     2.5718     0.0438     0.0473   -37.0748     8.4465     6.8342   139.6040
 2208.0000   112.2066    10.1349     2.5541     0.0525     0.0318   -37.0552     8.5864     6.8369   138.1188
 2208.5000   115.5791    10.1317     2.5315     0.0707     0.0124   -37.0365     8.6772     6.8994   135.6436
 2209.0000   118.6912    10.1284     2.5463     0.0619     0.0120   -37.0188     8.7241     7.0387   133.1683
 2209.5000   118.8593    10.1251     2.5674     0.0518     0.0314   -37.0006     8.7565     7.1748   132.6733
 2210.0000   120.7005    10.1219     2.5795     0.0416     0.0478   -36.9819     8.7800     7.1817   133.6634
 2210.5000   123.4578    10.1186     2.6007     0.0315     0.0631   -36.9635     8.7787     7.0361   135.2835
 2211.0000   123.7321    10.1154     2.6117     0.0216     0.0785   -36.9453     8.7475     6.8667   136.6337
 2211.5000   121.6679    10.1142     2.6063     0.0238     0.0725   -36.9268     8.7050     6.8041   137.9838
 2212.0000   119.1235    10.1204     2.6026     0.0274     0.0615   -36.9083     8.6741     6.8302   139.6040
 2212.5000   116.2705    10.1281     2.5987     0.0303     0.0530   -36.8899     8.6557     6.8427   138.2062
 2213.0000   116.0511    10.1359     2.5943     0.0311     0.0482   -36.8715     8.6231     6.8215   136.4589
 2213.5000   116.6220    10.1435     2.5913     0.0366     0.0503   -36.8530     8.5689     6.8466   134.7117
 2214.0000   119.4785    10.1513     2.5981     0.0319     0.0614   -36.8344     8.5514     6.9640   132.9645
 2214.5000   119.3269    10.1590     2.5785     0.0399     0.0488   -36.8164     8.6469     7.1153   131.2172
 2215.0000   117.4436    10.1667     2.5593     0.0485     0.0344   -36.7983     8.8439     7.2130   129.4700
 2215.5000   116.0879    10.1744     2.5795     0.0402     0.0491   -36.7792     9.0456     7.2368   127.7228
 2216.0000   115.7538    10.1821     2.5972     0.0315     0.0670   -36.7602     9.1877     7.2284   128.3828
 2216.5000   115.2840    10.1898     2.6099     0.0239     0.0789   -36.7430     9.2881     7.2251   129.0429
 2217.0000   114.9595    10.1975     2.6043     0.0251     0.0733   -36.7258     9.3510     7.2283   129.7030
 2217.5000   114.1597    10.2053     2.6015     0.0286     0.0680   -36.7072     9.3113     7.2286   130.3630
