~VERSION INFORMATION
 VERS.                2.0:   CWLS LOG ASCII STANDARD - VERSION 2.0
 WRAP.                 NO:   ONE LINE PER DEPTH STEP
~WELL INFORMATION
#MNEM.UNIT      DATA TYPE    INFORMATION
#----------   ------------   ------------------------------
 STRT.F           20.0000:   START DEPTH
 STOP.F          610.0000:   STOP DEPTH
 STEP.F            0.5000:   STEP LENGTH
 NULL.          -999.2500:   NO VALUE
 COMP. LAWRENCE/ALLISON INC:   COMPANY
 WELL.    44-55 SX #10-10:   WELL
 FLD .             TEAPOT:   FIELD
 LOC .      S10 T38N R78W:   LOCATION
 CNTY.            NATRONA:   COUNTY
 STAT.            WYOMING:   STATE
 CTRY. UNITED STATES OF AMERICA:   COUNTRY
 SRVC.            Unknown:   SERVICE COMPANY
 DATE.        29-AUG-1984:   LOGDATE
 API .       490251098300:   API NUMBER
~CURVE INFORMATION
#MNEM.UNIT       API CODE    CURVE DESCRIPTION
#----------   ------------   ------------------------------
 DEPT.F                  :   
 AC  .US/F   60 520 00 00:   ACOUSTIC SONIC
 SPR .MV     07 010 01 00:   SPONTANEOUS POTENTIAL
 RILD.OHMM   07 120 46 00:   INDUCTION LOG DEEP RESISTIVITY
 RILM.OHMM   07 120 44 00:   INDUCTION LOG MEDIUM RESISTIVITY
 RFOC.OHMM   07 220 04 00:   RESISTIVITY FOCUSED LOG
 GRD .GAPI   45 310 01 00:   GAMMA RAY FROM DENSITY LOG
 CALD.IN     45 280 60 00:   CALIPER
 DEN .G/C3   45 350 01 00:   COMPENSATED BULK DENSTIY
 CNC .DEC    42 890 03 00:   NEUTRON POROSITY SANDSTONE
 PORD.DEC    45 890 12 00:   DENSITY POROSITY SANDSTONE
 CORR.G/C3   45 356 01 00:   DENSITY CORRECTION
~PARAMETER INFORMATION
#MNEM.UNIT          VALUE    DESCRIPTION
#----------   ------------   ------------------------------
 PD  .                 GL:   PERMANENT DATUM
 EPD .F              5247:   ELEVATION PERMANENT DATUM
 LMF .                 KB:   LOG MEASURED FROM
 DAPD.F                13:   FEET ABOVE PERMANENT DATUM
 DMF .                 KB:   DRILLING MEASURED FROM
 EKB .F              5260:   KELLING BUSHING
 EGL .F              5247:   GROUND LEVEL
 DATE.        29-AUG-1984:   RUN DATE
 RUN .                  1:   RUN NUMBER
 DD  .F               613:   DEPTH DRILLER
 DL  .F               607:   DEPTH LOGGER
 BLI .F               607:   BOTTOM LOG INTERVAL
 TLI .F                42:   TOP LOG INTERVAL
 CBL .F                42:   CASING BOTTOM LOGGER
 BS  .IN            7.875:   BIT SIZE
 BSD .F               613:   BIT SIZE AT DEPTH
 DFT .          KCL WATER:   DRILLING FLUID TYPE
 MSS .               TANK:   MUD SAMPLE SOURCE
 RMS .OHMM           .295:   RESISTIVITY MUD SAMPLE
 MST .F                75:   MUD SAMPLE TEMPERATURE
 TCS .HRS               3:   TIME CURCULATED STOPPED
 MRT .F               100:   MAXIMUM RECORDED TEMPERATURE
 LUN .               4082:   LOGGING UNIT NUMBER
 LUL .               ROOS:   LOGGING UNIT LOCATION
 ENGI.             MILLER:   RECORDING ENGINEER
 WITN.            JOHNSON:   WITNESSED BY
 CLNT.            A2DTECH:   CLIENT CODE
 ORIG.       2", 5" PRINT:   ORIGIN OF DATA
 UWI .       490251098300:   UNIQUE WELL ID
 DICO. A2D Technologies, Inc.:   DIGITIZING COMPANY
~OTHER INFORMATION
~A   DEPT       AC        SPR       RILD       RILM       RFOC         GRD      CALD        DEN        CNC       PORD       CORR   
# ...
  264.0000   105.1142   -41.7946     5.6827     6.2035     7.3064   106.2383     7.9795     2.4964     0.3106     0.1092     0.0463
  264.5000   104.3214   -41.3629     6.0401     6.5189     7.9402   110.6565     7.9787     2.4936     0.3124     0.1133    -0.0141
  265.0000   104.4087   -40.9358     6.4186     6.8504     8.0875   109.6912     7.9779     2.4873     0.3154     0.1175    -0.0487
  265.5000   104.6998   -40.6550     6.8209     7.1987     8.0120   107.4051     7.9771     2.4802     0.3146     0.1217    -0.0268
  266.0000   105.0200   -40.4989     7.1766     7.5647     7.9568   105.1714     7.9763     2.4724     0.3134     0.1259     0.0019
  266.5000   105.0200   -40.4565     7.3696     7.7895     7.9017   103.7942     7.9756     2.4662     0.3215     0.1268     0.0163
  267.0000   104.5334   -40.5990     7.5781     7.9709     7.8664   104.7954     7.9748     2.4711     0.3298     0.1240     0.0134
  267.5000   103.9929   -40.8474     7.7946     8.0875     8.1441   105.7426     7.9740     2.4769     0.3338     0.1212     0.0020
  268.0000   103.6691   -41.0950     7.7688     8.0730     8.3890   106.7859     7.9732     2.4729     0.3284     0.1232    -0.0092
  268.5000   103.5622   -41.3004     7.7414     8.0624     8.5461   103.8842     7.9725     2.4621     0.3228     0.1331    -0.0207
  269.0000   103.4552   -41.4249     7.7242     8.0518     8.5461    99.7978     7.9717     2.4510     0.3171     0.1376    -0.0214
  269.5000   103.4231   -41.5432     7.8669     8.0412     8.5461    95.7139     7.9709     2.4488     0.3137     0.1336     0.0029
  270.0000   103.4231   -41.4986     7.8466     8.0306     8.5461    92.9979     7.9701     2.4661     0.3164     0.1262     0.0289
  270.5000   103.4236   -41.2539     7.8244     8.0200     8.6250    96.6322     7.9694     2.4746     0.3201     0.1236     0.0453
  271.0000   103.5192   -41.0561     7.8024     8.0134     8.5689   100.5138     7.9686     2.4705     0.3150     0.1258     0.0193
  271.5000   103.7102   -40.8577     7.7807     8.0135     8.5286   101.1792     7.9678     2.4668     0.3054     0.1272    -0.0006
  272.0000   103.9206   -40.6585     7.7590     8.0135     8.4884    99.6833     7.9670     2.4743     0.2992     0.1215    -0.0164
  272.5000   104.3338   -40.4592     7.7372     8.0135     8.4484    99.6288     7.9662     2.4838     0.2954     0.1154     0.0064
  273.0000   104.7913   -40.2600     7.7166     8.0135     8.4085   102.6809     7.9655     2.4934     0.3072     0.1102     0.0369
  273.5000   105.1863   -40.0608     7.6745     8.0135     8.3688   104.9014     7.9647     2.5027     0.3201     0.1056     0.0609
  274.0000   105.5190   -39.8616     7.6331     8.0135     8.3294   105.1337     7.9639     2.5022     0.3329     0.1068     0.0466
  274.5000   105.6205   -39.6620     7.5918     8.0135     8.3134   106.1569     7.9631     2.4976     0.3471     0.1093     0.0332
  275.0000   105.5300   -39.4624     7.5835     8.0135     8.3583   107.5687     7.9624     2.4929     0.3371     0.1117     0.0329
  275.5000   105.3510   -39.2675     7.6040     8.0135     8.3905   107.3667     7.9616     2.4947     0.3262     0.1124     0.0443
  276.0000   105.1725   -39.4907     7.6186     8.0135     8.4228   105.0963     7.9608     2.4990     0.3259     0.1110     0.0375
  276.5000   105.0086   -39.8625     7.6340     8.0136     8.4679   102.3388     7.9600     2.5034     0.3284     0.1075     0.0291
  277.0000   104.8499   -40.2363     7.6520     8.0135     8.3634    97.7517     7.9593     2.5078     0.3302     0.1039     0.0227
  277.5000   104.6911   -40.6102     7.7242     8.0385     8.1622    93.2618     7.9584     2.5118     0.3257     0.1004     0.0253
  278.0000   104.5323   -40.9842     7.7242     8.0875     8.2523    89.0848     7.9589     2.5047     0.3201     0.0996     0.0276
  278.5000   104.5295   -41.3570     7.2364     7.5696     8.3648    88.6650     7.9599     2.4879     0.3207     0.1090     0.0302
  279.0000   104.7371   -41.6755     6.7846     6.9773     8.4789    94.0428     7.9608     2.4781     0.3226     0.1170     0.0323
  279.5000   106.7289   -41.7660     6.3683     6.4271     8.5461   101.9705     7.9618     2.4698     0.3183     0.1242     0.0338
  280.0000   108.5694   -41.8607     6.2523     6.4589     7.6940   106.4700     7.9628     2.4535     0.3134     0.1325     0.0323
  280.5000   110.6040   -41.9569     6.2376     6.4903     6.5899   109.5832     7.9637     2.4327     0.3229     0.1421     0.0309
  281.0000   110.7087   -42.0389     6.2196     6.5218     5.9714   112.7158     7.9647     2.4295     0.3434     0.1496     0.0253
  281.5000   109.6852   -41.8582     6.2017     6.5464     6.3817   113.9502     7.9657     2.4509     0.3597     0.1389     0.0176
  282.0000   108.2137   -41.6698     6.0073     6.2958     7.1454   109.9614     7.9667     2.4747     0.3537     0.1264     0.0100
  282.5000   106.7565   -41.4786     5.7193     6.0608     7.8676   105.6923     7.9676     2.4880     0.3478     0.1168     0.0043
  283.0000   106.4047   -41.5894     5.4452     5.8345     8.0875   104.9437     7.9686     2.4813     0.3692     0.1181     0.0061
  283.5000   108.1013   -41.8038     5.2616     5.6137     8.0339   104.6138     7.9695     2.4569     0.3898     0.1285     0.0084
  284.0000   110.7063   -42.0212     5.1050     5.4500     7.6221   104.7734     7.9705     2.4143     0.4019     0.1436     0.0107
  284.5000   113.5854   -42.2380     5.0643     5.3964     6.4076   106.3633     7.9715     2.3699     0.3941     0.1700     0.0126
  285.0000   113.6405   -42.4450     5.0146     5.3972     5.3891   105.4727     7.9724     2.3695     0.3759     0.1861     0.0145
  285.5000   111.1833   -42.1878     5.0146     5.6182     4.9752   102.1605     7.9734     2.4005     0.3576     0.1723     0.0164
  286.0000   108.2955   -41.7923     5.1076     5.8392     5.8610   100.2747     7.9744     2.4345     0.3393     0.1514     0.0185
  286.5000   105.1198   -41.3944     5.2989     6.0689     7.0407   101.8356     7.9753     2.4690     0.3264     0.1304     0.0235
  287.0000   103.9222   -40.9902     5.6390     6.3076     8.1622   101.5410     7.9763     2.4794     0.3169     0.1217     0.0409
  287.5000   104.0594   -40.7815     5.9846     6.5558     8.1622    99.7423     7.9773     2.4889     0.3073     0.1159     0.0578
  288.0000   104.1841   -40.6555     6.3514     6.8138     8.1409    98.0376     7.9781     2.4990     0.2990     0.1100     0.0601
  288.5000   104.0469   -40.7912     6.7407     7.0820     8.1239    97.1732     7.9766     2.5177     0.3122     0.1039     0.0457
  289.0000   103.7974   -40.9945     7.1766     7.1772     8.1069    98.6644     7.9752     2.5201     0.3214     0.0964     0.0684
  289.5000   103.5479   -41.1999     7.3807     7.3813     8.0875   100.0820     7.9738     2.5171     0.3135     0.0980     0.0906
  290.0000   103.3400   -41.4051     7.3816     6.8793     8.1589   101.0372     7.9724     2.5139     0.3072     0.1009     0.0981
  290.5000   103.2235   -41.6103     6.7884     6.4096     8.2428   101.5313     7.9710     2.5073     0.3256     0.1037     0.0440
  291.0000   103.3733   -41.8160     6.2981     5.9720     8.3276   102.0074     7.9696     2.4949     0.3498     0.1070     0.0028
  291.5000   104.9576   -42.0211     5.8422     5.5640     8.4679   104.6299     7.9682     2.4825     0.3658     0.1132    -0.0208
  292.0000   107.8001   -42.0488     5.4470     5.1837     8.4679   107.6474     7.9668     2.4614     0.3563     0.1235    -0.0241
  292.5000   111.0080   -42.0511     5.2822     4.8735     6.7037   110.4474     7.9654     2.4264     0.3456     0.1402     0.0134
  293.0000   112.2555   -42.0292     5.1323     4.7893     5.6547   113.1981     7.9640     2.3931     0.3494     0.1588     0.0351
  293.5000   111.6068   -41.6305     4.9687     5.0482     4.7803   112.7857     7.9626     2.3939     0.3511     0.1701     0.0246
  294.0000   108.7708   -41.2351     5.0884     5.3024     5.2523   110.5522     7.9612     2.4357     0.3342     0.1546     0.0161
