~VERSION INFORMATION
 VERS.                2.0:   CWLS LOG ASCII STANDARD - VERSION 2.0
 WRAP.                 NO:   ONE LINE PER DEPTH STEP
~WELL INFORMATION
#MNEM.UNIT      DATA TYPE    INFORMATION
#----------   ------------   ------------------------------
 STRT.F           27.0000:   START DEPTH
 STOP.F          566.0000:   STOP DEPTH
 STEP.F            0.5000:   STEP LENGTH
 NULL.          -999.2500:   NO VALUE
 COMP.    FENIX & SCISSON:   COMPANY
 WELL. S-3 NPR #3 #86-S-3:   WELL
 FLD .             TEAPOT:   FIELD
 LOC .       S3 T38N R78W:   LOCATION
 CNTY.            NATRONA:   COUNTY
 STAT.            WYOMING:   STATE
 CTRY. UNITED STATES OF AMERICA:   COUNTRY
 SRVC.       Schlumberger:   SERVICE COMPANY
 DATE.        08-APR-1977:   LOGDATE
 API .       490251032900:   API NUMBER
~CURVE INFORMATION
#MNEM.UNIT       API CODE    CURVE DESCRIPTION
#----------   ------------   ------------------------------
 DEPT.F                  :   
 CALD.IN     45 280 60 00:   CALIPER FROM DENSITY LOG
 GRD .GAPI   45 310 01 00:   GAMMA RAY FROM DENSITY LOG
 CORR.G/C3   45 356 01 00:   DENSITY CORRECTION
 RHOB.G/C3   45 350 01 00:   BULK DENSITY
 DPHI.DEC    45 890 12 00:   DENSITY POROSITY SANDSTONE
 SPR .MV     07 010 01 00:   SPONTANEOUS POTENTIAL
 ILD .OHMM   07 120 46 00:   INDUCTION LOG DEEP
 ILM .OHMM   07 120 44 00:   INDUCTION LOG MEDIUM
 LL8 .OHMM   07 220 08 00:   LATEROLOG-8 RES.
~PARAMETER INFORMATION
#MNEM.UNIT          VALUE    DESCRIPTION
#----------   ------------   ------------------------------
 PD  .                 GL:   PERMANENT DATUM
 EPD .F              5147:   ELEVATION PERMANENT DATUM
 LMF .                 KB:   LOG MEASURED FROM
 DMF .                 KB:   DRILLING MEASURED FROM
 EGL .F              5147:   GROUND LEVEL
 DATE.        08-APR-1977:   RUN DATE
 RUN .                  1:   RUN NUMBER
 DD  .F               570:   DEPTH DRILLER
 DL  .F               567:   DEPTH LOGGER
 BLI .F               566:   BOTTOM LOG INTERVAL
 TLI .F                27:   TOP LOG INTERVAL
 CS  .IN            8.625:   CASING SIZE
 CBD .F                40:   CASING BOTTOM DRILLER
 CBL .F                33:   CASING BOTTOM LOGGER
 BS  .IN            7.875:   BIT SIZE
 BSD .F               570:   BIT SIZE AT DEPTH
 DFT .                KCL:   DRILLING FLUID TYPE
 DFD .                8.6:   DRILLING FLUID DENSITY
 DFV .                 31:   DRILLING FLUID VISCOSITY
 DFPH.                9.5:   DRILLING FLUID PH
 DFL .                8.6:   DRILLING FLUID LOSS
 MSS .           FLOWLINE:   MUD SAMPLE SOURCE
 RMS .OHMM          0.306:   RESISTIVITY MUD SAMPLE
 MST .F                78:   MUD SAMPLE TEMPERATURE
 RMF .OHMM          0.230:   RESISTIVITY MUD FILTRATE SAMPLE
 MFST.F                78:   MUD FILTRATE SAMPLE TEMPERATURE
 MFSS.               MEAS:   MUD FILTRATE SAMPLE SOURCE
 RMB .OHMM          0.341:   RESISTIVITY MUD AT BHT
 BHT .F                70:   BOTTOM HOLE TEMPERATURE
 TCS .HRS              20:   TIME CURCULATED STOPPED
 MRT .F                70:   MAXIMUM RECORDED TEMPERATURE
 LUN .               5642:   LOGGING UNIT NUMBER
 LUL .               CSPR:   LOGGING UNIT LOCATION
 ENGI.             MARTIN:   RECORDING ENGINEER
 WITN.               LYON:   WITNESSED BY
 CLNT.            A2DTECH:   CLIENT CODE
 ORIG.       2", 5" PRINT:   ORIGIN OF DATA
 UWI .       490251032900:   UNIQUE WELL ID
 DICO. A2D Technologies, Inc.:   DIGITIZING COMPANY
~OTHER INFORMATION
~A   DEPT     CALD         GRD      CORR       RHOB       DPHI        SPR        ILD        ILM        LL8   
# ...
  319.0000     8.0224   128.4084     0.0512     2.4576     0.1159   -72.0438     7.6097     7.5495     9.6941
  319.5000     8.0548   130.3815     0.0347     2.4126     0.1242   -72.3370     7.0505     7.1440     8.6766
  320.0000     8.1017   128.8420     0.0183     2.4404     0.1247   -72.7806     6.8093     6.9024     7.2584
  320.5000     8.1040   126.0270     0.0169     2.4683     0.1131   -73.3745     6.8079     6.7155     6.3962
  321.0000     8.1211   127.9922     0.0109     2.4413     0.1226   -73.9685     6.8065     6.7173     7.8369
  321.5000     8.1382   131.7402     0.0088     2.4609     0.1163   -74.5625     6.7116     6.7192     8.8589
  322.0000     8.1702   132.2039     0.0231     2.4579     0.1160   -75.1564     6.6179     6.6098     8.4394
  322.5000     8.1724   130.1396     0.0247     2.4362     0.1216   -75.6000     6.3916     6.3966     8.5099
  323.0000     8.1597   130.4654     0.0256     2.4235     0.1299   -75.8932     6.1303     6.1818     8.9255
  323.5000     8.1620   132.1270     0.0287     2.3777     0.1495   -76.0380     5.7990     5.8551     9.2428
  324.0000     8.1189   132.7397     0.0400     2.3643     0.1705   -76.0020     5.4101     5.6494     8.5850
  324.5000     8.0322   130.5320     0.0326     2.3523     0.1768   -75.6953     5.1890     5.3496     5.5218
  325.0000     7.9748   128.6168     0.0259     2.3456     0.1728   -75.0877     5.2240     5.1365     4.3388
  325.5000     7.9920   124.7642     0.0222     2.4142     0.1331   -74.4803     5.4068     5.2460     4.3054
  326.0000     8.0389   121.8002     0.0148     2.4293     0.1238   -73.8947     5.6348     5.5085     9.8978
  326.5000     8.0858   121.5298     0.0181     2.4480     0.1202   -73.7368     5.8320     5.8649     9.4291
  327.0000     8.1178   120.6523     0.0233     2.4683     0.1150   -73.8799     6.1201     6.2013     8.9826
  327.5000     8.1349   122.7665     0.0121     2.4706     0.1138   -73.8722     6.4672     6.5116     8.8589
  328.0000     8.1521   121.7454     0.0145     2.4752     0.1120   -73.8647     6.9772     6.7902     8.7370
  328.5000     8.1692   121.9167     0.0176     2.4888     0.1074   -73.8571     7.2715     7.1299     8.6766
  329.0000     8.1714   122.5350     0.0192     2.4588     0.1131   -73.8496     7.4740     7.3325     8.6766
  329.5000     8.1736   122.7062     0.0238     2.4701     0.1152   -73.8421     7.6292     7.4888     8.6766
  330.0000     8.1609   123.1755     0.0336     2.4799     0.1067   -73.8346     7.4709     7.5430     8.7370
  330.5000     8.1632   123.3711     0.0187     2.4815     0.1118   -73.8271     7.3667     7.3387     8.9205
  331.0000     8.1654   123.8160     0.0157     2.4523     0.1238   -73.8196     7.1641     7.1399     9.1079
  331.5000     8.1677   125.6265     0.0219     2.4373     0.1282   -73.9680     6.8239     6.8985     9.3639
  332.0000     8.1703   128.7784     0.0325     2.4020     0.1330   -74.2597     6.4106     6.4829     9.6272
  332.5000     8.1576   129.6948     0.0265     2.4006     0.1546   -74.7018     5.8985     6.0084     6.7608
  333.0000     8.1598   130.1640     0.0056     2.4045     0.1519   -75.4457     5.4650     5.5686     4.9839
  333.5000     8.1621   129.4349     0.0041     2.4287     0.1278   -76.0376     5.3147     5.3803     4.8476
  334.0000     8.1643   124.0382     0.0133     2.4737     0.1122   -76.0300     5.4628     5.4950     6.1783
  334.5000     8.1665   119.5976     0.0164     2.4858     0.1079   -75.5714     5.7725     5.7300     7.1462
  335.0000     8.1687   117.6901     0.0165     2.4911     0.1055   -74.9623     6.0998     6.0586     7.5536
  335.5000     8.1858   116.3771     0.0151     2.4806     0.1052   -74.5037     6.3132     6.3618     8.3232
  336.0000     8.1880   115.0960     0.0121     2.4747     0.1072   -74.0450     6.6712     6.7267     9.1079
  336.5000     8.1902   116.1624     0.0132     2.4747     0.1099   -73.8871     7.0495     7.1124     9.4291
  337.0000     8.1328   116.9343     0.0215     2.4778     0.1075   -73.8796     7.5009     7.3753     9.6272
  337.5000     8.0605   119.7881     0.0282     2.4906     0.1068   -73.8720     7.9812     7.7425     9.7615
  338.0000     8.0175   120.5499     0.0163     2.4787     0.1110   -73.7141     8.3179     8.0870     9.9666
  338.5000     8.0048   119.0873     0.0126     2.4674     0.1149   -73.4058     8.5495     8.4858    10.0359
  339.0000     8.0225   115.3837     0.0021     2.4607     0.1172   -72.9472     8.7271     8.7732    10.2467
  339.5000     8.0992   112.5669     0.0090     2.4615     0.1172   -72.6389     8.7858     8.8941    10.3180
  340.0000     8.1610   114.0849     0.0129     2.4631     0.1169   -72.4810     8.9069     8.9585    10.3898
  340.5000     8.1781   115.5974     0.0137     2.4684     0.1159   -72.3230     8.9669     8.9610    10.4620
  341.0000     8.1804   118.0041     0.0115     2.4662     0.1147   -72.4662     8.9645     9.0887    10.5348
  341.5000     8.1826   121.7521     0.0116     2.4671     0.1141   -72.4583     9.0254     9.1545    10.5348
  342.0000     8.1848   122.8175     0.0117     2.4709     0.1131   -72.4508     8.9608     9.0937    10.5348
  342.5000     8.1721   122.6907     0.0126     2.4769     0.1116   -72.4433     8.7749     8.9710    10.5348
  343.0000     8.1594   119.7322     0.0119     2.4686     0.1120   -72.4357     8.7126     8.9735    10.5348
  343.5000     8.1617   119.2902     0.0067     2.4665     0.1145   -72.4282     8.7107     8.8524    10.3898
  344.0000     8.1489   120.8198     0.0030     2.4786     0.1132   -72.5729     8.7089     8.7323    10.2467
  344.5000     8.1517   122.3323     0.0144     2.4855     0.1103   -72.8642     8.7071     8.7353     9.9666
  345.0000     8.1539   121.2913     0.0162     2.4915     0.1039   -73.1575     8.8879     8.7986     9.8978
  345.5000     8.1710   118.9114     0.0146     2.4848     0.1000   -73.4526     8.9482     8.9240     9.6941
  346.0000     8.1732   116.4619     0.0124     2.4796     0.1012   -73.7458     9.1340     8.9886     9.6941
  346.5000     8.1605   110.5932     0.0080     2.4827     0.1065   -74.0390     9.2589     9.1802     9.9861
  347.0000     8.1628   110.0737     0.0074     2.4805     0.1053   -74.3303     9.4512     9.2466    10.7742
  347.5000     8.1650   112.1708     0.0099     2.4730     0.1053   -74.3228     9.3841     9.4437    11.4724
  348.0000     8.1672   113.5513     0.0188     2.4558     0.1091   -74.4675     8.8768     9.2518    11.6081
  348.5000     8.1539   114.3186     0.0121     2.4378     0.1205   -74.3096     8.2245     8.6944    11.6938
  349.0000     8.1567   117.9176     0.0130     2.3815     0.1277   -74.4524     7.3102     7.8376    12.1146
  349.5000     8.1589   125.2423     0.0131     2.3365     0.1499   -74.5953     6.0631     7.2639    12.0912
  350.0000     8.1606   129.7299     0.0133     2.3298     0.1965   -74.9253     6.0049     6.6392     7.9842
  350.5000     8.1336   128.2173     0.0131     2.3344     0.1933   -75.1810     5.8976     6.7324     4.3068
  351.0000     8.1356   121.0543     0.0013     2.4269     0.1688   -75.0246     5.8991     6.7329     4.3445
  351.5000     8.1377   109.2420     0.0067     2.4811     0.1160   -74.2668     6.0660     6.7802     5.7974
  352.0000     8.1398   107.3050     0.0122     2.4925     0.0962   -73.5089     6.5471     6.9714    12.3953
  352.5000     8.1418   109.0240     0.0135     2.5000     0.0946   -72.7511     7.1154     7.5770    13.1504
  353.0000     8.1290   112.3281     0.0151     2.5084     0.0869   -71.9932     8.0053     8.4083    12.5156
  353.5000     8.1311   115.0199     0.0107     2.5070     0.0823   -71.2353     9.0065     9.8631    12.4411
  354.0000     8.1332   116.1796     0.0032     2.4800     0.1096   -70.6279    10.2033    10.5722    12.4573
  354.5000     8.1352   114.2615     0.0078     2.4741     0.1108   -70.3211    10.8612    11.3322    12.6148
  355.0000     8.1373   112.6414     0.0124     2.4997     0.1038   -70.1648    11.1683    11.8145    12.7025
