~VERSION INFORMATION
 VERS.                2.0:   CWLS LOG ASCII STANDARD - VERSION 2.0
 WRAP.                 NO:   ONE LINE PER DEPTH STEP
~WELL INFORMATION
#MNEM.UNIT      DATA TYPE    INFORMATION
#----------   ------------   ------------------------------
 STRT.F           35.0000:   START DEPTH
 STOP.F          736.0000:   STOP DEPTH
 STEP.F            0.5000:   STEP LENGTH
 NULL.          -999.2500:   NO VALUE
 COMP. US DEPTMNT OF ENRGY:   COMPANY
 WELL.       NPR 3 #73-15:   WELL
 FLD .   TEAPOT NAVAL RES:   FIELD
 LOC .      S15 T38N R78W:   LOCATION
 CNTY.            NATRONA:   COUNTY
 STAT.            WYOMING:   STATE
 CTRY. UNITED STATES OF AMERICA:   COUNTRY
 SRVC.           Gearhart:   SERVICE COMPANY
 DATE.        02-SEP-1987:   LOGDATE
 API .       490251122300:   API NUMBER
~CURVE INFORMATION
#MNEM.UNIT       API CODE    CURVE DESCRIPTION
#----------   ------------   ------------------------------
 DEPT.F                  :   
 GRR .GAPI   07 310 01 00:   GAMMA RAY
 RILD.OHMM   07 120 46 00:   INDUCTION LOG DEEP RESISTIVITY
 RILM.OHMM   07 120 44 00:   INDUCTION LOG MEDIUM RESISTIVITY
~PARAMETER INFORMATION
#MNEM.UNIT          VALUE    DESCRIPTION
#----------   ------------   ------------------------------
 PD  .                 GL:   PERMANENT DATUM
 LMF .                 KB:   LOG MEASURED FROM
 DAPD.F              10.5:   FEET ABOVE PERMANENT DATUM
 DMF .                 KB:   DRILLING MEASURED FROM
 DATE.        02-SEP-1987:   RUN DATE
 RUN .                  1:   RUN NUMBER
 DD  .F               740:   DEPTH DRILLER
 DL  .F               743:   DEPTH LOGGER
 BLI .F               735:   BOTTOM LOG INTERVAL
 TLI .F                30:   TOP LOG INTERVAL
 CS  .IN            9.625:   CASING SIZE
 CBD .F               740:   CASING BOTTOM DRILLER
 CBL .F                40:   CASING BOTTOM LOGGER
 BS  .IN             8.75:   BIT SIZE
 BSD .F               740:   BIT SIZE AT DEPTH
 DFT .                AIR:   DRILLING FLUID TYPE
 TCS .HRS            0230:   TIME CURCULATED STOPPED
 TLAB.HRS            0447:   TIME LOGGER AT BOTTOM
 MRT .F                80:   MAXIMUM RECORDED TEMPERATURE
 LUN .               7697:   LOGGING UNIT NUMBER
 LUL .           GILLETTE:   LOGGING UNIT LOCATION
 ENGI.         WEATHERMON:   RECORDING ENGINEER
 WITN.             STRONG:   WITNESSED BY
 CLNT.            A2DTECH:   CLIENT CODE
 ORIG.           5" PRINT:   ORIGIN OF DATA
 UWI .       490251122300:   UNIQUE WELL ID
 DICO. A2D Technologies, Inc.:   DIGITIZING COMPANY
~OTHER INFORMATION
~A   DEPT       GRR      RILD       RILM   
# ...
  308.0000   120.1208    10.0598    10.0715
  308.5000   121.3589    10.2034    10.0749
  309.0000   118.9224    10.2062    10.1487
  309.5000   116.5917    10.1383    10.2229
  310.0000   112.2860    10.1411    10.1550
  310.5000   111.8096    10.0044    10.0881
  311.0000   114.5656     9.8683     9.9531
  311.5000   120.6375     9.6680     9.7510
  312.0000   124.8967     9.4710     9.5522
  312.5000   123.4157     9.2138     9.3590
  313.0000   122.8411     9.0262     9.2966
  313.5000   124.0792     8.9034     9.1086
  314.0000   125.6193     8.8441     8.9859
  314.5000   125.6489     8.7852     8.8035
  315.0000   123.7162     8.7273     8.5650
  315.5000   120.8817     8.7297     8.3911
  316.0000   121.2060     8.7321     8.2787
  316.5000   120.6314     8.7346     8.1672
  317.0000   120.0567     8.7370     8.1700
  317.5000   119.7842     8.8008     8.1728
  318.0000   121.0297     8.8032     8.1756
  318.5000   123.1741     8.8671     8.2929
  319.0000   122.5994     8.9314     8.4118
  319.5000   120.8163     9.0589     8.5325
  320.0000   120.2417     9.0613     8.6549
  320.5000   120.8761     9.1270     8.8403
  321.0000   120.6030     9.1295     8.9067
  321.5000   119.1294     9.1957     9.0958
  322.0000   117.6484     9.3921     9.2270
  322.5000   116.4696     9.4602     9.2945
  323.0000   116.1897     9.5953     9.2977
  323.5000   115.9245     9.5904     9.3009
  324.0000   116.2562     9.5340     9.2388
  324.5000   118.0985     9.4705     9.2427
  325.0000   121.1493     9.4075     9.1810
  325.5000   123.5958     9.3449     9.1850
  326.0000   125.1360     9.2827     9.1243
  326.5000   126.0725     9.1576     9.1276
  327.0000   125.1460     9.0967     9.0674
  327.5000   124.0237     9.0355     8.9453
  328.0000   122.8448     9.0385     8.8863
  328.5000   121.6659     9.0411     8.8901
  329.0000   122.2998     9.1066     8.8932
  329.5000   123.5378     9.1726     8.8962
  330.0000   123.5674     9.1795     8.8992
  330.5000   123.8991     9.2508     8.9022
  331.0000   125.1372     9.4396     9.0299
  331.5000   125.7710     9.5081     9.0960
  332.0000   123.0816     9.6438     9.2265
  332.5000   118.7813     9.7815     9.4242
  333.0000   115.5388     9.8524     9.4931
  333.5000   113.5101     9.9931     9.6965
  334.0000   111.7270    10.1357     9.9116
  334.5000   110.2386    10.3521    10.1172
  335.0000   110.8798    10.5732    10.2623
  335.5000   111.5137    10.7989    10.5553
  336.0000   112.1475    11.0295    10.7814
  336.5000   112.0781    11.2666    11.0891
  337.0000   111.6000    11.5934    11.4057
  337.5000   111.0253    11.9297    11.7312
  338.0000   108.6454    12.3413    12.0661
  338.5000   104.1433    12.6048    12.3246
  339.0000   101.7560    12.8740    12.6764
  339.5000   101.7856    12.9673    13.0382
  340.0000   103.9300    12.9708    13.2254
  340.5000   108.7959    12.9744    13.2300
  341.0000   110.6381    12.9779    13.2354
  341.5000   111.8688    12.9815    13.1482
  342.0000   109.4889    12.8949    13.0616
  342.5000   105.8931    12.7205    12.9744
  343.0000   103.5058    12.5483    12.7121
  343.5000   101.7227    12.4648    12.6283
  344.0000   103.2628    12.3818    12.5441
  344.5000   106.9687    12.3003    12.3751
  345.0000   108.8117    12.2176    12.2946
  345.5000   107.8907    12.2217    12.2988
  346.0000   106.1077    12.0563    12.2178
  346.5000   105.2235    11.8931    12.2220
  347.0000   105.8647    11.8139    12.1414
  347.5000   107.4049    11.7345    12.0614
  348.0000   105.6218    11.6564    11.9819
  348.5000   102.0260    11.5788    11.9030
  349.0000   100.5438    11.5828    11.9076
  349.5000   101.4810    11.5859    11.9121
  350.0000   103.0211    11.9161    11.9995
  350.5000   105.1883    11.7548    11.9196
  351.0000   105.1077    11.5955    11.9229
  351.5000   103.7218    11.5184    11.7615
  352.0000   103.4419    11.4418    11.5219
  352.5000   104.0832    11.3618    11.4444
  353.0000   107.7383    11.2900    11.2895
  353.5000   111.3933    11.2149    11.2150
  354.0000   113.2283    11.0638    11.0633
  354.5000   109.6400    10.9894    10.9135
  355.0000   106.6485    10.9163    10.8409
  355.5000   105.4697    10.8436    10.7688
  356.0000   103.6867    10.7714    10.6844
  356.5000   101.9037    10.6263    10.5523
  357.0000   101.0270    10.4818    10.4821
  357.5000   102.0241    10.3406    10.3402
  358.0000   105.9214    10.1299    10.2009
  358.5000   104.4467    10.0625    10.1323
  359.0000   103.8647     9.9955    10.0649
  359.5000   104.2039     9.9290     9.9286
  360.0000   104.8378     9.8636     9.8626
  360.5000   104.5579     9.8663     9.8659
  361.0000   104.2855     9.7327     9.8002
  361.5000   104.0130     9.6673     9.8029
  362.0000   104.9565     9.6706     9.8056
  362.5000   105.8925     9.6055     9.7404
  363.0000   106.5264     9.6758     9.6085
  363.5000   105.3476     9.6785     9.5445
  364.0000   104.4709     9.6134     9.5478
  364.5000   104.8802     9.5500     9.5504
  365.0000   106.6525     9.4208     9.5530
  365.5000   105.4737     9.3581     9.4888
  366.0000   104.5896     9.2958     9.3610
  366.5000   105.5330     9.2339     9.2981
  367.0000   107.0732     9.1725     9.1722
  367.5000   108.3114     9.1114     9.0480
  368.0000   109.2474     8.9887     8.8643
  368.5000   110.4855     8.7446     8.7443
  369.0000   110.8173     8.4482     8.6260
  369.5000   109.9406     8.2188     8.5648
  370.0000   106.9491     8.1069     8.3863
  370.5000   100.9305     7.9972     8.1666
  371.0000    97.6429     7.9999     8.1117
  371.5000   100.2297     8.0021     8.0577
  372.0000   104.0541     8.0602     8.0041
  372.5000   104.9901     8.1219     8.0068
  373.0000   104.7176     8.1780     8.0090
  373.5000   104.7473     8.2373     8.0112
  374.0000   105.9854     8.2970     8.0134
  374.5000   108.7341     8.2993     8.0156
  375.0000   111.1807     8.3015     8.0737
  375.5000   112.7210     8.4200     8.0759
  376.0000   112.1464     8.4811     8.1345
  376.5000   111.5718     8.5426     8.1392
  377.0000   110.9973     8.6645     8.2594
  377.5000   110.7149     8.7882     8.4399
  378.0000   110.1503     8.9137     8.6697
  378.5000   109.8248     8.9806     8.8548
  379.0000   109.0011     9.0506     9.1069
  379.5000   109.9446     9.1096     9.2370
  380.0000   112.6933     9.1121     9.3039
  380.5000   113.6293     9.0859     9.2414
  381.0000   112.7526     9.0533     9.1799
  381.5000   111.5738     8.9936     9.1188
  382.0000   110.3876     8.9961     9.0587
  382.5000   112.5395     8.9362     8.9983
  383.0000   114.9861     8.9387     8.8766
  383.5000   118.6411     8.9411     8.8175
  384.0000   119.2790     8.9435     8.7588
  384.5000   117.4381     8.9460     8.7613
  385.0000   111.9233     8.9484     8.7642
  385.5000   107.8911     8.9578     8.7666
  386.0000   107.0070     8.9533     8.7690
  386.5000   109.1589     8.9564     8.7714
  387.0000   111.3033     8.9584     8.7738
  387.5000   114.0520     8.9612     8.7762
  388.0000   115.8944     8.9010     8.7178
  388.5000   117.7368     8.8417     8.6592
  389.0000   119.2770     8.7835     8.7226
  389.5000   121.1194     8.7715     8.6644
  390.0000   122.0554     8.7268     8.6669
  390.5000   120.8766     8.7298     8.6092
  391.0000   118.7914     8.7322     8.5902
  391.5000   119.1762     8.7346     8.5542
  392.0000   121.3655     8.6764     8.5571
  392.5000   123.7143     8.5590     8.5595
  393.0000   118.9175     8.5020     8.5019
  393.5000   115.0197     8.3869     8.4453
  394.0000   112.6250     8.2734     8.2166
  394.5000   115.3811     8.1054     8.0492
  395.0000   117.5256     7.8853     7.9397
  395.5000   116.9436     7.6711     7.7785
  396.0000   115.1680     7.4628     7.5148
  396.5000   112.7808     7.2601     7.2601
  397.0000   111.9041     7.0630     6.9655
  397.5000   112.5380     6.9674     6.6365
  398.0000   113.8006     6.9210     6.4115
  398.5000   114.1079     6.9712     6.4636
