~VERSION INFORMATION
 VERS.                2.0:   CWLS LOG ASCII STANDARD - VERSION 2.0
 WRAP.                 NO:   ONE LINE PER DEPTH STEP
~WELL INFORMATION
#MNEM.UNIT      DATA TYPE    INFORMATION
#----------   ------------   ------------------------------
 STRT.F           32.5000:   START DEPTH
 STOP.F          654.0000:   STOP DEPTH
 STEP.F            0.5000:   STEP LENGTH
 NULL.          -999.2500:   NO VALUE
 COMP. FENIX & SCISSON INC:   COMPANY
 WELL.          NPR #13-2:   WELL
 FLD .             TEAPOT:   FIELD
 LOC .       S2 T38N R78W:   LOCATION
 CNTY.            NATRONA:   COUNTY
 STAT.            WYOMING:   STATE
 CTRY. UNITED STATES OF AMERICA:   COUNTRY
 SRVC.           BIRDWELL:   SERVICE COMPANY
 DATE.        16-JAN-1978:   LOGDATE
 API .       490251055100:   API NUMBER
~CURVE INFORMATION
#MNEM.UNIT       API CODE    CURVE DESCRIPTION
#----------   ------------   ------------------------------
 DEPT.F                  :   
 ILD .OHMM   05 120 46 00:   INDUCTION LOG DEEP
 SN  .OHMM   05 040 16 00:   SHORT NORMAL 16"
 SPR .MV     05 010 01 00:   SPONTANEOUS POTENTIAL FROM RES.
 CALD.IN     45 280 60 00:   CALIPER FROM DENSITY LOG
 CORR.G/C3   45 356 01 00:   DENSITY CORRECTION
 DPHI.DEC    45 890 12 00:   DENSITY POROSITY SANDSTONE
 GRD .GAPI   45 310 01 00:   GAMMA RAY FROM DENSITY LOG
 RHOB.G/C3   45 350 01 00:   BULK DENSITY
~PARAMETER INFORMATION
#MNEM.UNIT          VALUE    DESCRIPTION
#----------   ------------   ------------------------------
 PD  .                 GL:   PERMANENT DATUM
 EPD .F              5091:   ELEVATION PERMANENT DATUM
 LMF .                 KB:   LOG MEASURED FROM
 DAPD.F                 4:   FEET ABOVE PERMANENT DATUM
 DMF .                 KB:   DRILLING MEASURED FROM
 EKB .F              5095:   KELLING BUSHING
 EGL .F              5091:   GROUND LEVEL
 DATE.        16-JAN-1978:   RUN DATE
 RUN .                  1:   RUN NUMBER
 DD  .F               652:   DEPTH DRILLER
 DL  .F               654:   DEPTH LOGGER
 BLI .F               649:   BOTTOM LOG INTERVAL
 TLI .F                30:   TOP LOG INTERVAL
 CS  .IN            8.625:   CASING SIZE
 CBD .F                20:   CASING BOTTOM DRILLER
 CBL .F                34:   CASING BOTTOM LOGGER
 BS  .IN            7.875:   BIT SIZE
 BSD .F               652:   BIT SIZE AT DEPTH
 DFT .                KCL:   DRILLING FLUID TYPE
 DFD .                8.7:   DRILLING FLUID DENSITY
 DFV .                 34:   DRILLING FLUID VISCOSITY
 DFPH.                 10:   DRILLING FLUID PH
 MSS .           FLOWLINE:   MUD SAMPLE SOURCE
 RMS .OHMM            0.3:   RESISTIVITY MUD SAMPLE
 MST .F                62:   MUD SAMPLE TEMPERATURE
 RMF .OHMM           0.26:   RESISTIVITY MUD FILTRATE SAMPLE
 MFST.F                66:   MUD FILTRATE SAMPLE TEMPERATURE
 RMC .OHMM           0.48:   RESISTIVITY MUD CAKE
 MCST.F                66:   MUD CAKE SAMPLE TEMPERATURE
 MFSS.               MEAS:   MUD FILTRATE SAMPLE SOURCE
 MCSS.               MEAS:   MUD CAKE SAMPLE SOURCE
 RMB .OHMM           0.26:   RESISTIVITY MUD AT BHT
 BHT .F                72:   BOTTOM HOLE TEMPERATURE
 TCS .HRS               3:   TIME CURCULATED STOPPED
 MRT .F                72:   MAXIMUM RECORDED TEMPERATURE
 LUN .               3027:   LOGGING UNIT NUMBER
 LUL .                GJT:   LOGGING UNIT LOCATION
 ENGI.           MARTINEZ:   RECORDING ENGINEER
 WITN.         HARRINGTON:   WITNESSED BY
 CLNT.            A2DTECH:   CLIENT CODE
 ORIG.           5" PRINT:   ORIGIN OF DATA
 UWI .       490251055100:   UNIQUE WELL ID
 DICO. A2D Technologies, Inc.:   DIGITIZING COMPANY
~OTHER INFORMATION
~A   DEPT      ILD         SN        SPR       CALD       CORR       DPHI         GRD      RHOB   
# ...
  316.0000    10.1789    10.9502   -27.8380     8.7018     0.1302     0.1225    88.4717     2.4535
  316.5000    10.1093    10.8757   -28.1291     8.7024     0.1408     0.1202    89.8216     2.4550
  317.0000    10.0403    10.7272   -28.7224     8.7030     0.1469     0.1184    90.4161     2.4588
  317.5000     9.8350    10.6538   -29.3157     8.7036     0.1542     0.1172    90.7021     2.4617
  318.0000     9.6337    10.5813   -29.4603     8.7043     0.1617     0.1166    90.6798     2.4640
  318.5000     9.2428    10.4368   -29.4511     8.7049     0.1663     0.1172    89.9020     2.4640
  319.0000     8.7460    10.2915   -29.4438     8.7055     0.1693     0.1184    88.2124     2.4647
  319.5000     8.2153    10.0755   -29.4364     8.7061     0.1708     0.1208    84.2431     2.4655
  320.0000     8.1066     9.7422   -29.4291     8.7067     0.1679     0.1274    82.0871     2.4610
  320.5000     8.1073     9.4773   -29.4217     8.7072     0.1664     0.1382    82.1662     2.4505
  321.0000     8.0518     9.1561   -29.4144     8.6929     0.1649     0.1448    84.4889     2.4384
  321.5000     7.9418     8.8458   -29.3979     8.6934     0.1619     0.1478    86.5987     2.4279
  322.0000     7.8877     8.7250   -28.9489     8.7090     0.1620     0.1466    87.0367     2.4204
  322.5000     7.8337     8.6058   -28.4896     8.7096     0.1650     0.1413    84.4352     2.4167
  323.0000     7.8344     8.6661   -28.0318     8.7104     0.1680     0.1325    78.3383     2.4266
  323.5000     7.9992     8.7267   -28.0244     8.7407     0.1711     0.1256    74.6730     2.4435
  324.0000     8.2811     8.9719   -28.0171     8.7413     0.1727     0.1193    75.4150     2.4655
  324.5000     8.7527     9.2879   -28.0097     8.7420     0.1758     0.1100    81.4761     2.4700
  325.0000     9.2512     9.9530   -28.1544     8.7127     0.1787     0.1010    87.9932     2.4760
  325.5000     9.6437    10.5311   -28.1452     8.6983     0.1832     0.0987    90.7108     2.4835
  326.0000     9.9836    10.9776   -27.9877     8.6989     0.1847     0.0996    90.3890     2.4910
  326.5000    10.1234    11.2736   -27.9803     8.6995     0.1833     0.1005    88.2142     2.4940
  327.0000    10.1943    11.2744   -27.8228     8.7001     0.1773     0.1011    85.9027     2.4925
  327.5000    10.1821    11.2751   -27.8153     8.6855     0.1668     0.1011    84.8642     2.4910
  328.0000    10.2666    11.4328   -27.6562     8.6413     0.1563     0.0993    86.2096     2.4910
  328.5000    10.3385    11.5129   -27.6488     8.6269     0.1504     0.0959    89.3832     2.4925
  329.0000    10.3392    11.5935   -27.6415     8.5976     0.1324     0.0935    89.9777     2.4970
  329.5000    10.3399    11.6746   -27.6341     8.5683     0.1174     0.0912    86.6119     2.5030
  330.0000    10.3406    11.8379   -27.7788     8.5689     0.1114     0.1035    85.3826     2.5120
  330.5000    10.4131    11.9208   -27.7696     8.5696     0.0964     0.1149    90.5274     2.5009
  331.0000    10.5588    11.9216   -27.9142     8.5550     0.0769     0.1185    91.4259     2.4730
  331.5000    10.6328    11.9224   -27.9050     8.5558     0.0529     0.1197    89.4278     2.4647
  332.0000    10.6335    11.9232   -27.8977     8.5713     0.0392     0.1185    89.8658     2.4647
  332.5000    10.7080    12.0069   -27.8903     8.5719     0.0275     0.1158    91.3677     2.4662
  333.0000    10.7831    12.0077   -27.8829     8.5725     0.0275     0.1131    91.6626     2.4715
  333.5000    10.8586    12.0918   -27.8754     8.5881     0.0305     0.1104    91.2898     2.4760
  334.0000    10.8594    12.0926   -28.0166     8.6036     0.0336     0.1137    87.6621     2.4790
  334.5000    10.8479    12.0934   -28.0092     8.6042     0.0276     0.1167    87.1883     2.4760
  335.0000    10.7117    12.0108   -28.1539     8.6347     0.0216     0.1200    87.3269     2.4625
  335.5000    10.6386    12.0951   -28.1447     8.6353     0.0126     0.1215    88.5203     2.4550
  336.0000    10.4211    12.0124   -28.1381     8.6509     0.0097     0.1203    90.0222     2.4557
  336.5000    10.3498    12.0134   -28.1300     8.6541     0.0097     0.1173    90.7642     2.4618
  337.0000    10.2791    11.9315   -28.1227     8.6672     0.0112     0.1146    90.1384     2.4678
  337.5000    10.2090    11.9323   -28.2658     8.6977     0.0158     0.1125    82.9776     2.4717
  338.0000    10.1394    11.7693   -28.4084     8.6983     0.0218     0.1119    82.9597     2.4760
  338.5000    10.0009    11.6086   -28.5511     8.7138     0.0248     0.1155    83.8688     2.4767
  339.0000     9.8643    11.3714   -28.6939     8.7144     0.0279     0.1179    81.5561     2.4737
  339.5000     9.5958    11.2161   -28.8634     8.7150     0.0279     0.1215    82.6536     2.4730
  340.0000     9.4647    10.9868   -29.2779     8.7156     0.0279     0.1239    86.4032     2.4707
  340.5000     9.5310    10.7621   -29.5727     8.7312     0.0220     0.1248    87.4250     2.4595
  341.0000     9.5978    10.6885   -29.8638     8.7318     0.0160     0.1245    88.3190     2.4535
  341.5000     9.7418    10.4700   -29.8565     8.7323     0.0175     0.1248    89.8209     2.4535
  342.0000     9.8685    10.1854   -29.9993     8.7329     0.0266     0.1296    90.7148     2.4520
  342.5000     9.8691     9.9084   -30.4424     8.7335     0.0311     0.1383    90.6969     2.4437
  343.0000     9.5344     9.6390   -30.4350     8.7342     0.0311     0.1458    89.4632     2.4354
  343.5000     9.2110     9.3123   -30.5781     8.7348     0.0341     0.1572    88.9894     2.4217
  344.0000     8.6559     8.7467   -31.3212     8.7354     0.0417     0.1740    89.7314     2.4080
  344.5000     8.1342     8.2610   -32.0716     8.7360     0.0492     0.1857    91.8411     2.3859
  345.0000     7.4354     7.3135   -32.6777     8.7366     0.0568     0.1935    92.1429     2.3619
  345.5000     6.7966     6.6397   -32.8007     8.7221     0.0658     0.2067    89.9817     2.3476
  346.0000     6.0433     6.1118   -32.7915     8.7228     0.0778     0.2181    89.3556     2.3258
  346.5000     5.5624     5.6648   -32.7842     8.7234     0.0884     0.2307    89.3769     2.2995
  347.0000     5.3000     5.2506   -32.7768     8.7240     0.1019     0.2361    90.8354     2.2808
  347.5000     5.0499     5.0726   -32.7695     8.7246     0.1155     0.2355    91.1259     2.2718
  348.0000     4.9466     5.0730   -32.7621     8.7251     0.1277     0.2255    90.4956     2.2763
  348.5000     4.9812     5.1085   -32.6046     8.7257     0.1365     0.1943    87.4382     2.2928
  349.0000     5.1213     5.2159   -32.4471     8.7263     0.1351     0.1727    81.0904     2.3153
  349.5000     5.2653     5.3996   -32.1395     8.7420     0.1366     0.1585    73.9775     2.3416
  350.0000     5.4408     5.6675   -31.5312     8.7426     0.1458     0.1468    79.4118     2.3784
  350.5000     5.7762     5.8263   -30.3256     8.7403     0.1664     0.1297    87.0361     2.4122
  351.0000     6.5244     6.3300   -30.1711     8.7375     0.1877     0.1111    90.0573     2.4557
  351.5000     7.2375     6.8299   -30.1667     8.7348     0.1908     0.1153    91.4925     2.4794
  352.0000     7.7022     7.6811   -30.0120     8.7320     0.1419     0.1210    89.3853     2.4647
  352.5000     8.0285     8.5790   -30.1580     8.7292     0.1246     0.1213    86.9765     2.4610
  353.0000     8.1968     9.1996   -30.1525     8.7264     0.1306     0.1186    85.6235     2.4610
  353.5000     8.3109     9.6599   -29.9980     8.7237     0.1396     0.1162    87.8903     2.4625
  354.0000     8.3109     9.9874   -30.1449     8.7209     0.1456     0.1150    92.4196     2.4640
  354.5000     8.3109    10.0567   -30.2907     8.7181     0.1486     0.1180    94.5357     2.4640
  355.0000     8.3109    10.0567   -30.4354     8.7154     0.1502     0.1192    94.0876     2.4640
  355.5000     8.3109     9.9874   -30.5811     8.7126     0.1486     0.1189    95.1479     2.4595
  356.0000     8.3109     9.8504   -30.7269     8.7098     0.1426     0.1213    94.5310     2.4550
