~VERSION INFORMATION
 VERS.                2.0:   CWLS LOG ASCII STANDARD - VERSION 2.0
 WRAP.                 NO:   ONE LINE PER DEPTH STEP
~WELL INFORMATION
#MNEM.UNIT      DATA TYPE    INFORMATION
#----------   ------------   ------------------------------
 STRT.F           30.0000:   START DEPTH
 STOP.F          715.0000:   STOP DEPTH
 STEP.F            0.5000:   STEP LENGTH
 NULL.          -999.2500:   NO VALUE
 COMP. FENIX & SCISSON INC:   COMPANY
 WELL.   NPR-3 #84SX15-15:   WELL
 FLD .             TEAPOT:   FIELD
 LOC .      S15 T38N R78W:   LOCATION
 CNTY.            NATRONA:   COUNTY
 STAT.            WYOMING:   STATE
 CTRY. UNITED STATES OF AMERICA:   COUNTRY
 SRVC.            Unknown:   SERVICE COMPANY
 DATE.        15-MAY-1978:   LOGDATE
 API .       490251064000:   API NUMBER
~CURVE INFORMATION
#MNEM.UNIT       API CODE    CURVE DESCRIPTION
#----------   ------------   ------------------------------
 DEPT.F                  :   
 SPR .MV     05 010 01 00:   SPONTANEOUS POTENTIAL FROM RES.
 SN  .OHMM   05 040 16 00:   SHORT NORMAL 16"
 ILD .OHMM   05 120 46 00:   INDUCTION LOG DEEP
 CALD.IN     45 280 60 00:   CALIPER FROM DENSITY LOG
 GRD .GAPI   45 310 01 00:   GAMMA RAY FROM DENSITY LOG
 CORR.G/C3   45 356 01 00:   DENSITY CORRECTION
 DPHI.DEC    45 890 12 00:   DENSITY POROSITY SANDSTONE
 DEN .G/C3   45 350 01 00:   COMPENSATED BULK DENSITY
~PARAMETER INFORMATION
#MNEM.UNIT          VALUE    DESCRIPTION
#----------   ------------   ------------------------------
 PD  .                 GL:   PERMANENT DATUM
 EPD .F              5247:   ELEVATION PERMANENT DATUM
 LMF .                 KB:   LOG MEASURED FROM
 DMF .                 KB:   DRILLING MEASURED FROM
 EKB .F              5251:   KELLING BUSHING
 EGL .F              5247:   GROUND LEVEL
 DATE.        15-MAY-1978:   RUN DATE
 RUN .                  1:   RUN NUMBER
 DD  .F               725:   DEPTH DRILLER
 DL  .F               720:   DEPTH LOGGER
 BLI .F               713:   BOTTOM LOG INTERVAL
 TLI .F                40:   TOP LOG INTERVAL
 CS  .IN            8.625:   CASING SIZE
 CBD .F                40:   CASING BOTTOM DRILLER
 CBL .F                40:   CASING BOTTOM LOGGER
 BS  .IN            7.875:   BIT SIZE
 BSD .F               725:   BIT SIZE AT DEPTH
 DFT .                KCL:   DRILLING FLUID TYPE
 DFD .                8.6:   DRILLING FLUID DENSITY
 DFV .                 33:   DRILLING FLUID VISCOSITY
 DFPH.                9.5:   DRILLING FLUID PH
 DFL .                 12:   DRILLING FLUID LOSS
 MSS .           FLOWLINE:   MUD SAMPLE SOURCE
 RMS .OHMM             .2:   RESISTIVITY MUD SAMPLE
 MST .F                80:   MUD SAMPLE TEMPERATURE
 RMF .OHMM            .18:   RESISTIVITY MUD FILTRATE SAMPLE
 MFST.F                83:   MUD FILTRATE SAMPLE TEMPERATURE
 RMC .OHMM            .26:   RESISTIVITY MUD CAKE
 MCST.F                83:   MUD CAKE SAMPLE TEMPERATURE
 MFSS.               MEAS:   MUD FILTRATE SAMPLE SOURCE
 RMB .OHMM             .2:   RESISTIVITY MUD AT BHT
 BHT .F                80:   BOTTOM HOLE TEMPERATURE
 TCS .HRS            0200:   TIME CURCULATED STOPPED
 MRT .F                80:   MAXIMUM RECORDED TEMPERATURE
 LUN .               3006:   LOGGING UNIT NUMBER
 LUL .               CASP:   LOGGING UNIT LOCATION
 ENGI.             MILLER:   RECORDING ENGINEER
 WITN.           MCGINLEY:   WITNESSED BY
 CLNT.            A2DTECH:   CLIENT CODE
 ORIG.           5" PRINT:   ORIGIN OF DATA
 UWI .       490251064000:   UNIQUE WELL ID
 DICO. A2D Technologies, Inc.:   DIGITIZING COMPANY
~OTHER INFORMATION
~A   DEPT      SPR         SN        ILD       CALD         GRD      CORR       DPHI        DEN   
# ...
  394.5000   -44.3940     6.3561     6.3560     7.3700    84.0090     0.0163     0.1358     2.4495
  395.0000   -44.4134     6.3114     6.3113     7.3550    80.8434     0.0117     0.1376     2.4525
  395.5000   -44.4389     6.2670     6.1809     7.3250    77.9789     0.0162     0.1421     2.4465
  396.0000   -44.4644     6.1375     6.0532     7.2949    76.1687     0.0177     0.1457     2.4442
  396.5000   -44.4898     6.0107     5.9692     7.2799    76.3163     0.0221     0.1367     2.4442
  397.0000   -44.5153     5.9273     5.8459     7.2348    77.3675     0.0221     0.1358     2.4464
  397.5000   -44.5408     5.8048     5.7648     7.2349    79.1717     0.0220     0.1353     2.4517
  398.0000   -44.5663     5.7641     5.6848     7.2502    87.0000     0.0235     0.1302     2.4584
  398.5000   -44.5918     5.7235     5.6840     7.2956    86.3946     0.0234     0.1242     2.4666
  399.0000   -44.6173     5.7228     5.6833     7.4166    85.6386     0.0234     0.1194     2.4734
  399.5000   -44.6427     5.7617     5.6825     7.4319    80.2133     0.0234     0.1218     2.4779
  400.0000   -44.6682     5.8009     5.7503     7.4169    76.6707     0.0233     0.1257     2.4786
  400.5000   -44.6937     5.9510     5.9259     7.4309    75.7532     0.0215     0.1248     2.4714
  401.0000   -44.7192     6.0885     6.1308     7.4458    74.7767     0.0197     0.1296     2.4651
  401.5000   -44.7447     6.1733     6.1733     7.4604    74.9228     0.0188     0.1284     2.4620
  402.0000   -44.7702     6.2162     6.1733     7.4295    73.7106     0.0188     0.1306     2.4582
  402.5000   -44.7956     6.2593     6.2162     7.3987    73.0346     0.0171     0.1342     2.4536
  403.0000   -44.8210     6.3027     6.2162     7.3528    76.7107     0.0125     0.1390     2.4506
  403.5000   -44.8225     6.3465     6.2162     7.3975    79.5662     0.0068     0.1453     2.4423
  404.0000   -44.8164     6.3465     6.2162     7.5782    84.3795     0.0068     0.1477     2.4378
  404.5000   -44.8103     6.3465     6.2593     7.5927    84.3735     0.0098     0.1384     2.4362
  405.0000   -44.8042     6.3027     6.2593     7.5770    82.5453     0.0188     0.1381     2.4407
  405.5000   -44.7981     6.1733     6.2162     7.5764    80.8870     0.0308     0.1406     2.4475
  406.0000   -44.7921     6.0885     6.0466     7.5758    79.8213     0.0308     0.1418     2.4504
  406.5000   -44.7860     5.9635     5.9635     7.5752    79.5301     0.0263     0.1379     2.4504
  407.0000   -44.7799     5.9225     5.9635     7.5746    79.0723     0.0248     0.1370     2.4504
  407.5000   -44.7738     5.9635     5.9225     7.5740    79.0651     0.0263     0.1406     2.4496
  408.0000   -44.7677     5.9225     5.8816     7.5281    78.9085     0.0308     0.1358     2.4496
  408.5000   -44.7617     5.9225     5.8411     7.5123    78.4507     0.0368     0.1274     2.4525
  409.0000   -44.7556     5.7609     5.8009     7.4664    78.4448     0.0414     0.1358     2.4653
  409.5000   -44.7495     5.5268     5.6426     7.4658    77.8364     0.0293     0.1467     2.4616
  410.0000   -44.7434     5.3390     5.4509     7.4501    77.0774     0.0188     0.1608     2.4346
  410.5000   -44.7373     5.1575     5.1933     7.4042    78.5775     0.0173     0.1641     2.4197
  411.0000   -44.7313     5.0168     5.0516     7.4036    78.4209     0.0188     0.1635     2.4103
  411.5000   -44.7252     4.8800     4.9138     7.4030    77.3607     0.0233     0.1623     2.4058
  412.0000   -44.7191     4.7468     4.7468     7.4024    76.4511     0.0188     0.1563     2.4080
  412.5000   -44.7130     4.6817     4.7141     7.4018    74.9391     0.0128     0.1446     2.4162
  413.0000   -44.7069     4.6494     4.7468     7.4012    74.1802     0.0128     0.1350     2.4260
  413.5000   -44.7020     4.7468     4.8463     7.3855    74.6260     0.0128     0.1347     2.4410
  414.0000   -44.8542     4.9479     5.1220     7.3849    75.3730     0.0128     0.1356     2.4522
  414.5000   -44.8557     5.3390     5.4133     7.3541    77.0237     0.0128     0.1339     2.4559
  415.0000   -45.0075     5.5651     5.6426     7.3535    79.4274     0.0128     0.1348     2.4559
  415.5000   -45.0090     5.8009     5.8411     7.3378    81.5298     0.0143     0.1360     2.4544
  416.0000   -44.8601     6.0049     6.0466     7.3372    80.7708     0.0173     0.1345     2.4536
  416.5000   -44.8617     6.1308     6.1733     7.3366    78.9576     0.0173     0.1252     2.4566
  417.0000   -44.8631     6.3027     6.3027     7.3360    77.8975     0.0188     0.1264     2.4648
  417.5000   -44.8602     6.3465     6.3027     7.3354    76.9879     0.0188     0.1270     2.4708
  418.0000   -44.8385     6.3465     6.3465     7.3348    76.8294     0.0188     0.1273     2.4707
  418.5000   -44.8168     6.3465     6.3465     7.3189    78.3314     0.0188     0.1249     2.4715
  419.0000   -44.7952     6.3465     6.3905     7.3183    78.9278     0.0188     0.1214     2.4737
  419.5000   -44.7735     6.4348     6.4795     7.2573    78.9217     0.0188     0.1238     2.4759
  420.0000   -44.7519     6.5697     6.5697     7.1661    78.9358     0.0188     0.1262     2.4744
  420.5000   -44.7302     6.6153     6.7074     7.1352    79.3617     0.0188     0.1277     2.4706
  421.0000   -44.7086     6.6153     6.8008     7.1499    79.0530     0.0188     0.1274     2.4698
  421.5000   -44.6869     6.6153     6.8008     7.2097    77.6916     0.0233     0.1253     2.4705
  422.0000   -44.6653     6.6153     6.8008     7.2392    75.1254     0.0293     0.1139     2.4768
  422.5000   -44.6436     6.6153     6.7540     7.2538    75.8725     0.0293     0.1142     2.4878
  423.0000   -44.6219     6.6260     6.7540     7.2229    80.5352     0.0233     0.1154     2.4861
  423.5000   -44.6003     6.6445     6.7540     7.2072    85.9509     0.0188     0.1169     2.4854
  424.0000   -44.5834     6.6629     6.7540     7.1915    86.6994     0.0173     0.1185     2.4847
  424.5000   -44.7354     6.6813     6.7540     7.1455    80.6679     0.0143     0.1203     2.4846
  425.0000   -44.7370     6.6997     6.7074     7.0845    78.4029     0.0143     0.1209     2.4854
  425.5000   -44.7384     6.7540     6.7074     7.1292    78.2463     0.0143     0.1194     2.4853
  426.0000   -44.7399     6.7074     6.7074     7.1439    78.2403     0.0143     0.1170     2.4853
  426.5000   -44.7384     6.7210     6.7074     7.1280    76.7283     0.0143     0.1140     2.4860
  427.0000   -44.7164     6.7336     6.7540     7.0821    76.4227     0.0143     0.1149     2.4869
  427.5000   -44.6945     6.7462     6.7540     7.0211    77.6200     0.0128     0.1152     2.4875
  428.0000   -44.6725     6.7588     6.7540     7.0054    80.4755     0.0128     0.1113     2.4882
  428.5000   -44.6506     6.7714     6.7540     6.9897    80.6216     0.0128     0.1083     2.4919
  429.0000   -44.6286     6.7840     6.7540     6.9135    78.8069     0.0128     0.1060     2.4971
  429.5000   -44.6066     6.7966     6.7540     6.8827    75.0359     0.0128     0.1064     2.4978
  430.0000   -44.6015     6.8008     6.6612     6.8519    80.3010     0.0128     0.1115     2.5023
  430.5000   -44.9038     6.7074     6.6153     6.8513    84.8131     0.0128     0.1151     2.5143
  431.0000   -44.8804     6.6153     6.4795     6.8507    85.4097     0.0128     0.1172     2.5173
  431.5000   -44.8288     6.5697     6.4348     6.8805    85.2530     0.0128     0.1195     2.5097
  432.0000   -44.7772     6.4795     6.3905     6.8948    83.1289     0.0128     0.1196     2.4827
  432.5000   -44.7256     6.3905     6.3027     6.9244    81.7771     0.0143     0.1199     2.4751
  433.0000   -44.6739     6.3027     6.2593     6.9390    81.9218     0.0158     0.1223     2.4736
  433.5000   -44.6123     6.2593     6.1276     6.9081    81.1069     0.0158     0.1364     2.4698
  434.0000   -44.7642     6.2162     5.9840     6.9075    80.5545     0.0173     0.1400     2.4517
  434.5000   -44.9161     6.0885     5.8404     6.9372    83.4084     0.0188     0.1400     2.4427
