~VERSION INFORMATION
 VERS.                2.0:   CWLS LOG ASCII STANDARD - VERSION 2.0
 WRAP.                 NO:   ONE LINE PER DEPTH STEP
~WELL INFORMATION
#MNEM.UNIT      DATA TYPE    INFORMATION
#----------   ------------   ------------------------------
 STRT.F           30.0000:   START DEPTH
 STOP.F          506.0000:   STOP DEPTH
 STEP.F            0.5000:   STEP LENGTH
 NULL.          -999.2500:   NO VALUE
 COMP. FENIX & SCISSON INC:   COMPANY
 WELL.    42 SX-3F1 #55-3:   WELL
 FLD .             TEAPOT:   FIELD
 LOC .       S3 T38N R78W:   LOCATION
 CNTY.            NATRONA:   COUNTY
 STAT.            WYOMING:   STATE
 CTRY. UNITED STATES OF AMERICA:   COUNTRY
 SRVC.              Welex:   SERVICE COMPANY
 DATE.        26-MAY-1980:   LOGDATE
 API .       490251082900:   API NUMBER
~CURVE INFORMATION
#MNEM.UNIT       API CODE    CURVE DESCRIPTION
#----------   ------------   ------------------------------
 DEPT.F                  :   
 GRD .GAPI   45 310 01 00:   GAMMA RAY FROM DENSITY LOG
 CALD.IN     45 280 60 00:   CALIPER
 RHOB.G/C3   45 350 01 00:   BULK DENSITY
 CORR.G/C3   45 356 01 00:   DENSITY CORRECTION
 DPHI.DEC    45 890 12 00:   DENSITY POROSITY SANDSTONE
 NPHI.DEC    42 890 03 00:   NEUTRON POROSITY SANDSTONE
 GURD.OHMM   07 220 05 00:   GUARD RESISTIVITY
 ILD .OHMM   07 120 46 00:   INDUCTION LOG DEEP
 ILM .OHMM   07 120 44 00:   INDUCTION LOG MEDIUM
 SPR .MV     07 010 01 00:   SPONTANEOUS POTENTIAL
~PARAMETER INFORMATION
#MNEM.UNIT          VALUE    DESCRIPTION
#----------   ------------   ------------------------------
 PD  .                 GL:   PERMANENT DATUM
 EPD .F              5161:   ELEVATION PERMANENT DATUM
 LMF .                 KB:   LOG MEASURED FROM
 DAPD.F                 4:   FEET ABOVE PERMANENT DATUM
 DMF .                 KB:   DRILLING MEASURED FROM
 EKB .F              5165:   KELLING BUSHING
 EGL .F              5161:   GROUND LEVEL
 DATE.            5-26-80:   RUN DATE
 RUN .                  1:   RUN NUMBER
 DD  .F               500:   DEPTH DRILLER
 DL  .F               502:   DEPTH LOGGER
 BLI .F               500:   BOTTOM LOG INTERVAL
 TLI .F                34:   TOP LOG INTERVAL
 BS  .IN            9.875:   BIT SIZE
 BSD .F               500:   BIT SIZE AT DEPTH
 DFT .          KCL WATER:   DRILLING FLUID TYPE
 DFD .                9.5:   DRILLING FLUID DENSITY
 DFV .                 45:   DRILLING FLUID VISCOSITY
 MSS .            MUD PIT:   MUD SAMPLE SOURCE
 RMS .OHMM            .39:   RESISTIVITY MUD SAMPLE
 MST .F                75:   MUD SAMPLE TEMPERATURE
 RMF .OHMM           .312:   RESISTIVITY MUD FILTRATE SAMPLE
 MFST.F                75:   MUD FILTRATE SAMPLE TEMPERATURE
 RMC .OHMM           .468:   RESISTIVITY MUD CAKE
 MCST.F                75:   MUD CAKE SAMPLE TEMPERATURE
 MFSS.           MEASURED:   MUD FILTRATE SAMPLE SOURCE
 MCSS.           MEASURED:   MUD CAKE SAMPLE SOURCE
 RMB .OHMM            .39:   RESISTIVITY MUD AT BHT
 BHT .F                75:   BOTTOM HOLE TEMPERATURE
 TCS .HRS               2:   TIME CURCULATED STOPPED
 MRT .F                75:   MAXIMUM RECORDED TEMPERATURE
 LUN .               9685:   LOGGING UNIT NUMBER
 LUL .             CASPER:   LOGGING UNIT LOCATION
 ENGI.            TOTHILL:   RECORDING ENGINEER
 WITN.            RHOADES:   WITNESSED BY
 CLNT.            A2DTECH:   CLIENT CODE
 ORIG.           5" PRINT:   ORIGIN OF DATA
 UWI .       490251082900:   UNIQUE WELL ID
 DICO. A2D Technologies, Inc.:   DIGITIZING COMPANY
~OTHER INFORMATION
~A   DEPT      GRD       CALD       RHOB       CORR         DPHI       NPHI      GURD        ILD        ILM       SPR   
# ...
  465.5000   151.9664     9.8759     2.4942     0.0132     0.1074     0.2443    13.1650    10.3542    11.1022   -25.5286
  466.0000   157.4689     9.8722     2.5149     0.0424     0.0962     0.2406    12.5845    10.2494    11.0677   -25.5658
  466.5000   162.8259     9.8685     2.5219     0.0401     0.0979     0.2374    12.6303    10.1457    10.8404   -25.6031
  467.0000   167.4708     9.8649     2.5138     0.0282     0.1023     0.2426    12.7049    10.0420    10.6255   -25.6403
  467.5000   172.5745     9.8611     2.5024     0.0165     0.1081     0.2467    12.1777     9.8302    10.4139   -25.6776
  468.0000   172.6169     9.8575     2.4996     0.0263     0.0946     0.2456    11.4768     9.5549    10.3512   -25.7148
  468.5000   170.2909     9.8504     2.5212     0.0498     0.0982     0.2382    11.5715     9.2974    10.3174   -25.7521
  469.0000   167.9913     9.8411     2.5029     0.0251     0.1038     0.2372    11.7853     9.3338    10.2837   -25.7890
  469.5000   165.8128     9.8317     2.5369     0.0458     0.0863     0.2362    11.9105     9.3831    10.2502   -25.8282
  470.0000   157.6780     9.8224     2.5357     0.0526     0.0926     0.2389    11.4269     9.2607    10.2167   -25.7282
  470.5000   144.3315     9.8131     2.5306     0.0474     0.0899     0.2458    11.1697     9.0671    10.1737   -25.5527
  471.0000   127.0757     9.8038     2.5205     0.0504     0.0998     0.2578    11.2950     8.8776    10.0963   -25.4467
  471.5000   119.3599     9.7956     2.5070     0.0381     0.1041     0.2862    11.3765     8.6920    10.0196   -25.4477
  472.0000   112.4346     9.7906     2.5028     0.0339     0.1058  -999.2500    11.1307     8.5102     9.9434   -25.4475
  472.5000   105.8145     9.7855     2.5238     0.0453     0.0964  -999.2500    10.8935     8.3942     9.8679   -25.4476
  473.0000   100.7278     9.7807     2.5291     0.0409     0.0892  -999.2500    10.6615     8.3677     9.7929   -25.4476
  473.5000    99.9436     9.7841     2.5442     0.0634     0.0835  -999.2500    10.5704     8.3419     9.7238   -25.4476
  474.0000    99.7076     9.8137     2.5306     0.0453     0.0914  -999.2500    10.6408     8.3160     9.6758   -25.4476
  474.5000    99.5540     9.8422     2.5292     0.0466     0.0926  -999.2500    10.7110     8.2900     9.6281   -25.4476
  475.0000    99.3983     9.8706     2.5345     0.0457     0.0879  -999.2500    10.7814     8.2642     9.5805   -25.4476
  475.5000    99.2128     9.8991     2.5105     0.0194     0.1022  -999.2500    10.8521     8.2384     9.5332   -25.4476
  476.0000    98.8620     9.9289     2.5219     0.0299     0.0971  -999.2500    10.9233     8.2127     9.4862   -25.4476
  476.5000    98.5053     9.9155     2.5252     0.0348     0.0918  -999.2500    10.9659     8.1872     9.4394   -25.4476
  477.0000    98.1452     9.8894     2.5181     0.0308     0.0986  -999.2500    10.6389     8.1768     9.3927   -25.4476
  477.5000    97.8058     9.8629     2.5111     0.0236     0.1022  -999.2500    10.4088     8.2522     9.3408   -25.4476
  478.0000    98.2986     9.8366     2.5023     0.0169     0.0982  -999.2500    10.1844     8.1435     9.2698   -25.4476
  478.5000    98.8703     9.8102     2.4920     0.0028     0.1209  -999.2500    10.0020     8.0533     9.1994   -25.4476
  479.0000    98.3838     9.7837     2.4812    -0.0165     0.1190  -999.2500     9.9837     7.9642     9.1295   -25.4476
  479.5000    97.6405     9.7585     2.4842    -0.0121     0.1181  -999.2500     9.9654     7.8760     9.0601   -25.4476
  480.0000    96.9076     9.7690     2.4847    -0.0159     0.1137  -999.2500     9.9472     7.7888     8.9912   -25.4476
  480.5000    96.2621     9.7811     2.4933    -0.0013     0.1175  -999.2500     9.9290     7.7026     8.9229   -25.4477
  481.0000    96.2164     9.7931     2.4820     0.0075     0.1190  -999.2500     9.8813     7.6172     8.8551   -25.4478
  481.5000    96.1521     9.8051     2.4845     0.0106     0.1201  -999.2500     9.6980     7.5362     8.7878   -25.4468
  482.0000    96.0902     9.8163     2.4855     0.0146     0.0940  -999.2500     9.5181     7.4570     8.7191   -25.3881
  482.5000    96.0274     9.8166     2.5245     0.0430     0.0819  -999.2500     9.3415     7.3787     8.6227   -25.2231
  483.0000  -999.2500     9.8166     2.5441     0.0639     0.0891  -999.2500     9.1284     7.3011     8.5246   -25.0592
  483.5000  -999.2500     9.8166     2.5306     0.0529     0.0950  -999.2500     9.1397     7.2244     8.4277   -24.8878
  484.0000  -999.2500     9.8165     2.5262     0.0435     0.0966  -999.2500     9.1596     6.9360     8.3320   -25.0215
  484.5000  -999.2500     9.8170     2.5173     0.0558     0.1098  -999.2500     9.1796     6.5070     8.2380   -25.2336
  485.0000  -999.2500     9.8258     2.4991     0.0422     0.1065  -999.2500     9.1996     6.2463     8.0347   -25.4485
  485.5000  -999.2500     9.8345     2.5044     0.0506     0.1019  -999.2500     9.2125     6.1154     7.6532   -25.6614
  486.0000  -999.2500     9.8431     2.5123     0.0544     0.1037  -999.2500     8.3282     5.9851     7.2898   -25.8186
  486.5000  -999.2500     9.8518     2.5177     0.0540     0.0869  -999.2500     5.6997     5.8646     6.9961   -25.6292
  487.0000  -999.2500     9.8593     2.5354     0.0613     0.0870  -999.2500     5.0747     5.7846     7.3510   -25.4428
  487.5000  -999.2500     9.8660     2.5383     0.0499     0.0855  -999.2500     8.8984     5.7175     7.7425   -25.2588
  488.0000  -999.2500     9.8727     2.5393     0.0428     0.0854  -999.2500     9.5856     5.9366     8.1768   -25.2498
  488.5000  -999.2500     9.8793     2.5363     0.0404     0.0932  -999.2500     9.9763     6.1336     8.1789   -25.2508
  489.0000  -999.2500     9.8859     2.5235     0.0333     0.0966  -999.2500    10.0976     6.3380     8.5360   -25.2511
  489.5000  -999.2500     9.8926     2.5192     0.0217     0.1004  -999.2500    10.5055     6.5597     8.9489   -25.2511
  490.0000  -999.2500     9.8942     2.5180     0.0217     0.1058  -999.2500    10.9558     6.8972     9.2330   -25.2511
  490.5000  -999.2500     9.8922     2.5026     0.0124     0.1040  -999.2500    11.1697     7.2722     9.3022   -25.2511
  491.0000  -999.2500     9.8900     2.5048     0.0107     0.1013  -999.2500    11.1295     7.6681     9.3697   -25.2511
  491.5000  -999.2500     9.8879     2.5146     0.0191     0.0969  -999.2500    11.0996     8.0336     9.4695   -25.2511
  492.0000  -999.2500     9.8858     2.5166     0.0261     0.0954  -999.2500    11.0677     8.0746     9.4424   -25.2510
  492.5000  -999.2500     9.8837     2.5288     0.0262     0.0933  -999.2500    11.1580     8.1158     9.3917   -25.2511
  493.0000  -999.2500     9.8816     2.5236     0.0300     0.0930  -999.2500    11.2557     8.1572     9.3412   -25.2508
  493.5000  -999.2500     9.8795     2.5301     0.0306     0.0981  -999.2500    11.3543     8.1988     9.2974   -25.3252
  494.0000  -999.2500     9.8773     2.5175     0.0380     0.1015  -999.2500    11.4814     8.2522     9.2974   -25.4651
  494.5000  -999.2500     9.8719     2.5017     0.0281     0.0974  -999.2500    11.3098     8.0010     9.2740   -25.6111
  495.0000  -999.2500     9.8534     2.4956     0.0331     0.0887  -999.2500    11.0788     7.6664     9.2294   -25.5163
  495.5000  -999.2500     9.8352     2.5358     0.0472     0.0986  -999.2500    10.9503     7.2576     9.1848   -25.2726
  496.0000  -999.2500     9.8172     2.5194     0.0433     0.1053  -999.2500    10.9251     7.2657     9.1403   -24.9812
  496.5000  -999.2500     9.7991     2.5065     0.0331  -999.2500  -999.2500    10.8954     7.2816     9.1284   -24.4129
  497.0000  -999.2500     9.7810     2.4978     0.0319  -999.2500  -999.2500    10.8789     7.2975     9.5085   -23.8356
  497.5000  -999.2500     9.7627     2.5022     0.0412  -999.2500  -999.2500    10.0212     7.3134     9.8235   -23.2601
  498.0000  -999.2500     9.7575     2.5367     0.0771  -999.2500  -999.2500    12.5845     7.3920     9.2863   -21.8177
  498.5000  -999.2500  -999.2500  -999.2500  -999.2500  -999.2500  -999.2500    11.1697     7.7413     9.0450   -20.0195
