~VERSION INFORMATION
 VERS.                2.0:   CWLS LOG ASCII STANDARD - VERSION 2.0
 WRAP.                 NO:   ONE LINE PER DEPTH STEP
~WELL INFORMATION
#MNEM.UNIT      DATA TYPE    INFORMATION
#----------   ------------   ------------------------------
 STRT.F            0.0000:   START DEPTH
 STOP.F         4112.0000:   STOP DEPTH
 STEP.F            0.5000:   STEP LENGTH
 NULL.          -999.2500:   NO VALUE
 COMP. LAWRENCE-ALLISON &AS:   COMPANY
 WELL. N P R 3-76-1-SX #3-3:   WELL
 FLD .          N.P.R. #3:   FIELD
 LOC .       S3 T38N R78W:   LOCATION
 CNTY.            NATRONA:   COUNTY
 STAT.            WYOMING:   STATE
 CTRY. UNITED STATES OF AMERICA:   COUNTRY
 SRVC.      Dresser Atlas:   SERVICE COMPANY
 DATE.        04-SEP-1983:   LOGDATE
 API .       490251093100:   API NUMBER
~CURVE INFORMATION
#MNEM.UNIT       API CODE    CURVE DESCRIPTION
#----------   ------------   ------------------------------
 DEPT.F                  :   
 DEN .G/C3   45 350 01 00:   COMPENSATED BULK DENSTIY
 CORR.G/C3   45 356 01 00:   DENSITY CORRECTION
 PORD.DEC    45 890 12 00:   POROSITY DENSITY SANDSTONE
 CNC .DEC    42 890 03 00:   NEUTRON POROSITY SANDSTONE
 SPR .MV     07 010 01 00:   SPONTANEOUS POTENTIAL
 GRR .GAPI   07 310 01 00:   GAMMA RAY FROM RES. LOG.
 RFOC.OHMM   07 220 04 00:   RESISTIVITY FOCUSED LOG
 CALD.IN     45 280 60 00:   CALIPER
 AC  .US/F   60 520 00 00:   ACOUSTIC SONIC
 RILD.OHMM   07 120 46 00:   INDUCTION LOG DEEP RESISTIVITY
 RILM.OHMM   07 120 44 00:   INDUCTION LOG MEDIUM RESISTIVITY
~PARAMETER INFORMATION
#MNEM.UNIT          VALUE    DESCRIPTION
#----------   ------------   ------------------------------
 PD  .                 GL:   PERMANENT DATUM
 EPD .F              5147:   ELEVATION PERMANENT DATUM
 LMF .                 KB:   LOG MEASURED FROM
 DAPD.F                10:   FEET ABOVE PERMANENT DATUM
 DMF .                 KB:   DRILLING MEASURED FROM
 EKB .F              5157:   KELLING BUSHING
 EGL .F              5147:   GROUND LEVEL
 DATE.             9-4-83:   RUN DATE
 RUN .                  1:   RUN NUMBER
 DD  .F              4119:   DEPTH DRILLER
 DL  .F              4115:   DEPTH LOGGER
 BLI .F              4112:   BOTTOM LOG INTERVAL
 CS  .IN            9.625:   CASING SIZE
 CBD .F               491:   CASING BOTTOM DRILLER
 CBL .F               494:   CASING BOTTOM LOGGER
 BS  .IN             8.75:   BIT SIZE
 BSD .F              4119:   BIT SIZE AT DEPTH
 DFT .            KCL GEL:   DRILLING FLUID TYPE
 DFD .                8.9:   DRILLING FLUID DENSITY
 DFV .                 46:   DRILLING FLUID VISCOSITY
 DFPH.                  9:   DRILLING FLUID PH
 DFL .               13.6:   DRILLING FLUID LOSS
 MSS .            MUDTANK:   MUD SAMPLE SOURCE
 RMS .OHMM           .315:   RESISTIVITY MUD SAMPLE
 MST .F                92:   MUD SAMPLE TEMPERATURE
 RMF .OHMM            .25:   RESISTIVITY MUD FILTRATE SAMPLE
 MFST.F                84:   MUD FILTRATE SAMPLE TEMPERATURE
 RMC .OHMM             .4:   RESISTIVITY MUD CAKE
 MCST.F                92:   MUD CAKE SAMPLE TEMPERATURE
 MFSS.                  M:   MUD FILTRATE SAMPLE SOURCE
 MCSS.                  C:   MUD CAKE SAMPLE SOURCE
 RMB .OHMM            .22:   RESISTIVITY MUD AT BHT
 BHT .F               132:   BOTTOM HOLE TEMPERATURE
 TCS .HRS               4:   TIME CURCULATED STOPPED
 MRT .F               132:   MAXIMUM RECORDED TEMPERATURE
 LUN .               6274:   LOGGING UNIT NUMBER
 LUL .               GLTE:   LOGGING UNIT LOCATION
 ENGI.             RAUTIO:   RECORDING ENGINEER
 WITN.             STRONG:   WITNESSED BY
 CLNT.            A2DTECH:   CLIENT CODE
 ORIG. 1", 2", 2.5", 5" PRINT:   ORIGIN OF DATA
 UWI .       490251093100:   UNIQUE WELL ID
 DICO. A2D Technologies, Inc.:   DIGITIZING COMPANY
~OTHER INFORMATION
~A    DEPT     DEN       CORR       PORD        CNC        SPR          GRR     RFOC       CALD         AC       RILD       RILM   
# ...
 2409.5000     2.5347     0.0669     0.0684     0.2527   -46.5995   121.3202     6.9033     9.6345    85.3224     6.1698     6.4000
 2410.0000     2.5284     0.0551     0.0724     0.2523   -46.4876   123.1185     6.6528     9.6345    85.5589     6.0337     6.2588
 2410.5000     2.5214     0.0410     0.0764     0.2597   -46.3756   124.9959     6.4113     9.6345    85.9278     5.9006     6.1207
 2411.0000     2.5176     0.0267     0.0795     0.2663   -46.2637   127.2140     6.1787     9.6345    86.2784     5.7704     5.9856
 2411.5000     2.5200     0.0168     0.0795     0.2707   -46.1520   125.8697     5.9728     9.6345    86.4524     5.6536     5.8644
 2412.0000     2.5272     0.0172     0.0741     0.2660   -46.0396   124.4103     6.0472     9.6345    86.1520     5.7531     5.9469
 2412.5000     2.5352     0.0175     0.0691     0.2618   -45.9274   122.6212     6.2813     9.6345    85.4591     5.8466     6.0241
 2413.0000     2.5429     0.0276     0.0641     0.2598   -45.8334   121.7928     6.5244     9.6345    84.9062     5.9415     6.1022
 2413.5000     2.5498     0.0379     0.0586     0.2608   -45.8016   120.4157     6.7770     9.6345    84.4357     6.0381     6.1814
 2414.0000     2.5505     0.0488     0.0594     0.2617   -45.7733   119.0645     7.0394     9.6345    83.9784     6.0832     6.3101
 2414.5000     2.5455     0.0533     0.0650     0.2628   -45.7459   119.8834     7.3056     9.6345    83.8613     5.8281     6.2048
 2415.0000     2.5359     0.0510     0.0702     0.2716   -45.7184   122.8208     7.1370     9.6345    84.6158     5.6165     5.9503
 2415.5000     2.5268     0.0492     0.0757     0.2843   -45.6906   129.0504     6.9151     9.6345    85.3703     5.4127     5.7073
 2416.0000     2.5173     0.0490     0.0803     0.2923   -45.6631   135.1066     6.2310     9.6345    86.8621     5.2163     5.4724
 2416.5000     2.5112     0.0382     0.0835     0.2808   -45.6354   141.5893     5.6817     9.6345    88.5997     5.0270     5.2473
 2417.0000     2.5156     0.0214     0.0835     0.2628   -45.6076   141.7328     5.1808     9.6345    89.1582     4.8445     5.0295
 2417.5000     2.5242     0.0060     0.0755     0.2449   -45.5796   139.4952     4.6222     9.6345    87.7545     4.7946     5.1581
 2418.0000     2.5341     0.0119     0.0682     0.2268   -45.5524   127.3965     4.7876     9.6345    84.6321     5.0359     5.4276
 2418.5000     2.5443     0.0175     0.0609     0.2169   -45.5241   116.5966     5.6854     9.6345    81.7026     5.2995     5.7115
 2419.0000     2.5476     0.0238     0.0594     0.2186   -45.4952   106.1624     6.7516     9.6345    79.8343     5.5769     6.0106
 2419.5000     2.5452     0.0297     0.0613     0.2240   -45.4716   103.7413     8.0177     9.6345    79.0719     5.8682     6.3255
 2420.0000     2.5433     0.0445     0.0631     0.2295   -45.4405   102.8883     8.1539     9.6345    80.2438     6.1745     6.6569
 2420.5000     2.5413     0.0670     0.0650     0.2313   -45.5777   106.4870     7.8419     9.6345    81.1061     6.4971     7.1692
 2421.0000     2.5389     0.0575     0.0659     0.2313   -45.7524   109.3332     7.5525     9.6345    81.8136     6.7869     7.1082
 2421.5000     2.5414     0.0422     0.0630     0.2325   -45.9293   112.3857     7.1730     9.6345    81.9107     6.6383     6.9768
 2422.0000     2.5500     0.0409     0.0577     0.2337   -46.1040   111.6691     7.2987     9.6345    81.6821     6.5114     6.8476
 2422.5000     2.5585     0.0551     0.0533     0.2319   -46.2817   109.9106     7.5031     9.6345    81.4671     6.3870     6.7207
 2423.0000     2.5571     0.0691     0.0556     0.2298   -46.4533   108.5111     7.7181     9.6345    81.8004     6.2668     6.5961
 2423.5000     2.5493     0.0617     0.0610     0.2292   -46.6180   111.4950     7.4980     9.6345    82.3034     6.1468     6.4702
 2424.0000     2.5428     0.0498     0.0630     0.2305   -46.6452   114.7500     7.1442     9.6345    82.7513     6.0832     6.3170
 2424.5000     2.5501     0.0562     0.0598     0.2319   -46.6867   117.5866     6.8070     9.6345    83.0639     6.0832     6.3340
 2425.0000     2.5532     0.0680     0.0562     0.2329   -46.7201   114.8771     6.5455     9.6345    82.7046     6.0832     6.3681
 2425.5000     2.5434     0.0531     0.0627     0.2443   -46.7543   113.3816     6.6835     9.6345    82.2655     6.0832     6.4197
 2426.0000     2.5357     0.0343     0.0671     0.2538   -46.7902   114.2612     7.0146     9.6345    82.8330     6.0832     6.4114
 2426.5000     2.5289     0.0184     0.0707     0.2618   -46.8248   115.1771     7.1730     9.6345    83.9585     6.0832     6.3600
 2427.0000     2.5392     0.0318     0.0655     0.2523   -46.8598   114.8949     6.8367     9.6345    84.7410     6.0814     6.3101
 2427.5000     2.5463     0.0408     0.0602     0.2366   -46.8951   113.9488     6.5592     9.6345    85.2595     6.1617     6.4586
 2428.0000     2.5482     0.0426     0.0593     0.2208   -46.9296   110.7880     6.4267     9.6345    84.6442     6.2887     6.6072
 2428.5000     2.5501     0.0474     0.0582     0.2150   -46.9651   106.2410     6.8974     9.6345    83.2694     6.4186     6.7593
 2429.0000     2.5517     0.0372     0.0572     0.2121   -47.0025   101.9900     7.3962     9.6345    80.6864     6.5514     6.9148
 2429.5000     2.5536     0.0321     0.0562     0.2121   -47.0259    97.4831     7.9311     9.6345    78.3757     6.6868     7.0739
 2430.0000     2.5533     0.0318     0.0578     0.2214   -47.0236    97.6725     8.3046     9.6345    76.4895     6.8250     7.3056
 2430.5000     2.5517     0.0306     0.0594     0.2283   -47.0237    99.7116     8.2345     9.6345    76.2639     6.9657     7.2957
 2431.0000     2.5502     0.0290     0.0594     0.2289   -47.0241   104.0299     7.9003     9.6345    78.4651     7.0429     7.2478
 2431.5000     2.5488     0.0341     0.0599     0.2312   -47.0238   107.4938     7.5797     9.6345    80.4771     7.0068     7.2002
 2432.0000     2.5473     0.0441     0.0614     0.2367   -47.0238   105.8218     7.4406     9.6345    82.3363     6.9549     7.1529
 2432.5000     2.5459     0.0533     0.0629     0.2448   -47.0239   103.5810     7.2324     9.6345    83.6119     6.9034     7.1059
 2433.0000     2.5444     0.0607     0.0635     0.2546   -47.0238   104.4935     7.1730     9.6345    84.2125     6.8523     7.0592
 2433.5000     2.5453     0.0499     0.0635     0.2530   -47.0238   108.2075     7.1730     9.6345    84.6555     6.8015     7.0128
 2434.0000     2.5470     0.0358     0.0621     0.2392   -47.0238   112.0672     7.1724     9.6345    83.9814     6.7511     6.9667
 2434.5000     2.5486     0.0209     0.0602     0.2265   -47.0238   110.6572     7.2616     9.6345    83.2351     6.7011     6.9151
 2435.0000     2.5501     0.0223     0.0586     0.2265   -47.0238   110.7679     7.6233     9.6345    82.7638     6.6518     6.8704
 2435.5000     2.5520     0.0298     0.0589     0.2394   -47.0238   113.1084     7.7233     9.6345    82.7024     6.6026     6.8195
 2436.0000     2.5510     0.0366     0.0592     0.2377   -47.0239   115.3970     7.5661     9.6345    82.8557     6.5459     6.7690
 2436.5000     2.5497     0.0309     0.0594     0.2297   -47.0239   117.9128     7.3094     9.6345    82.8932     6.4797     6.7188
 2437.0000     2.5484     0.0257     0.0613     0.2202   -47.0238   117.2238     7.0386     9.6345    82.4192     6.4018     6.6691
 2437.5000     2.5436     0.0199     0.0635     0.2153   -47.0241   114.2381     7.0429     9.6345    81.5918     6.3249     6.6196
 2438.0000     2.5377     0.0142     0.0664     0.2226   -47.0242   111.4166     7.2671     9.6345    81.1149     6.2489     6.5706
 2438.5000     2.5318     0.0088     0.0700     0.2297   -47.0165   108.8347     7.5781     9.6345    81.0259     6.1735     6.5219
 2439.0000     2.5320     0.0006     0.0731     0.2324   -46.9826   106.0447     7.4028     9.6345    81.6188     6.0994     6.4742
 2439.5000     2.5392    -0.0043     0.0723     0.2338   -46.9492   108.8924     7.0876     9.6345    82.4012     6.0832     6.4273
