~VERSION INFORMATION
 VERS.                2.0:   CWLS LOG ASCII STANDARD - VERSION 2.0
 WRAP.                 NO:   ONE LINE PER DEPTH STEP
~WELL INFORMATION
#MNEM.UNIT      DATA TYPE    INFORMATION
#----------   ------------   ------------------------------
 STRT.F            2.0000:   START DEPTH
 STOP.F          497.5000:   STOP DEPTH
 STEP.F            0.5000:   STEP LENGTH
 NULL.          -999.2500:   NO VALUE
 COMP. Fluor Daniel (NPOSR) Inc:   COMPANY
 WELL.  NPR ##3 72-5-X-10:   WELL
 FLD .             TEAPOT:   FIELD
 LOC .      S10 T38N R78W:   LOCATION
 CNTY.            NATRONA:   COUNTY
 STAT.            WYOMING:   STATE
 CTRY. UNITED STATES OF AMERICA:   COUNTRY
 SRVC.      Western Atlas:   SERVICE COMPANY
 DATE.        27-APR-1996:   LOGDATE
 API .       490252278100:   API NUMBER
~CURVE INFORMATION
#MNEM.UNIT       API CODE    CURVE DESCRIPTION
#----------   ------------   ------------------------------
 DEPT.F                  :   
 GRR .GAPI   07 310 01 00:   GAMMA RAY FROM RES. LOG.
 RILD.OHMM   07 120 46 00:   INDUCTION LOG DEEP RESISTIVITY
 RILM.OHMM   07 120 44 00:   INDUCTION LOG MEDIUM RESISTIVITY
~PARAMETER INFORMATION
#MNEM.UNIT          VALUE    DESCRIPTION
#----------   ------------   ------------------------------
 PD  .                 GL:   PERMANENT DATUM
 EPD .F              5171:   ELEVATION PERMANENT DATUM
 LMF .                 KB:   LOG MEASURED FROM
 DAPD.F                10:   FEET ABOVE PERMANENT DATUM
 DMF .                 KB:   DRILLING MEASURED FROM
 EKB .F              5181:   KELLING BUSHING
 EDF .F              5180:   DRILLING FLOOR
 EGL .F              5171:   GROUND LEVEL
 DATE.            4-27-96:   RUN DATE
 RUN .                  1:   RUN NUMBER
 DD  .F               505:   DEPTH DRILLER
 DL  .F               505:   DEPTH LOGGER
 BLI .F               498:   BOTTOM LOG INTERVAL
 CS  .IN            9.625:   CASING SIZE
 CBD .F                95:   CASING BOTTOM DRILLER
 CBL .F                95:   CASING BOTTOM LOGGER
 BS  .IN             8.75:   BIT SIZE
 BSD .F               505:   BIT SIZE AT DEPTH
 DFT .                AIR:   DRILLING FLUID TYPE
 MRT .F                88:   MAXIMUM RECORDED TEMPERATURE
 LUN .            HL-6530:   LOGGING UNIT NUMBER
 LUL .             CASPER:   LOGGING UNIT LOCATION
 ENGI.             RAUTIO:   RECORDING ENGINEER
 WITN.              HARDY:   WITNESSED BY
 CLNT.            A2DTECH:   CLIENT CODE
 ORIG.       2", 5" PRINT:   ORIGIN OF DATA
 UWI .       490252278100:   UNIQUE WELL ID
 DICO. A2D Technologies, Inc.:   DIGITIZING COMPANY
~OTHER INFORMATION
~A    DEPT      GRR      RILD       RILM   
# ...
  184.0000   121.8963     5.8936     5.9225
  184.5000   117.7959     5.8681     5.9225
  185.0000   111.4679     5.8681     6.0018
  185.5000   107.9397     5.8681     6.0309
  186.0000   111.4549     6.0419     6.1945
  186.5000   119.4987     6.2548     6.3904
  187.0000   125.3014     6.4669     6.5937
  187.5000   127.9275     6.6756     6.8034
  188.0000   126.3458     6.8910     7.0196
  188.5000   124.3307     7.0563     7.2427
  189.0000   123.8953     7.1823     7.3820
  189.5000   125.3553     7.3040     7.4758
  190.0000   127.0604     7.4277     7.5704
  190.5000   126.3495     7.5535     7.6663
  191.0000   125.3477     7.6914     7.7635
  191.5000   125.0253     7.7854     7.8619
  192.0000   125.6280     7.8807     7.9616
  192.5000   125.0283     7.9770     8.0628
  193.0000   125.2958     8.0746     8.1648
  193.5000   128.3433     8.1734     8.2476
  194.0000   130.5538     8.2733     8.3281
  194.5000   128.7141     8.3749     8.4095
  195.0000   126.8038     8.4412     8.4917
  195.5000   127.3552     8.4919     8.5747
  196.0000   128.3428     8.5425     8.6585
  196.5000   126.5272     8.5936     8.7431
  197.0000   123.2108     8.6450     8.8039
  197.5000   119.0976     8.6966     8.8039
  198.0000   120.0385     8.7231     8.8039
  198.5000   125.4373     8.6403     8.8039
  199.0000   128.0639     8.5852     8.8047
  199.5000   128.4147     8.5305     8.7257
  200.0000   127.4623     8.4761     8.6541
  200.5000   126.4843     8.4221     8.5835
  201.0000   125.0890     8.3684     8.5134
  201.5000   124.2761     8.3151     8.4440
  202.0000   126.9325     8.2621     8.3751
  202.5000   131.8748     8.2096     8.3068
  203.0000   130.9719     8.1577     8.2391
  203.5000   128.2127     8.1030     8.1725
  204.0000   124.6721     7.8540     8.1029
  204.5000   123.7327     7.5997     7.8277
  205.0000   125.1707     7.3281     7.5510
  205.5000   127.0846     6.9954     7.2847
  206.0000   128.0943     6.6766     7.0278
  206.5000   127.4830     6.2048     6.5172
  207.0000   125.4409     5.7647     5.8860
  207.5000   124.0422     5.2787     5.3159
  208.0000   126.2656     4.7899     4.8011
  208.5000   128.5328     4.2760     4.3361
  209.0000   127.2436     3.7420     3.8724
  209.5000   125.7613     3.2725     3.2228
  210.0000   126.9088     2.8853     2.9627
  210.5000   128.4191     2.7332     2.8063
  211.0000   125.9778     2.6070     2.6904
  211.5000   121.6673     2.6346     2.6312
  212.0000   117.5529     2.6858     2.7419
  212.5000   115.6510     2.7553     2.8316
  213.0000   117.4277     2.9353     3.0892
  213.5000   123.8411     3.2588     3.4674
  214.0000   129.7513     3.6770     4.0483
  214.5000   132.0457     4.1473     4.6249
  215.0000   132.2239     4.6425     5.0707
  215.5000   132.7235     5.1210     5.4303
  216.0000   132.4898     5.5689     5.8234
  216.5000   133.2555     5.9864     6.0851
  217.0000   134.9904     6.3091     6.3065
  217.5000   138.4886     6.4045     6.4944
  218.0000   141.1915     6.4348     6.5546
  218.5000   140.1179     6.2312     6.3650
  219.0000   136.4315     6.0645     6.1327
  219.5000   131.4082     5.7528     5.7158
  220.0000   129.4603     5.4012     5.2848
  220.5000   134.3076     5.0711     4.8862
  221.0000   140.7751     4.9293     4.6097
  221.5000   146.0835     4.7938     4.4914
  222.0000   147.2038     4.6620     4.5541
  222.5000   145.1254     4.6174     4.6396
  223.0000   142.5565     4.6174     4.7266
  223.5000   140.5437     4.7306     4.8628
  224.0000   136.9708     4.9363     5.1348
  224.5000   131.8584     5.2295     5.4220
  225.0000   132.0638     5.5400     5.7253
  225.5000   136.9675     5.8690     6.0456
  226.0000   142.0003     6.2191     6.3838
  226.5000   143.3680     6.6126     6.7409
  227.0000   142.1488     6.8415     7.0705
  227.5000   140.7253     7.0949     7.3155
  228.0000   139.4517     7.3576     7.5691
  228.5000   141.6538     7.6301     7.7742
  229.0000   143.2170     7.8095     7.8818
  229.5000   140.5478     7.7392     7.8658
  230.0000   137.2124     7.6880     7.8378
  230.5000   136.5722     7.6150     7.8095
  231.0000   136.7654     7.4735     7.6387
  231.5000   136.6278     7.3208     7.4697
  232.0000   134.5355     7.1712     7.3045
  232.5000   133.6562     7.0155     7.1428
  233.0000   134.5665     6.8317     6.9848
  233.5000   135.8339     6.6527     6.9274
  234.0000   137.6176     6.4016     6.4907
  234.5000   139.9741     6.0674     6.0952
  235.0000   141.3422     5.7507     5.7238
  235.5000   143.5939     5.3327     5.3767
  236.0000   146.9350     4.9276     4.9186
  236.5000   152.0435     4.7783     4.5330
  237.0000   150.3643     4.7469     4.4914
  237.5000   145.5132     4.8426     4.4502
  238.0000   143.3519     4.9182     4.8987
  238.5000   144.3973     4.9950     5.2750
  239.0000   143.2578     5.1655     5.6801
  239.5000   140.8457     5.4338     6.1164
  240.0000   141.6435     6.0852     6.6153
  240.5000   142.5846     6.4344     6.9274
  241.0000   141.8212     6.8118     7.1379
  241.5000   141.5688     7.2099     7.2553
  242.0000   143.3169     7.4258     7.3720
  242.5000   143.1583     7.4908     7.4909
  243.0000   140.2356     7.5564     7.6119
  243.5000   137.3042     7.6392     7.7348
  244.0000   138.4825     7.7491     7.8240
  244.5000   143.9155     7.8814     7.8605
  245.0000   146.4341     7.8392     7.8818
  245.5000   145.7977     7.7875     7.8484
  246.0000   146.5766     7.7360     7.8211
  246.5000   148.0301     7.6848     7.7939
  247.0000   146.7445     7.6339     7.7668
  247.5000   145.4247     7.5834     7.7398
  248.0000   145.5991     7.5333     7.7129
  248.5000   144.7626     7.5146     7.6857
  249.0000   144.0822     7.5006     7.6491
  249.5000   144.6301     7.4867     7.5839
  250.0000   145.2708     7.4728     7.5267
  250.5000   143.3807     7.4579     7.5434
  251.0000   142.9014     7.4576     7.5587
  251.5000   144.8000     7.4578     7.5740
  252.0000   145.3212     7.4407     7.5964
  252.5000   142.2819     7.3031     7.3688
  253.0000   139.4121     7.0902     6.9581
  253.5000   139.9378     6.4610     6.5064
  254.0000   141.7554     5.9473     5.9008
  254.5000   144.4593     5.7609     5.5066
  255.0000   147.1582     5.6464     5.3991
  255.5000   149.8816     5.5523     5.3994
  256.0000   150.7275     5.5269     5.4936
  256.5000   150.5214     5.4876     5.5673
  257.0000   151.1643     5.4200     5.6418
  257.5000   152.7214     5.3533     5.7188
  258.0000   152.3716     5.3022     5.7609
  258.5000   149.1984     5.3400     5.4765
  259.0000   146.3695     5.4005     5.2853
  259.5000   145.1732     5.4617     5.1080
  260.0000   144.8779     5.5235     5.2496
  260.5000   141.1545     5.5861     5.4619
  261.0000   139.0391     5.6494     5.6819
  261.5000   137.5658     5.7080     5.9104
  262.0000   136.8664     5.9115     6.1482
  262.5000   137.3865     6.1502     6.3954
  263.0000   139.0392     6.3985     6.6766
  263.5000   140.7391     6.6569     6.8190
  264.0000   139.0729     7.0563     6.9772
  264.5000   136.5846     6.9095     7.1182
  265.0000   136.2758     6.6397     6.9953
  265.5000   136.2921     6.3805     6.9274
  266.0000   134.7599     6.0842     6.4257
  266.5000   131.3008     5.6834     5.9360
  267.0000   130.5656     5.3102     5.4837
  267.5000   135.1122     5.1236     5.0598
  268.0000   141.5192     5.0706     4.9708
  268.5000   145.8793     5.0168     5.0442
  269.0000   145.8323     5.0557     5.1707
  269.5000   144.8977     5.0950     5.3005
  270.0000   143.9376     5.2892     5.6092
  270.5000   142.9051     5.7446     6.0553
  271.0000   140.0148     6.2393     6.5370
  271.5000   137.0238     6.7766     7.0189
  272.0000   137.4933     7.1234     7.4099
  272.5000   137.6293     7.4375     7.8227
  273.0000   135.2854     7.7655     7.9427
  273.5000   132.5955     7.8553     8.0355
  274.0000   131.6933     7.9532     8.1294
  274.5000   132.2797     8.0524     8.2244
