~VERSION INFORMATION
 VERS.                2.0:   CWLS LOG ASCII STANDARD - VERSION 2.0
 WRAP.                 NO:   ONE LINE PER DEPTH STEP
~WELL INFORMATION
#MNEM.UNIT      DATA TYPE    INFORMATION
#----------   ------------   ------------------------------
 STRT.F           34.0000:   START DEPTH
 STOP.F          576.0000:   STOP DEPTH
 STEP.F            0.5000:   STEP LENGTH
 NULL.          -999.2500:   NO VALUE
 COMP. FENIX & SCISSON INC:   COMPANY
 WELL.   NPR-3 #22 SX 3-3:   WELL
 FLD .             TEAPOT:   FIELD
 LOC .       S3 T38N R78W:   LOCATION
 CNTY.            NATRONA:   COUNTY
 STAT.            WYOMING:   STATE
 CTRY. UNITED STATES OF AMERICA:   COUNTRY
 SRVC.            Unknown:   SERVICE COMPANY
 DATE.        17-JUL-1978:   LOGDATE
 API .       490251066700:   API NUMBER
~CURVE INFORMATION
#MNEM.UNIT       API CODE    CURVE DESCRIPTION
#----------   ------------   ------------------------------
 DEPT.F                  :   
 SN  .OHMM   05 040 16 00:   SHORT NORMAL 16"
 ILD .OHMM   05 120 46 00:   INDUCTION LOG DEEP
 SPR .MV     05 010 01 00:   SPONTANEOUS POTENTIAL FROM RES.
 CALD.IN     45 280 60 00:   CALIPER FROM DENSITY LOG
 GRD .GAPI   45 310 01 00:   GAMMA RAY FROM DENSITY LOG
 CORR.G/C3   45 356 01 00:   DENSITY CORRECTION
 DPHI.DEC    45 890 12 00:   DENSITY POROSITY SANDSTONE
 DEN .G/C3   45 350 01 00:   COMPENSATED BULK DENSITY
~PARAMETER INFORMATION
#MNEM.UNIT          VALUE    DESCRIPTION
#----------   ------------   ------------------------------
 PD  .                 GL:   PERMANENT DATUM
 EPD .F              5193:   ELEVATION PERMANENT DATUM
 LMF .                 KB:   LOG MEASURED FROM
 DAPD.F                 4:   FEET ABOVE PERMANENT DATUM
 DMF .                 KB:   DRILLING MEASURED FROM
 EKB .F              5197:   KELLING BUSHING
 EGL .F              5193:   GROUND LEVEL
 DATE.        17-JUL-1978:   RUN DATE
 RUN .                  1:   RUN NUMBER
 DD  .F               570:   DEPTH DRILLER
 DL  .F               576:   DEPTH LOGGER
 BLI .F               576:   BOTTOM LOG INTERVAL
 CS  .IN            8.625:   CASING SIZE
 CBD .F                30:   CASING BOTTOM DRILLER
 BS  .IN            7.875:   BIT SIZE
 BSD .F               570:   BIT SIZE AT DEPTH
 DFT .            MUD KCL:   DRILLING FLUID TYPE
 DFD .                8.6:   DRILLING FLUID DENSITY
 DFV .                 32:   DRILLING FLUID VISCOSITY
 DFL .                 15:   DRILLING FLUID LOSS
 MSS .           FLOWLINE:   MUD SAMPLE SOURCE
 RMS .OHMM            .18:   RESISTIVITY MUD SAMPLE
 MST .F                86:   MUD SAMPLE TEMPERATURE
 RMF .OHMM            .17:   RESISTIVITY MUD FILTRATE SAMPLE
 MFST.F                94:   MUD FILTRATE SAMPLE TEMPERATURE
 RMC .OHMM            .34:   RESISTIVITY MUD CAKE
 MCST.F                94:   MUD CAKE SAMPLE TEMPERATURE
 MFSS.               MEAS:   MUD FILTRATE SAMPLE SOURCE
 TCS .HRS            0300:   TIME CURCULATED STOPPED
 LUN .               2958:   LOGGING UNIT NUMBER
 LUL .               CASP:   LOGGING UNIT LOCATION
 ENGI.             MILLER:   RECORDING ENGINEER
 WITN.           MCGINLEY:   WITNESSED BY
 CLNT.            A2DTECH:   CLIENT CODE
 ORIG.           5" PRINT:   ORIGIN OF DATA
 UWI .       490251066700:   UNIQUE WELL ID
 DICO. A2D Technologies, Inc.:   DIGITIZING COMPANY
~OTHER INFORMATION
~A   DEPT       SN        ILD        SPR       CALD         GRD      CORR       DPHI        DEN   
# ...
   74.5000     7.2923     7.1434   -36.9175     7.9420    88.1159     0.0365     0.1400     2.4409
   75.0000     7.2958     7.1962   -36.9029     7.8261    79.7101     0.0306     0.1353     2.4491
   75.5000     7.3496     7.2493   -36.5907     7.7101    76.0870     0.0133     0.1336     2.4550
   76.0000     7.4039     7.2527   -36.1297     7.6087    77.3913    -0.0022     0.1609     2.4587
   76.5000     7.4586     7.3062   -36.1151     7.5652    82.4638     0.0082     0.1728     2.4565
   77.0000     7.4622     7.3602   -36.1005     7.5652    81.3043     0.0127     0.1710     2.4021
   77.5000     7.5174     7.4146   -36.0859     7.5797    83.0798     0.0186     0.1660     2.3866
   78.0000     7.6260     7.5217   -35.6249     7.5944    84.3478     0.0246     0.1585     2.4104
   78.5000     7.6823     7.5772   -35.4613     7.6250    79.4203     0.0007     0.1588     2.4216
   79.0000     7.7924     7.7390   -35.2976     7.6667    78.8406     0.0067     0.1660     2.4037
   79.5000     7.8500     7.7961   -35.2798     7.6812    82.4638     0.0311     0.1669     2.3970
   80.0000     7.8537     7.9079   -35.2652     7.7246    83.1884     0.0395     0.1577     2.4007
   80.5000     7.8574     8.0213   -35.2506     7.7391    82.6087     0.0261     0.1321     2.4245
   81.0000     7.9155     8.0251   -35.5336     7.7391    81.8841     0.0097     0.1386     2.4484
   81.5000     7.9192     8.0289   -35.9691     7.7391    81.4392     0.0007     0.1464     2.4587
   82.0000     7.9230     8.0326   -36.2484     7.7391    83.0668    -0.0052     0.1502     2.4513
   82.5000     8.0366     8.0957   -36.0850     7.7391    90.1449    -0.0097     0.1523     2.4327
   83.0000     8.1519     8.2648   -36.0704     7.7370    88.1159    -0.0067     0.1514     2.4201
   83.5000     8.2701     8.5004   -35.9070     7.7101    86.2319    -0.0052     0.1478     2.4097
   84.0000     8.3875     8.7418   -35.8924     7.6812    85.5072    -0.0052     0.1516     2.4230
   84.5000     8.5078     8.9901   -34.3897     7.5797    87.3913    -0.0037     0.1541     2.4431
   85.0000     8.6307     9.1190   -33.7798     7.5507    89.1304     0.0022     0.1538     2.4379
   85.5000     8.7545     9.1863   -33.9301     7.5652    90.1449     0.0142     0.1538     2.4191
   86.0000     8.8801     9.1907   -33.7470     7.8841    84.7826     0.0395     0.1493     2.4112
   86.5000     8.9456     9.2585   -32.9884     8.0734    84.6377     0.0261     0.1294     2.4275
   87.0000     9.0117     9.2629   -32.3785     8.0290    84.5567     0.0082     0.1339     2.4528
   87.5000     9.1410     9.2672   -32.2151     8.0338    80.5797    -0.0007     0.1360     2.4825
   88.0000     9.1453     9.2717   -32.3493     8.2319    74.0580     0.0042     0.1377     2.4580
   88.5000     9.1496     9.2770   -32.7812     8.2174    74.2029     0.0395     0.1412     2.4379
   89.0000     9.1540     9.2814   -33.5106     8.1449    74.9275     0.0663     0.1425     2.4349
   89.5000     9.0955     9.2221   -33.7973     8.1449    76.0870     0.0723     0.1392     2.4357
   90.0000     9.0373     9.2264   -33.6302     8.2029    78.1159     0.0380     0.1366     2.4813
   90.5000     8.9180     9.1046   -33.6156     8.2319    80.4348     0.0171     0.1386     2.4758
   91.0000     8.9223     9.0453   -34.4939     8.1594    79.9914     0.0150     0.1455     2.4520
   91.5000     8.8652     8.9258   -35.0745     7.9512    78.0914     0.0142     0.1443     2.4394
   92.0000     8.8086     8.8088   -35.0595     7.6377    75.6522     0.0291     0.1401     2.4379
   92.5000     8.7533     8.8131   -35.2480     7.5072    80.5797     0.0186     0.1407     2.4409
   93.0000     8.8180     8.7568   -36.0687     7.4493    81.0145     0.0127     0.1410     2.4431
   93.5000     8.8831     8.7610   -36.7982     7.4203    78.6957     0.0127     0.1336     2.4483
   94.0000     8.9487     8.7661   -37.3788     7.4058    76.3768     0.0276     0.1306     2.4528
   94.5000     9.0148     8.8308   -37.3642     7.4058    78.2609     0.0171     0.1407     2.4550
   95.0000     9.1440     8.8959   -37.3496     7.4058    81.5942     0.0097     0.1490     2.4431
   95.5000     9.2116     9.0858   -37.0374     7.4058    86.9636     0.0097     0.1603     2.4297
   96.0000     9.2159     9.0901   -35.6835     7.4203    88.4058     0.0231     0.1615     2.4238
   96.5000     9.2203     9.0944   -35.3713     7.4203    81.3043     0.0291     0.1505     2.4112
   97.0000     8.9741     9.1619   -35.5060     7.4348    78.5507     0.0261     0.1386     2.4059
   97.5000     8.7345     9.1659   -35.4909     7.4493    77.5362     0.0231     0.1323     2.4642
   98.0000     8.4983     9.1702   -35.3234     7.4493    81.4493     0.0291     0.1416     2.4714
   98.5000     8.2744     9.1745   -34.5377     7.4493    83.6232     0.0276     0.1446     2.4669
   99.0000     8.2793     9.1790   -33.8095     7.4493    83.3333     0.0246     0.1386     2.4379
   99.5000     8.2832     9.1842   -34.0895     7.4203    78.2609     0.0127     0.1345     2.4335
  100.0000     8.2865     9.1235   -34.4037     7.3623    76.3768     0.0037     0.1398     2.4473
  100.5000     8.2905     9.1126   -34.7394     7.4058    79.7118     0.0005     0.1487     2.4610
  101.0000     8.2945     9.1017   -34.9479     7.4783    84.4958     0.0022     0.1541     2.4557
  101.5000     8.2985     9.0908   -35.2339     7.5681    85.3664     0.0142     0.1469     2.4267
  102.0000     8.3025     9.0814   -35.3711     7.7536    84.4986     0.0276     0.1450     2.4161
  102.5000     8.3065     9.0876   -35.3565     7.9275    84.5000     0.0201     0.1466     2.4357
  103.0000     8.3105     9.0925   -35.3449     8.0290    86.8917     0.0201     0.1475     2.4415
  103.5000     8.3145     9.0338   -35.4820     8.0435    89.2858     0.0246     0.1478     2.4378
  104.0000     8.3192     8.9777   -35.9246     8.0580    90.3017     0.0353     0.1475     2.4348
  104.5000     8.3232     8.8600   -36.5426     8.0435    92.0422     0.0604     0.1448     2.4311
  105.0000     8.3271     8.6836   -37.3787     8.0145    95.5219     0.0663     0.1300     2.4430
  105.5000     8.2729     8.5656   -37.3671     7.9710    99.2914     0.0618     0.1222     2.4682
  106.0000     8.2778     8.4493   -37.6531     7.8696    98.2783     0.0499     0.1216     2.4883
  106.5000     8.2240     8.3458   -38.2396     7.7681    88.1348     0.0484     0.1213     2.4764
  107.0000     8.1163     8.1807   -37.3321     7.6232    86.6561     0.0455     0.1176     2.4734
  107.5000     8.0645     8.0732   -37.0229     7.5072    86.2535     0.0380     0.1133     2.4845
  108.0000     8.0120     7.9661   -37.3118     7.4348    86.8350     0.0227     0.1427     2.4875
  108.5000     7.9070     7.8075   -37.5952     7.3768    89.3002     0.0246     0.1587     2.4488
  109.0000     7.8565     7.7049   -37.4344     7.3333    90.4610     0.0306     0.1617     2.4399
  109.5000     7.7528     7.6037   -37.1186     7.3188    88.5784     0.0335     0.1676     2.4137
  110.0000     7.7033     7.5556   -36.9444     7.3188    91.4783     0.0306     0.1721     2.4071
  110.5000     7.7071     7.5079   -37.2477     7.3188    92.0613     0.0306     0.1718     2.3960
  111.0000     7.7115     7.5129   -37.6854     7.3333    91.6260     0.0335     0.1641     2.3900
  111.5000     7.7685     7.5689   -37.6709     7.3478    99.0191     0.0365     0.1609     2.3952
  112.0000     7.7721     7.6253   -37.6592     7.3768   101.1941     0.0365     0.1462     2.4101
  112.5000     7.7758     7.6822   -37.9452     7.3768    90.4712     0.0320     0.1370     2.4175
  113.0000     7.8332     7.7966   -38.0853     7.3913    88.7335     0.0276     0.1382     2.4290
  113.5000     7.9456     7.9126   -38.0707     7.4348    88.8798     0.0201     0.1388     2.4598
  114.0000     7.9494     8.1314   -38.0591     7.5217    89.1711     0.0142     0.1391     2.4672
  114.5000     8.0634     8.3629   -38.0475     7.5797    89.6072     0.0082     0.1382     2.4524
