~VERSION INFORMATION
 VERS.                2.0:   CWLS LOG ASCII STANDARD - VERSION 2.0
 WRAP.                 NO:   ONE LINE PER DEPTH STEP
~WELL INFORMATION
#MNEM.UNIT      DATA TYPE    INFORMATION
#----------   ------------   ------------------------------
 STRT.F           34.0000:   START DEPTH
 STOP.F          445.0000:   STOP DEPTH
 STEP.F            0.5000:   STEP LENGTH
 NULL.          -999.2500:   NO VALUE
 COMP. FENIX & SCISSON U.S. NAVY:   COMPANY
 WELL.       NPR #64-S-10:   WELL
 FLD .             TEAPOT:   FIELD
 LOC .      S10 T38N R78W:   LOCATION
 CNTY.            NATRONA:   COUNTY
 STAT.            WYOMING:   STATE
 CTRY. UNITED STATES OF AMERICA:   COUNTRY
 SRVC.              Welex:   SERVICE COMPANY
 DATE.        08-APR-1977:   LOGDATE
 API .       490251033400:   API NUMBER
~CURVE INFORMATION
#MNEM.UNIT       API CODE    CURVE DESCRIPTION
#----------   ------------   ------------------------------
 DEPT.F                  :   
 SPR .MV     07 010 01 00:   SPONTANEOUS POTENTIAL
 ILD .OHMM   07 120 46 00:   INDUCTION LOG DEEP
 ILM .OHMM   07 120 44 00:   INDUCTION LOG MEDIUM
 SGRD.OHMM   07 221 05 00:   SHALLOW SHORT GUARD RESISTIVITY
 CALD.IN     45 280 60 00:   CALIPER FROM DENSITY LOG
 GRD .GAPI   45 310 01 00:   GAMMA RAY FROM DENSITY LOG
 CORR.G/C3   45 356 01 00:   DENSITY CORRECTION
 RHOB.G/C3   45 350 01 00:   BULK DENSITY
 DPHI.DEC    45 890 12 00:   DENSITY POROSITY SANDSTONE
~PARAMETER INFORMATION
#MNEM.UNIT          VALUE    DESCRIPTION
#----------   ------------   ------------------------------
 PD  .                 GL:   PERMANENT DATUM
 EPD .F              5183:   ELEVATION PERMANENT DATUM
 LMF .                 GL:   LOG MEASURED FROM
 DMF .                 GL:   DRILLING MEASURED FROM
 EGL .F              5183:   GROUND LEVEL
 DATE.        08-APR-1977:   RUN DATE
 RUN .                  1:   RUN NUMBER
 DD  .F               455:   DEPTH DRILLER
 DL  .F               447:   DEPTH LOGGER
 BLI .F               445:   BOTTOM LOG INTERVAL
 TLI .F                34:   TOP LOG INTERVAL
 CS  .IN            8.625:   CASING SIZE
 BS  .IN            7.875:   BIT SIZE
 BSD .F               455:   BIT SIZE AT DEPTH
 DFT .           KCL- GEL:   DRILLING FLUID TYPE
 DFD .                8.3:   DRILLING FLUID DENSITY
 TCS .HRS            0100:   TIME CURCULATED STOPPED
 MRT .F                62:   MAXIMUM RECORDED TEMPERATURE
 ENGI.        E. CALLAHAN:   RECORDING ENGINEER
 WITN.            R. LYON:   WITNESSED BY
 CLNT.            A2DTECH:   CLIENT CODE
 ORIG.           5" PRINT:   ORIGIN OF DATA
 UWI .       490251033400:   UNIQUE WELL ID
 DICO. A2D Technologies, Inc.:   DIGITIZING COMPANY
~OTHER INFORMATION
~A   DEPT      SPR        ILD        ILM       SGRD       CALD        GRD        CORR        RHOB     DPHI   
# ...
  289.5000   -35.1505    15.8500    20.2855    22.3657     7.6816    82.1740     0.0596     2.3662     0.1690
  290.0000   -35.1592    15.5163    19.9993    21.7488     7.6385    83.0951     0.0627     2.3708     0.1678
  290.5000   -35.1679    15.2954    19.4456    20.7148     7.5950    84.7588     0.0659     2.3845     0.1587
  291.0000   -35.0241    15.0776    18.7765    20.0052     7.5818    86.2729     0.0705     2.3958     0.1533
  291.5000   -34.8843    14.9664    18.1293    19.7259     7.5687    86.8902     0.0752     2.4012     0.1490
  292.0000   -34.7429    14.8551    17.5065    19.4505     7.5560    86.1622     0.0768     2.4088     0.1469
  292.5000   -34.5814    14.7446    17.3784    19.4465     7.5727    84.5373     0.0769     2.4013     0.1487
  293.0000   -34.4595    14.6358    17.3726    19.4417     7.5894    83.4888     0.0741     2.4014     0.1511
  293.5000   -34.3200    14.5278    17.2467    19.4378     7.6062    85.4730     0.0697     2.4000     0.1498
  294.0000   -34.1762    14.5210    17.1218    19.5700     7.6080    86.3892     0.0623     2.3911     0.1546
  294.5000   -34.0345    14.4139    16.9977    19.7022     7.6546    85.9602     0.0594     2.3814     0.1609
  295.0000   -33.8947    14.4071    16.8746    19.8344     7.7012    84.7837     0.0581     2.3687     0.1687
  295.5000   -33.9037    14.3995    16.6245    19.9682     7.7180    84.2052     0.0582     2.3673     0.1710
  296.0000   -33.7621    14.2924    16.2872    20.1030     7.7198    84.9720     0.0583     2.3689     0.1677
  296.5000   -33.7729    14.1870    16.1692    19.9592     7.6912    86.6356     0.0615     2.3607     0.1725
  297.0000   -33.7816    14.1803    16.0520    19.9551     7.6486    88.1498     0.0631     2.3729     0.1710
  297.5000   -33.7903    13.9784    16.0467    19.4057     7.6056    88.7671     0.0632     2.3880     0.1607
  298.0000   -33.7990    13.9718    15.9304    18.7410     7.5770    89.0854     0.0619     2.3963     0.1550
  298.5000   -33.9581    13.8688    15.9251    18.0991     7.6091    88.0584     0.0590     2.4002     0.1516
  299.0000   -33.9669    13.8622    15.8096    17.4743     7.6558    87.0315     0.0576     2.4018     0.1504
  299.5000   -33.9777    13.7592    15.6939    17.1152     7.6725    86.0045     0.0533     2.4011     0.1519
  300.0000   -34.1444    13.5964    15.6709    17.3833     7.6738    86.1734     0.0513     2.3997     0.1527
  300.5000   -34.2661    13.2864    15.4353    17.7792     7.6462    87.8440     0.0482     2.3960     0.1533
  301.0000   -34.3878    12.9764    15.1997    18.1751     7.5882    89.2119     0.0522     2.3984     0.1530
  301.5000   -34.5095    12.9122    14.9641    18.3330     7.5746    91.0282     0.0614     2.4089     0.1445
  302.0000   -34.6146    12.9093    14.7278    17.9528     7.5615    91.8236     0.0707     2.4139     0.1433
  302.5000   -34.6635    12.9067    14.6078    17.1004     7.5638    91.7912     0.0814     2.4079     0.1448
  303.0000   -34.7124    12.8149    14.4181    16.8628     7.5955    91.2399     0.0921     2.4190     0.1339
  303.5000   -34.7612    12.6359    14.3155    16.9778     7.6122    90.7997     0.1013     2.4303     0.1339
  304.0000   -34.8101    12.6333    14.3127    16.7413     7.6439    90.2292     0.1075     2.4239     0.1357
  304.5000   -34.8589    12.5432    14.4094    16.6235     7.6756    89.6587     0.1152     2.4252     0.1324
  305.0000   -34.9078    12.6276    14.7094    17.0884     7.7073    88.6397     0.1214     2.4305     0.1278
  305.5000   -34.9567    12.6251    15.3591    17.4457     7.6937    87.7653     0.1276     2.4373     0.1227
  306.0000   -35.0055    12.7104    15.9788    17.3223     7.6213    86.8913     0.1277     2.4442     0.1215
  306.5000   -35.0544    12.8854    15.1134    17.5768     7.5633    86.3160     0.1054     2.4420     0.1259
  307.0000   -35.1032    12.9725    14.0986    18.4317     7.5048    86.4881     0.0927     2.4255     0.1394
  307.5000   -35.1521    12.9699    14.4916    18.8170     7.4618    88.3044     0.0817     2.4143     0.1409
  308.0000   -35.2010    13.1026    14.8963    18.8139     7.4826    88.7145     0.0871     2.4182     0.1346
  308.5000   -35.2498    13.1451    15.2064    18.0452     7.5552    86.7054     0.0940     2.4310     0.1285
  309.0000   -35.1180    13.1425    14.9932    17.6715     7.5878    86.1244     0.0897     2.4356     0.1267
  309.5000   -34.8227    12.9589    14.7837    18.1789     7.6335    87.9464     0.0817     2.4304     0.1288
  310.0000   -34.8271    12.8667    14.4764    18.5450     7.6652    89.6133     0.0765     2.4215     0.1363
  310.5000   -34.8324    12.7752    14.2741    18.1604     7.6670    90.3832     0.0767     2.4156     0.1420
  311.0000   -34.9871    12.5529    14.0747    17.5396     7.6538    90.4059     0.0769     2.4141     0.1416
  311.5000   -34.9915    12.3343    13.9745    17.0578     7.5959    90.2790     0.0831     2.4142     0.1404
  312.0000   -35.1462    12.0779    13.7786    16.8207     7.5528    90.0026     0.0908     2.4150     0.1401
  312.5000   -35.1506    11.8268    13.6807    16.9354     7.5546    89.1284     0.0955     2.4144     0.1405
  313.0000   -35.3053    11.6616    13.5834    16.4697     7.5714    87.8057     0.1017     2.4084     0.1436
  313.5000   -35.3098    11.5786    13.5807    16.1286     7.6031    86.0346     0.1079     2.4032     0.1508
  314.0000   -35.3151    11.4960    13.5780    16.1265     7.6497    82.9182     0.1171     2.3958     0.1559
  314.5000   -35.3194    11.5734    13.5752    16.1243     7.6665    80.6986     0.1233     2.3869     0.1595
  315.0000   -35.3237    11.7327    13.7614    16.3473     7.6683    79.6749     0.1295     2.3802     0.1646
  315.5000   -35.3281    11.8942    14.1457    16.6957     7.6552    78.3522     0.1327     2.3675     0.1720
  316.0000   -35.3324    12.3115    14.6419    17.1547     7.6266    76.8801     0.1343     2.3540     0.1783
  316.5000   -35.4873    12.7433    16.2629    17.7572     7.5687    74.6605     0.1375     2.3428     0.1831
  317.0000   -35.6430    13.5668    19.4391    18.2539     7.4812    71.4200     0.1362     2.3309     0.1909
  317.5000   -35.6473    14.9899    22.6154    19.6241     7.3934    69.0957     0.1319     2.3332     0.1900
  318.0000   -35.8020    16.4129    25.7916    28.6329     7.3354    66.1733     0.1260     2.3468     0.1764
  318.5000   -35.8064    17.8359    28.9679    31.9863     7.3068    63.2212     0.1142     2.3780     0.1623
  319.0000   -35.9611    19.2590    32.1441    42.2014     7.3240    64.5042     0.1008     2.3913     0.1580
  319.5000   -35.9654    20.8252    35.3204    54.0039     7.3557    68.6822     0.0950     2.3846     0.1583
  320.0000   -36.1202    22.7855    38.5984    65.8063     7.4323    72.4215     0.0937     2.3651     0.1688
  320.5000   -35.8237    24.0806    39.4020    69.9596     7.5238    73.8042     0.0939     2.3404     0.1868
  321.0000   -35.6777    24.9253    39.6683    39.6253     7.6302    69.3277     0.0910     2.3360     0.1889
  321.5000   -35.6831    25.4436    39.3843    41.9132     7.6619    73.2367     0.0837     2.3308     0.1946
  322.0000   -35.6875    25.7932    39.3764    45.1901     7.6634    76.0994     0.0779     2.3068     0.2074
  322.5000   -35.5415    25.9675    39.3686    41.0047     7.6477    76.3453     0.0735     2.3009     0.2110
  323.0000   -35.5459    25.9623    39.0887    39.6029     7.5902    65.8307     0.0692     2.2957     0.2155
  323.5000   -35.3998    25.7777    38.2761    38.5150     7.5491    66.3018     0.0679     2.2950     0.2143
  324.0000   -35.4052    25.2419    37.7394    37.4570     7.5520    69.6129     0.0680     2.2944     0.2146
  324.5000   -35.2581    24.9752    37.4711    43.0241     7.5682    73.2229     0.0690     2.2982     0.2145
  325.0000   -35.1121    24.7110    37.4636    48.1139     7.5994    68.0138     0.0715     2.3080     0.2061
  325.5000   -35.1175    24.1973    37.1972    47.7186     7.6311    65.9381     0.0746     2.3074     0.2028
