~VERSION INFORMATION
 VERS.                2.0:   CWLS LOG ASCII STANDARD - VERSION 2.0
 WRAP.                 NO:   ONE LINE PER DEPTH STEP
~WELL INFORMATION
#MNEM.UNIT      DATA TYPE    INFORMATION
#----------   ------------   ------------------------------
 STRT.F            6.0000:   START DEPTH
 STOP.F         4020.0000:   STOP DEPTH
 STEP.F            0.5000:   STEP LENGTH
 NULL.          -999.2500:   NO VALUE
 COMP. LAWRENCE/ALLISON INC:   COMPANY
 WELL.       66 JX #33-33:   WELL
 FLD .              NPR-3:   FIELD
 LOC .      S33 T39N R78W:   LOCATION
 CNTY.            NATRONA:   COUNTY
 STAT.            WYOMING:   STATE
 CTRY. UNITED STATES OF AMERICA:   COUNTRY
 SRVC.      Dresser Atlas:   SERVICE COMPANY
 DATE.        02-DEC-1983:   LOGDATE
 API .       490251095100:   API NUMBER
~CURVE INFORMATION
#MNEM.UNIT       API CODE    CURVE DESCRIPTION
#----------   ------------   ------------------------------
 DEPT.F                  :   
 CALD.IN     45 280 60 00:   CALIPER
 CNC .DEC    42 890 03 00:   NEUTRON POROSITY SANDSTONE
 PORD.DEC    45 890 12 00:   POROSITY DENSITY SANDSTONE
 DEN .G/C3   45 350 01 00:   COMPENSATED BULK DENSTIY
 CORR.G/C3   45 356 01 00:   DENSITY CORRECTION
 RFOC.OHMM   07 220 04 00:   RESISTIVITY FOCUSED LOG
 RILD.OHMM   07 120 46 00:   INDUCTION LOG DEEP RESISTIVITY
 RILM.OHMM   07 120 44 00:   INDUCTION LOG MEDIUM RESISTIVITY
 GRR .GAPI   07 310 01 00:   GAMMA RAY FROM RES. LOG.
 DT  .US/F   60 520 00 00:   INTERVAL TRANSIT TIME
 SPR .MV     07 010 01 00:   SPONTANEOUS POTENTIAL
~PARAMETER INFORMATION
#MNEM.UNIT          VALUE    DESCRIPTION
#----------   ------------   ------------------------------
 PD  .                 GL:   PERMANENT DATUM
 EPD .F              5141:   ELEVATION PERMANENT DATUM
 LMF .                 KB:   LOG MEASURED FROM
 DAPD.F                10:   FEET ABOVE PERMANENT DATUM
 DMF .                 KB:   DRILLING MEASURED FROM
 EKB .F              5151:   KELLING BUSHING
 EGL .F              5141:   GROUND LEVEL
 DATE.            12-2-83:   RUN DATE
 RUN .                  1:   RUN NUMBER
 DD  .F              4025:   DEPTH DRILLER
 DL  .F              4020:   DEPTH LOGGER
 BLI .F              4018:   BOTTOM LOG INTERVAL
 TLI .F                10:   TOP LOG INTERVAL
 CS  .IN            8.625:   CASING SIZE
 CBD .F               718:   CASING BOTTOM DRILLER
 CBL .F               722:   CASING BOTTOM LOGGER
 BS  .IN            7.875:   BIT SIZE
 BSD .F              4025:   BIT SIZE AT DEPTH
 DFT .            GEL/KCL:   DRILLING FLUID TYPE
 DFD .                  9:   DRILLING FLUID DENSITY
 DFV .                 45:   DRILLING FLUID VISCOSITY
 DFPH.                8.5:   DRILLING FLUID PH
 DFL .                 12:   DRILLING FLUID LOSS
 MSS .           FLOWLINE:   MUD SAMPLE SOURCE
 RMS .OHMM            .37:   RESISTIVITY MUD SAMPLE
 MST .F                88:   MUD SAMPLE TEMPERATURE
 RMF .OHMM            .29:   RESISTIVITY MUD FILTRATE SAMPLE
 MFST.F                88:   MUD FILTRATE SAMPLE TEMPERATURE
 RMC .OHMM            .46:   RESISTIVITY MUD CAKE
 MCST.F                88:   MUD CAKE SAMPLE TEMPERATURE
 MFSS.               MEAS:   MUD FILTRATE SAMPLE SOURCE
 MCSS.               CALC:   MUD CAKE SAMPLE SOURCE
 RMB .OHMM            .26:   RESISTIVITY MUD AT BHT
 BHT .F               127:   BOTTOM HOLE TEMPERATURE
 TCS .HRS               4:   TIME CURCULATED STOPPED
 MRT .F               127:   MAXIMUM RECORDED TEMPERATURE
 LUN .               6264:   LOGGING UNIT NUMBER
 LUL .              WLSTN:   LOGGING UNIT LOCATION
 ENGI.            PANASUK:   RECORDING ENGINEER
 WITN.              SCOTT:   WITNESSED BY
 CLNT.            A2DTECH:   CLIENT CODE
 ORIG.       2", 5" PRINT:   ORIGIN OF DATA
 UWI .       490251095100:   UNIQUE WELL ID
 DICO. A2D Technologies, Inc.:   DIGITIZING COMPANY
~OTHER INFORMATION
~A    DEPT    CALD        CNC       PORD        DEN       CORR       RFOC       RILD       RILM          GRR       DT        SPR   
# ...
 1348.0000     9.0976     0.2744     0.0491     2.5668     0.1178     7.8273     7.5400     7.3675    99.1583  -999.2500   -33.9857
 1348.5000     9.0923     0.2810     0.0459     2.5719     0.1351     7.7740     7.5249     7.3269   101.4278  -999.2500   -33.8914
 1349.0000     9.0869     0.2820     0.0430     2.5756     0.1353     7.7211     7.5098     7.2865   100.7201  -999.2500   -33.7979
 1349.5000     9.0816     0.2829     0.0430     2.5742     0.1329     7.6685     7.4941     7.2463    99.0847  -999.2500   -33.7034
 1350.0000     9.0762     0.2807     0.0505     2.5603     0.0921     7.6111     7.4727     7.2023   100.0461  -999.2500   -33.6111
 1350.5000     9.0709     0.2722     0.0603     2.5454     0.0521     7.6510     7.4871     7.2023   101.0185  -999.2500   -33.5134
 1351.0000     9.0655     0.2682     0.0684     2.5302     0.0361     7.6954     7.5181     7.2349   100.3928  -999.2500   -33.4411
 1351.5000     9.0602     0.2655     0.0715     2.5281     0.0562     7.7402     7.5495     7.2710   100.7362  -999.2500   -33.4693
 1352.0000     9.0549     0.2619     0.0728     2.5248     0.0818     7.7852     7.5810     7.3072   101.0945  -999.2500   -33.5247
 1352.5000     9.0497     0.2598     0.0759     2.5202     0.0832     7.8305     7.6126     7.3436   101.5527  -999.2500   -33.5545
 1353.0000     9.0431     0.2599     0.0791     2.5169     0.0829     7.8965     7.6445     7.3802   101.8388  -999.2500   -33.6298
 1353.5000     8.9958     0.2602     0.0806     2.5152     0.0757     7.8853     7.6754     7.4039   102.3518  -999.2500   -33.5734
 1354.0000     8.9454     0.2666     0.0806     2.5177     0.0544     7.8624     7.7071     7.4039    99.9417  -999.2500   -33.5250
 1354.5000     8.9499     0.2794     0.0794     2.5250     0.0367     7.8391     7.7525     7.3762    96.0102  -999.2500   -33.7848
 1355.0000     9.0054     0.2794     0.0706     2.5402     0.0514     7.8152     7.7010     7.3018    96.6877  -999.2500   -33.9910
 1355.5000     9.0041     0.2655     0.0588     2.5554     0.0680     7.7913     7.6122     7.2281    98.2897  -999.2500   -34.2212
 1356.0000     9.0040     0.2552     0.0514     2.5613     0.0675     7.7676     7.5244     7.1551    99.7461  -999.2500   -34.4456
 1356.5000     9.0040     0.2522     0.0547     2.5548     0.0632     7.7490     7.4377     7.0829   101.2964  -999.2500   -34.6225
 1357.0000     9.0044     0.2672     0.0600     2.5477     0.0587     7.5589     7.3520     7.0114   102.7355  -999.2500   -34.6022
 1357.5000     9.0054     0.2800     0.0630     2.5438     0.0578     7.4085     7.2671     6.9407   104.3530  -999.2500   -34.5582
 1358.0000     9.0064     0.2851     0.0589     2.5517     0.0599     7.2023     7.1827     6.8705   104.7281  -999.2500   -34.5184
 1358.5000     9.0074     0.2834     0.0534     2.5597     0.0638     7.2358     7.0991     6.8009   103.3975  -999.2500   -34.4734
 1359.0000     9.0084     0.2856     0.0522     2.5530     0.0775     7.3136     7.0167     6.7320   101.8159  -999.2500   -34.4393
 1359.5000     9.0094     0.2888     0.0610     2.5422     0.0858     7.4039     6.9357     6.6640   102.6690  -999.2500   -34.4143
 1360.0000     9.0104     0.2914     0.0687     2.5341     0.0891     7.2997     6.8767     6.5971   105.0520  -999.2500   -34.2678
 1360.5000     9.0113     0.2907     0.0693     2.5336     0.0819     7.1435     6.8784     6.5058   107.5740  -999.2500   -34.1270
 1361.0000     9.0123     0.2902     0.0682     2.5357     0.0714     6.9425     6.8779     6.5117   106.9291  -999.2500   -33.9873
 1361.5000     9.0133     0.2971     0.0660     2.5408     0.0608     6.9915     6.8785     6.5132   104.7546  -999.2500   -33.8461
 1362.0000     9.0143     0.2980     0.0629     2.5463     0.0501     7.0686     6.9421     6.5029   102.1709  -999.2500   -33.7085
 1362.5000     9.0153     0.2922     0.0593     2.5517     0.0470     7.1468     7.0062     6.6337   102.1732  -999.2500   -33.5642
 1363.0000     9.0163     0.2828     0.0574     2.5557     0.0401     7.2262     7.0606     6.7550   103.8932  -999.2500   -33.4315
 1363.5000     9.0173     0.2735     0.0590     2.5485     0.0412     7.3062     7.1387     6.7513   103.6134  -999.2500   -33.2771
 1364.0000     9.0183     0.2663     0.0645     2.5387     0.0494     7.3871     7.2177     6.8947   102.6697  -999.2500   -33.3193
 1364.5000     9.0192     0.2606     0.0714     2.5289     0.0576     7.4686     7.2976     6.9796   104.3667  -999.2500   -33.5449
 1365.0000     9.0202     0.2548     0.0770     2.5202     0.0659     7.5511     7.3783     7.0671   105.0555  -999.2500   -33.6358
 1365.5000     9.0212     0.2521     0.0743     2.5260     0.0744     7.6343     7.4600     7.1542   103.4762  -999.2500   -33.6314
 1366.0000     9.0222     0.2492     0.0699     2.5338     0.0802     7.7185     7.5425     7.2424   101.7303  -999.2500   -33.6291
 1366.5000     9.0232     0.2453     0.0679     2.5352     0.0635     7.8040     7.6260     7.3316   100.0019  -999.2500   -33.6615
 1367.0000     9.0246     0.2407     0.0694     2.5334     0.0554     7.8906     7.7103     7.4220    98.1058  -999.2500   -33.9975
 1367.5000     9.0276     0.2390     0.0681     2.5408     0.0340     7.9781     7.7957     7.5135    97.1490  -999.2500   -34.3495
 1368.0000     9.0305     0.2456     0.0560     2.5573     0.0169     8.1170     7.8819     7.6061    99.5588  -999.2500   -34.7096
 1368.5000     9.0334     0.2531     0.0443     2.5752     0.0236     8.1110     7.9695     7.6815   102.4103  -999.2500   -34.8364
 1369.0000     9.0363     0.2550     0.0411     2.5798     0.0403     8.0867     7.9102     7.5651   103.8448  -999.2500   -34.6688
 1369.5000     9.0393     0.2433     0.0500     2.5652     0.0742     8.0647     7.8510     7.4704   100.3475  -999.2500   -34.4789
 1370.0000     9.0422     0.2406     0.0609     2.5451     0.0839     8.0431     7.7924     7.3770    94.0354  -999.2500   -34.2885
 1370.5000     9.0451     0.2574     0.0719     2.5249     0.0638     7.9173     7.7341     7.2845    91.1380  -999.2500   -34.0959
 1371.0000     9.0480     0.2697     0.0786     2.5135     0.0334     7.7959     7.6763     7.1928    92.4364  -999.2500   -34.0252
 1371.5000     9.0509     0.2762     0.0842     2.5040     0.0382     7.6763     7.6189     7.1019    95.0877  -999.2500   -34.0347
 1372.0000     9.0539     0.2762     0.0878     2.4997     0.0491     7.5980     7.5620     7.0121    96.6345  -999.2500   -34.0292
 1372.5000     9.0568     0.2616     0.0906     2.4965     0.0491     7.5686     7.5055     6.9235    97.6867  -999.2500   -34.0327
 1373.0000     9.0597     0.2508     0.0930     2.4937     0.0197     7.5395     7.4494     6.8785    98.6609  -999.2500   -34.0293
 1373.5000     9.0626     0.2470     0.0939     2.4926     0.0055     7.5104     7.3937     6.8785    98.9639  -999.2500   -34.0471
 1374.0000     9.0639     0.2590     0.0909     2.5001     0.0106     7.4814     7.3385     6.8785    98.9601  -999.2500   -34.0761
 1374.5000     9.0617     0.2764     0.0853     2.5072     0.0375     7.4526     7.2836     6.8785    98.9187  -999.2500   -34.1007
 1375.0000     9.0588     0.2938     0.0795     2.5206     0.0280     7.4238     7.2292     6.8785    99.1960  -999.2500   -34.1270
 1375.5000     9.0560     0.2994     0.0739     2.5287     0.0327     7.3939     7.1993     6.8785   101.4242  -999.2500   -34.1517
 1376.0000     9.0532     0.2713     0.0710     2.5365     0.0523     7.3614     7.1932     6.8785   103.6636  -999.2500   -34.1784
 1376.5000     9.0504     0.2650     0.0698     2.5324     0.0847     7.3289     7.1872     6.8974   104.2958  -999.2500   -34.2036
 1377.0000     9.0475     0.2748     0.0723     2.5268     0.0981     7.2966     7.1811     6.9180   103.6804  -999.2500   -34.2172
 1377.5000     9.0447     0.2838     0.0717     2.5300     0.0951     7.2689     7.1750     6.9388   104.7296  -999.2500   -33.9922
 1378.0000     9.0419     0.2788     0.0662     2.5410     0.0847     7.4241     7.1690     6.9596   104.7835  -999.2500   -33.7977
