~VERSION INFORMATION
 VERS.                2.0:   CWLS LOG ASCII STANDARD - VERSION 2.0
 WRAP.                 NO:   ONE LINE PER DEPTH STEP
~WELL INFORMATION
#MNEM.UNIT      DATA TYPE    INFORMATION
#----------   ------------   ------------------------------
 STRT.F           36.0000:   START DEPTH
 STOP.F          686.0000:   STOP DEPTH
 STEP.F            0.5000:   STEP LENGTH
 NULL.          -999.2500:   NO VALUE
 COMP.    FENIX & SCISSON:   COMPANY
 WELL.        NPR #15-S-2:   WELL
 FLD .             TEAPOT:   FIELD
 LOC .       S2 T38N R78W:   LOCATION
 CNTY.            NATRONA:   COUNTY
 STAT.            WYOMING:   STATE
 CTRY. UNITED STATES OF AMERICA:   COUNTRY
 SRVC.       Schlumberger:   SERVICE COMPANY
 DATE.        16-MAR-1977:   LOGDATE
 API .       490251029900:   API NUMBER
~CURVE INFORMATION
#MNEM.UNIT       API CODE    CURVE DESCRIPTION
#----------   ------------   ------------------------------
 DEPT.F                  :   
 SPR .MV     07 010 01 00:   SPONTANEOUS POTENTIAL FROM RES.
 ILD .OHMM   07 120 46 00:   INDUCTION LOG DEEP
 ILM .OHMM   07 120 44 00:   INDUCTION LOG MEDIUM
 LL8 .OHMM   07 220 08 00:   LATEROLOG-8 RES.
 GRD .GAPI   45 310 01 00:   GAMMA RAY FROM DENSITY LOG
 CALD.IN     45 280 60 00:   CALIPER FROM DENSITY LOG
 CORR.G/C3   45 356 01 00:   DENSITY CORRECTION
 RHOB.G/C3   45 350 01 00:   BULK DENSITY
 DPHI.DEC    45 890 12 00:   DENSITY POROSITY SANDSTONE
~PARAMETER INFORMATION
#MNEM.UNIT          VALUE    DESCRIPTION
#----------   ------------   ------------------------------
 PD  .                 GL:   PERMANENT DATUM
 EPD .F              5129:   ELEVATION PERMANENT DATUM
 LMF .                 KB:   LOG MEASURED FROM
 DAPD.F                 4:   FEET ABOVE PERMANENT DATUM
 DMF .                 KB:   DRILLING MEASURED FROM
 EKB .F              5133:   KELLING BUSHING
 EGL .F              5129:   GROUND LEVEL
 DATE.        15-MAR-1977:   RUN DATE
 RUN .                  1:   RUN NUMBER
 DD  .F               680:   DEPTH DRILLER
 DL  .F               680:   DEPTH LOGGER
 BLI .F               683:   BOTTOM LOG INTERVAL
 TLI .F                48:   TOP LOG INTERVAL
 CS  .IN            8.625:   CASING SIZE
 CBD .F                40:   CASING BOTTOM DRILLER
 CBL .F                49:   CASING BOTTOM LOGGER
 BS  .IN            7.875:   BIT SIZE
 BSD .F               680:   BIT SIZE AT DEPTH
 DFT .            KCL MUD:   DRILLING FLUID TYPE
 DFD .                8.8:   DRILLING FLUID DENSITY
 DFV .                 33:   DRILLING FLUID VISCOSITY
 DFPH.                9.6:   DRILLING FLUID PH
 DFL .                9.0:   DRILLING FLUID LOSS
 MSS .                PIT:   MUD SAMPLE SOURCE
 RMS .OHMM           0.22:   RESISTIVITY MUD SAMPLE
 MST .F                50:   MUD SAMPLE TEMPERATURE
 RMF .OHMM           0.21:   RESISTIVITY MUD FILTRATE SAMPLE
 MFST.F                50:   MUD FILTRATE SAMPLE TEMPERATURE
 MFSS.               MEAS:   MUD FILTRATE SAMPLE SOURCE
 TCS .HRS            1800:   TIME CURCULATED STOPPED
 TLAB.HRS            2130:   TIME LOGGER AT BOTTOM
 LUN .               7711:   LOGGING UNIT NUMBER
 LUL .               CSPR:   LOGGING UNIT LOCATION
 ENGI.             TAYLER:   RECORDING ENGINEER
 CLNT.            A2DTECH:   CLIENT CODE
 ORIG.           5" PRINT:   ORIGIN OF DATA
 UWI .       490251029900:   UNIQUE WELL ID
 DICO. A2D Technologies, Inc.:   DIGITIZING COMPANY
~OTHER INFORMATION
~A   DEPT      SPR        ILD        ILM        LL8         GRD      CALD       CORR       RHOB       DPHI   
# ...
  437.5000   -61.8657    13.4387    16.0670    13.0717   105.5349     8.2332     0.0102     2.5154     0.0783
  438.0000   -61.5263    14.6278    18.7421    21.6909    97.5305     8.2347     0.0050     2.5117     0.0806
  438.5000   -60.5900    16.6219    25.1261    27.6972    92.4979     8.2210     0.0179     2.5050     0.0869
  439.0000   -59.2616    18.7216    33.2192    37.6518    88.6540     8.1932     0.0240     2.5044     0.0866
  439.5000   -58.1962    23.2731    40.1217    40.6852    72.3286     8.1794     0.0248     2.4909     0.1022
  440.0000   -57.4294    28.2641    46.4774    29.1635    64.6214     8.1810     0.0128     2.4602     0.1202
  440.5000   -56.9611    32.9304    47.4919    26.4826    58.6973     8.1825     0.0076     2.4422     0.1253
  441.0000   -56.4928    36.5543    34.2885    26.3180    61.2426     8.1840     0.0032     2.4287     0.1331
  441.5000   -56.0245    36.8268    19.6732    29.0450    65.7197     8.1855     0.0206     2.3717     0.1505
  442.0000   -55.5562    35.3603    17.1345    29.8862    70.3453     8.1870     0.0304     2.3326     0.1793
  442.5000   -55.2371    34.8925    17.1510    28.1062    73.3365     8.1246     0.0215     2.3004     0.2124
  443.0000   -54.6195    36.4016    17.8993    26.4259    77.9621     8.0415     0.0208     2.2959     0.2147
  443.5000   -54.0020    38.7654    19.6124    26.0796    80.9532     8.0281     0.0194     2.2885     0.2174
  444.0000   -53.0859    37.4736    21.9425    27.1016    82.4585     8.0296     0.0164     2.2826     0.2220
  444.5000   -52.3191    34.0392    22.4598    29.4196    83.6666     8.0311     0.0127     2.2834     0.2222
  445.0000   -51.7015    30.2848    21.2334    30.2788    83.0916     8.0474     0.0249     2.3158     0.2063
  445.5000   -51.3821    27.8924    19.9640    28.8675    77.4646     8.0638     0.0249     2.3362     0.1942
  446.0000   -51.3619    26.9625    19.3001    26.5811    75.5524     8.0813     0.0258     2.3370     0.1884
  446.5000   -51.6398    26.4272    19.4611    26.2328    75.8689     8.1112     0.0243     2.3371     0.1887
  447.0000   -51.7685    26.6290    20.4714    26.6324    78.8601     8.1424     0.0109     2.3394     0.1874
  447.5000   -51.7428    27.2059    21.8069    27.6016    80.3653     8.1439     0.0139     2.3560     0.1768
  448.0000   -51.8767    28.4606    22.7927    28.4077    81.2762     8.1460     0.0072     2.3501     0.1765
  448.5000   -51.8510    29.6949    24.9184    29.6470    81.8900     8.1617     0.0043     2.3479     0.1828
  449.0000   -51.8304    32.7465    27.4938    31.1564    81.4636     8.1635     0.0112     2.3472     0.1831
  449.5000   -51.6606    36.1117    30.9751    33.6665    78.5112     8.1944     0.0225     2.3465     0.1827
  450.0000   -51.2665    40.6568    33.3491    38.9996    76.2420     8.2107     0.0180     2.3401     0.1992
  450.5000   -50.7773    47.0567    36.4199    43.3506    73.2467     8.1782     0.0136     2.3196     0.1995
  451.0000   -50.2450    52.9794    40.1897    48.5560    70.6923     8.1546     0.0182     2.3114     0.2058
  451.5000   -48.8746    57.2252    44.3506    55.4313    67.7383     8.1414     0.0138     2.2814     0.2229
  452.0000   -47.9881    62.2399    54.3553    55.2852    65.2300     8.1430     0.0101     2.2507     0.2397
  452.5000   -47.6716    64.0537    65.6694    52.7985    64.7976     8.1447     0.0185     2.2357     0.2490
  453.0000   -47.6537    65.4665    71.3540    53.2609    67.0486     8.1463     0.0148     2.2230     0.2619
  453.5000   -47.9353    65.9922    74.5039    62.7041    67.2149     8.1479     0.0111     2.2155     0.2646
  454.0000   -48.5145    64.7087    67.7612    59.7491    67.8270     8.1499     0.0164     2.2344     0.2535
  454.5000   -48.7952    59.6247    54.0127    52.9695    69.1821     8.1515     0.0188     2.2329     0.2528
  455.0000   -48.7730    55.3211    47.3224    43.3254    70.9829     8.1531     0.0188     2.2255     0.2567
  455.5000   -48.7552    52.0265    42.4254    40.7271    73.0809     8.1547     0.0189     2.2451     0.2525
  456.0000   -48.8912    49.2825    39.6672    38.2845    75.1789     8.1564     0.0190     2.2685     0.2341
  456.5000   -49.0226    46.9785    38.8457    35.0008    77.5741     8.1580     0.0206     2.2911     0.2230
  457.0000   -49.2989    43.8772    38.1451    33.3627    80.7122     8.1596     0.0131     2.3070     0.2142
  457.5000   -49.5841    40.9799    39.0269    32.0232    82.8102     8.1612     0.0041     2.3251     0.1991
  458.0000   -49.7156    38.2393    38.8926    31.8193    85.0568     8.1628     0.0019     2.3319     0.1922
  458.5000   -49.8470    36.2447    33.1683    31.4096    85.6689     8.1645     0.0066     2.3335     0.1919
  459.0000   -49.9785    34.5603    26.5324    30.9933    85.5380     8.1661     0.0104     2.3320     0.1915
  459.5000   -49.9563    32.1515    24.4542    30.1714    82.8812     8.1525     0.0142     2.3156     0.2032
  460.0000   -49.9385    31.0935    23.4092    29.3658    80.3730     8.1100     0.0181     2.2976     0.2122
  460.5000   -49.9207    30.2788    23.5939    28.1867    79.4947     8.0523     0.0294     2.2885     0.2152
  461.0000   -50.0567    30.0949    23.9460    26.6812    80.5708     7.9945     0.0363     2.3075     0.2095
  461.5000   -50.4822    28.7130    24.3034    25.6100    82.2450     7.8181     0.0432     2.3369     0.1773
  462.0000   -51.2107    26.2749    23.9893    24.4114    85.3759     7.9236     0.0425     2.3836     0.1622
  462.5000   -51.7899    24.3784    22.8697    23.5948    86.4042     8.0736     0.0237     2.3912     0.1565
  463.0000   -52.0751    22.6188    21.5012    22.4905    83.3607     8.1791     0.0110     2.3972     0.1513
  463.5000   -51.9036    21.7219    20.3556    21.2892    81.5359     8.2252     0.0096     2.4033     0.1480
  464.0000   -51.8859    21.7456    20.0880    20.5771    81.9108     8.2412     0.0104     2.4080     0.1452
  464.5000   -51.7188    22.0721    20.9678    20.7365    83.5483     8.2280     0.0142     2.4147     0.1430
  465.0000   -51.2533    22.5590    22.0340    21.6368    84.7351     8.2148     0.0188     2.4123     0.1410
  465.5000   -50.9370    22.8978    22.8344    22.8925    85.6468     8.2168     0.0181     2.3966     0.1478
  466.0000   -50.6207    23.0816    23.4999    23.7208    85.9337     8.2035     0.0160     2.3891     0.1552
  466.5000   -50.4537    23.2670    23.6853    23.9046    83.8757     8.1904     0.0123     2.3795     0.1647
  467.0000   -50.2866    23.4538    23.7067    24.2579    81.0703     8.1920     0.0071     2.3733     0.1710
  467.5000   -50.2687    23.3169    23.5583    24.2764    80.6378     8.1936     0.0033     2.3637     0.1739
  468.0000   -50.2507    22.8641    23.4161    24.1264    82.7402     8.1953     0.0102     2.3587     0.1760
  468.5000   -50.2328    22.7310    23.2747    23.9768    85.8784     8.1969     0.0141     2.3532     0.1778
  469.0000   -50.3648    22.9140    23.4637    23.5001    88.4221     8.1985     0.0142     2.3545     0.1790
  469.5000   -50.3463    23.0979    23.3168    23.3545    91.4117     8.2001     0.0142     2.3620     0.1747
  470.0000   -50.6233    23.6074    23.0154    23.2107    92.3209     8.2018     0.0151     2.3734     0.1711
  470.5000   -50.9085    24.1282    22.4090    22.7486    92.6359     8.2034     0.0159     2.3855     0.1632
  471.0000   -51.1848    23.9810    22.1144    22.1412    91.3163     8.2050     0.0145     2.3863     0.1578
  471.5000   -51.4699    23.1884    22.4495    22.1585    88.5109     8.2066     0.0085     2.3744     0.1644
  472.0000   -51.8955    22.7475    22.9436    22.6468    87.4885     8.1934     0.0071     2.3699     0.1698
  472.5000   -52.1807    22.9308    23.2861    22.9774    86.7634     8.1954     0.0072     2.3685     0.1701
  473.0000   -52.6106    23.1365    23.3071    23.0068    86.0382     8.1971     0.0065     2.3685     0.1709
  473.5000   -53.0406    23.3260    23.1612    23.1733    85.3086     8.1987     0.0050     2.3656     0.1730
