~VERSION INFORMATION
 VERS.                2.0:   CWLS LOG ASCII STANDARD - VERSION 2.0
 WRAP.                 NO:   ONE LINE PER DEPTH STEP
~WELL INFORMATION
#MNEM.UNIT      DATA TYPE    INFORMATION
#----------   ------------   ------------------------------
 STRT.F           30.0000:   START DEPTH
 STOP.F          500.0000:   STOP DEPTH
 STEP.F            0.5000:   STEP LENGTH
 NULL.          -999.2500:   NO VALUE
 COMP. FENIX & SCISSON INC:   COMPANY
 WELL.     3-FI #55-45 SX:   WELL
 FLD .             TEAPOT:   FIELD
 LOC .       S3 T38N R78W:   LOCATION
 CNTY.            NATRONA:   COUNTY
 STAT.            WYOMING:   STATE
 CTRY. UNITED STATES OF AMERICA:   COUNTRY
 SRVC.              Welex:   SERVICE COMPANY
 DATE.        16-MAY-1980:   LOGDATE
 API .       490251082700:   API NUMBER
~CURVE INFORMATION
#MNEM.UNIT       API CODE    CURVE DESCRIPTION
#----------   ------------   ------------------------------
 DEPT.F                  :   
 SPR .MV     07 010 01 00:   SPONTANEOUS POTENTIAL
 GURD.OHMM   07 220 05 00:   GUARD RESISTIVITY
 CALD.IN     45 280 60 00:   CALIPER
 GRD .GAPI   45 310 01 00:   GAMMA RAY FROM DENSITY LOG
 RHOB.G/C3   45 350 01 00:   BULK DENSITY
 CORR.G/C3   45 356 01 00:   DENSITY CORRECTION
 NPHI.DEC    42 890 03 00:   NEUTRON POROSITY SANDSTONE
 DPHI.DEC    45 890 12 00:   DENSITY POROSITY SANDSTONE
 ILD .OHMM   07 120 46 00:   INDUCTION LOG DEEP
 ILM .OHMM   07 120 44 00:   INDUCTION LOG MEDIUM
~PARAMETER INFORMATION
#MNEM.UNIT          VALUE    DESCRIPTION
#----------   ------------   ------------------------------
 PD  .                 GL:   PERMANENT DATUM
 EPD .F              5167:   ELEVATION PERMANENT DATUM
 LMF .                 KB:   LOG MEASURED FROM
 DAPD.F                 5:   FEET ABOVE PERMANENT DATUM
 DMF .                 KB:   DRILLING MEASURED FROM
 EKB .F              5172:   KELLING BUSHING
 EGL .F              5167:   GROUND LEVEL
 DATE.            5-16-80:   RUN DATE
 RUN .                  1:   RUN NUMBER
 DD  .F               483:   DEPTH DRILLER
 DL  .F               496:   DEPTH LOGGER
 BLI .F               494:   BOTTOM LOG INTERVAL
 TLI .F                35:   TOP LOG INTERVAL
 BS  .IN             9.75:   BIT SIZE
 BSD .F               483:   BIT SIZE AT DEPTH
 DFT .            KCL MUD:   DRILLING FLUID TYPE
 DFD .                9.5:   DRILLING FLUID DENSITY
 DFV .                 45:   DRILLING FLUID VISCOSITY
 DFL .                7.5:   DRILLING FLUID LOSS
 MSS .            MUD PIT:   MUD SAMPLE SOURCE
 RMS .OHMM            .29:   RESISTIVITY MUD SAMPLE
 MST .F                75:   MUD SAMPLE TEMPERATURE
 RMF .OHMM            .23:   RESISTIVITY MUD FILTRATE SAMPLE
 MFST.F                75:   MUD FILTRATE SAMPLE TEMPERATURE
 RMC .OHMM            .35:   RESISTIVITY MUD CAKE
 MCST.F                75:   MUD CAKE SAMPLE TEMPERATURE
 MFSS.           MEASURED:   MUD FILTRATE SAMPLE SOURCE
 MCSS.           MEASURED:   MUD CAKE SAMPLE SOURCE
 TCS .HRS               2:   TIME CURCULATED STOPPED
 LUN .               9685:   LOGGING UNIT NUMBER
 LUL .             CASPER:   LOGGING UNIT LOCATION
 ENGI.            TOTHILL:   RECORDING ENGINEER
 WITN.              AMEND:   WITNESSED BY
 CLNT.            A2DTECH:   CLIENT CODE
 ORIG.           5" PRINT:   ORIGIN OF DATA
 UWI .       490251082700:   UNIQUE WELL ID
 DICO. A2D Technologies, Inc.:   DIGITIZING COMPANY
~OTHER INFORMATION
~A   DEPT      SPR         GURD     CALD        GRD       RHOB       CORR         NPHI       DPHI        ILD        ILM 
# ...
  465.5000   -38.4522     6.6804     9.8017   100.3841     2.4256    -0.0325     0.3109     0.1478     4.6631     6.2167
  466.0000   -38.1810     6.4434     9.7429   100.2506     2.4177    -0.0328     0.3132     0.1410     4.5813     6.1450
  466.5000   -37.9331     6.2149     9.7608    99.4080     2.4372    -0.0116     0.3193     0.1343     4.5010     6.0004
  467.0000   -37.6876     6.0085     9.7847    98.3876     2.4477    -0.0039     0.3210     0.1241     4.4587     5.3677
  467.5000   -37.4352     6.2888     9.8161    97.3643     2.4620     0.0069     0.3133     0.1155     4.4587     5.4736
  468.0000   -37.1870     6.5667     9.8255    96.3412     2.4776     0.0271     0.3159     0.1142     4.4885     6.3435
  468.5000   -36.9410     6.8528     9.8431    95.3071     2.4839     0.0307     0.3095     0.1164     4.5233     6.6311
  469.0000   -36.6856     7.1518     9.8076    95.1400     2.4830     0.0334     0.3144     0.1195     4.5999     6.9161
  469.5000   -36.5932     7.5149     9.7305    95.2816     2.4792     0.0264     0.3184     0.1165     4.7298     7.2139
  470.0000   -36.6011     7.7172     9.6539    96.0499     2.4728     0.0219     0.3183     0.1146     4.8634     7.5116
  470.5000   -36.5994     7.8567     9.8566    96.8017     2.4842     0.0212     0.3080     0.1104     5.0008     7.5419
  471.0000   -36.6012     7.9987     9.9353    97.5519     2.4831     0.0167  -999.2500     0.1137     5.1420     7.5712
  471.5000   -36.5987     8.1417     9.8461    98.3021     2.4876     0.0230  -999.2500     0.1177     5.2887     7.5970
  472.0000   -36.5904     8.2884     9.7535    99.0581     2.4801     0.0194  -999.2500     0.1188     5.4386     7.6242
  472.5000   -36.4294     8.4045     9.7109    99.3318     2.4780     0.0132  -999.2500     0.1114     5.5927     7.6564
  473.0000   -36.2675     8.3882     9.7476    98.5597     2.4888     0.0226  -999.2500     0.1204     5.6841     7.8005
  473.5000   -36.0986     8.3494     9.7836    96.5422     2.4730     0.0070  -999.2500     0.1267     5.6837     7.7789
  474.0000   -35.9338     8.3107     9.7989    94.5717     2.4588    -0.0099  -999.2500     0.1287     5.6673     7.7577
  474.5000   -35.7677     8.2722     9.7280    93.5516     2.4655    -0.0101  -999.2500     0.1195     5.6473     7.7365
  475.0000   -35.6015     8.2365     9.6554    94.0378     2.4694    -0.0004  -999.2500     0.1243     5.6275     7.7154
  475.5000   -35.4357     8.2045     9.6572    94.4820     2.4639    -0.0006  -999.2500     0.1236     5.6076     7.6949
  476.0000   -35.2698     8.1731     9.6830    94.8975     2.4651     0.0001  -999.2500     0.1207     5.5884     7.6735
  476.5000   -35.1019     8.1413     9.8331    95.3104     2.4746     0.0182  -999.2500     0.1139     5.5692     7.6522
  477.0000   -34.8783     8.1094     9.9399    95.7239     2.4811     0.0275  -999.2500     0.1208     5.5501     7.6317
  477.5000   -34.5667     8.0963     9.8906    96.1385     2.4747     0.0277  -999.2500     0.1258     5.5310     7.6118
  478.0000   -34.2533     8.0973     9.8117    96.5621     2.4648     0.0198  -999.2500     0.1292     5.5120     7.5906
  478.5000   -33.9380     8.0985     9.7555    96.6437     2.4557     0.0104  -999.2500     0.1414     5.4931     7.5669
  479.0000   -33.6239     8.0976     9.7940    96.6501     2.4395     0.0011  -999.2500     0.1535     5.4736     7.5473
  479.5000   -33.3085     8.0969     9.8937    96.4015     2.4209    -0.0171  -999.2500     0.1634     5.3923     7.5281
  480.0000   -32.9959     8.0969     9.8841    96.0899     2.4018    -0.0401  -999.2500     0.1630     5.3095     7.5150
  480.5000   -32.6809     7.9049     9.7911    95.7758     2.3972    -0.0484  -999.2500     0.1558     5.2279     7.6564
  481.0000   -32.4587     7.7098     9.7014    95.4568     2.4147    -0.0401  -999.2500     0.1459     5.1477     7.3401
  481.5000   -32.2740     7.5194     9.7104    95.1921     2.4268    -0.0271  -999.2500     0.1439     5.0686     7.1439
  482.0000   -32.0877     7.3338     9.7787  -999.2500     2.4340    -0.0144  -999.2500     0.1424     4.9908     6.9531
  482.5000   -31.9003     7.1527     9.8585  -999.2500     2.4387    -0.0060  -999.2500     0.1379     4.9142     6.7673
  483.0000   -31.7141     6.8665     9.9409  -999.2500     2.4430     0.0022  -999.2500     0.1480     4.8387     6.6152
  483.5000   -31.5271     6.5551     9.9584  -999.2500     2.4353     0.0104  -999.2500     0.1681     4.7644     6.3155
  484.0000   -31.3408     6.2577     9.9337  -999.2500     2.4062     0.0090  -999.2500     0.1882     4.6912     6.0279
  484.5000   -31.1542     5.9738     9.9013  -999.2500     2.3680    -0.0144  -999.2500     0.1997     4.6192     5.7533
  485.0000   -30.9661     5.7028     9.8688  -999.2500     2.3473    -0.0246  -999.2500     0.2053     4.5426     5.4914
  485.5000   -30.7833     5.4441     9.8365  -999.2500     2.3353    -0.0243  -999.2500     0.2085     4.5426     5.2702
  486.0000   -30.5900     5.0275     9.8042  -999.2500     2.3242    -0.0176  -999.2500     0.2097     4.5426     5.0245
  486.5000   -30.4074     4.6281     9.7719  -999.2500     2.3263     0.0024  -999.2500     0.2290     4.5426     4.8247
  487.0000   -30.2305     3.7413     9.7338  -999.2500     2.3087     0.0137  -999.2500     0.2395     4.5426     4.6354
  487.5000   -30.0087     3.0942     9.7170  -999.2500     2.2883     0.0175  -999.2500     0.2445     4.5426     4.5426
  488.0000   -29.5615     2.5585     9.7575  -999.2500     2.2679     0.0264  -999.2500     0.2462     4.5426     4.6206
  488.5000   -29.1325     2.1148     9.8125  -999.2500     2.2654     0.0481  -999.2500     0.2309     4.5426     4.7152
  489.0000   -29.0457     1.9928     9.8322  -999.2500     2.2812     0.0692  -999.2500     0.2092     4.5388     4.6993
  489.5000   -29.2566     2.2545     9.8112  -999.2500     2.3135     0.0903  -999.2500     0.1901     4.5257     4.6764
  490.0000   -29.4076     2.5923     9.7883  -999.2500     2.3457     0.1017  -999.2500     0.1703     4.5125     4.6536
  490.5000   -29.2394     4.0704     9.6999  -999.2500     2.3777     0.0916  -999.2500     0.1504     4.4995     4.6309
  491.0000   -28.8424     5.4745     9.5522  -999.2500     2.4202     0.0816  -999.2500     0.1421     4.4865     4.6083
  491.5000   -28.4542     5.9018     9.4043  -999.2500     2.4373     0.0840  -999.2500     0.1379     4.4738     4.5859
  492.0000   -28.3516     5.8973     9.2554  -999.2500     2.4434     0.0952  -999.2500     0.1397     4.4583     4.5635
  492.5000   -28.6552     5.8795     9.1032  -999.2500     2.4455     0.1060  -999.2500     0.1458     4.4568     4.5426
  493.0000   -29.2444     5.8723     9.0544  -999.2500     2.4349     0.1045  -999.2500     0.1519     4.4838     4.5426
  493.5000   -29.7920     5.8675     9.0147  -999.2500     2.4245     0.0945  -999.2500     0.1527     4.5268     4.6281
  494.0000   -35.4493     5.8571     9.0159  -999.2500     2.4209     0.0856  -999.2500     0.1495     4.5685     4.7554
  494.5000   -41.2538     5.8461     9.0160  -999.2500     2.4209     0.0914  -999.2500     0.1570     4.6069     4.8797
  495.0000   -43.5918     5.8373     9.0160  -999.2500     2.4085     0.0836  -999.2500     0.1472     4.6843     5.0072
  495.5000   -42.9603     5.8288     9.0160  -999.2500     2.4342     0.0878  -999.2500     0.1480     4.7740     5.3164
  496.0000   -42.4811     5.8204     9.0160  -999.2500     2.4264     0.0920  -999.2500     0.1333     4.8341     5.8977
  496.5000   -42.0186     5.8120  -999.2500  -999.2500  -999.2500  -999.2500  -999.2500  -999.2500     4.8990     6.5426
  497.0000   -41.4866     5.8035  -999.2500  -999.2500  -999.2500  -999.2500  -999.2500  -999.2500     5.3251     7.2581
  497.5000   -40.9991     5.7951  -999.2500  -999.2500  -999.2500  -999.2500  -999.2500  -999.2500     5.9168     8.0517
  498.0000   -40.6099     5.7885  -999.2500  -999.2500  -999.2500  -999.2500  -999.2500  -999.2500     6.7979     8.9321
  498.5000  -999.2500     5.7885  -999.2500  -999.2500  -999.2500  -999.2500  -999.2500  -999.2500     7.8109     9.9089
