~VERSION INFORMATION
 VERS.                2.0:   CWLS LOG ASCII STANDARD - VERSION 2.0
 WRAP.                 NO:   ONE LINE PER DEPTH STEP
~WELL INFORMATION
#MNEM.UNIT      DATA TYPE    INFORMATION
#----------   ------------   ------------------------------
 STRT.F           60.0000:   START DEPTH
 STOP.F          482.0000:   STOP DEPTH
 STEP.F            0.5000:   STEP LENGTH
 NULL.          -999.2500:   NO VALUE
 COMP. BROWN JOHN E&C INC:   COMPANY
 WELL. NPR 3 68 SX-3 #68-1-3:   WELL
 FLD .             TEAPOT:   FIELD
 LOC .       S3 T38N R78W:   LOCATION
 CNTY.            NATRONA:   COUNTY
 STAT.            WYOMING:   STATE
 CTRY. UNITED STATES OF AMERICA:   COUNTRY
 SRVC.     Atlas Wireline:   SERVICE COMPANY
 DATE.        29-SEP-1991:   LOGDATE
 API .       490252244800:   API NUMBER
~CURVE INFORMATION
#MNEM.UNIT       API CODE    CURVE DESCRIPTION
#----------   ------------   ------------------------------
 DEPT.F                  :   
 CALD.IN     45 280 60 00:   CALIPER FROM DENSITY LOG
 CNC .DEC    42 890 03 00:   NEUTRON POROSITY SANDSTONE
 CORR.G/C3   45 356 01 00:   DENSITY CORRECTION
 GRD .GAPI   45 310 01 00:   GAMMA RAY FROM DENSITY LOG
 PORD.DEC    45 890 12 00:   POROSITY DENSITY SANDSTONE
 RHOB.G/C3   45 350 01 00:   BULK DENSITY
 RFOC.OHMM   07 220 04 00:   RESISTIVITY FOCUSED LOG
 RILD.OHMM   07 120 46 00:   RESISTIVITY INDUCTION LOG DEEP
 RILM.OHMM   07 120 44 00:   RESISTIVITY INDUCTION LOG MEDIUM
~PARAMETER INFORMATION
#MNEM.UNIT          VALUE    DESCRIPTION
#----------   ------------   ------------------------------
 PD  .                 GL:   PERMANENT DATUM
 EPD .F              5153:   ELEVATION PERMANENT DATUM
 LMF .                 KB:   LOG MEASURED FROM
 DAPD.F                10:   FEET ABOVE PERMANENT DATUM
 DMF .                 KB:   DRILLING MEASURED FROM
 EKB .F              5163:   KELLING BUSHING
 EGL .F              5153:   GROUND LEVEL
 DATE.        29-SEP-1991:   RUN DATE
 RUN .                  1:   RUN NUMBER
 DD  .F               485:   DEPTH DRILLER
 DL  .F               485:   DEPTH LOGGER
 BLI .F               482:   BOTTOM LOG INTERVAL
 CS  .IN            8.625:   CASING SIZE
 CBD .F                98:   CASING BOTTOM DRILLER
 CBL .F               100:   CASING BOTTOM LOGGER
 BS  .IN            7.875:   BIT SIZE
 BSD .F               485:   BIT SIZE AT DEPTH
 DFT .           CHEM GEL:   DRILLING FLUID TYPE
 DFD .               15.4:   DRILLING FLUID DENSITY
 DFV .                 38:   DRILLING FLUID VISCOSITY
 DFPH.                9.0:   DRILLING FLUID PH
 DFL .                8.0:   DRILLING FLUID LOSS
 MSS .           FLOWLINE:   MUD SAMPLE SOURCE
 RMS .OHMM           1.65:   RESISTIVITY MUD SAMPLE
 MST .F                90:   MUD SAMPLE TEMPERATURE
 RMF .OHMM           1.32:   RESISTIVITY MUD FILTRATE SAMPLE
 MFST.F                90:   MUD FILTRATE SAMPLE TEMPERATURE
 RMC .OHMM           2.06:   RESISTIVITY MUD CAKE
 MCST.F                90:   MUD CAKE SAMPLE TEMPERATURE
 MFSS.               CALC:   MUD FILTRATE SAMPLE SOURCE
 MCSS.               CALC:   MUD CAKE SAMPLE SOURCE
 RMB .OHMM           1.65:   RESISTIVITY MUD AT BHT
 BHT .F                90:   BOTTOM HOLE TEMPERATURE
 TCS .HRS               1:   TIME CURCULATED STOPPED
 MRT .F                90:   MAXIMUM RECORDED TEMPERATURE
 LUN .            HL 6272:   LOGGING UNIT NUMBER
 LUL .             CASPER:   LOGGING UNIT LOCATION
 ENGI. WADDELL/ OTTERHOLT:   RECORDING ENGINEER
 WITN.             STRONG:   WITNESSED BY
 CLNT.            A2DTECH:   CLIENT CODE
 ORIG.           5" PRINT:   ORIGIN OF DATA
 UWI .       490252244800:   UNIQUE WELL ID
 DICO. A2D Technologies, Inc.:   DIGITIZING COMPANY
~OTHER INFORMATION
~A   DEPT     CALD        CNC       CORR         GRD      PORD       RHOB       RFOC       RILD       RILM   
# ...
  133.0000     8.2454     0.3252    -0.0003    90.1664     0.0989     2.4763     7.9555     9.0258     8.1435
  133.5000     8.2467     0.3262     0.0013    90.1664     0.1001     2.4846     7.9599     8.9658     8.2044
  134.0000     8.2636     0.3282     0.0013    89.8638     0.0959     2.4900     7.9085     9.0331     8.2082
  134.5000     8.2803     0.3258     0.0029    89.5613     0.0931     2.4961     7.8586     9.1000     8.0984
  135.0000     8.2969     0.3228     0.0034    88.9561     0.0906     2.4992     7.8070     9.0403     7.9899
  135.5000     8.2981     0.3200     0.0060    88.6536     0.0874     2.5038     7.8123     8.9154     7.7739
  136.0000     8.2992     0.3194     0.0080    88.9561     0.0852     2.5091     7.8165     8.4387     7.5646
  136.5000     8.3005     0.3258     0.0097    88.9561     0.0843     2.5122     7.8230     7.9838     7.4624
  137.0000     8.3017     0.3282     0.0106    88.6536     0.0822     2.5167     7.9363     7.4487     7.3634
  137.5000     8.3029     0.3291     0.0061    87.7458     0.0789     2.5206     7.9964     7.3992     7.3669
  138.0000     8.3198     0.3281     0.0061    85.9304     0.0770     2.5198     8.0569     7.4547     7.2675
  138.5000     8.3210     0.3269     0.0062    86.2330     0.0819     2.5160     8.0612     7.4577     7.3226
  139.0000     8.3167     0.3260     0.0047    86.5356     0.0849     2.5046     8.1222     7.4532     7.4809
  139.5000     8.3077     0.3254     0.0001    87.4433     0.0922     2.4946     8.1837     7.2590     7.1786
  140.0000     8.3091     0.3214    -0.0044    87.4433     0.0955     2.4909     8.1882     6.9642     7.0817
  140.5000     8.3104     0.3271    -0.0074    85.9477     0.0964     2.4894     8.0787     6.6814     6.8910
  141.0000     8.3183     0.3335    -0.0059    85.0548     0.0964     2.4887     8.0277     6.5908     6.7046
  141.5000     8.3283     0.3426     0.0002    85.3722     0.0964     2.4895     7.8652     6.5027     6.4330
  142.0000     8.3296     0.3547     0.0033    85.3870     0.0964     2.4902     7.6522     6.5054     6.0025
  142.5000     8.3308     0.3601     0.0033    85.7044     0.0958     2.4903     7.1889     6.5086     5.9222
  143.0000     8.3320     0.3622     0.0019    86.3244     0.0952     2.4910     6.8489     6.6489     6.0089
  143.5000     8.3487     0.3616    -0.0027    86.9443     0.0949     2.4895     6.8527     6.7923     6.0538
  144.0000     8.3499     0.3525    -0.0042    87.2617     0.0958     2.4804     7.2016     7.2354     6.2279
  144.5000     8.3356     0.3492     0.0020    87.2769     0.0995     2.4705     7.4621     7.6007     6.4519
  145.0000     8.3369     0.3486     0.0096    87.2415     0.1098     2.4690     7.6245     7.8226     6.6375
  145.5000     8.3382     0.3492     0.0188    86.0996     0.1106     2.4728     7.7362     7.9328     6.8291
  146.0000     8.3395     0.3449     0.0157    85.2030     0.1076     2.4805     7.8495     7.8260     7.0408
  146.5000     8.3407     0.3319     0.0036    86.7344     0.1027     2.4866     7.8537     7.7199     7.2278
  147.0000     8.3573     0.3278     0.0021    89.7749     0.0976     2.4919     7.9133     7.5638     7.2312
  147.5000     8.3588     0.3258     0.0037    90.6975     0.0933     2.4942     7.9185     7.3074     7.1835
  148.0000     8.3754     0.3273     0.0052    90.1034     0.0918     2.4965     7.9227     7.0080     7.0381
  148.5000     8.3766     0.3303     0.0052    89.8157     0.0936     2.4958     7.9827     6.7737     6.8486
  149.0000     8.3778     0.3333     0.0053    91.0445     0.0955     2.4874     7.9870     6.5440     6.6134
  149.5000     8.3790     0.3388     0.0038    91.0842     0.0958     2.4866     7.9354     6.1482     5.9220
  150.0000     8.3957     0.3563     0.0023    90.1664     0.0952     2.4890     7.8295     5.9396     5.4108
  150.5000     8.3960     0.3669    -0.0007    88.3157     0.0942     2.4890     7.6644     5.6126     5.1500
  151.0000     8.4118     0.3730    -0.0007    86.1623     0.0973     2.4844     7.3064     5.5033     4.8770
  151.5000     8.3966     0.3780    -0.0022    84.1631     0.1093     2.4768     6.7147     5.4278     4.9822
  152.0000     8.4124     0.3878    -0.0022    83.5691     0.1364     2.4540     5.2264     5.4672     5.1606
  152.5000     8.4127     0.3826    -0.0052    82.3773     0.1439     2.4189     5.5685     5.4683     5.3455
  153.0000     8.4439     0.3678    -0.0083    81.7833     0.1260     2.4372     6.8722     5.6636     5.6148
  153.5000     8.4597     0.3435    -0.0144    84.2224     0.1091     2.4616     7.6360     5.9505     5.9804
  154.0000     8.4754     0.3308    -0.0218    84.5398     0.0965     2.4837     8.0226     6.4245     6.2433
  154.5000     8.4757     0.3217    -0.0203    84.2484     0.0914     2.4989     8.0259     6.7005     6.6913
  155.0000     8.4760     0.3143    -0.0202    84.2669     0.0883     2.5050     8.0299     7.0373     6.9795
  155.5000     8.4764     0.3050    -0.0187    84.2817     0.0868     2.5050     8.0896     7.3910     7.2801
  156.0000     8.4767     0.2938    -0.0156    84.9017     0.0871     2.5031     8.0929     7.7086     7.4885
  156.5000     8.4770     0.2926    -0.0141    86.1271     0.0883     2.5012     8.0962     8.0961     7.7568
  157.0000     8.4773     0.2983    -0.0095    85.5364     0.0892     2.4997     8.2136     8.2721     7.8684
  157.5000     8.4776     0.3216    -0.0079    84.9461     0.0901     2.4990     8.3327     8.3290     7.8711
  158.0000     8.4779     0.3198    -0.0064    87.3852     0.0901     2.4981     8.3362     8.2723     7.8743
  158.5000     8.4782     0.3267    -0.0079    89.8206     0.0894     2.4965     8.3403     8.2744     7.8770
  159.0000     8.4630     0.3322    -0.0093    90.4406     0.0891     2.4959     8.3437     8.3340     7.8796
  159.5000     8.4479     0.3300    -0.0063    90.4554     0.0909     2.4937     8.3471     8.3357     7.8823
  160.0000     8.4343     0.3300    -0.0032    92.5882     0.0924     2.4929     8.3505     8.3374     7.8295
  160.5000     8.4176     0.3315    -0.0016    94.1159     0.0918     2.4983     8.3538     8.4563     7.8876
  161.0000     8.4179     0.3324    -0.0001    93.8281     0.0894     2.5089     8.3573     8.4581     7.8903
  161.5000     8.4028     0.3321    -0.0016    91.7250     0.0863     2.5143     8.3614     8.4601     7.8936
  162.0000     8.4031     0.3300    -0.0031    90.2269     0.0818     2.5135     8.4236     8.5211     7.8962
  162.5000     8.4034     0.3269    -0.0061    91.1750     0.0827     2.5120     8.4862     8.5825     7.9542
  163.0000     8.4037     0.3245    -0.0091    91.7700     0.0851     2.5097     8.6093     8.5842     8.1250
  163.5000     8.4154     0.3224    -0.0106    92.0905     0.0866     2.5066     8.7955     8.5860     8.3576
  164.0000     8.4198     0.3218    -0.0121    92.1053     0.0887     2.5029     8.9858     8.5877     8.5372
  164.5000     8.4201     0.3227    -0.0121    93.6330     0.0899     2.5014     9.0526     8.5899     8.6600
  165.0000     8.4204     0.3254    -0.0090    93.6479     0.0895     2.5090     9.1207     8.8348     8.6636
  165.5000     8.4208     0.3290    -0.0059    91.8472     0.0856     2.5303     9.0608     8.8365     8.6665
  166.0000     8.4211     0.3338    -0.0028    89.4415     0.0735     2.5433     9.0003     8.8383     8.5494
  166.5000     8.4368     0.3374    -0.0013    88.2423     0.0647     2.5479     8.8178     8.6570     8.3752
  167.0000     8.4526     0.3390     0.0003    89.1685     0.0592     2.5425     8.5180     8.3037     8.0910
  167.5000     8.4683     0.3398     0.0033    90.6962     0.0637     2.5212     8.2862     8.0694     7.8711
  168.0000     8.4841     0.3395     0.0050    91.3162     0.0710     2.5121     8.4072     8.0223     7.8191
  168.5000     8.4903     0.3371     0.0065    91.3313     0.0806     2.5106     8.4697     7.9681     7.7674
  169.0000     8.5156     0.3347     0.0050    90.9935     0.0855     2.5098     8.4140     8.0259     7.6630
