~VERSION INFORMATION
 VERS.                2.0:   CWLS LOG ASCII STANDARD - VERSION 2.0
 WRAP.                 NO:   ONE LINE PER DEPTH STEP
~WELL INFORMATION
#MNEM.UNIT      DATA TYPE    INFORMATION
#----------   ------------   ------------------------------
 STRT.F           95.0000:   START DEPTH
 STOP.F          922.0000:   STOP DEPTH
 STEP.F            0.5000:   STEP LENGTH
 NULL.          -999.2500:   NO VALUE
 COMP.          U.S. NAVY:   COMPANY
 WELL. RES 3 TEAPOT DOM #57S-11:   WELL
 FLD .             TEAPOT:   FIELD
 LOC .      S11 T38N R78W:   LOCATION
 CNTY.            NATRONA:   COUNTY
 STAT.            WYOMING:   STATE
 CTRY. UNITED STATES OF AMERICA:   COUNTRY
 SRVC.       Schlumberger:   SERVICE COMPANY
 DATE.        02-AUG-1961:   LOGDATE
 API .       490250632800:   API NUMBER
~CURVE INFORMATION
#MNEM.UNIT       API CODE    CURVE DESCRIPTION
#----------   ------------   ------------------------------
 DEPT.F                  :   
 GR  .GAPI   30 310 01 00:   GAMMA RAY
 SPR .MV     05 010 01 00:   SPONTANEOUS POTENTIAL FROM RES.
 CILD.MMHO   05 110 46 00:   CONDUCTIVITY INDUCTION LOG DEEP
 ASN .OHMM   05 041 16 00:   AMPLIFIED SHORT NORMAL 16"
 ILD .OHMM   05 120 46 00:   INDUCTION LOG DEEP
~PARAMETER INFORMATION
#MNEM.UNIT          VALUE    DESCRIPTION
#----------   ------------   ------------------------------
 PD  .                 GL:   PERMANENT DATUM
 EPD .F              5213:   ELEVATION PERMANENT DATUM
 LMF .                 KB:   LOG MEASURED FROM
 DAPD.F                 6:   FEET ABOVE PERMANENT DATUM
 DMF .                 KB:   DRILLING MEASURED FROM
 EKB .F              5219:   KELLING BUSHING
 EGL .F              5213:   GROUND LEVEL
 DATE.             8-2-61:   RUN DATE
 RUN .                  1:   RUN NUMBER
 DD  .F               920:   DEPTH DRILLER
 DL  .F               921:   DEPTH LOGGER
 BLI .F               920:   BOTTOM LOG INTERVAL
 TLI .F               100:   TOP LOG INTERVAL
 BS  .IN             6.75:   BIT SIZE
 BSD .F               920:   BIT SIZE AT DEPTH
 DFT .       OIL EMULSION:   DRILLING FLUID TYPE
 DFD .                9.2:   DRILLING FLUID DENSITY
 DFV .                 55:   DRILLING FLUID VISCOSITY
 MFSS.                  M:   MUD FILTRATE SAMPLE SOURCE
 MCSS.                  M:   MUD CAKE SAMPLE SOURCE
 RMB .OHMM            .75:   RESISTIVITY MUD AT BHT
 BHT .F                80:   BOTTOM HOLE TEMPERATURE
 TCS .HRS               1:   TIME CURCULATED STOPPED
 MRT .F                80:   MAXIMUM RECORDED TEMPERATURE
 LUN .               2552:   LOGGING UNIT NUMBER
 LUL .                RIV:   LOGGING UNIT LOCATION
 ENGI.             RANDLE:   RECORDING ENGINEER
 WITN.          VORGENSEN:   WITNESSED BY
 CLNT.            A2DTECH:   CLIENT CODE
 ORIG.       2", 5" PRINT:   ORIGIN OF DATA
 UWI .       490250632800:   UNIQUE WELL ID
 DICO. A2D Technologies, Inc.:   DIGITIZING COMPANY
~OTHER INFORMATION
~A   DEPT       GR        SPR       CILD        ASN        ILD   
   95.0000  -999.2500   -52.2044  -999.2500  -999.2500  -999.2500
   95.5000  -999.2500   -52.2044  -999.2500  -999.2500  -999.2500
   96.0000  -999.2500   -52.2044  -999.2500  -999.2500  -999.2500
   96.5000  -999.2500   -52.2044   137.7755  -999.2500  -999.2500
   97.0000  -999.2500   -52.2044   137.5136  -999.2500  -999.2500
   97.5000  -999.2500   -52.2044   136.6633  -999.2500  -999.2500
   98.0000  -999.2500   -52.2044   135.8130  -999.2500  -999.2500
   98.5000  -999.2500   -52.2929   134.7695  -999.2500  -999.2500
   99.0000  -999.2500   -52.2060   134.0030     8.1663  -999.2500
   99.5000  -999.2500   -52.2683   132.7655     8.1864     7.3594
  100.0000  -999.2500   -52.3581   133.0777     8.2113     7.2999
  100.5000  -999.2500   -52.4430   133.6053     8.1509     7.2404
  101.0000  -999.2500   -52.5301   134.2758     8.0904     7.1808
  101.5000  -999.2500   -52.6163   136.7735     8.0300     7.1213
  102.0000  -999.2500   -52.7027   138.0594     7.9587     7.0618
  102.5000  -999.2500   -52.7943   139.7378     7.9229     7.0446
  103.0000  -999.2500   -52.7918   141.4162     7.7987     6.9723
  103.5000  -999.2500   -52.7666   143.0945     7.7485     6.9127
  104.0000  -999.2500   -52.7471   144.7729     7.7224     6.8534
  104.5000  -999.2500   -52.7246   146.7936     7.7027     6.7933
  105.0000  -999.2500   -52.7039   145.7916     7.6683     6.7344
  105.5000  -999.2500   -52.6821   145.7916     7.6651     6.6739
  106.0000  -999.2500   -52.6613   145.7916     7.6790     6.7456
  106.5000  -999.2500   -52.6391   146.7936     7.6960     6.7449
  107.0000  -999.2500   -52.6191   146.7936     7.7152     6.7090
  107.5000  -999.2500   -52.5814   146.7936     7.7250     6.6834
  108.0000  -999.2500   -52.5203   146.7936     7.6965     6.6532
  108.5000  -999.2500   -52.4601   146.7936     7.6607     6.6243
  109.0000  -999.2500   -52.3989   146.7936     7.6255     6.5970
  109.5000  -999.2500   -52.3382   146.7936     7.5886     6.5630
  110.0000  -999.2500   -52.2772   146.7936     7.5891     6.5913
  110.5000  -999.2500   -52.2164   146.7936     7.6852     6.6800
  111.0000  -999.2500   -52.1554   146.7936     7.8096     6.7646
  111.5000  -999.2500   -52.0949   145.2046     7.9330     6.8519
  112.0000  -999.2500   -52.0332   143.3584     7.9723     6.9381
  112.5000  -999.2500   -51.9966   141.5122     7.9992     7.0239
  113.0000  -999.2500   -52.0507   139.6660     8.0271     7.1130
  113.5000  -999.2500   -52.1595   137.8198     8.0831     7.2098
  114.0000  -999.2500   -52.2543   135.7715     8.1819     7.3183
  114.5000  -999.2500   -52.3655   134.3367     8.2788     7.4311
  115.0000  -999.2500   -52.4060   132.7254     8.3768     7.5426
  115.5000  -999.2500   -52.4122   131.1142     8.4752     7.6603
  116.0000  -999.2500   -52.3212   129.5030     8.5716     7.7707
  116.5000  -999.2500   -52.1365   127.7555     8.6737     7.8875
  117.0000  -999.2500   -51.9736   125.7070     8.7657     8.0043
  117.5000  -999.2500   -51.8036   123.4692     8.8477     8.1208
  118.0000  -999.2500   -51.6320   121.2314     8.9329     8.2382
  118.5000  -999.2500   -51.4724   118.9935     9.0201     8.3536
  119.0000  -999.2500   -51.4745   117.7355     9.0982     8.4729
  119.5000  -999.2500   -51.6282   116.5551     9.1359     8.5851
  120.0000  -999.2500   -52.0783   116.1523     9.1998     8.7120
  120.5000  -999.2500   -52.3952   115.7495     9.2618     8.7696
  121.0000  -999.2500   -52.1370   115.3467     9.3250     8.7030
  121.5000  -999.2500   -51.6688   114.9439     9.3854     8.6382
  122.0000  -999.2500   -51.6222   115.4830     9.3821     8.5696
  122.5000  -999.2500   -51.8957   117.0942     9.2820     8.5028
  123.0000  -999.2500   -52.1303   118.7054     9.1651     8.4361
  123.5000  -999.2500   -52.2124   120.3166     9.0646     8.3632
  124.0000  -999.2500   -52.1818   121.9279     8.9777     8.2416
  124.5000  -999.2500   -52.1734   123.4068     8.8882     8.1123
  125.0000  -999.2500   -52.1550   124.7495     8.7999     7.9844
  125.5000  -999.2500   -52.1423   126.0922     8.7109     7.8561
  126.0000  -999.2500   -52.1264   127.4349     8.6224     7.7278
  126.5000  -999.2500   -52.1119   128.7575     8.5337     7.6061
  127.0000  -999.2500   -52.0960   130.8016     8.4453     7.4913
  127.5000  -999.2500   -52.0824   132.8156     8.3564     7.3755
  128.0000  -999.2500   -52.0647   134.8297     8.2681     7.2613
  128.5000  -999.2500   -52.0548   136.8437     8.1788     7.1446
  129.0000  -999.2500   -52.0302   138.8577     8.0914     7.0323
  129.5000  -999.2500   -52.0340   140.7816     7.9987     6.9120
  130.0000  -999.2500   -51.9566   142.0967     7.8593     6.8554
  130.5000  -999.2500   -51.7849   143.3555     7.7209     6.8305
  131.0000  -999.2500   -51.7439   144.6142     7.6124     6.7934
  131.5000  -999.2500   -51.6417   145.7916     7.6039     6.7616
  132.0000  -999.2500   -51.6041   145.7916     7.6052     6.7279
  132.5000  -999.2500   -51.6621   146.2703     7.6053     6.6935
  133.0000  -999.2500   -51.7303   146.7179     7.6049     6.6667
  133.5000  -999.2500   -51.7979   147.1654     7.6065     6.6493
  134.0000  -999.2500   -51.8657   147.6130     7.6016     6.6166
  134.5000  -999.2500   -51.9332   149.2861     7.5752     6.5926
  135.0000  -999.2500   -52.0013   151.8036     7.5316     6.5476
  135.5000  -999.2500   -52.0683   154.8263     7.3817     6.3802
  136.0000  -999.2500   -52.1379   158.1830     7.2311     6.2321
  136.5000  -999.2500   -52.1947   161.5397     7.0836     6.0886
  137.0000  -999.2500   -52.1408   164.8965     6.9745     5.9449
  137.5000  -999.2500   -52.0716   167.8357     6.8938     5.7994
  138.0000  -999.2500   -52.0008   171.0707     6.8208     5.6581
  138.5000  -999.2500   -51.8879   173.9479     6.7808     5.5103
  139.0000  -999.2500   -51.7715   176.8251     6.7240     5.4572
  139.5000  -999.2500   -51.6554   178.2866     6.5521     5.4865
  140.0000  -999.2500   -51.5399   178.8577     6.3790     5.5043
  140.5000  -999.2500   -51.4229   178.8577     6.3335     5.5276
  141.0000  -999.2500   -51.3090   177.6954     6.4596     5.5479
  141.5000  -999.2500   -51.2018   176.8537     6.5775     5.5697
  142.0000  -999.2500   -51.2649   175.1485     6.6925     5.5909
  142.5000  -999.2500   -51.3953   173.6837     6.7677     5.6123
  143.0000  -999.2500   -51.5188   172.2190     6.7961     5.6336
  143.5000  -999.2500   -51.6307   170.7542     6.7670     5.6541
  144.0000  -999.2500   -51.7744   169.2895     6.7328     5.6684
  144.5000  -999.2500   -51.7568   169.3019     6.7025     5.6793
  145.0000  -999.2500   -51.5919   169.8397     6.6669     5.6898
  145.5000  -999.2500   -51.6048   169.8397     6.6511     5.7004
  146.0000  -999.2500   -51.6126   169.1283     6.7071     5.7111
  146.5000  -999.2500   -51.4552   168.1212     6.7267     5.7216
  147.0000  -999.2500   -51.3886   167.1142     6.7398     5.7323
  147.5000  -999.2500   -51.4096   167.3180     6.7549     5.7428
  148.0000  -999.2500   -51.3988   167.9893     6.7686     5.7538
  148.5000  -999.2500   -51.4050   168.6606     6.7830     5.7615
  149.0000  -999.2500   -51.4013   167.7254     6.7973     5.7617
  149.5000  -999.2500   -51.4043   166.2149     6.8111     5.7617
  150.0000  -999.2500   -51.3964   164.7044     6.8260     5.7619
  150.5000  -999.2500   -51.3523   162.8257     6.8388     5.7617
  151.0000  -999.2500   -51.3110   164.0949     6.8564     5.7608
  151.5000  -999.2500   -51.2720   165.7732     6.8484     5.7230
  152.0000  -999.2500   -51.2264   167.8357     6.7802     5.6678
  152.5000  -999.2500   -51.2024   169.9065     6.6955     5.6157
  153.0000  -999.2500   -51.2813   172.5918     6.6105     5.5622
  153.5000  -999.2500   -51.3845   175.8517     6.5275     5.5090
  154.0000  -999.2500   -51.4850   178.7542     6.4381     5.4565
  154.5000  -999.2500   -51.5868   182.4466     6.3457     5.4021
  155.0000  -999.2500   -51.6877   186.8737     6.2567     5.3516
  155.5000  -999.2500   -51.7977   187.8417     6.1414     5.2918
