~VERSION INFORMATION
 VERS.                2.0:   CWLS LOG ASCII STANDARD - VERSION 2.0
 WRAP.                 NO:   ONE LINE PER DEPTH STEP
~WELL INFORMATION
#MNEM.UNIT      DATA TYPE    INFORMATION
#----------   ------------   ------------------------------
 STRT.F          350.0000:   START DEPTH
 STOP.F         2259.0000:   STOP DEPTH
 STEP.F            0.5000:   STEP LENGTH
 NULL.          -999.2500:   NO VALUE
 COMP. LAWRENCE/ALLISON INC:   COMPANY
 WELL.        45 X #33-33:   WELL
 FLD .             TEAPOT:   FIELD
 LOC .      S33 T39N R78W:   LOCATION
 CNTY.            NATRONA:   COUNTY
 STAT.            WYOMING:   STATE
 CTRY. UNITED STATES OF AMERICA:   COUNTRY
 SRVC.      NL McCullough:   SERVICE COMPANY
 DATE.        19-MAY-1988:   LOGDATE
 API .       490251119400:   API NUMBER
~CURVE INFORMATION
#MNEM.UNIT       API CODE    CURVE DESCRIPTION
#----------   ------------   ------------------------------
 DEPT.F                  :   
 ROP .MIN/FT 91 810 01 00:   RATE OF DRILLING PENETRATION
 GR  .GAPI   81 310 01 00:   GAMMA RAY
 TGAS.UNITS  91 830 01 00:   TOTAL GAS FROM HOTWIRE
~PARAMETER INFORMATION
#MNEM.UNIT          VALUE    DESCRIPTION
#----------   ------------   ------------------------------
 PD  .                 GL:   PERMANENT DATUM
 EPD .F              5198:   ELEVATION PERMANENT DATUM
 LMF .                 KB:   LOG MEASURED FROM
 DAPD.F                11:   FEET ABOVE PERMANENT DATUM
 DMF .                 KB:   DRILLING MEASURED FROM
 EKB .F              5209:   KELLING BUSHING
 EGL .F              5198:   GROUND LEVEL
 DATE.            5-19-88:   RUN DATE
 RUN .                  1:   RUN NUMBER
 DD  .F              2232:   DEPTH DRILLER
 DL  .F               750:   DEPTH LOGGER
 BLI .F               746:   BOTTOM LOG INTERVAL
 TLI .F               350:   TOP LOG INTERVAL
 CS  .IN                7:   CASING SIZE
 CBD .F               808:   CASING BOTTOM DRILLER
 DFT .              WATER:   DRILLING FLUID TYPE
 TCS .HRS            0830:   TIME CURCULATED STOPPED
 TLAB.HRS            0930:   TIME LOGGER AT BOTTOM
 ENGI.          SANGERTER:   RECORDING ENGINEER
 WITN.             NORMAN:   WITNESSED BY
 CLNT.            A2DTECH:   CLIENT CODE
 ORIG.           5" PRINT:   ORIGIN OF DATA
 UWI .       490251119400:   UNIQUE WELL ID
 DICO. A2D Technologies, Inc.:   DIGITIZING COMPANY
~OTHER INFORMATION
~A   DEPT      ROP          GR      TGAS   
# ...
 1078.0000     0.5274  -999.2500     6.8849
 1078.5000     0.5279  -999.2500     6.8742
 1079.0000     0.5283  -999.2500     6.8635
 1079.5000     0.5183  -999.2500     6.8528
 1080.0000     0.5189  -999.2500     6.8421
 1080.5000     0.5194  -999.2500     6.8313
 1081.0000     0.5092  -999.2500     6.8206
 1081.5000     0.4888  -999.2500     6.8099
 1082.0000     0.4789  -999.2500     6.7992
 1082.5000     0.4795  -999.2500     6.7885
 1083.0000     0.4799  -999.2500     6.7778
 1083.5000     0.4804  -999.2500     6.7670
 1084.0000     0.4808  -999.2500     6.7563
 1084.5000     0.4814  -999.2500     6.7456
 1085.0000     0.4818  -999.2500     6.7349
 1085.5000     0.4614  -999.2500     6.7242
 1086.0000     0.4513  -999.2500     6.7135
 1086.5000     0.4519  -999.2500     6.7027
 1087.0000     0.4524  -999.2500     6.6920
 1087.5000     0.4529  -999.2500     6.6813
 1088.0000     0.4427  -999.2500     6.6706
 1088.5000     0.4433  -999.2500     6.6599
 1089.0000     0.4438  -999.2500     6.6492
 1089.5000     0.4443  -999.2500     6.6385
 1090.0000     0.4448  -999.2500     6.6277
 1090.5000     0.4452  -999.2500     6.6170
 1091.0000     0.4457  -999.2500     6.6063
 1091.5000     0.4147  -999.2500     6.5956
 1092.0000     0.4048  -999.2500     6.5849
 1092.5000     0.3948  -999.2500     6.5742
 1093.0000     0.3744  -999.2500     6.5634
 1093.5000     0.3644  -999.2500     6.5527
 1094.0000     0.3545  -999.2500     6.5420
 1094.5000     0.3341  -999.2500     6.5313
 1095.0000     0.3346  -999.2500     6.5206
 1095.5000     0.3245  -999.2500     6.5099
 1096.0000     0.3251  -999.2500     6.4992
 1096.5000     0.3256  -999.2500     6.4884
 1097.0000     0.3261  -999.2500     6.4777
 1097.5000     0.3265  -999.2500     6.4670
 1098.0000     0.3269  -999.2500     6.4563
 1098.5000     0.3484  -999.2500     6.4456
 1099.0000     0.3697  -999.2500     6.4349
 1099.5000     0.4015  -999.2500     6.4241
 1100.0000     0.4228  -999.2500     6.4134
 1100.5000     0.4233  -999.2500     6.4027
 1101.0000     0.4132  -999.2500     6.3920
 1101.5000     0.4032  -999.2500     6.3813
 1102.0000     0.3828  -999.2500     6.3706
 1102.5000     0.3834  -999.2500     6.3598
 1103.0000     0.3839  -999.2500     6.3637
 1103.5000     0.3843  -999.2500     6.3814
 1104.0000     0.3743  -999.2500     6.3992
 1104.5000     0.3748  -999.2500     6.4170
 1105.0000     0.3753  -999.2500     6.4348
 1105.5000     0.3758  -999.2500     6.4526
 1106.0000     0.3763  -999.2500     6.4704
 1106.5000     0.3872  -999.2500     6.4882
 1107.0000     0.3876  -999.2500     6.5060
 1107.5000     0.3881  -999.2500     6.5238
 1108.0000     0.3886  -999.2500     6.5416
 1108.5000     0.3891  -999.2500     6.5593
 1109.0000     0.4209  -999.2500     6.5771
 1109.5000     0.4631  -999.2500     6.5949
 1110.0000     0.4948  -999.2500     6.6127
 1110.5000     0.5162  -999.2500     6.6305
 1111.0000     0.5480  -999.2500     6.6483
 1111.5000     0.5484  -999.2500     6.6661
 1112.0000     0.5489  -999.2500     6.6839
 1112.5000     0.5179  -999.2500     6.7017
 1113.0000     0.4767  -999.2500     6.7194
 1113.5000     0.4355  -999.2500     6.7372
 1114.0000     0.4254  -999.2500     6.7550
 1114.5000     0.3947  -999.2500     6.7728
 1115.0000     0.3847  -999.2500     6.7906
 1115.5000     0.3852  -999.2500     6.8084
 1116.0000     0.3857  -999.2500     6.8262
 1116.5000     0.4036  -999.2500     6.8440
 1117.0000     0.3932  -999.2500     6.8618
 1117.5000     0.3933  -999.2500     6.8796
 1118.0000     0.3933  -999.2500     6.8973
 1118.5000     0.4038  -999.2500     6.9151
 1119.0000     0.4039  -999.2500     6.9329
 1119.5000     0.4144  -999.2500     6.9507
 1120.0000     0.4457  -999.2500     6.9685
 1120.5000     0.4458  -999.2500     6.9863
 1121.0000     0.4458  -999.2500     7.0041
 1121.5000     0.4459  -999.2500     7.0219
 1122.0000     0.4459  -999.2500     7.0397
 1122.5000     0.4460  -999.2500     7.0574
 1123.0000     0.4460  -999.2500     7.0752
 1123.5000     0.4148  -999.2500     7.0930
 1124.0000     0.4044  -999.2500     7.1108
 1124.5000     0.3627  -999.2500     7.1286
 1125.0000     0.3210  -999.2500     7.1464
 1125.5000     0.2793  -999.2500     7.1642
 1126.0000     0.2793  -999.2500     7.1820
 1126.5000     0.2794  -999.2500     7.1998
 1127.0000     0.2899  -999.2500     7.2176
 1127.5000     0.3213  -999.2500     7.2353
 1128.0000     0.3317  -999.2500     7.2531
 1128.5000     0.3318  -999.2500     7.2709
 1129.0000     0.3527  -999.2500     7.2887
 1129.5000     0.3528  -999.2500     7.3065
 1130.0000     0.3528  -999.2500     7.3243
 1130.5000     0.3320  -999.2500     7.3421
 1131.0000     0.3321  -999.2500     7.3599
 1131.5000     0.3321  -999.2500     7.3777
 1132.0000     0.3322  -999.2500     7.3955
 1132.5000     0.3322  -999.2500     7.4132
 1133.0000     0.3323  -999.2500     7.4310
 1133.5000     0.3323  -999.2500     7.4488
 1134.0000     0.3324  -999.2500     7.4666
 1134.5000     0.3324  -999.2500     7.4844
 1135.0000     0.3325  -999.2500     7.5022
 1135.5000     0.3221  -999.2500     7.5200
 1136.0000     0.3221  -999.2500     7.5378
 1136.5000     0.3326  -999.2500     7.5556
 1137.0000     0.4057  -999.2500     7.5733
 1137.5000     0.4476  -999.2500     7.5911
 1138.0000     0.4163  -999.2500     7.6089
 1138.5000     0.4059  -999.2500     7.6267
 1139.0000     0.3642  -999.2500     7.6445
 1139.5000     0.3538  -999.2500     7.6623
 1140.0000     0.3539  -999.2500     7.6801
 1140.5000     0.3539  -999.2500     7.6979
 1141.0000     0.3540  -999.2500     7.7157
 1141.5000     0.3331  -999.2500     7.7335
 1142.0000     0.3332  -999.2500     7.7512
 1142.5000     0.3333  -999.2500     7.7690
 1143.0000     0.3229  -999.2500     7.7868
 1143.5000     0.3229  -999.2500     7.8046
 1144.0000     0.3230  -999.2500     7.8224
 1144.5000     0.3230  -999.2500     7.8402
 1145.0000     0.3231  -999.2500     7.8580
 1145.5000     0.3336  -999.2500     7.8758
 1146.0000     0.3336  -999.2500     7.8936
 1146.5000     0.3337  -999.2500     7.9113
 1147.0000     0.3546  -999.2500     7.9291
 1147.5000     0.3651  -999.2500     7.9469
 1148.0000     0.3651  -999.2500     7.9647
 1148.5000     0.3652  -999.2500     7.9825
 1149.0000     0.3653  -999.2500     8.0003
 1149.5000     0.3653  -999.2500     8.0181
 1150.0000     0.3654  -999.2500     8.0359
 1150.5000     0.3654  -999.2500     8.0537
 1151.0000     0.3759  -999.2500     8.0715
 1151.5000     0.3759  -999.2500     8.0892
 1152.0000     0.4073  -999.2500     8.1120
 1152.5000     0.4074  -999.2500     7.2968
 1153.0000     0.4179  -999.2500     6.8998
 1153.5000     0.4179  -999.2500     6.9398
 1154.0000     0.4493  -999.2500     6.9681
 1154.5000     0.4598  -999.2500     6.9987
 1155.0000     0.4598  -999.2500     7.0270
 1155.5000     0.4599  -999.2500     7.0576
 1156.0000     0.4808  -999.2500     7.0859
 1156.5000     0.4809  -999.2500     7.1165
 1157.0000     0.4600  -999.2500     7.1448
 1157.5000     0.4496  -999.2500     7.1755
 1158.0000     0.4497  -999.2500     7.2037
 1158.5000     0.4393  -999.2500     6.8044
 1159.0000     0.4185  -999.2500     6.8421
 1159.5000     0.4081  -999.2500     6.8727
 1160.0000     0.4081  -999.2500     6.9010
 1160.5000     0.4082  -999.2500     6.5040
 1161.0000     0.3978  -999.2500     6.5393
 1161.5000     0.3979  -999.2500     6.5699
 1162.0000     0.3870  -999.2500     6.5982
 1162.5000     0.3771  -999.2500     6.1989
 1163.0000     0.3771  -999.2500     5.8066
 1163.5000     0.3772  -999.2500     5.8466
 1164.0000     0.3981  -999.2500     5.8749
 1164.5000     0.4086  -999.2500     5.4826
 1165.0000     0.4191  -999.2500     5.5132
 1165.5000     0.4296  -999.2500     5.5439
 1166.0000     0.4401  -999.2500     5.5721
 1166.5000     0.4193  -999.2500     5.6028
 1167.0000     0.4193  -999.2500     5.2034
 1167.5000     0.4194  -999.2500     4.3976
 1168.0000     0.4090  -999.2500     4.4283
 1168.5000     0.3986  -999.2500     4.4589
