~VERSION INFORMATION
 VERS.                2.0:   CWLS LOG ASCII STANDARD - VERSION 2.0
 WRAP.                 NO:   ONE LINE PER DEPTH STEP
~WELL INFORMATION
#MNEM.UNIT      DATA TYPE    INFORMATION
#----------   ------------   ------------------------------
 STRT.F           30.0000:   START DEPTH
 STOP.F          677.0000:   STOP DEPTH
 STEP.F            0.5000:   STEP LENGTH
 NULL.          -999.2500:   NO VALUE
 COMP. FENIX & SCISSON INC:   COMPANY
 WELL. TEAPOT DOME #27 SX -2:   WELL
 FLD .             TEAPOT:   FIELD
 LOC .       S2 T38N R78W:   LOCATION
 CNTY.            NATRONA:   COUNTY
 STAT.            WYOMING:   STATE
 CTRY. UNITED STATES OF AMERICA:   COUNTRY
 SRVC.            Unknown:   SERVICE COMPANY
 DATE.        28-JAN-1978:   LOGDATE
 API .       490251056500:   API NUMBER
~CURVE INFORMATION
#MNEM.UNIT       API CODE    CURVE DESCRIPTION
#----------   ------------   ------------------------------
 DEPT.F                  :   
 ILD .OHMM   05 120 46 00:   INDUCTION LOG DEEP
 SN  .OHMM   05 040 16 00:   SHORT NORMAL 16"
 SPR .MV     05 010 01 00:   SPONTANEOUS POTENSIAL
 CALD.IN     45 280 60 00:   CALIPER FROM DENSITY LOG
 CORR.G/C3   45 356 01 00:   DENSITY CORRECTION
 DPHI.DEC    45 890 12 00:   DENSITY POROSITY SANDSTONE
 GRD .GAPI   45 310 01 00:   GAMMA RAY FROM DENSITY LOG
 RHOB.G/C3   45 350 01 00:   BULK DENSITY
~PARAMETER INFORMATION
#MNEM.UNIT          VALUE    DESCRIPTION
#----------   ------------   ------------------------------
 PD  .                 GL:   PERMANENT DATUM
 EPD .F              5147:   ELEVATION PERMANENT DATUM
 LMF .                 KB:   LOG MEASURED FROM
 DAPD.F                 4:   FEET ABOVE PERMANENT DATUM
 DMF .                 KB:   DRILLING MEASURED FROM
 EKB .F              5151:   KELLING BUSHING
 EGL .F              5147:   GROUND LEVEL
 DATE.        28-JAN-1978:   RUN DATE
 RUN .                  1:   RUN NUMBER
 DD  .F               675:   DEPTH DRILLER
 DL  .F               678:   DEPTH LOGGER
 BLI .F               677:   BOTTOM LOG INTERVAL
 TLI .F                40:   TOP LOG INTERVAL
 CS  .IN            8.625:   CASING SIZE
 CBD .F                40:   CASING BOTTOM DRILLER
 CBL .F                40:   CASING BOTTOM LOGGER
 BS  .IN            7.875:   BIT SIZE
 BSD .F               675:   BIT SIZE AT DEPTH
 DFT .                KCL:   DRILLING FLUID TYPE
 DFD .                8.6:   DRILLING FLUID DENSITY
 DFV .                .34:   DRILLING FLUID VISCOSITY
 DFPH.                9.5:   DRILLING FLUID PH
 MSS .           FLOWLINE:   MUD SAMPLE SOURCE
 RMS .OHMM           0.38:   RESISTIVITY MUD SAMPLE
 MST .F                60:   MUD SAMPLE TEMPERATURE
 RMF .OHMM           0.36:   RESISTIVITY MUD FILTRATE SAMPLE
 MFST.F                62:   MUD FILTRATE SAMPLE TEMPERATURE
 RMC .OHMM            0.7:   RESISTIVITY MUD CAKE
 MCST.F                63:   MUD CAKE SAMPLE TEMPERATURE
 MFSS.               MEAS:   MUD FILTRATE SAMPLE SOURCE
 MCSS.               MEAS:   MUD CAKE SAMPLE SOURCE
 RMB .OHMM           0.31:   RESISTIVITY MUD AT BHT
 BHT .F                76:   BOTTOM HOLE TEMPERATURE
 TCS .HRS               3:   TIME CURCULATED STOPPED
 MRT .F                76:   MAXIMUM RECORDED TEMPERATURE
 LUN .               2958:   LOGGING UNIT NUMBER
 LUL .             CASPER:   LOGGING UNIT LOCATION
 ENGI.           REYNOLDS:   RECORDING ENGINEER
 WITN.     MR. HARRINGTON:   WITNESSED BY
 CLNT.            A2DTECH:   CLIENT CODE
 ORIG.           5" PRINT:   ORIGIN OF DATA
 UWI .       490251056500:   UNIQUE WELL ID
 DICO. A2D Technologies, Inc.:   DIGITIZING COMPANY
~OTHER INFORMATION
~A   DEPT      ILD         SN        SPR       CALD       CORR       DPHI        GRD       RHOB   
# ...
  354.0000     8.7292     8.1106   -68.1420     8.6775     0.0438     0.1225    99.7497     2.4573
  354.5000     8.7362     8.1165   -68.2720     8.6770     0.0425     0.1235    99.9202     2.4535
  355.0000     8.7431     8.0667   -68.4008     8.6765     0.0381     0.1196   100.6824     2.4506
  355.5000     8.7502     8.0740   -68.5302     8.6760     0.0353     0.1196   101.1487     2.4604
  356.0000     8.7574     8.0799   -68.5051     8.6755     0.0370     0.1213   100.8659     2.4628
  356.5000     8.7657     8.0858   -68.4850     8.6750     0.0372     0.1216   100.3118     2.4636
  357.0000     8.7727     7.9263   -68.4649     8.6745     0.0373     0.1197    99.8906     2.4607
  357.5000     8.6597     7.9321   -68.4449     8.6609     0.0390     0.1194    99.5634     2.4548
  358.0000     8.6666     7.9379   -68.5743     8.6612     0.0407     0.1215    99.2439     2.4534
  358.5000     8.5550     7.8892   -68.5492     8.6615     0.0408     0.1204    99.4240     2.4580
  359.0000     8.4944     7.8408   -68.6836     8.6618     0.0410     0.1154   100.3297     2.4634
  359.5000     8.2238     7.8317   -68.6585     8.6620     0.0412     0.1130    99.1714     2.4688
  360.0000     8.0069     7.7449   -68.4889     8.6623     0.0398     0.1114   100.3863     2.4741
  360.5000     7.9022     7.7519   -68.4689     8.6626     0.0370     0.1114   101.1511     2.4712
  361.0000     7.8543     7.7300   -68.4484     8.6629     0.0341     0.1119   100.4429     2.4705
  361.5000     7.8081     7.6060   -68.2742     8.6632     0.0343     0.1110   100.0179     2.4736
  362.0000     7.7076     7.5074   -68.4087     8.6635     0.0360     0.1092   101.6766     2.4782
  362.5000     7.6084     7.4102   -68.3836     8.6638     0.0391     0.1208   100.6662     2.4589
  363.0000     7.4589     7.3142   -68.3635     8.6641     0.0408     0.1237   100.4018     2.4537
  363.5000     7.2637     7.2195   -68.3434     8.6644     0.0455     0.1252    99.9768     2.4546
  364.0000     7.1196     7.1751   -68.3229     8.6646     0.0471     0.1290    99.5582     2.4495
  364.5000     7.0291     7.0283   -68.4527     8.6649     0.0503     0.1296   100.0334     2.4466
  365.0000     6.9372     6.9905   -68.4277     8.6652     0.0520     0.1283   100.2071     2.4474
  365.5000     6.8494     6.9012   -68.5621     8.6655     0.0475     0.1259    99.7941     2.4475
  366.0000     6.7612     6.9062   -68.5370     8.6663     0.0418     0.1244    98.7837     2.4530
  366.5000     6.7679     6.9590   -68.5169     8.6673     0.0420     0.1180    97.6255     2.4627
  367.0000     6.8200     6.9641   -68.4963     8.6684     0.0421     0.1165    97.3547     2.4665
  367.5000     6.9677     7.0189   -68.3223     8.6694     0.0423     0.1149    96.6465     2.4689
  368.0000     7.1678     7.1211   -68.4517     8.6705     0.0425     0.1134    92.2338     2.4705
  368.5000     7.3738     7.1755   -68.4316     8.6715     0.0381     0.1128    92.5548     2.4691
  369.0000     7.5868     7.1807   -68.4115     8.6726     0.0367     0.1128    94.6509     2.4700
  369.5000     7.7512     7.2356   -68.3914     8.6736     0.0339     0.1124    98.5285     2.4693
  370.0000     7.8109     7.2409   -68.2212     8.6747     0.0341     0.1192    99.1454     2.4664
  370.5000     7.8171     7.2461   -68.1968     8.6757     0.0343     0.1201    99.7622     2.4621
  371.0000     7.7697     7.3017   -68.3312     8.6768     0.0329     0.1210    99.7874     2.4599
  371.5000     7.7760     7.3072   -68.3061     8.6778     0.0331     0.1194    97.7478     2.4592
  372.0000     7.7836     7.2620   -68.2861     8.6789     0.0348     0.1260    96.7374     2.4586
  372.5000     7.7364     7.2686   -68.1165     8.6799     0.0364     0.1256    96.6083     2.4557
  373.0000     7.6894     7.2739   -68.0957     8.6810     0.0396     0.1235    96.7877     2.4514
  373.5000     7.6413     7.2792   -68.0713     8.6671     0.0413     0.1229    97.1277     2.4522
  374.0000     7.6489     7.2846   -67.9018     8.6672     0.0369     0.1252    97.5839     2.4583
  374.5000     7.6025     7.0932   -67.8817     8.6673     0.0326     0.1258    97.6090     2.4567
  375.0000     7.6088     7.0484   -68.0161     8.6673     0.0312     0.1263    98.2259     2.4585
  375.5000     7.6161     6.9583   -68.1405     8.6674     0.0299     0.1287    99.2973     2.4616
  376.0000     7.5699     6.9144   -68.1154     8.6675     0.0286     0.1322    99.9097     2.4490
  376.5000     7.5759     6.8072   -68.0954     8.6676     0.0272     0.1340   100.0828     2.4386
  377.0000     7.3761     6.6914   -68.0753     8.6677     0.0274     0.1321   100.1079     2.4410
  377.5000     7.2312     6.4654   -68.2097     8.6678     0.0291     0.1357   100.1331     2.4411
  378.0000     6.8396     6.2136   -68.1846     8.6679     0.0307     0.1485   100.1645     2.4404
  378.5000     6.4892     6.0078   -68.1645     8.6680     0.0324     0.1502   100.1896     2.4143
  379.0000     6.1891     5.8489   -68.2939     8.6681     0.0296     0.1571   100.0668     2.4085
  379.5000     5.9436     5.6551   -68.2689     8.6682     0.0222     0.1594    99.9438     2.4026
  380.0000     5.7078     5.5436   -68.2488     8.6683     0.0164     0.1489    99.8212     2.3960
  380.5000     5.5957     5.5096   -68.3782     8.6684     0.0166     0.1324   100.1485     2.4320
  381.0000     5.6001     5.5146   -68.3581     8.6685     0.0167     0.1219   100.4695     2.4494
  381.5000     5.7225     5.6338   -68.3378     8.6686     0.0199     0.1246   100.7905     2.4546
  382.0000     5.9684     5.8353   -68.3129     8.6686     0.0231     0.1269   100.9862     2.4458
  382.5000     6.2248     6.1278   -68.2929     8.6687     0.0233     0.1245   102.4743     2.4481
  383.0000     6.6734     6.4350   -68.2728     8.6688     0.0268     0.1212   102.0556     2.4513
  383.5000     7.2036     6.7113   -68.2527     8.6689     0.0306     0.1184    99.4181     2.4573
  384.0000     7.7227     6.9559   -68.2327     8.6690     0.0343     0.1172    99.7535     2.4604
  384.5000     8.0154     7.2013   -68.2123     8.6691     0.0380     0.1204   100.3622     2.4544
  385.0000     8.1741     7.3570   -68.1875     8.6693     0.0421     0.1186   100.5353     2.4523
  385.5000     8.2371     7.5159   -68.1674     8.6694     0.0422     0.1171   101.1521     2.4607
  386.0000     8.3005     7.6257   -68.1473     8.6696     0.0409     0.1146   101.0177     2.4645
  386.5000     8.4222     7.7905   -68.1273     8.6697     0.0411     0.1122   100.4628     2.4684
  387.0000     8.4871     7.8500   -68.1072     8.6699     0.0427     0.1121   100.6421     2.4722
  387.5000     8.6116     7.9649   -68.0867     8.6701     0.0474     0.1121   100.9631     2.4731
  388.0000     8.6795     8.0270   -68.2165     8.6702     0.0700     0.1121   101.2841     2.4732
  388.5000     8.7464     8.0883   -68.1914     8.6704     0.0871     0.1117   101.7593     2.4755
  389.0000     8.7533     8.0942   -68.3258     8.6705     0.0914     0.1105   102.3762     2.4831
  389.5000     8.7603     8.1561   -68.1513     8.6707     0.0795     0.1060   102.9930     2.5004
  390.0000     8.7673     8.2184   -67.9817     8.6709     0.0677     0.1011   103.7578     2.5088
  390.5000     8.7743     8.2245   -67.8117     8.6710     0.0664     0.0999   104.9727     2.5126
  391.0000     8.7829     8.2319   -67.9416     8.6712     0.0651     0.0990   106.4771     2.5173
  391.5000     8.7899     8.2379   -68.0710     8.6713     0.0442     0.0986   108.5732     2.5203
  392.0000     8.7969     8.2439   -68.1954     8.6715     0.0338     0.0977   108.5984     2.5249
  392.5000     8.8039     8.2499   -68.0308     8.6726     0.0325     0.0985   108.6243     2.5100
  393.0000     8.8109     8.2559   -68.1555     8.6750     0.0327     0.1069   106.7319     2.4808
  393.5000     8.6974     8.2049   -68.3024     8.6770     0.0313     0.1089   104.3881     2.4736
  394.0000     8.6447     8.1549   -68.7080     8.6790     0.0285     0.1080   100.7213     2.4759
