~VERSION INFORMATION
 VERS.                2.0:   CWLS LOG ASCII STANDARD - VERSION 2.0
 WRAP.                 NO:   ONE LINE PER DEPTH STEP
~WELL INFORMATION
#MNEM.UNIT      DATA TYPE    INFORMATION
#----------   ------------   ------------------------------
 STRT.F           14.0000:   START DEPTH
 STOP.F          500.0000:   STOP DEPTH
 STEP.F            0.1000:   STEP LENGTH
 NULL.          -999.2500:   NO VALUE
 COMP. LAWRENCE/ALLISON INC:   COMPANY
 WELL.    72-46 SX #10-10:   WELL
 FLD .             TEAPOT:   FIELD
 LOC .      S10 T38N R78W:   LOCATION
 CNTY.            NATRONA:   COUNTY
 STAT.            WYOMING:   STATE
 CTRY. UNITED STATES OF AMERICA:   COUNTRY
 SRVC.           Gearhart:   SERVICE COMPANY
 DATE.        22-MAY-1988:   LOGDATE
 API .       490251122600:   API NUMBER
~CURVE INFORMATION
#MNEM.UNIT       API CODE    CURVE DESCRIPTION
#----------   ------------   ------------------------------
 DEPT.F                  :   
 GRR .GAPI   07 310 01 00:   GAMMA RAY
 RILD.OHMM   07 120 46 00:   INDUCTION LOG DEEP RESISTIVITY
 RILM.OHMM   07 120 44 00:   INDUCTION LOG MEDIUM RESISTIVITY
~PARAMETER INFORMATION
#MNEM.UNIT          VALUE    DESCRIPTION
#----------   ------------   ------------------------------
 PD  .                 GL:   PERMANENT DATUM
 EPD .F              5173:   ELEVATION PERMANENT DATUM
 LMF .                 KB:   LOG MEASURED FROM
 DAPD.F              10.2:   FEET ABOVE PERMANENT DATUM
 DMF .                 KB:   DRILLING MEASURED FROM
 EKB .F            5183.2:   KELLING BUSHING
 EGL .F              5173:   GROUND LEVEL
 DATE.        22-MAY-1988:   RUN DATE
 RUN .                  1:   RUN NUMBER
 DD  .F               505:   DEPTH DRILLER
 DL  .F               504:   DEPTH LOGGER
 BLI .F               500:   BOTTOM LOG INTERVAL
 TLI .F                50:   TOP LOG INTERVAL
 CS  .IN            9.625:   CASING SIZE
 CBD .F                52:   CASING BOTTOM DRILLER
 CBL .F                50:   CASING BOTTOM LOGGER
 BS  .IN             8.75:   BIT SIZE
 BSD .F               505:   BIT SIZE AT DEPTH
 DFT .                AIR:   DRILLING FLUID TYPE
 TLAB.HRS            1339:   TIME LOGGER AT BOTTOM
 LUN .               7597:   LOGGING UNIT NUMBER
 LUL .           GILLETTE:   LOGGING UNIT LOCATION
 ENGI.          HUCKFELDT:   RECORDING ENGINEER
 WITN.             STRONG:   WITNESSED BY
 CLNT.            A2DTECH:   CLIENT CODE
 ORIG.           5" PRINT:   ORIGIN OF DATA
 UWI .       490251122600:   UNIQUE WELL ID
 DICO. A2D Technologies, Inc.:   DIGITIZING COMPANY
~OTHER INFORMATION
~A   DEPT       GRR      RILD       RILM   
# ...
  432.6000    81.5568    10.6174    10.8826
  432.7000    81.7664    10.5567    10.8223
  432.8000    82.0205    10.5255    10.7602
  432.9000    82.2746    10.5095    10.6985
  433.0000    82.5286    10.4494    10.6372
  433.1000    82.7922    10.3796    10.5760
  433.2000    83.0368    10.3303    10.5083
  433.3000    83.2909    10.3074    10.4551
  433.4000    83.5450    10.2841    10.4349
  433.5000    83.7199    10.2253    10.4079
  433.6000    83.7488    10.1646    10.3481
  433.7000    84.0321    10.1088    10.2888
  433.8000    84.2569    10.0510    10.2180
  433.9000    84.3434     9.9637    10.1711
  434.0000    84.4607     9.8674    10.1127
  434.1000    84.7147     9.8110    10.0336
  434.2000    84.9632     9.7478     9.9274
  434.3000    84.9675     9.6992     9.8667
  434.4000    85.1727     9.6439     9.8139
  434.5000    85.4267     9.5648     9.7177
  434.6000    85.6807     9.4675     9.6341
  434.7000    85.9348     9.4133     9.5788
  434.8000    86.2029     9.3061     9.5201
  434.9000    86.4430     9.2002     9.3952
  435.0000    86.6971     9.0953     9.3039
  435.1000    87.0798     9.0096     9.2311
  435.2000    87.5097     8.9513     9.1562
  435.3000    87.7639     8.8407     9.0619
  435.4000    88.0516     8.7485     9.0091
  435.5000    88.2718     8.6489     8.8577
  435.6000    88.5259     8.5503     8.7833
  435.7000    88.7800     8.4528     8.6782
  435.8000    89.0341     8.3564     8.5297
  435.9000    89.2870     8.2448     8.3895
  436.0000    89.2907     8.1287     8.2843
  436.1000    89.4920     8.0179     8.1989
  436.2000    89.6024     7.9089     8.0737
  436.3000    89.6061     7.7740     7.9570
  436.4000    89.6097     7.6357     7.8546
  436.5000    89.6137     7.5113     7.7217
  436.6000    89.6171     7.4145     7.6177
  436.7000    89.6207     7.3083     7.5112
  436.8000    89.7486     7.1960     7.4083
  436.9000    90.0028     7.1140     7.3236
  437.0000    90.2730     7.0224     7.2399
  437.1000    90.8535     6.9528     7.1533
  437.2000    91.2820     6.8993     7.0754
  437.3000    91.9453     6.8428     6.9652
  437.4000    92.8050     6.7732     6.8665
  437.5000    93.7598     6.7345     6.7764
  437.6000    94.5243     6.6960     6.6603
  437.7000    95.5169     6.6577     6.5319
  437.8000    96.5222     6.6197     6.4030
  437.9000    97.5272     6.5950     6.2346
  438.0000    98.4473     6.5950     6.0731
  438.1000    99.2026     6.5950     5.9349
  438.2000   100.0259     6.5950     5.8001
  438.3000   100.7125     6.5950     5.7339
  438.4000   101.4673     6.5950     5.6685
  438.5000   102.1025     6.6048     5.6405
  438.6000   102.6730     6.6427     5.6519
  438.7000   103.4158     6.6876     5.6843
  438.8000   104.0055     6.6876     5.7195
  438.9000   104.4250     6.7345     5.7498
  439.0000   105.0837     6.7968     5.7828
  439.1000   105.6381     6.8359     5.8325
  439.2000   105.8453     6.8769     5.8997
  439.3000   104.9365     6.9527     5.9696
  439.4000   104.2117     7.0032     6.0899
  439.5000   103.4642     7.0645     6.1490
  439.6000   102.3121     7.1459     6.2424
  439.7000   100.8128     7.2246     6.3506
  439.8000    99.2878     7.2717     6.4680
  439.9000    97.3483     7.3445     6.6218
  440.0000    96.0122     7.4292     6.7339
  440.1000    94.5134     7.5148     6.8509
  440.2000    93.1297     7.5919     6.9697
  440.3000    91.8809     7.6357     7.1040
  440.4000    90.6327     7.7235     7.2640
  440.5000    89.1514     7.7777     7.4039
  440.6000    88.5430     7.8478     7.5186
  440.7000    87.9451     7.9382     7.6491
  440.8000    87.4478     8.0238     7.7819
  440.9000    86.9508     8.0740     7.9168
  441.0000    86.4294     8.1587     8.0527
  441.1000    86.4328     8.2529     8.1636
  441.2000    86.2523     8.3480     8.2782
  441.3000    86.0055     8.4441     8.3931
  441.4000    85.8350     8.5414     8.4899
  441.5000    85.8610     8.6575     8.5957
  441.6000    86.1472     8.7396     8.7534
  441.7000    86.1504     8.8404     8.8485
  441.8000    86.3189     8.9423     8.9506
  441.9000    86.4621     9.0542     9.0538
  442.0000    86.4657     9.2186     9.1582
  442.1000    86.4694     9.2691     9.2679
  442.2000    86.4731     9.4015     9.4514
  442.3000    86.6760     9.5077     9.5451
  442.4000    86.7848     9.5955     9.6553
  442.5000    86.7884     9.7523     9.7426
  442.6000    86.8293     9.8161     9.7986
  442.7000    87.1004     9.8648     9.8552
  442.8000    87.1038     9.9215     9.9114
  442.9000    87.2873     9.9786    10.0130
  443.0000    87.4155    10.0359    10.0634
  443.1000    87.4910    10.0939    10.0831
  443.2000    87.7273    10.1516    10.1410
  443.3000    87.7314    10.2100    10.2045
  443.4000    87.9488    10.2687    10.2579
  443.5000    88.0426    10.3074    10.3167
  443.6000    88.1525    10.3147    10.3759
  443.7000    88.4067    10.3796    10.4199
  443.8000    88.6624    10.3796    10.4224
  443.9000    88.9149    10.4207    10.4926
  444.0000    89.3636    10.4523    10.5425
  444.1000    89.8682    10.4675    10.6030
  444.2000    90.3728    10.5277    10.6397
  444.3000    90.8773    10.5992    10.6505
  444.4000    91.4244    10.5992    10.7140
  444.5000    91.8863    10.6358    10.7138
  444.6000    92.3906    10.6969    10.7597
  444.7000    92.8952    10.7584    10.7886
  444.8000    93.3998    10.8234    10.8078
  444.9000    93.8908    10.8824    10.8698
  445.0000    94.1863    10.8992    10.9399
  445.1000    93.9795    10.9313    10.9398
  445.2000    93.5769    10.9941    10.9813
  445.3000    93.1815    11.0573    11.0161
  445.4000    92.9347    11.1297    11.0305
  445.5000    92.6820    11.1848    11.0938
  445.6000    92.1969    11.2077    11.1575
  445.7000    91.8900    11.2351    11.1704
  445.8000    91.6432    11.2996    11.2075
  445.9000    91.4788    11.3652    11.2483
  446.0000    91.4825    11.4299    11.2576
  446.1000    91.4865    11.4956    11.3269
  446.2000    91.4898    11.5249    11.3267
  446.3000    91.4935    11.5473    11.3730
  446.4000    91.4971    11.6056    11.4057
  446.5000    91.5007    11.6056    11.4240
  446.6000    91.5134    11.6658    11.4896
  446.7000    91.8131    11.7329    11.5657
  446.8000    91.8161    11.7687    11.6219
  446.9000    91.8198    11.7856    11.6464
  447.0000    91.9209    11.8511    11.6740
  447.1000    92.1315    11.8511    11.7410
  447.2000    92.1353    11.9066    11.8097
  447.3000    91.8988    11.9750    11.8095
  447.4000    91.8380    12.0176    11.8613
  447.5000    91.8417    12.0288    11.9294
  447.6000    91.7675    12.1018    11.9751
  447.7000    91.5208    12.1675    11.9828
  447.8000    91.2443    12.1865    12.0587
  447.9000    91.0272    12.1865    12.1209
  448.0000    90.6140    12.2070    12.1905
  448.1000    90.2291    12.2718    12.2277
  448.2000    89.9822    12.2718    12.2450
  448.3000    89.7355    12.3323    12.3131
  448.4000    89.4400    12.3577    12.3129
  448.5000    89.2420    12.3877    12.3706
  448.6000    89.1422    12.4590    12.3989
  448.7000    89.1458    12.5314    12.4260
  448.8000    89.1495    12.5314    12.4973
  448.9000    89.1533    12.5314    12.5727
  449.0000    89.1568    12.5712    12.5725
  449.1000    89.1604    12.6191    12.6254
  449.2000    89.1641    12.6276    12.6603
  449.3000    89.1678    12.7075    12.6819
  449.4000    89.1714    12.7075    12.7486
  449.5000    89.1755    12.7075    12.7484
  449.6000    89.1787    12.7414    12.8118
  449.7000    89.1823    12.7965    12.8374
  449.8000    89.1860    12.7986    12.8693
  449.9000    89.1356    12.8861    12.9270
  450.0000    88.8889    12.9388    12.9268
  450.1000    88.6610    13.0036    13.0024
  450.2000    88.4331    13.0685    13.0780
  450.3000    88.2051    13.1333    13.1537
  450.4000    87.9772    13.1982    13.2293
  450.5000    87.7493    13.2630    13.2921
  450.6000    87.5073    13.3279    13.2919
  450.7000    87.2601    13.3927    13.3659
