~VERSION INFORMATION
 VERS.                2.0:   CWLS LOG ASCII STANDARD - VERSION 2.0
 WRAP.                 NO:   ONE LINE PER DEPTH STEP
~WELL INFORMATION
#MNEM.UNIT      DATA TYPE    INFORMATION
#----------   ------------   ------------------------------
 STRT.F          376.0000:   START DEPTH
 STOP.F         2400.0000:   STOP DEPTH
 STEP.F            0.5000:   STEP LENGTH
 NULL.          -999.2500:   NO VALUE
 COMP. LAWRENCE/ALLISON INC:   COMPANY
 WELL.        55 X #15-15:   WELL
 FLD .            WILDCAT:   FIELD
 LOC .      S15 T38N R78W:   LOCATION
 CNTY.            NATRONA:   COUNTY
 STAT.            WYOMING:   STATE
 CTRY. UNITED STATES OF AMERICA:   COUNTRY
 SRVC.            Unknown:   SERVICE COMPANY
 DATE.        12-APR-1988:   LOGDATE
 API .       490251119800:   API NUMBER
~CURVE INFORMATION
#MNEM.UNIT       API CODE    CURVE DESCRIPTION
#----------   ------------   ------------------------------
 DEPT.F                  :   
 GR  .GAPI   30 310 01 00:   GAMMA RAY
 TGAS.UNITS  91 830 01 00:   TOTAL GAS UNIT
 ROP .FT/HR  91 810 01 00:   RATE OF DRILLING PENETRATION
~PARAMETER INFORMATION
#MNEM.UNIT          VALUE    DESCRIPTION
#----------   ------------   ------------------------------
 PD  .                 GL:   PERMANENT DATUM
 EPD .F              5293:   ELEVATION PERMANENT DATUM
 LMF .                 GL:   LOG MEASURED FROM
 DMF .                 KB:   DRILLING MEASURED FROM
 EKB .F              5304:   KELLING BUSHING
 EGL .F              5293:   GROUND LEVEL
 DATE.        12-APR-1988:   RUN DATE
 RUN .                  1:   RUN NUMBER
 DD  .F              2400:   DEPTH DRILLER
 DL  .F               851:   DEPTH LOGGER
 BLI .F               846:   BOTTOM LOG INTERVAL
 TLI .F               372:   TOP LOG INTERVAL
 CS  .IN                7:   CASING SIZE
 CBL .F               890:   CASING BOTTOM LOGGER
 BSD .F              2400:   BIT SIZE AT DEPTH
 DFT .              WATER:   DRILLING FLUID TYPE
 TCS .HRS               1:   TIME CURCULATED STOPPED
 ENGI.          BANGERTER:   RECORDING ENGINEER
 WITN.             NORHAN:   WITNESSED BY
 CLNT.            A2DTECH:   CLIENT CODE
 ORIG.           5" PRINT:   ORIGIN OF DATA
 UWI .       490251119800:   UNIQUE WELL ID
 DICO. A2D Technologies, Inc.:   DIGITIZING COMPANY
~OTHER INFORMATION
~A   DEPT        GR      TGAS        ROP   
# ...
 1650.0000  -999.2500     7.9579     0.5603
 1650.5000  -999.2500     7.9893     0.5606
 1651.0000  -999.2500     8.0154     0.5609
 1651.5000  -999.2500     8.0414     0.5613
 1652.0000  -999.2500     7.6819     0.5616
 1652.5000  -999.2500     7.7144     0.5713
 1653.0000  -999.2500     7.3550     0.5717
 1653.5000  -999.2500     7.3875     0.5814
 1654.0000  -999.2500     7.4136     0.5920
 1654.5000  -999.2500     7.4396     0.6197
 1655.0000  -999.2500     7.4656     0.6484
 1655.5000  -999.2500     7.6866     0.6675
 1656.0000  -999.2500     7.8973     0.6773
 1656.5000  -999.2500     7.9291     0.6870
 1657.0000  -999.2500     7.9551     0.6778
 1657.5000  -999.2500     8.3601     0.6687
 1658.0000  -999.2500     8.3861     0.6502
 1658.5000  -999.2500     8.4121     0.6223
 1659.0000  -999.2500     8.4381     0.5756
 1659.5000  -999.2500     8.4641     0.5289
 1660.0000  -999.2500     8.4902     0.4727
 1660.5000  -999.2500     8.5162     0.4448
 1661.0000  -999.2500     8.5422     0.4357
 1661.5000  -999.2500     8.5682     0.4266
 1662.0000  -999.2500     8.5945     0.4269
 1662.5000  -999.2500     8.6211     0.4273
 1663.0000  -999.2500     9.0317     0.4276
 1663.5000  -999.2500     9.0577     0.4279
 1664.0000  -999.2500     8.6983     0.4282
 1664.5000  -999.2500     8.8102     0.4286
 1665.0000  -999.2500     9.1358     0.4290
 1665.5000  -999.2500     9.1618     0.4292
 1666.0000  -999.2500     9.1878     0.4296
 1666.5000  -999.2500     9.2138     0.4394
 1667.0000  -999.2500     9.2398     0.4397
 1667.5000  -999.2500     9.2659     0.4400
 1668.0000  -999.2500     9.2919     0.4403
 1668.5000  -999.2500     9.3183     0.4407
 1669.0000  -999.2500     9.3448     0.4410
 1669.5000  -999.2500     9.3764     0.4318
 1670.0000  -999.2500     9.4024     0.4227
 1670.5000  -999.2500     9.4285     0.4231
 1671.0000  -999.2500     9.4545     0.4234
 1671.5000  -999.2500     9.4805     0.4238
 1672.0000  -999.2500     9.5065     0.4289
 1672.5000  -999.2500     9.5325     0.4339
 1673.0000  -999.2500     9.5586     0.4342
 1673.5000  -999.2500     9.5846     0.4251
 1674.0000  -999.2500     9.6106     0.4254
 1674.5000  -999.2500     9.6366     0.4258
 1675.0000  -999.2500     9.2837     0.4261
 1675.5000  -999.2500     9.3107     0.4264
 1676.0000  -999.2500     9.2018     0.4173
 1676.5000  -999.2500     8.8271     0.4082
 1677.0000  -999.2500     8.8341     0.4086
 1677.5000  -999.2500     8.8397     0.4089
 1678.0000  -999.2500     8.8453     0.4093
 1678.5000  -999.2500     8.8509     0.4096
 1679.0000  -999.2500     8.8565     0.4193
 1679.5000  -999.2500     8.4817     0.4291
 1680.0000  -999.2500     8.4887     0.4482
 1680.5000  -999.2500     8.4943     0.4768
 1681.0000  -999.2500     8.8788     0.4960
 1681.5000  -999.2500     8.8844     0.5151
 1682.0000  -999.2500     8.8901     0.5154
 1682.5000  -999.2500     8.8958     0.4957
 1683.0000  -999.2500     8.9015     0.4484
 1683.5000  -999.2500     8.9082     0.4128
 1684.0000  -999.2500     8.9138     0.4227
 1684.5000  -999.2500     8.9194     0.4230
 1685.0000  -999.2500     8.9250     0.4138
 1685.5000  -999.2500     9.3095     0.4142
 1686.0000  -999.2500     9.3151     0.4145
 1686.5000  -999.2500     9.3202     0.4149
 1687.0000  -999.2500     9.3263     0.4152
 1687.5000  -999.2500     9.7109     0.4155
 1688.0000  -999.2500     9.7165     0.4158
 1688.5000  -999.2500     9.7221     0.4162
 1689.0000  -999.2500     9.7277     0.4165
 1689.5000  -999.2500     9.7333     0.4168
 1690.0000  -999.2500     9.7389     0.4266
 1690.5000  -999.2500     9.7446     0.4269
 1691.0000  -999.2500     9.7514     0.4366
 1691.5000  -999.2500     9.7570     0.4370
 1692.0000  -999.2500     9.3823     0.4467
 1692.5000  -999.2500     9.3893     0.4471
 1693.0000  -999.2500     9.3949     0.4474
 1693.5000  -999.2500     9.4005     0.4477
 1694.0000  -999.2500     9.4061     0.4481
 1694.5000  -999.2500     9.4112     0.4578
 1695.0000  -999.2500     9.4173     0.4487
 1695.5000  -999.2500     9.8018     0.4491
 1696.0000  -999.2500     9.8074     0.4494
 1696.5000  -999.2500     9.8130     0.4497
 1697.0000  -999.2500     9.8186     0.4500
 1697.5000  -999.2500     9.8242     0.4504
 1698.0000  -999.2500     9.8299     0.4412
 1698.5000  -999.2500     9.8356     0.4416
 1699.0000  -999.2500     9.8424     0.4325
 1699.5000  -999.2500     9.8480     0.4328
 1700.0000  -999.2500     9.8536     0.4237
 1700.5000  -999.2500     9.8592     0.4241
 1701.0000  -999.2500     9.8648     0.4244
 1701.5000  -999.2500     9.8704     0.4247
 1702.0000  -999.2500     9.8759     0.4251
 1702.5000  -999.2500     9.8815     0.4254
 1703.0000  -999.2500     9.8871     0.4449
 1703.5000  -999.2500     9.8927     0.4453
 1704.0000  -999.2500     9.8983     0.4456
 1704.5000  -999.2500     9.9039     0.4365
 1705.0000  -999.2500     9.9095     0.4370
 1705.5000  -999.2500     9.9152     0.4373
 1706.0000  -999.2500     9.5418     0.4565
 1706.5000  -999.2500     9.5476     0.4663
 1707.0000  -999.2500     9.1740     0.4949
 1707.5000  -999.2500     9.1810     0.5141
 1708.0000  -999.2500     9.1866     0.5333
 1708.5000  -999.2500     9.1922     0.5431
 1709.0000  -999.2500     9.1978     0.5435
 1709.5000  -999.2500     9.2027     0.5345
 1710.0000  -999.2500     9.2090     0.5251
 1710.5000  -999.2500     9.2146     0.5070
 1711.0000  -999.2500     9.2202     0.4885
 1711.5000  -999.2500     9.2258     0.4700
 1712.0000  -999.2500     9.2314     0.4610
 1712.5000  -999.2500     9.2370     0.4615
 1713.0000  -999.2500     9.2426     0.4524
 1713.5000  -999.2500     9.2482     0.4528
 1714.0000  -999.2500     9.2539     0.4532
 1714.5000  -999.2500     9.2596     0.4535
 1715.0000  -999.2500     9.2663     0.4539
 1715.5000  -999.2500     8.8916     0.4637
 1716.0000  -999.2500     8.8986     0.4641
 1716.5000  -999.2500     8.9042     0.4833
 1717.0000  -999.2500     8.9098     0.4931
 1717.5000  -999.2500     8.9154     0.4934
 1718.0000  -999.2500     8.9210     0.5032
 1718.5000  -999.2500     8.9266     0.5036
 1719.0000  -999.2500     8.9322     0.5040
 1719.5000  -999.2500     9.3167     0.5043
 1720.0000  -999.2500     9.3223     0.4953
 1720.5000  -999.2500     9.3279     0.4862
 1721.0000  -999.2500     9.3335     0.4866
 1721.5000  -999.2500     9.3392     0.4776
 1722.0000  -999.2500     9.3448     0.4780
 1722.5000  -999.2500     9.3505     0.4784
 1723.0000  -999.2500     9.3573     0.4788
 1723.5000  -999.2500     8.9825     0.4791
 1724.0000  -999.2500     8.9895     0.4700
 1724.5000  -999.2500     8.9951     0.4705
 1725.0000  -999.2500     9.3796     0.4708
 1725.5000  -999.2500     9.3852     0.4523
 1726.0000  -999.2500     9.3908     0.4433
 1726.5000  -999.2500     9.3964     0.4437
 1727.0000  -999.2500     9.4020     0.4535
 1727.5000  -999.2500     9.4076     0.4539
 1728.0000  -999.2500     9.4132     0.4637
 1728.5000  -999.2500     9.4188     0.4735
 1729.0000  -999.2500     9.4244     0.4927
 1729.5000  -999.2500     9.4301     0.5029
 1730.0000  -999.2500     9.4358     0.5226
 1730.5000  -999.2500     9.4415     0.5409
 1731.0000  -999.2500     9.4482     0.5507
 1731.5000  -999.2500     9.4538     0.5511
 1732.0000  -999.2500     9.4594     0.5515
 1732.5000  -999.2500     9.4650     0.5613
 1733.0000  -999.2500     9.4706     0.5521
 1733.5000  -999.2500     9.4762     0.5526
 1734.0000  -999.2500     9.4818     0.5340
 1734.5000  -999.2500     9.1070     0.5157
 1735.0000  -999.2500     9.1137     0.4971
 1735.5000  -999.2500     8.7404     0.4693
 1736.0000  -999.2500     8.7463     0.4508
 1736.5000  -999.2500     8.7519     0.4417
 1737.0000  -999.2500     8.7575     0.4328
 1737.5000  -999.2500     8.7632     0.4332
 1738.0000  -999.2500     8.7688     0.4241
 1738.5000  -999.2500     8.7756     0.4245
 1739.0000  -999.2500     8.7812     0.4249
 1739.5000  -999.2500     8.7868     0.4252
 1740.0000  -999.2500     8.7924     0.4350
 1740.5000  -999.2500     8.7980     0.4371
