~VERSION INFORMATION
 VERS.                2.0:   CWLS LOG ASCII STANDARD - VERSION 2.0
 WRAP.                 NO:   ONE LINE PER DEPTH STEP
~WELL INFORMATION
#MNEM.UNIT      DATA TYPE    INFORMATION
#----------   ------------   ------------------------------
 STRT.F           16.0000:   START DEPTH
 STOP.F          900.0000:   STOP DEPTH
 STEP.F            0.5000:   STEP LENGTH
 NULL.          -999.2500:   NO VALUE
 COMP. FENIX & SCISSON INC:   COMPANY
 WELL.    NPR-3 #65S15-15:   WELL
 FLD .             TEAPOT:   FIELD
 LOC .      S15 T38N R78W:   LOCATION
 CNTY.            NATRONA:   COUNTY
 STAT.            WYOMING:   STATE
 CTRY. UNITED STATES OF AMERICA:   COUNTRY
 SRVC.            Unknown:   SERVICE COMPANY
 DATE.        11-MAY-1978:   LOGDATE
 API .       490251062400:   API NUMBER
~CURVE INFORMATION
#MNEM.UNIT       API CODE    CURVE DESCRIPTION
#----------   ------------   ------------------------------
 DEPT.F                  :   
 RHOB.G/C3   45 350 01 00:   BULK DENSITY
 DPHI.DEC    45 890 12 00:   DENSITY POROSITY SANDSTONE
 CORR.G/C3   45 356 01 00:   DENSITY CORRECTION
 GRD .GAPI   45 310 01 00:   GAMMA RAY FROM DENSITY LOG
 CALD.IN     45 280 60 00:   CALIPER FROM DENSITY LOG
 SPR .MV     05 010 01 00:   SPONTANEOUS POTENTIAL FROM RES.
 SN  .OHMM   05 040 16 00:   SHORT NORMAL 16"
 IL  .OHMM   05 120 00 00:   INDUCTION LOG
~PARAMETER INFORMATION
#MNEM.UNIT          VALUE    DESCRIPTION
#----------   ------------   ------------------------------
 PD  .                 GL:   PERMANENT DATUM
 EPD .F              5289:   ELEVATION PERMANENT DATUM
 LMF .                 KB:   LOG MEASURED FROM
 DAPD.F                 4:   FEET ABOVE PERMANENT DATUM
 DMF .                 KB:   DRILLING MEASURED FROM
 EKB .F              5293:   KELLING BUSHING
 EDF .F                  :   DRILLING FLOOR
 EGL .F              5289:   GROUND LEVEL
 DATE.          5-11-1978:   RUN DATE
 RUN .                  1:   RUN NUMBER
 DD  .F               887:   DEPTH DRILLER
 DL  .F               889:   DEPTH LOGGER
 BLI .F               883:   BOTTOM LOG INTERVAL
 TLI .F                40:   TOP LOG INTERVAL
 CS  .IN            8.625:   CASING SIZE
 CBD .F                40:   CASING BOTTOM DRILLER
 CBL .F                40:   CASING BOTTOM LOGGER
 BS  .IN            7.875:   BIT SIZE
 BSD .F               887:   BIT SIZE AT DEPTH
 DFT .                KCL:   DRILLING FLUID TYPE
 DFD .                8.6:   DRILLING FLUID DENSITY
 DFV .                 30:   DRILLING FLUID VISCOSITY
 DFPH.                9.5:   DRILLING FLUID PH
 DFL .                  8:   DRILLING FLUID LOSS
 MSS .                   :   MUD SAMPLE SOURCE
 RMS .OHMM            .42:   RESISTIVITY MUD SAMPLE
 MST .F                68:   MUD SAMPLE TEMPERATURE
 RMF .OHMM            .38:   RESISTIVITY MUD FILTRATE SAMPLE
 MFST.F                68:   MUD FILTRATE SAMPLE TEMPERATURE
 RMC .OHMM            .68:   RESISTIVITY MUD CAKE
 MCST.F                66:   MUD CAKE SAMPLE TEMPERATURE
 MFSS.           MEASURED:   MUD FILTRATE SAMPLE SOURCE
 MCSS.                   :   MUD CAKE SAMPLE SOURCE
 RMB .OHMM               :   RESISTIVITY MUD AT BHT
 BHT .F                72:   BOTTOM HOLE TEMPERATURE
 TCS .HRS               2:   TIME CURCULATED STOPPED
 TLAB.HRS                :   TIME LOGGER AT BOTTOM
 MRT .F                72:   MAXIMUM RECORDED TEMPERATURE
 LUN .              CASP.:   LOGGING UNIT NUMBER
 LUL .               2958:   LOGGING UNIT LOCATION
 ENGI.             MILLER:   RECORDING ENGINEER
 WITN.           MCGINLEY:   WITNESSED BY
 CLNT.            A2DTECH:   CLIENT CODE
 ORIG.      2" & 5" PRINT:   ORIGIN OF DATA
 UWI .       490251062400:   UNIQUE WELL ID
 DICO. A2D Technologies, Inc.:   DIGITIZING COMPANY
 OS  .                   :   OTHER SERVICES
 PWI .                   :   PRIMARY WELL IDENTIFIER
 R1  .                   :   REMARKS 1
 R2  .                   :   REMARKS 2
~OTHER INFORMATION
~A   DEPT     RHOB       DPHI       CORR         GRD      CALD        SPR         SN         IL   
# ...
  380.5000     2.4621     0.1244     0.0113    75.8122     7.3183   -41.0791     7.8559     7.2906
  381.0000     2.4720     0.1178     0.0160    75.2055     7.2659   -41.0722     7.9536     7.3479
  381.5000     2.4839     0.1097     0.0151    77.1581     7.1889   -41.0653     8.0049     7.4057
  382.0000     2.4912     0.1126     0.0134    78.5925     7.1095   -41.0583     8.0139     7.4599
  382.5000     2.4881     0.1168     0.0117    78.4747     7.0303   -41.0514     8.0234     7.5117
  383.0000     2.4850     0.1158     0.0101    78.3887     6.9515   -41.0445     8.0332     7.5637
  383.5000     2.4839     0.1147     0.0084    79.3157     6.9075   -41.0376     8.0428     7.6162
  384.0000     2.4850     0.1176     0.0068    82.3568     6.9118   -41.0307     8.0525     7.6690
  384.5000     2.4832     0.1216     0.0051    84.3369     6.9156   -41.0238     8.0622     7.7221
  385.0000     2.4803     0.1203     0.0043    82.1510     6.9194   -41.0169     8.0719     7.7756
  385.5000     2.4778     0.1207     0.0039    79.4106     6.9236   -41.0100     8.2299     7.9322
  386.0000     2.4772     0.1212     0.0035    77.8249     6.9457   -41.0031     8.4075     8.1034
  386.5000     2.4766     0.1181     0.0031    79.2397     7.0140   -40.9962     8.5889     8.2787
  387.0000     2.4759     0.1149     0.0027    81.8569     7.0784   -40.9892     8.7743     8.4564
  387.5000     2.4812     0.1117     0.0030    82.3077     7.1416   -40.9823     8.8518     8.5316
  388.0000     2.4872     0.1085     0.0081    82.8850     7.2033   -40.9754     8.8518     8.5316
  388.5000     2.4932     0.1053     0.0128    84.1505     7.2060   -40.9685     8.8518     8.5316
  389.0000     2.4991     0.1020     0.0142    83.4543     7.2055   -40.9616     8.8518     8.5316
  389.5000     2.5051     0.1013     0.0157    82.7470     7.2042   -40.9547     8.8518     8.5316
  390.0000     2.5111     0.1006     0.0172    82.4561     7.2587   -40.9476     8.8518     8.5316
  390.5000     2.5170     0.1006     0.0187    82.5942     7.3244   -40.9407     8.8518     8.5316
  391.0000     2.5120     0.1008     0.0202    82.8183     7.3904   -40.9479     8.8451     8.5316
  391.5000     2.5058     0.1018     0.0217    82.9482     7.4552   -41.0373     8.8327     8.5316
  392.0000     2.5018     0.1028     0.0214    81.8599     7.5088   -41.1267     8.8203     8.5316
  392.5000     2.5058     0.1039     0.0188    82.0843     7.5595   -41.2158     8.8078     8.5318
  393.0000     2.5052     0.1048     0.0167    81.8904     7.5938   -41.3050     8.7954     8.5304
  393.5000     2.5015     0.1041     0.0190    78.7554     7.6117   -41.3941     8.7830     8.4951
  394.0000     2.5003     0.1079     0.0214    78.3031     7.6295   -41.4832     8.7707     8.4591
  394.5000     2.5036     0.1096     0.0211    80.4025     7.6438   -41.5723     8.7583     8.4234
  395.0000     2.5039     0.1159     0.0184    81.8239     7.6332   -41.6614     8.7460     8.3878
  395.5000     2.4958     0.1213     0.0157    81.7346     7.6230   -41.7506     8.7337     8.3524
  396.0000     2.4871     0.1202     0.0159    81.6645     7.6129   -41.8404     8.7214     8.3172
  396.5000     2.4802     0.1175     0.0182    81.3137     7.6028   -41.9289     8.7091     8.2821
  397.0000     2.4827     0.1147     0.0205    79.6486     7.5927   -41.9329     8.6968     8.2471
  397.5000     2.4850     0.1120     0.0229    77.8136     7.5784   -41.9324     8.6846     8.2123
  398.0000     2.4873     0.1118     0.0251    78.2116     7.5466   -41.9323     8.6723     8.1777
  398.5000     2.4893     0.1149     0.0224    82.4452     7.5156   -41.9323     8.6601     8.1432
  399.0000     2.4896     0.1220     0.0129    84.0676     7.4804   -41.9323     8.6479     8.1088
  399.5000     2.4804     0.1304     0.0036    84.1685     7.4432   -41.9323     8.6357     8.0746
  400.0000     2.4713     0.1284     0.0012    84.2789     7.3905   -41.9323     8.6236     8.0405
  400.5000     2.4649     0.1264    -0.0002    84.3913     7.3196   -41.9323     8.6105     8.0066
  401.0000     2.4671     0.1245    -0.0016    84.1726     7.2483   -41.9323     8.5612     7.9728
  401.5000     2.4694     0.1246    -0.0030    82.7321     7.2178   -41.9323     8.4942     7.9392
  402.0000     2.4701     0.1274    -0.0044    80.3772     7.2000   -41.9323     8.4277     7.9057
  402.5000     2.4675     0.1301    -0.0054    78.0936     7.1897   -41.9323     8.3617     7.8723
  403.0000     2.4650     0.1300    -0.0048    77.8945     7.1795   -41.9323     8.2992     7.8391
  403.5000     2.4632     0.1280    -0.0042    78.1007     7.1694   -41.9323     8.3343     7.8060
  404.0000     2.4646     0.1259    -0.0037    78.2654     7.1574   -41.9323     8.3689     7.7731
  404.5000     2.4660     0.1261    -0.0031    76.4380     7.1465   -41.9323     8.4035     7.7403
  405.0000     2.4674     0.1276    -0.0025    74.8400     7.1614   -41.9322     8.4532     7.7076
  405.5000     2.4687     0.1246    -0.0019    75.1220     7.1766   -41.9321     8.4322     7.6751
  406.0000     2.4701     0.1218    -0.0019    77.1317     7.1916   -41.9329     8.3928     7.6427
  406.5000     2.4715     0.1188    -0.0033    79.0031     7.2066   -41.9556     8.3539     7.6104
  407.0000     2.4728     0.1198    -0.0047    80.0175     7.2216   -41.9794     8.3153     7.5783
  407.5000     2.4736     0.1217    -0.0072    79.7782     7.2366   -42.0032     8.2768     7.5464
  408.0000     2.4711     0.1240    -0.0118    79.1942     7.2516   -42.0269     8.2385     7.5145
  408.5000     2.4687     0.1269    -0.0156    78.6671     7.2665   -42.0506     8.2004     7.4828
  409.0000     2.4662     0.1299    -0.0155    79.5565     7.2815   -42.0743     8.1624     7.4516
  409.5000     2.4637     0.1299    -0.0137    80.5011     7.2966   -42.0980     8.1247     7.3809
  410.0000     2.4610     0.1258    -0.0109    81.0973     7.3118   -42.1221     8.0871     7.2389
  410.5000     2.4722     0.1242    -0.0081    81.2627     7.3239   -42.1140     8.0496     7.0996
  411.0000     2.4770     0.1229    -0.0053    81.4276     7.2951   -42.0852     8.0124     6.9630
  411.5000     2.4729     0.1190    -0.0007    81.6233     7.2331   -42.0560     7.9989     6.8292
  412.0000     2.4732     0.1150     0.0036    83.0632     7.1588   -42.0269     7.7335     6.6978
  412.5000     2.4804     0.1124     0.0058    84.5589     7.0835   -41.9978     7.4868     6.5690
  413.0000     2.4871     0.1124     0.0035    85.2096     6.9951   -41.9689     7.2466     6.5318
  413.5000     2.4894     0.1153     0.0014    85.2936     6.9013   -41.9428     7.0974     6.5318
  414.0000     2.4852     0.1208    -0.0009    88.4288     6.8075   -41.7491     7.2464     6.5785
  414.5000     2.4789     0.1211    -0.0031    91.7340     6.7137   -41.5067     7.3618     6.7091
  415.0000     2.4738     0.1223    -0.0053    94.5643     6.6188   -41.2636     7.4788     6.8422
  415.5000     2.4726     0.1284    -0.0075    95.7336     6.5992   -41.0182     7.5972     6.9780
  416.0000     2.4707     0.1248    -0.0094    93.7500     6.6585   -40.9372     7.7176     7.1164
  416.5000     2.4680     0.1194    -0.0066    90.2545     6.7684   -40.9358     7.8399     7.2577
  417.0000     2.4653     0.1139    -0.0036    86.2639     6.8535   -40.9361     7.9641     7.4030
  417.5000     2.4684     0.1061     0.0027    81.2221     6.8725   -40.9362     8.0903     7.4985
  418.0000     2.4830     0.1107     0.0084    77.6338     6.8934   -40.9362     8.2230     7.4738
  418.5000     2.4853     0.1175     0.0066    75.1776     6.9356   -40.9362     8.2230     7.4538
  419.0000     2.4842     0.1146     0.0048    76.1979     7.0193   -40.9362     8.1768     7.4343
  419.5000     2.4858     0.1134     0.0045    80.8112     7.0926   -40.9362     8.1000     7.4148
  420.0000     2.4882     0.1127     0.0045    81.5954     7.1207   -40.9362     8.0240     7.3954
  420.5000     2.4901     0.1120     0.0045    81.4852     7.1502   -40.9362     7.9487     7.3761
