~VERSION INFORMATION
 VERS.                2.0:   CWLS LOG ASCII STANDARD - VERSION 2.0
 WRAP.                 NO:   ONE LINE PER DEPTH STEP
~WELL INFORMATION
#MNEM.UNIT      DATA TYPE    INFORMATION
#----------   ------------   ------------------------------
 STRT.F            7.0000:   START DEPTH
 STOP.F          690.0000:   STOP DEPTH
 STEP.F            0.5000:   STEP LENGTH
 NULL.          -999.2500:   NO VALUE
 COMP. FENIX & SCISSON INC:   COMPANY
 WELL.  NPR#3 #26-46 SX11:   WELL
 FLD .             TEAPOT:   FIELD
 LOC .      S11 T38N R78W:   LOCATION
 CNTY.            NATRONA:   COUNTY
 STAT.            WYOMING:   STATE
 CTRY. UNITED STATES OF AMERICA:   COUNTRY
 SRVC.      Dresser Atlas:   SERVICE COMPANY
 DATE.        13-AUG-1985:   LOGDATE
 API .       490251083600:   API NUMBER
~CURVE INFORMATION
#MNEM.UNIT       API CODE    CURVE DESCRIPTION
#----------   ------------   ------------------------------
 DEPT.F                  :   
 DPHI.DEC    45 890 12 00:   DENSITY POROSITY SANDSTONE
 NPHI.DEC    42 890 03 00:   NEUTRON POROSITY SANDSTONE
 RHOB.G/C3   45 350 01 00:   BULK DENSITY
 CORR.G/C3   45 356 01 00:   DENSITY CORRECTION
 CALD.IN     45 280 60 00:   CALIPER
 SPR .MV     07 010 01 00:   SPONTANEOUS POTENTIAL
 ILD .OHMM   07 120 46 00:   INDUCTION LOG DEEP
 ILM .OHMM   07 120 44 00:   INDUCTION LOG MEDIUM
 SFL .OHMM   07 220 01 00:   SHALLOW FOCUSED LOG RESISTIVITY
 GRR .GAPI   07 310 01 00:   GAMMA RAY FROM RES. LOG.
~PARAMETER INFORMATION
#MNEM.UNIT          VALUE    DESCRIPTION
#----------   ------------   ------------------------------
 PD  .                 GL:   PERMANENT DATUM
 EPD .F              5193:   ELEVATION PERMANENT DATUM
 LMF .                 KB:   LOG MEASURED FROM
 DAPD.F                 5:   FEET ABOVE PERMANENT DATUM
 DMF .                 KB:   DRILLING MEASURED FROM
 EKB .F              5198:   KELLING BUSHING
 EGL .F              5193:   GROUND LEVEL
 DATE.          8-13-1985:   RUN DATE
 RUN .                  8:   RUN NUMBER
 DD  .F               664:   DEPTH DRILLER
 BLI .F               635:   BOTTOM LOG INTERVAL
 TLI .F               340:   TOP LOG INTERVAL
 CBL .F               340:   CASING BOTTOM LOGGER
 BS  .IN             8.75:   BIT SIZE
 BSD .F               664:   BIT SIZE AT DEPTH
 DFT .          KPC WATER:   DRILLING FLUID TYPE
 LUN .           HL- 6274:   LOGGING UNIT NUMBER
 LUL .           GILLETTE:   LOGGING UNIT LOCATION
 ENGI.             RAUTIO:   RECORDING ENGINEER
 WITN.            SCHULTE:   WITNESSED BY
 CLNT.            A2DTECH:   CLIENT CODE
 ORIG.        2" 5" PRINT:   ORIGIN OF DATA
 UWI .       490251083600:   UNIQUE WELL ID
 DICO. A2D Technologies, Inc.:   DIGITIZING COMPANY
~OTHER INFORMATION
~A    DEPT    DPHI       NPHI       RHOB       CORR       CALD         SPR       ILD        ILM        SFL        GRR   
# ...
   40.5000  -999.2500  -999.2500  -999.2500  -999.2500  -999.2500   -44.4413     4.7320     4.6886    10.7869    57.4504
   41.0000  -999.2500  -999.2500  -999.2500  -999.2500  -999.2500   -44.6421     4.4618     4.4075     9.9170    57.1127
   41.5000  -999.2500  -999.2500  -999.2500  -999.2500  -999.2500   -44.8429     4.2070     4.1432     9.3828    58.8130
   42.0000  -999.2500  -999.2500  -999.2500  -999.2500  -999.2500   -45.0437     3.9604     3.8881     9.0411    61.7195
   42.5000  -999.2500  -999.2500  -999.2500  -999.2500  -999.2500   -45.2446     3.7558     3.6929     8.5997    62.8850
   43.0000  -999.2500  -999.2500  -999.2500  -999.2500  -999.2500   -45.4460     3.5563     3.5022     8.1273    60.8583
   43.5000  -999.2500  -999.2500  -999.2500  -999.2500  -999.2500   -45.6456     3.3675     3.3215     7.7974    61.5297
   44.0000  -999.2500  -999.2500  -999.2500  -999.2500  -999.2500   -45.7643     3.2096     3.1500     7.5326    62.9364
   44.5000  -999.2500  -999.2500  -999.2500  -999.2500  -999.2500   -45.6353     3.0726     2.9862     7.4995    63.3902
   45.0000  -999.2500  -999.2500  -999.2500  -999.2500  -999.2500   -45.3064     2.9413     2.8306     7.4144    62.1978
   45.5000  -999.2500  -999.2500  -999.2500  -999.2500  -999.2500   -44.8974     2.8377     2.7040     7.1546    60.9975
   46.0000  -999.2500  -999.2500  -999.2500  -999.2500  -999.2500   -44.4846     2.8115     2.6546     6.9037    59.9304
   46.5000  -999.2500  -999.2500  -999.2500  -999.2500  -999.2500   -44.1467     2.7855     2.6059     6.7482    59.9562
   47.0000  -999.2500  -999.2500  -999.2500  -999.2500  -999.2500   -44.0041     2.7598     2.5672     6.6447    59.9271
   47.5000  -999.2500  -999.2500  -999.2500  -999.2500  -999.2500   -43.9866     2.7343     2.5564     6.5459    59.6614
   48.0000  -999.2500  -999.2500  -999.2500  -999.2500  -999.2500   -43.9928     2.7158     2.5464     6.4645    59.3946
   48.5000  -999.2500  -999.2500  -999.2500  -999.2500  -999.2500   -43.7108     2.7158     2.5554     6.0426    59.1240
   49.0000  -999.2500  -999.2500  -999.2500  -999.2500  -999.2500   -43.3229     2.7158     2.5639     6.0435    58.8823
   49.5000  -999.2500  -999.2500  -999.2500  -999.2500  -999.2500   -42.9284     2.7158     2.5724     6.4263    58.6469
   50.0000  -999.2500  -999.2500  -999.2500  -999.2500  -999.2500   -42.5350     2.7256     2.5809     6.5115    56.7735
   50.5000  -999.2500  -999.2500  -999.2500  -999.2500  -999.2500   -42.1462     2.7588     2.5894     6.2913    54.4701
   51.0000  -999.2500  -999.2500  -999.2500  -999.2500  -999.2500   -41.9042     2.7923     2.6161     6.1286    55.1867
   51.5000  -999.2500  -999.2500  -999.2500  -999.2500  -999.2500   -41.6456     2.8262     2.6609     5.9701    56.1246
   52.0000  -999.2500  -999.2500  -999.2500  -999.2500  -999.2500   -41.4610     2.8609     2.7043     5.8156    57.5201
   52.5000  -999.2500  -999.2500  -999.2500  -999.2500  -999.2500   -41.3235     2.9135     2.7468     5.7574    58.9792
   53.0000  -999.2500  -999.2500  -999.2500  -999.2500  -999.2500   -41.2097     2.9743     2.7896     5.7332    59.9762
   53.5000  -999.2500  -999.2500  -999.2500  -999.2500  -999.2500   -41.0505     3.0362     2.8330     5.7091    59.8946
   54.0000  -999.2500  -999.2500  -999.2500  -999.2500  -999.2500   -40.8750     3.1112     2.8793     5.6855    59.4552
   54.5000  -999.2500  -999.2500  -999.2500  -999.2500  -999.2500   -40.6989     3.2500     2.9369     5.6252    59.1256
   55.0000  -999.2500  -999.2500  -999.2500  -999.2500  -999.2500   -40.5239     3.3950     2.9957     5.5062    58.8107
   55.5000  -999.2500  -999.2500  -999.2500  -999.2500  -999.2500   -40.3775     3.5481     3.0783     5.3891    58.8556
   56.0000  -999.2500  -999.2500  -999.2500  -999.2500  -999.2500   -40.3782     3.7188     3.2116     5.3649    59.1530
   56.5000  -999.2500  -999.2500  -999.2500  -999.2500  -999.2500   -40.1606     3.9269     3.4033     5.5655    60.2796
   57.0000  -999.2500  -999.2500  -999.2500  -999.2500  -999.2500   -39.5420     4.2671     3.6064     5.6235    61.3784
   57.5000  -999.2500  -999.2500  -999.2500  -999.2500  -999.2500   -37.9683     4.6386     3.8578     5.6951    61.4748
   58.0000  -999.2500  -999.2500  -999.2500  -999.2500  -999.2500   -36.3531     5.0307     4.1357     5.7676    58.7483
   58.5000  -999.2500  -999.2500  -999.2500  -999.2500  -999.2500   -35.3722     5.1804     4.5447     5.8410    58.1496
   59.0000  -999.2500  -999.2500  -999.2500  -999.2500  -999.2500   -34.7818     5.3304     5.0195     6.1374    58.3288
   59.5000  -999.2500  -999.2500  -999.2500  -999.2500  -999.2500   -34.7517     5.4150     5.5156     6.7579    57.1773
   60.0000  -999.2500  -999.2500  -999.2500  -999.2500  -999.2500   -35.6482     4.7493     5.5665     7.5414    54.4128
   60.5000  -999.2500  -999.2500  -999.2500  -999.2500  -999.2500   -36.9568     4.2996     4.8988     7.1364    51.1841
   61.0000  -999.2500  -999.2500  -999.2500  -999.2500  -999.2500   -38.1855     3.7266     4.2232     5.9029    49.2752
   61.5000  -999.2500  -999.2500  -999.2500  -999.2500  -999.2500   -38.3843     3.2536     3.6408     4.9416    48.2640
   62.0000  -999.2500  -999.2500  -999.2500  -999.2500  -999.2500   -37.8047     2.8427     3.1387     4.5885    48.0836
   62.5000  -999.2500  -999.2500  -999.2500  -999.2500  -999.2500   -34.5569     2.4835     3.0430     2.8699    49.4462
   63.0000  -999.2500  -999.2500  -999.2500  -999.2500  -999.2500   -31.8861     2.3226     2.9775     2.8699    51.6863
   63.5000  -999.2500  -999.2500  -999.2500  -999.2500  -999.2500   -37.3913     2.3657     2.9885     2.9775    54.0057
   64.0000  -999.2500  -999.2500  -999.2500  -999.2500  -999.2500   -42.2878     2.5960     3.0051     2.9232    54.4064
   64.5000  -999.2500  -999.2500  -999.2500  -999.2500  -999.2500   -42.1838     2.9961     3.1288     4.5664    53.9640
   65.0000  -999.2500  -999.2500  -999.2500  -999.2500  -999.2500   -42.1860     3.4579     3.2684     5.9807    55.1668
   65.5000  -999.2500  -999.2500  -999.2500  -999.2500  -999.2500   -42.1827     3.9908     3.4142     7.1364    59.3639
   66.0000  -999.2500  -999.2500  -999.2500  -999.2500  -999.2500   -42.1899     4.5670     3.7116     5.9595    65.1471
   66.5000  -999.2500  -999.2500  -999.2500  -999.2500  -999.2500   -42.4732     4.9897     4.1674     5.4088    63.6499
   67.0000  -999.2500  -999.2500  -999.2500  -999.2500  -999.2500   -42.7804     5.4650     4.6825     5.5268    61.4254
   67.5000  -999.2500  -999.2500  -999.2500  -999.2500  -999.2500   -43.0549     5.6011     5.1402     5.8929    59.5361
   68.0000  -999.2500  -999.2500  -999.2500  -999.2500  -999.2500   -43.3384     5.7752     5.4487     6.2164    59.7217
   68.5000  -999.2500  -999.2500  -999.2500  -999.2500  -999.2500   -43.2648     5.6190     5.5895     6.7097    59.8720
   69.0000  -999.2500  -999.2500  -999.2500  -999.2500  -999.2500   -43.1098     5.3654     5.7223     6.8785    60.0046
   69.5000  -999.2500  -999.2500  -999.2500  -999.2500  -999.2500   -42.9072     4.9538     5.5635     6.5092    60.2488
   70.0000  -999.2500  -999.2500  -999.2500  -999.2500  -999.2500   -42.4976     4.4385     5.3114     6.1481    60.4734
   70.5000  -999.2500  -999.2500  -999.2500  -999.2500  -999.2500   -42.1265     3.9021     4.6817     5.8473    59.8534
   71.0000  -999.2500  -999.2500  -999.2500  -999.2500  -999.2500   -41.8744     3.4304     4.0557     5.7038    56.2042
   71.5000  -999.2500  -999.2500  -999.2500  -999.2500  -999.2500   -41.6222     3.0158     3.5134     4.7881    53.9740
   72.0000  -999.2500  -999.2500  -999.2500  -999.2500  -999.2500   -41.3697     2.6513     2.8965     3.9201    54.1223
   72.5000  -999.2500  -999.2500  -999.2500  -999.2500  -999.2500   -41.1172     2.4096     2.9091     3.1177    55.9208
   73.0000  -999.2500  -999.2500  -999.2500  -999.2500  -999.2500   -40.8646     2.4319     2.9377     3.5854    57.5798
   73.5000  -999.2500  -999.2500  -999.2500  -999.2500  -999.2500   -40.6118     2.6528     2.9927     4.2172    58.6272
