~VERSION INFORMATION
 VERS.                2.0:   CWLS LOG ASCII STANDARD - VERSION 2.0
 WRAP.                 NO:   ONE LINE PER DEPTH STEP
~WELL INFORMATION
#MNEM.UNIT      DATA TYPE    INFORMATION
#----------   ------------   ------------------------------
 STRT.F            2.0000:   START DEPTH
 STOP.F          518.0000:   STOP DEPTH
 STEP.F            0.5000:   STEP LENGTH
 NULL.          -999.2500:   NO VALUE
 COMP. LAWRENCE/ALLISON INC:   COMPANY
 WELL.    54-51 SX #10-10:   WELL
 FLD .             TEAPOT:   FIELD
 LOC .      S10 T38N R78W:   LOCATION
 CNTY.            NATRONA:   COUNTY
 STAT.            WYOMING:   STATE
 CTRY. UNITED STATES OF AMERICA:   COUNTRY
 SRVC.            Unknown:   SERVICE COMPANY
 DATE.        14-AUG-1984:   LOGDATE
 API .       490251098800:   API NUMBER
~CURVE INFORMATION
#MNEM.UNIT       API CODE    CURVE DESCRIPTION
#----------   ------------   ------------------------------
 DEPT.F                  :   
 CALD.IN     45 280 60 00:   CALIPER
 DEN .G/C3   45 350 01 00:   COMPENSATED BULK DENSTIY
 CORR.G/C3   45 356 01 00:   DENSITY CORRECTION
 CNC .DEC    42 890 03 00:   NEUTRON POROSITY SANDSTONE
 PORD.DEC    45 890 12 00:   POROSITY DENSITY SANDSTONE
 GRR .GAPI   07 310 01 00:   GAMMA RAY FROM RES. LOG.
 RFOC.OHMM   07 220 04 00:   RESISTIVITY FOCUSED LOG
 RILD.OHMM   07 120 46 00:   INDUCTION LOG DEEP RESISTIVITY
 RILM.OHMM   07 120 44 00:   INDUCTION LOG MEDIUM RESISTIVITY
 AC  .US/F   60 520 00 00:   ACOUSTIC SONIC
 SPR .MV     07 010 01 00:   SPONTANEOUS POTENTIAL
~PARAMETER INFORMATION
#MNEM.UNIT          VALUE    DESCRIPTION
#----------   ------------   ------------------------------
 PD  .                 GL:   PERMANENT DATUM
 EPD .F              5197:   ELEVATION PERMANENT DATUM
 LMF .                 GL:   LOG MEASURED FROM
 DMF .                 GL:   DRILLING MEASURED FROM
 EGL .F              5197:   GROUND LEVEL
 DATE.        14-AUG-1984:   RUN DATE
 RUN .                  1:   RUN NUMBER
 DD  .F               530:   DEPTH DRILLER
 DL  .F               520:   DEPTH LOGGER
 BLI .F               518:   BOTTOM LOG INTERVAL
 CS  .IN            9.625:   CASING SIZE
 CBD .F                40:   CASING BOTTOM DRILLER
 CBL .F                42:   CASING BOTTOM LOGGER
 BS  .IN            7.875:   BIT SIZE
 BSD .F               530:   BIT SIZE AT DEPTH
 DFT .          KCL WATER:   DRILLING FLUID TYPE
 MSS .           FLOWLINE:   MUD SAMPLE SOURCE
 RMS .OHMM            .19:   RESISTIVITY MUD SAMPLE
 MST .F                80:   MUD SAMPLE TEMPERATURE
 RMB .OHMM            .17:   RESISTIVITY MUD AT BHT
 BHT .F                90:   BOTTOM HOLE TEMPERATURE
 TCS .HRS               4:   TIME CURCULATED STOPPED
 MRT .F                90:   MAXIMUM RECORDED TEMPERATURE
 LUN .               6274:   LOGGING UNIT NUMBER
 LUL .               GLTE:   LOGGING UNIT LOCATION
 ENGI.             RAUTIO:   RECORDING ENGINEER
 WITN.              FIVAS:   WITNESSED BY
 CLNT.            A2DTECH:   CLIENT CODE
 ORIG.       2", 5" PRINT:   ORIGIN OF DATA
 UWI .       490251098800:   UNIQUE WELL ID
 DICO. A2D Technologies, Inc.:   DIGITIZING COMPANY
~OTHER INFORMATION
~A    DEPT    CALD        DEN       CORR        CNC       PORD         GRR      RFOC       RILD       RILM         AC        SPR   
# ...
  276.5000     7.8863     2.3212    -0.0187     0.2583     0.2118    62.2558    26.1026    27.9423    24.6721   100.6504    88.8726
  277.0000     7.8828     2.3285    -0.0106     0.2605     0.2079    62.0364    26.5825    26.8707    24.0708   100.0498    88.6797
  277.5000     7.8794     2.3384    -0.0021     0.2627     0.2029    61.8372    27.0792    25.8396    23.4841    99.0128    88.4872
  278.0000     7.8759     2.3566     0.0064     0.2546     0.1900    62.3968    25.7868    24.8449    22.9118    97.8607    88.2941
  278.5000     7.8725     2.3729     0.0130     0.2503     0.1787    65.9492    24.5502    23.8881    22.3533    96.7086    88.0947
  279.0000     7.8691     2.3814     0.0084     0.2516     0.1778    69.3633    23.5322    22.9680    21.8088    95.6716    87.9758
  279.5000     7.8656     2.3792     0.0036     0.2529     0.1774    72.0000    23.2432    22.0834    21.2798    95.5721    87.8382
  280.0000     7.8622     2.3746     0.0089     0.2482     0.1812    72.1855    22.9536    21.6621    20.7554    95.8132    87.7026
  280.5000     7.8587     2.3684     0.0161     0.2402     0.1861    70.7359    22.7611    21.5028    20.3707    96.0811    87.5666
  281.0000     7.8554     2.3682     0.0234     0.2392     0.1850    71.7371    22.5664    21.3441    20.4954    96.2687    87.4303
  281.5000     7.8520     2.3710     0.0312     0.2427     0.1841    72.8000    22.3734    21.1868    20.7133    96.2030    87.2909
  282.0000     7.8479     2.3738     0.0221     0.2460     0.1810    71.9989    22.1721    21.0306    20.9335    95.9841    87.1985
  282.5000     7.8438     2.3766     0.0018     0.2450     0.1792    68.6705    21.9699    20.8757    21.1560    95.7652    87.1193
  283.0000     7.8396     2.3782     0.0123     0.2428     0.1795    67.0210    21.9235    20.7478    21.3809    95.5463    87.0411
  283.5000     7.8355     2.3751     0.0283     0.2393     0.1807    66.9495    22.4483    21.2374    22.0475    95.3274    86.9628
  284.0000     7.8313     2.3723     0.0362     0.2239     0.1814    68.5809    23.0037    21.7552    23.5391    95.0746    86.8844
  284.5000     7.8271     2.3788     0.0344     0.2062     0.1786    70.1809    23.5947    22.2878    25.1315    91.9963    86.8059
  285.0000     7.8230     2.3960     0.0314     0.1977     0.1626    68.7679    24.9007    23.1251    26.8316    87.7313    86.7275
  285.5000     7.8189     2.4361     0.0303     0.1913     0.1479    67.2424    26.9268    25.6520    28.4545    81.4958    86.6491
  286.0000     7.8153     2.4873     0.0370     0.1525     0.1066    65.6629    32.7697    28.4556    29.6315    75.2604    86.5707
  286.5000     7.8147     2.5389     0.0429     0.1404     0.0689    61.8576    39.8804    31.5648    31.0163    69.9834    86.4922
  287.0000     7.8141     2.5790     0.0409     0.1349     0.0505    58.0423    48.5340    34.0687    33.1454    66.9366    86.4135
  287.5000     7.8135     2.6050     0.0305     0.1327     0.0374    56.0881    59.6494    33.2103    32.0968    65.1984    86.3341
  288.0000     7.8129     2.6162     0.0207     0.1428     0.0435    54.7289    60.1997    32.3353    29.2828    66.2494    86.2668
  288.5000     7.8123     2.6089     0.0042     0.1616     0.0681    55.9061    43.1183    31.3119    26.8757    70.5970    86.4784
  289.0000     7.8117     2.5653    -0.0150     0.1797     0.0858    60.3764    33.6666    29.2936    25.5254    77.2608    86.7175
  289.5000     7.8111     2.5119    -0.0321     0.1869     0.1160    64.7128    27.9957    26.7283    24.2429    84.6649    86.9565
  290.0000     7.8104     2.4449    -0.0181     0.2160     0.1623    69.0502    26.2695    24.5112    23.0248    92.0691    87.1957
  290.5000     7.8098     2.3778    -0.0036     0.2404     0.1865    72.8857    24.6498    23.2014    21.8680    96.4179    87.4351
  291.0000     7.8092     2.3606     0.0079     0.2436     0.1916    70.8518    23.1299    21.9228    21.0563    97.4793    87.6432
  291.5000     7.8086     2.3527     0.0109     0.2444     0.1945    68.4389    22.3088    21.4529    20.8305    98.1157    87.5597
  292.0000     7.8080     2.3499     0.0139     0.2567     0.1945    67.0149    21.8906    21.0926    20.6071    98.3022    87.4743
  292.5000     7.8074     2.3516     0.0193     0.2583     0.1935    65.8545    21.4801    20.7377    20.3707    98.4888    87.3955
  293.0000     7.8068     2.3532     0.0258     0.2517     0.1915    65.8028    21.0774    20.3887    19.8198    98.6754    87.3161
  293.5000     7.8061     2.3582     0.0311     0.2491     0.1893    66.4351    20.6822    20.0456    19.1025    98.8619    87.2372
  294.0000     7.8055     2.3635     0.0447     0.2545     0.1872    67.6785    20.2945    19.8209    19.2370    98.9552    87.1582
  294.5000     7.8049     2.3656     0.0472     0.2607     0.1877    68.9202    19.9140    20.5491    19.4958    98.5886    87.0766
  295.0000     7.8043     2.3624     0.0391     0.2578     0.1885    70.1699    19.5406    20.9702    19.7581    98.2598    87.0558
  295.5000     7.8037     2.3608     0.0326     0.2536     0.1894    71.4196    19.1743    21.0676    20.0240    97.9628    87.0557
  296.0000     7.8031     2.3608     0.0262     0.2493     0.1901    72.5130    18.9279    21.1635    20.3707    98.3955    87.0274
  296.5000     7.8025     2.3554     0.0146     0.2476     0.1970    72.0057    19.4683    21.2607    20.3081    98.7873    86.9883
  297.0000     7.8018     2.3465     0.0033     0.2480     0.2000    69.9087    19.8891    21.3278    20.1871    99.1812    86.9487
  297.5000     7.8012     2.3375    -0.0077     0.2450     0.2041    68.8525    20.3190    21.0527    20.0668    99.5750    86.9092
  298.0000     7.8006     2.3348    -0.0067     0.2404     0.2053    68.1856    20.7582    20.8455    19.9474    99.8508    86.8728
  298.5000     7.8000     2.3403     0.0031     0.2380     0.2010    68.2629    21.2069    20.6403    19.8169    99.4844    86.6708
  299.0000     7.7994     2.3459     0.0126     0.2425     0.1996    68.3473    21.5246    20.4372    19.6453    99.0773    86.4057
  299.5000     7.7988     2.3458     0.0207     0.2478     0.1987    68.4251    21.1525    20.2360    19.3104    98.3839    86.1392
  300.0000     7.7982     2.3461     0.0156     0.2515     0.1972    68.5005    20.8684    20.0369    18.9811    97.5678    85.8739
  300.5000     7.7975     2.3524     0.0109     0.2464     0.1924    68.6017    20.5609    19.8397    18.6567    96.7517    85.6088
  301.0000     7.7969     2.3612     0.0159     0.2467     0.1877    69.1766    20.2843    19.6439    18.3379    95.9356    85.5328
  301.5000     7.7963     2.3675     0.0242     0.2504     0.1852    70.9668    19.9806    19.4511    18.1283    95.2490    85.6459
  302.0000     7.7957     2.3711     0.0229     0.2580     0.1845    72.8529    19.6829    19.2787    17.9626    94.9751    85.7594
  302.5000     7.7956     2.3748     0.0159     0.2627     0.1802    71.7658    19.3897    18.8659    17.7285    94.9751    85.8746
  303.0000     7.7956     2.3780     0.0153     0.2509     0.1799    70.1985    19.1008    18.4983    17.4678    95.2510    85.9852
  303.5000     7.7956     2.3758     0.0193     0.2402     0.1809    68.6090    18.8162    18.1522    17.2110    95.5721    85.9768
  304.0000     7.7956     2.3694     0.0100     0.2308     0.1843    68.5736    18.5359    17.8419    16.9580    95.8707    85.6199
  304.5000     7.7956     2.3668     0.0213     0.2454     0.1839    70.0075    18.2598    17.5369    16.7087    95.8707    85.2767
  305.0000     7.7956     2.3755     0.0315     0.2575     0.1811    71.4134    17.9877    17.2378    16.4630    95.5551    84.9333
  305.5000     7.7956     2.3793     0.0179     0.2557     0.1782    71.0139    17.7197    16.9432    16.3416    94.9972    84.5744
  306.0000     7.7956     2.3817    -0.0004     0.2535     0.1774    68.8104    17.5721    16.7980    16.2947    94.1912    84.6557
  306.5000     7.7956     2.3878    -0.0009     0.2539     0.1743    66.6070    17.5217    16.7980    16.2015    93.3802    84.8900
