~VERSION INFORMATION
 VERS.                2.0:   CWLS LOG ASCII STANDARD - VERSION 2.0
 WRAP.                 NO:   ONE LINE PER DEPTH STEP
~WELL INFORMATION
#MNEM.UNIT      DATA TYPE    INFORMATION
#----------   ------------   ------------------------------
 STRT.F           34.0000:   START DEPTH
 STOP.F          517.0000:   STOP DEPTH
 STEP.F            0.5000:   STEP LENGTH
 NULL.          -999.2500:   NO VALUE
 COMP.    FENIX & SCISSON:   COMPANY
 WELL.       NPR #77-S-10:   WELL
 FLD .             TEAPOT:   FIELD
 LOC .      S10 T38N R78W:   LOCATION
 CNTY.            NATRONA:   COUNTY
 STAT.            WYOMING:   STATE
 CTRY. UNITED STATES OF AMERICA:   COUNTRY
 SRVC.              Welex:   SERVICE COMPANY
 DATE.        16-APR-1977:   LOGDATE
 API .       490251033600:   API NUMBER
~CURVE INFORMATION
#MNEM.UNIT       API CODE    CURVE DESCRIPTION
#----------   ------------   ------------------------------
 DEPT.F                  :   
 SPR .MV     07 010 01 00:   SPONTANEOUS POTENTIAL
 ILD .OHMM   07 120 46 00:   INDUCTION LOG DEEP
 ILM .OHMM   07 120 44 00:   INDUCTION LOG MEDIUM
 SGRD.OHMM   07 221 05 00:   SHALLOW SHORT GUARD RESISTIVITY
 CALD.IN     45 280 60 00:   CALIPER FROM DENSITY LOG
 GRD .GAPI   45 310 01 00:   GAMMA RAY FROM DENSITY LOG
 CORR.G/C3   45 356 01 00:   DENSITY CORRECTION
 RHOB.G/C3   45 350 01 00:   BULK DENSITY
 DPHI.DEC    45 890 12 00:   DENSITY POROSITY SANDSTONE
~PARAMETER INFORMATION
#MNEM.UNIT          VALUE    DESCRIPTION
#----------   ------------   ------------------------------
 PD  .                 GL:   PERMANENT DATUM
 EPD .F              5210:   ELEVATION PERMANENT DATUM
 LMF .                 GL:   LOG MEASURED FROM
 DMF .                 GL:   DRILLING MEASURED FROM
 EGL .F              5210:   GROUND LEVEL
 DATE.        16-APR-1977:   RUN DATE
 RUN .                  1:   RUN NUMBER
 DD  .F               525:   DEPTH DRILLER
 DL  .F               519:   DEPTH LOGGER
 BLI .F               517:   BOTTOM LOG INTERVAL
 TLI .F                30:   TOP LOG INTERVAL
 CS  .IN            8.625:   CASING SIZE
 BS  .IN            7.875:   BIT SIZE
 BSD .F               525:   BIT SIZE AT DEPTH
 DFT .            KCL MUD:   DRILLING FLUID TYPE
 DFD .                8.9:   DRILLING FLUID DENSITY
 BHT .F                61:   BOTTOM HOLE TEMPERATURE
 TCS .HRS            0300:   TIME CURCULATED STOPPED
 MRT .F                61:   MAXIMUM RECORDED TEMPERATURE
 ENGI.               DOAK:   RECORDING ENGINEER
 WITN.      B. HARRINGTON:   WITNESSED BY
 CLNT.            A2DTECH:   CLIENT CODE
 ORIG.           5" PRINT:   ORIGIN OF DATA
 UWI .       490251033600:   UNIQUE WELL ID
 DICO. A2D Technologies, Inc.:   DIGITIZING COMPANY
~OTHER INFORMATION
~A   DEPT      SPR        ILD        ILM       SGRD       CALD        GRD       CORR       RHOB       DPHI   
# ...
   70.5000   -34.5354     7.6021    10.8837  1978.9678     7.9280   145.9572     0.0420     2.4757     0.1003
   71.0000   -36.0057     7.3993    10.5194  1979.7830     7.9277   146.9945     0.0390     2.4704     0.1072
   71.5000   -37.0296     7.3019    10.1674  1980.5986     7.9125   150.8743     0.0345     2.4546     0.1213
   72.0000   -36.8629     7.2058     9.8952  1981.4825     7.8824   151.4650     0.0315     2.4411     0.1251
   72.5000   -36.1010     7.1602     9.8318  1982.2308     7.8820   151.1571     0.0315     2.4334     0.1254
   73.0000   -35.6368     7.1140     9.9048  1969.2106     7.8817   150.7032     0.0345     2.4306     0.1243
   73.5000   -35.9166     7.1189    10.0473  1970.2246     7.8965   151.5929     0.0360     2.4373     0.1225
   74.0000   -36.3452     7.1228    10.1919  1971.0364     7.9259   148.1453     0.0375     2.4426     0.1204
   74.5000   -37.3690     7.1761    10.4824  1971.8484     7.9406   141.5612     0.0390     2.4463     0.1180
   75.0000   -38.2440     7.2297    10.9310  1972.6606     7.9552   138.8634     0.0390     2.4501     0.1159
   75.5000   -39.2698     7.4361    11.3204  1959.9049     7.9699   136.6140     0.0375     2.4561     0.1138
   76.0000   -40.5933     7.8624    11.6431  1960.7124     7.9695   134.6636     0.0345     2.4606     0.1114
   76.5000   -41.9137     8.1992    11.7294  1961.5201     7.9692   132.0204     0.0315     2.4666     0.1081
   77.0000   -42.9385     8.2606    11.6543  1962.3282     7.9689   129.5652     0.0285     2.4733     0.1036
   77.5000   -43.6609     8.2072    11.9067  1963.1367     7.9537   126.8674     0.0300     2.4801     0.0982
   78.0000   -43.7918     8.2128    11.5853  1334.4259     7.9385   119.6854     0.0345     2.4862     0.0922
   78.5000   -43.9228     8.1597    11.6712  1978.1528     7.9382   114.2970     0.0360     2.4943     0.0874
   79.0000   -44.0615     8.1654    11.5923  1965.3616     7.9379   110.4034     0.0360     2.5011     0.0832
   79.5000   -44.1848     8.2264    10.9696  1966.5762     7.9226   108.9014     0.0375     2.5078     0.0802
   80.0000   -44.1667     8.3453    10.4515  1967.3864     7.9223   109.3427     0.0345     2.4995     0.0868
   80.5000   -44.1488     8.7029     9.9032  1968.1969     7.9221   109.4849     0.0300     2.4860     0.0982
   81.0000   -44.1310     8.8286     9.5661  1969.0077     7.9218   109.6254     0.0270     2.4775     0.1006
   81.5000   -44.1131     8.5931     9.2451  1969.8188     7.9215   109.9172     0.0255     2.4755     0.1009
   82.0000   -44.0952     8.2672     8.8791  1970.6304     7.9212   110.6574     0.0255     2.4800     0.0970
   82.5000   -44.0774     7.9187     8.6410  1971.4423     7.9208   111.6965     0.0255     2.4875     0.0934
   83.0000   -44.0595     7.8675     8.4154  1972.2544     7.9205   110.9836     0.0255     2.4920     0.0910
   83.5000   -44.0417     7.8177     8.4195  1973.0670     7.9353   108.0929     0.0255     2.4904     0.0922
   84.0000   -44.1732     7.9867     8.4236  1973.8798     7.9200   107.1888     0.0240     2.4897     0.0916
   84.5000   -44.1548     8.2716     8.5524  1974.6930     7.9048   106.4342     0.0240     2.4965     0.0874
   85.0000   -44.1369     8.3912     8.7441  1975.5065     7.8895   105.5302     0.0240     2.5040     0.0829
   85.5000   -44.1190     8.3958     9.1734  1976.3203     7.8594   104.3271     0.0255     2.5092     0.0796
   86.0000   -43.9524     8.4004     9.5006  1977.1345     7.8292   104.9477     0.0255     2.5137     0.0766
   86.5000   -43.9345     8.4051     9.7046  1977.9491     7.7991   107.8984     0.0270     2.5176     0.0746
   87.0000   -43.9167     8.3507     9.9130  1978.7639     7.7689   110.1334     0.0270     2.5190     0.0743
   87.5000   -43.8988     8.2979     9.8954  1979.5791     7.7686   111.3220     0.0285     2.5175     0.0760
   88.0000   -43.8810     8.2454     9.6968  1980.3947     7.7833   111.7650     0.0315     2.5144     0.0781
   88.5000   -43.8631     8.1932     9.6460  1981.2106     7.7830   111.7560     0.0315     2.5114     0.0799
   89.0000   -43.8452     8.1989    10.2122  1982.0267     7.7827   111.5993     0.0330     2.5091     0.0814
   89.5000   -43.8274     8.1459    10.6641  1982.8433     7.7823   110.9771     0.0345     2.5069     0.0820
   90.0000   -43.9592     8.1515    11.1686  1983.6602     7.7820   110.3873     0.0360     2.5114     0.0787
   90.5000   -44.2346     8.1560    11.4869  1984.4774     7.7818   109.4833     0.0375     2.5076     0.0820
   91.0000   -44.3700     8.1605    11.8142  1985.2949     7.7815   108.4315     0.0345     2.4994     0.0853
   91.5000   -44.5010     8.2215    12.0673  1986.1128     7.7812   109.3194     0.0285     2.4994     0.0883
   92.0000   -44.6320     8.2261    12.1568  1973.0670     7.7809   110.2090     0.0240     2.4938     0.0913
   92.5000   -44.7629     8.2306    12.1626  1960.3086     7.7806   112.1649     0.0225     2.4813     0.0976
   93.0000   -44.8939     8.2352    12.2528   280.2878     7.7653   114.9761     0.0195     2.4761     0.1012
   93.5000   -44.8716     8.2397    12.8658    32.5800     7.7650   116.1647     0.0195     2.4783     0.0997
   94.0000   -45.0071     8.2442    13.1398    27.6198     7.7797   116.0081     0.0210     2.4858     0.0949
   94.5000   -44.9848     8.1910    12.7016    26.1474     7.7794   113.0113     0.0225     2.4881     0.0928
   95.0000   -44.9670     8.1966    12.3615    24.9250     7.7791   112.5557     0.0225     2.4888     0.0922
   95.5000   -44.8003     8.1447    12.1140    23.9241     7.7788   113.4454     0.0240     2.4903     0.0907
   96.0000   -44.7825     8.0932    12.2883    24.7740     7.7785   114.6657     0.0255     2.4933     0.0883
   96.5000   -44.7647     8.0420    13.1731    25.6514     7.7782   116.4187     0.0255     2.4963     0.0856
   97.0000   -44.5980     8.0464    12.9093    22.9824     7.7629   117.0112     0.0270     2.5015     0.0811
   97.5000   -44.4314     8.0509    12.2215    22.8314     7.7776   115.9559     0.0270     2.5078     0.0775
   98.0000   -44.4136     8.1673    11.7312    23.1605     7.7773   114.6034     0.0270     2.5173     0.0751
   98.5000   -44.3957     8.1718    11.4172    23.1701     7.7770   114.8951     0.0255     2.5188     0.0740
   99.0000   -44.3779     8.1763    10.9591    23.0179     7.7767   117.1094     0.0255     2.5075     0.0835
   99.5000   -44.6622     8.1808    10.5924    22.4029     7.7764   119.1997     0.0240     2.4955     0.0901
  100.0000   -44.3440     7.9068    10.1662    11.2439     7.7761   117.7137     0.0225     2.4895     0.0940
  100.5000   -44.4817     7.9115     9.7597    13.5556     7.7653   119.3667     0.0226     2.4902     0.0922
  101.0000   -44.4631     7.8069     9.3050    16.3425     7.7466   119.3961     0.0226     2.4925     0.0907
  101.5000   -44.5970     7.7560     9.0570    18.7734     7.7318   118.6369     0.0227     2.4955     0.0886
  102.0000   -44.5822     7.7607     8.8766    18.2751     7.7319   116.4035     0.0227     2.5016     0.0866
  102.5000   -44.7199     7.8723     8.6998    17.4255     7.7321   116.7563     0.0228     2.4955     0.0922
  103.0000   -44.7013     8.0408     8.6463    16.6155     7.7173   117.9179     0.0228     2.4894     0.0952
  103.5000   -44.8390     8.1564     8.7117    16.1716     7.7324   118.5246     0.0228     2.4887     0.0970
  104.0000   -44.8204     8.2738     8.8432    15.7451     7.7326   119.2807     0.0244     2.4864     0.0950
  104.5000   -44.9581     8.2208     9.1544    15.7560     7.7327   120.0369     0.0259     2.4894     0.0893
  105.0000   -44.9395     8.1121     8.9702    17.2464     7.7478   120.4941     0.0260     2.4969     0.0851
  105.5000   -44.9246     8.0602     8.7311    16.6732     7.7479   120.2039     0.0275     2.5037     0.0821
  106.0000   -44.9098     8.0077     8.4984    15.3537     7.7481   119.7642     0.0291     2.5089     0.0797
  106.5000   -44.8949     8.0125     8.3292    16.9253     7.7484   119.3244     0.0291     2.5127     0.0785
