~VERSION INFORMATION
 VERS.                2.0:   CWLS LOG ASCII STANDARD - VERSION 2.0
 WRAP.                 NO:   ONE LINE PER DEPTH STEP
~WELL INFORMATION
#MNEM.UNIT      DATA TYPE    INFORMATION
#----------   ------------   ------------------------------
 STRT.F           28.0000:   START DEPTH
 STOP.F          461.0000:   STOP DEPTH
 STEP.F            0.5000:   STEP LENGTH
 NULL.          -999.2500:   NO VALUE
 COMP. FENIX & SCISSON INC:   COMPANY
 WELL.       NPR-3 #47S-3:   WELL
 FLD .             TEAPOT:   FIELD
 LOC .       S3 T38N R78W:   LOCATION
 CNTY.            NATRONA:   COUNTY
 STAT.            WYOMING:   STATE
 CTRY. UNITED STATES OF AMERICA:   COUNTRY
 SRVC.            Unknown:   SERVICE COMPANY
 DATE.        06-JUL-1978:   LOGDATE
 API .       490251066400:   API NUMBER
~CURVE INFORMATION
#MNEM.UNIT       API CODE    CURVE DESCRIPTION
#----------   ------------   ------------------------------
 DEPT.F                  :   
 SPR .MV     05 010 01 00:   SPONTANEOUS POTENTIAL FROM RES.
 ILD .OHMM   05 120 46 00:   INDUCTION LOG DEEP
 SN  .OHMM   05 040 16 00:   SHORT NORMAL 16"
 GRD .GAPI   45 310 01 00:   GAMMA RAY FROM DENSITY LOG
 CALD.IN     45 280 60 00:   CALIPER FROM DENSITY LOG
 CORR.G/C3   45 356 01 00:   DENSITY CORRECTION
 DEN .G/C3   45 350 01 00:   DENSTIY
 DPHI.DEC    45 890 12 00:   DENSITY POROSITY SANDSTONE
~PARAMETER INFORMATION
#MNEM.UNIT          VALUE    DESCRIPTION
#----------   ------------   ------------------------------
 PD  .                 GL:   PERMANENT DATUM
 EPD .F              5202:   ELEVATION PERMANENT DATUM
 LMF .                 KB:   LOG MEASURED FROM
 DAPD.F                 4:   FEET ABOVE PERMANENT DATUM
 DMF .                 KB:   DRILLING MEASURED FROM
 EKB .F              5206:   KELLING BUSHING
 EGL .F              5202:   GROUND LEVEL
 DATE.        06-JUL-1978:   RUN DATE
 RUN .                  1:   RUN NUMBER
 DD  .F               460:   DEPTH DRILLER
 DL  .F               461:   DEPTH LOGGER
 BLI .F               461:   BOTTOM LOG INTERVAL
 TLI .F                40:   TOP LOG INTERVAL
 CS  .IN            8.625:   CASING SIZE
 CBD .F                40:   CASING BOTTOM DRILLER
 CBL .F                40:   CASING BOTTOM LOGGER
 BS  .IN            7.875:   BIT SIZE
 BSD .F               460:   BIT SIZE AT DEPTH
 DFT .                KCL:   DRILLING FLUID TYPE
 DFD .                8.6:   DRILLING FLUID DENSITY
 DFV .                 33:   DRILLING FLUID VISCOSITY
 DFPH.                9.5:   DRILLING FLUID PH
 MSS .           FLOWLINE:   MUD SAMPLE SOURCE
 TCS .HRS               1:   TIME CURCULATED STOPPED
 LUN .               2858:   LOGGING UNIT NUMBER
 LUL .               CASP:   LOGGING UNIT LOCATION
 ENGI.           REYNOLDS:   RECORDING ENGINEER
 WITN.           MCGENLEY:   WITNESSED BY
 CLNT.            A2DTECH:   CLIENT CODE
 ORIG.           5" PRINT:   ORIGIN OF DATA
 UWI .       490251066400:   UNIQUE WELL ID
 DICO. A2D Technologies, Inc.:   DIGITIZING COMPANY
~OTHER INFORMATION
~A   DEPT      SPR        ILD         SN         GRD      CALD       CORR        DEN       DPHI   
# ...
  433.0000   -54.4282    10.7853    11.0863    93.1319     7.8383     0.0344     2.5046     0.1174
  433.5000   -54.4077    10.6421    10.8654    94.8298     7.8093     0.0227     2.4884     0.1199
  434.0000   -54.3869    10.2890    10.7226    96.2215     7.7956     0.0213     2.4715     0.1220
  434.5000   -54.3622     9.9462    10.5022    97.6132     7.7976     0.0200     2.4716     0.1279
  435.0000   -54.3419     9.6127    10.1602    98.0860     7.7993     0.0186     2.4662     0.1303
  435.5000   -54.4754     9.0606     9.8896    98.0996     7.8009     0.0188     2.4593     0.1269
  436.0000   -54.4500     7.8303     9.6261    99.0810     7.8026     0.0189     2.4602     0.1273
  436.5000   -54.4297     6.7800     9.3054   100.7329     7.8042     0.0221     2.4595     0.1413
  437.0000   -54.4094     6.4645     8.9336   101.9714     7.7905     0.0252     2.4468     0.1469
  437.5000   -54.2402     6.4228     8.5767   103.8225     7.7922     0.0283     2.4337     0.1484
  438.0000   -54.0711     6.4715     8.2281   105.6736     7.7939     0.0374     2.4272     0.1493
  438.5000   -53.6043     6.4297     7.7981   110.1280     7.7959     0.0525     2.4327     0.1319
  439.0000   -53.7328     6.4340     7.7477   113.2042     7.7975     0.0407     2.4591     0.1134
  439.5000   -53.7074     6.5288     7.8603   111.3799     7.7992     0.0363     2.5009     0.0991
  440.0000   -53.6871     6.8653     8.2528   104.5943     7.7851     0.0365     2.5172     0.0910
  440.5000   -53.6668     7.9783     8.7246    99.9246     7.7719     0.0367     2.5250     0.0885
  441.0000   -53.4976     9.2878     9.5464    94.2719     7.7735     0.0368     2.5273     0.0879
  441.5000   -53.6312     9.9550    10.3755    93.6694     7.7594     0.0355     2.5290     0.0869
  442.0000   -53.6058    10.3091    10.8284    95.2175     7.7614     0.0356     2.5259     0.0912
  442.5000   -53.5855    10.3859    10.9745    95.9966     7.7477     0.0343     2.5190     0.0952
  443.0000   -53.7143    10.3188    11.0562    96.6226     7.7494     0.0344     2.5136     0.0964
  443.5000   -53.6935    10.3970    11.2154    97.7080     7.7511     0.0346     2.5130     0.0976
  444.0000   -53.8221    10.6217    11.3769    98.9465     7.7531     0.0347     2.5123     0.0982
  444.5000   -53.7967    11.2463    11.7008    99.7259     7.7391     0.0349     2.5124     0.0991
  445.0000   -53.7764    11.7082    11.8693    99.5859     7.7410     0.0350     2.5125     0.1000
  445.5000   -53.7561    11.7144    12.1236    99.4461     7.7427     0.0352     2.5125     0.0993
  446.0000   -53.7357    11.8017    12.2997    99.1532     7.7443     0.0353     2.5126     0.0956
  446.5000   -53.7154    11.8896    12.4768    98.7106     7.7460     0.0355     2.5165     0.0931
  447.0000   -53.6951    12.0608    12.6565    98.4177     7.7476     0.0341     2.5228     0.0906
  447.5000   -53.6747    12.2346    12.8388    98.1215     7.7493     0.0343     2.5259     0.0890
  448.0000   -53.8036    12.4108    12.9344    97.9847     7.7509     0.0329     2.5237     0.0927
  448.5000   -53.7829    12.5896    13.0306    97.9985     7.7372     0.0331     2.5198     0.0982
  449.0000   -53.9114    12.7712    13.1332    98.8107     7.7390     0.0333     2.5143     0.1001
  449.5000   -53.8860    12.9567    13.4105    99.7132     7.7410     0.0334     2.5185     0.0920
  450.0000   -53.8657    13.1434    13.5103    99.5701     7.7426     0.0335     2.5209     0.1006
  450.5000   -53.8453    13.2413    13.7049   100.1994     7.7443     0.0337     2.5101     0.1046
  451.0000   -53.8250    13.2484    13.7122    99.9032     7.7459     0.0368     2.5040     0.1064
  451.5000   -53.9535    13.2555    13.7195   101.1451     7.7476     0.0399     2.5049     0.1033
  452.0000   -54.2308    13.2626    13.7268    86.6075     7.7492     0.0446     2.5049     0.1061
  452.5000   -54.3601    13.4536    13.7341  -999.2500     7.7508     0.0447     2.5042     0.1085
  453.0000   -54.4881    13.5538    13.7417  -999.2500     7.7525     0.0449     2.5043     0.1094
  453.5000   -54.3135    13.6549    13.7506  -999.2500     7.7388     0.0450     2.5036     0.1064
  454.0000   -54.1488    13.6639    13.7579  -999.2500     7.7251     0.0452     2.5060     0.1019
  454.5000   -54.4217    13.5756    13.7652  -999.2500     7.7114     0.0453     2.5077     0.0976
  455.0000   -54.4048    13.4897    13.7720  -999.2500     7.7135     0.0455     2.5131     0.0985
  455.5000  -999.2500  -999.2500  -999.2500  -999.2500     7.7151     0.0441     2.5178     0.1021
  456.0000  -999.2500  -999.2500  -999.2500  -999.2500     7.7168     0.0458     2.5163     0.1043
  456.5000  -999.2500  -999.2500  -999.2500  -999.2500     7.7184     0.0534     2.5102     0.0996
  457.0000  -999.2500  -999.2500  -999.2500  -999.2500     7.7354     0.0699     2.5056     0.0980
  457.5000  -999.2500  -999.2500  -999.2500  -999.2500     7.7677     0.0775     2.5142     0.0992
  458.0000  -999.2500  -999.2500  -999.2500  -999.2500     7.9148     0.0839     2.5135     0.1008
  458.5000  -999.2500  -999.2500  -999.2500  -999.2500  -999.2500     0.0942     2.5105     0.1032
  459.0000  -999.2500  -999.2500  -999.2500  -999.2500  -999.2500     0.1018     2.5074     0.1044
  459.5000  -999.2500  -999.2500  -999.2500  -999.2500  -999.2500     0.1184     2.5075     0.1000
  460.0000  -999.2500  -999.2500  -999.2500  -999.2500  -999.2500     0.1960     2.5093     0.0923
  460.5000  -999.2500  -999.2500  -999.2500  -999.2500  -999.2500     0.2036     2.5274     0.0595
  461.0000  -999.2500  -999.2500  -999.2500  -999.2500  -999.2500     0.2037     2.5700     0.0576
