~VERSION INFORMATION
 VERS.                2.0:   CWLS LOG ASCII STANDARD - VERSION 2.0
 WRAP.                 NO:   ONE LINE PER DEPTH STEP
~WELL INFORMATION
#MNEM.UNIT      DATA TYPE    INFORMATION
#----------   ------------   ------------------------------
 STRT.F           80.0000:   START DEPTH
 STOP.F          808.0000:   STOP DEPTH
 STEP.F            0.5000:   STEP LENGTH
 NULL.          -999.2500:   NO VALUE
 COMP.           U S NAVY:   COMPANY
 WELL.     NRP #3 #38-S-2:   WELL
 FLD .             TEAPOT:   FIELD
 LOC .       S2 T38N R78W:   LOCATION
 CNTY.            NATRONA:   COUNTY
 STAT.            WYOMING:   STATE
 CTRY. UNITED STATES OF AMERICA:   COUNTRY
 SRVC.       Schlumberger:   SERVICE COMPANY
 DATE.        18-JUN-1962:   LOGDATE
 API .       490250639100:   API NUMBER
~CURVE INFORMATION
#MNEM.UNIT       API CODE    CURVE DESCRIPTION
#----------   ------------   ------------------------------
 DEPT.F                  :   
 GR  .GAPI   30 310 01 00:   GAMMA RAY
 SPR .MV     05 010 01 00:   SPONTANEOUS POTENTIAL FROM RES.
 ASN .OHMM   05 041 16 00:   AMPLIFIED SHORT NORMAL 16"
 ILD .OHMM   05 120 46 00:   INDUCTION LOG DEEP
 CILD.MMHO   05 110 46 00:   CONDUCTIVITY INDUCTION LOG DEEP
 CALM.IN     15 280 01 00:   CALIPER FROM MICRO LOG
~PARAMETER INFORMATION
#MNEM.UNIT          VALUE    DESCRIPTION
#----------   ------------   ------------------------------
 PD  .                 GL:   PERMANENT DATUM
 EPD .F              5146:   ELEVATION PERMANENT DATUM
 LMF .                 KB:   LOG MEASURED FROM
 DAPD.F                 5:   FEET ABOVE PERMANENT DATUM
 DMF .                 KB:   DRILLING MEASURED FROM
 EKB .F              5151:   KELLING BUSHING
 EGL .F              5146:   GROUND LEVEL
 DATE.          6-18-1962:   RUN DATE
 RUN .                  1:   RUN NUMBER
 DD  .F              1000:   DEPTH DRILLER
 DL  .F               808:   DEPTH LOGGER
 BLI .F               807:   BOTTOM LOG INTERVAL
 TLI .F                80:   TOP LOG INTERVAL
 BS  .IN             8.75:   BIT SIZE
 BSD .F              1000:   BIT SIZE AT DEPTH
 DFT .       OIL EMULSION:   DRILLING FLUID TYPE
 DFD .                8.7:   DRILLING FLUID DENSITY
 DFV .                 58:   DRILLING FLUID VISCOSITY
 DFL .                  4:   DRILLING FLUID LOSS
 RMS .OHMM           3.77:   RESISTIVITY MUD SAMPLE
 MST .F                79:   MUD SAMPLE TEMPERATURE
 RMF .OHMM           2.47:   RESISTIVITY MUD FILTRATE SAMPLE
 MFST.F                79:   MUD FILTRATE SAMPLE TEMPERATURE
 RMC .OHMM           3.29:   RESISTIVITY MUD CAKE
 MCST.F                79:   MUD CAKE SAMPLE TEMPERATURE
 TCS .HRS               1:   TIME CURCULATED STOPPED
 LUN .               2503:   LOGGING UNIT NUMBER
 LUL .               CSPR:   LOGGING UNIT LOCATION
 ENGI.             DANNER:   RECORDING ENGINEER
 WITN.          JORGENSEN:   WITNESSED BY
 CLNT.            A2DTECH:   CLIENT CODE
 ORIG.   1", 2", 5" PRINT:   ORIGIN OF DATA
 UWI .       490250639100:   UNIQUE WELL ID
 DICO. A2D Technologies, Inc.:   DIGITIZING COMPANY
~OTHER INFORMATION
~A   DEPT       GR        SPR          ASN        ILD      CILD      CALM   
# ...
  600.0000    64.4665   -77.0171    21.5154    19.1301    60.4709     8.2920
  600.5000    58.5179   -76.7365    21.5681    19.2306    60.0852     8.2986
  601.0000    54.0099   -76.4407    21.6228    19.3302    59.6998     8.3052
  601.5000    54.5190   -76.6412    21.6774    19.4035    59.3138     8.3027
  602.0000    49.2555   -77.0258    21.7316    19.4496    58.9277     8.2915
  602.5000    47.1850   -77.3789    21.7859    19.4958    58.5430     8.2802
  603.0000    43.3912   -77.3855    21.8449    19.5421    58.1567     8.2687
  603.5000    40.4823   -77.3836    21.7272    19.5889    57.8042     8.2574
  604.0000    34.8477   -77.3829    21.5411    19.6320    58.7123     8.2633
  604.5000    34.2039   -77.2892    21.3533    19.5801    59.5484     8.3852
  605.0000    52.1141   -77.0870    21.1654    19.2267    60.3851     8.5070
  605.5000    49.8486   -76.7778    20.9778    18.8835    61.2222     8.6138
  606.0000    48.7000   -76.3373    20.7901    18.5277    61.9169     8.6157
  606.5000    53.7110   -75.8983    20.6031    18.4242    62.2385     8.6458
  607.0000    57.5976   -75.4578    20.4255    18.4073    62.5622     8.6680
  607.5000    61.1078   -75.0175    20.2845    18.3946    62.8858     8.6397
  608.0000    51.8359   -74.9491    20.1493    18.3814    63.2095     8.6119
  608.5000    44.2114   -74.9482    20.0145    18.3680    63.5331     8.5842
  609.0000    40.5046   -74.9490    19.8798    18.3548    63.8360     8.5557
  609.5000    42.3312   -74.9494    19.7450    18.3401    64.6572     8.5584
  610.0000    46.4739   -74.9497    19.6102    18.2923    65.4290     8.5686
  610.5000    48.1130   -74.9493    19.4755    18.1143    66.1135     8.5790
  611.0000    41.0174   -74.9481    19.3407    17.9402    67.1463     8.5894
  611.5000    38.5112   -74.8180    19.2059    17.7665    68.1791     8.5997
  612.0000    41.7299   -74.4914    19.0711    17.5926    69.2119     8.6100
  612.5000    54.9564   -74.1670    18.9364    17.4187    70.2447     8.6203
  613.0000    53.3084   -73.8424    18.8016    17.2446    71.2775     8.6307
  613.5000    52.7908   -73.5170    18.6658    17.0700    72.3103     8.6411
  614.0000    54.4671   -73.1864    18.5915    16.9076    72.8836     8.6511
  614.5000    55.1891   -73.1712    18.5479    16.8921    72.8813     8.6450
  615.0000    54.1073   -73.2288    18.5047    16.8664    72.8834     8.6371
  615.5000    58.1748   -73.2890    18.4615    16.8403    72.8840     8.6259
  616.0000    64.1936   -73.3489    18.4184    16.8139    72.8842     8.6001
  616.5000    70.2729   -73.4081    18.3752    16.7875    73.2003     8.5747
  617.0000    72.2904   -73.4683    18.3319    16.7609    73.9285     8.5494
  617.5000    59.2609   -73.5331    18.2887    16.7349    74.6566     8.5249
  618.0000    50.1508   -73.3426    18.2475    16.7169    75.3848     8.5421
  618.5000    59.3238   -73.0981    18.1758    16.6255    76.1130     8.6101
  619.0000    56.3918   -72.8517    18.1012    16.5194    76.8412     8.6005
  619.5000    51.5111   -72.6057    18.0259    16.4120    77.5694     8.5876
  620.0000    50.5687   -72.3596    17.9509    16.3050    78.2976     8.5749
  620.5000    51.1720   -72.1134    17.8758    16.1980    79.0258     8.5623
  621.0000    54.2167   -71.8704    17.8006    16.0911    79.7540     8.5496
  621.5000    59.7284   -71.7427    17.7259    15.9840    80.4821     8.5359
  622.0000    61.5443   -71.8959    17.6563    15.8762    81.2103     8.4728
  622.5000    68.4996   -72.0403    17.6152    15.8519    81.9312     8.3509
  623.0000    61.1195   -72.1840    17.5728    15.8429    82.2207     8.2298
  623.5000    63.4835   -72.3286    17.5303    15.8345    82.5074     8.1647
  624.0000    58.9060   -72.4839    17.4879    15.8259    82.7942     8.1598
  624.5000    52.2943   -72.2378    17.4455    15.8173    83.0810     8.1547
  625.0000    47.9943   -71.8522    17.4031    15.8087    83.3670     8.1497
  625.5000    54.9506   -71.5042    17.3606    15.8000    83.6519     8.1668
  626.0000    57.1530   -71.4992    17.3182    15.7914    83.9418     8.2060
  626.5000    54.7423   -71.5007    17.2756    15.7826    83.2844     8.2459
  627.0000    67.3001   -71.5009    17.2323    15.7738    82.6243     8.2368
  627.5000    51.9275   -71.5010    17.1940    15.7655    81.9643     8.2239
  628.0000    46.6632   -71.5010    17.2940    15.7821    81.3041     8.2107
  628.5000    47.9535   -71.5010    17.4005    15.8961    80.6437     8.1979
  629.0000    47.2849   -71.5010    17.5064    16.0098    79.9834     8.2041
  629.5000    44.6740   -71.5010    17.6114    16.1245    79.3229     8.4044
  630.0000    55.5490   -71.5011    17.7174    16.2319    79.1541     8.6645
  630.5000    56.2923   -71.5011    17.6898    16.1011    79.7812     8.9216
  631.0000    59.7873   -71.5010    17.5700    15.9582    80.4082     8.8879
  631.5000    61.5849   -71.5039    17.4493    15.8163    81.1973     8.8356
  632.0000    55.6034   -71.3367    17.3277    15.6747    82.7542     8.7845
  632.5000    50.1882   -71.0855    17.2063    15.5331    84.3110     8.7339
  633.0000    44.8590   -70.8331    17.0850    15.3915    85.8678     8.6833
  633.5000    45.4672   -70.5771    16.9635    15.2499    87.4246     8.6326
  634.0000    47.2704   -70.4887    16.8416    15.1087    88.9805     8.5954
  634.5000    52.8771   -70.2894    16.7213    14.9666    90.4922     8.5675
  635.0000    55.1029   -70.2816    16.6223    14.8977    91.9870     8.5398
  635.5000    52.8419   -70.2837    16.6712    14.8479    93.6004     8.5121
  636.0000    46.6664   -70.2842    16.7168    14.7984    95.0000     8.4904
  636.5000    48.8048   -70.2815    16.7613    14.7490    95.0000     8.5299
  637.0000    63.3900   -70.5041    16.8112    14.6995    95.0000     8.5692
  637.5000    67.3441   -70.8640    16.9992    14.6524    95.0000     8.5687
  638.0000    65.5188   -71.2288    17.1994    14.6817    94.6745     8.5664
  638.5000    61.4627   -71.2974    17.3996    14.9072    92.4799     8.5642
  639.0000    49.6890   -71.2986    17.6230    15.1243    90.2852     8.5621
  639.5000    44.1785   -71.2998    17.9909    15.5646    87.9630     8.5600
  640.0000    46.3432   -71.2996    18.3592    16.1203    82.1477     8.5579
  640.5000    35.9818   -71.5749    19.0689    16.7124    75.9737     8.5559
  641.0000    33.3262   -72.0470    20.0638    17.4570    69.7997     8.5537
  641.5000    34.4584   -72.5210    21.0331    18.6896    63.6256     8.5513
  642.0000    32.9728   -73.6602    22.0482    19.9256    57.4516     8.5305
  642.5000    22.9870   -75.2824    23.5203    21.2483    52.3537     8.4844
  643.0000    25.4538   -76.9102    25.1473    22.6305    47.6508     8.4511
  643.5000    29.5509   -78.5579    27.0884    24.0188    42.9484     8.4620
  644.0000    33.2536   -80.1031    29.0325    25.4040    39.0807     8.4583
  644.5000    32.9240   -81.5131    30.5197    26.6195    35.7055     8.4027
  645.0000    35.6791   -81.9740    30.9706    26.9965    35.8286     8.3492
  645.5000    44.0417   -82.4338    31.2879    27.0353    35.9556     8.2941
  646.0000    39.6507   -81.9836    31.3434    26.7455    36.0950     8.3855
  646.5000    45.8476   -81.1116    31.4065    26.4544    36.2343     8.4849
  647.0000    48.3701   -80.2389    31.4757    26.1613    36.3737     8.4519
  647.5000    45.5938   -79.8364    31.1370    25.8694    36.5130     8.4219
  648.0000    43.0952   -79.8890    30.7625    25.6376    36.6524     8.3918
  648.5000    28.0570   -79.9407    30.4228    25.5506    37.3800     8.3619
  649.0000    28.8571   -79.9922    30.3459    25.4618    38.3509     8.3346
  649.5000    29.9124   -79.9507    30.2729    25.3368    39.3218     8.2372
  650.0000    27.5785   -79.6861    30.0377    24.9278    40.2927     8.1367
  650.5000    25.5645   -79.4233    29.6432    24.5149    41.2636     8.0437
  651.0000    36.8563   -79.5060    29.2838    24.1424    42.2346     8.0459
  651.5000    37.5377   -79.6160    29.1552    24.0551    42.8488     8.0464
