~VERSION INFORMATION
 VERS.                2.0:   CWLS LOG ASCII STANDARD - VERSION 2.0
 WRAP.                 NO:   ONE LINE PER DEPTH STEP
~WELL INFORMATION
#MNEM.UNIT      DATA TYPE    INFORMATION
#----------   ------------   ------------------------------
 STRT.F           90.5000:   START DEPTH
 STOP.F          836.0000:   STOP DEPTH
 STEP.F            0.5000:   STEP LENGTH
 NULL.          -999.2500:   NO VALUE
 COMP.          U.S. NAVY:   COMPANY
 WELL.    NPR #3 #38-S-35:   WELL
 FLD .           TEAPOT E:   FIELD
 LOC .      S35 T39N R78W:   LOCATION
 CNTY.            NATRONA:   COUNTY
 STAT.            WYOMING:   STATE
 CTRY. UNITED STATES OF AMERICA:   COUNTRY
 SRVC. Schlumberger Well Surveying Corp:   SERVICE COMPANY
 DATE.        21-JUL-1963:   LOGDATE
 API .       490250649100:   API NUMBER
~CURVE INFORMATION
#MNEM.UNIT       API CODE    CURVE DESCRIPTION
#----------   ------------   ------------------------------
 DEPT.F                  :   
 SPR .MV     05 010 01 00:   SPONTANEOUS POTENTIAL FROM RES.
 ASN .OHMM   05 041 16 00:   AMPLIFIED SHORT NORMAL 16"
 ILD .OHMM   05 120 46 00:   INDUCTION LOG DEEP
 CILD.MMHO   05 110 46 00:   CONDUCTIVITY INDUCTION LOG DEEP
 DT  .US/F   60 520 33 00:   INTERVAL TRANSIT TIME
 GR  .GAPI   30 310 01 00:   GAMMA RAY
~PARAMETER INFORMATION
#MNEM.UNIT          VALUE    DESCRIPTION
#----------   ------------   ------------------------------
 LMF .                 KB:   LOG MEASURED FROM
 DMF .                 KB:   DRILLING MEASURED FROM
 EKB .F              5119:   KELLING BUSHING
 EGL .F              5114:   GROUND LEVEL
 DATE.          7-21-1963:   RUN DATE
 RUN .                  1:   RUN NUMBER
 DD  .F               836:   DEPTH DRILLER
 DL  .F               837:   DEPTH LOGGER
 BLI .F               836:   BOTTOM LOG INTERVAL
 TLI .F                90:   TOP LOG INTERVAL
 CBD .F                12:   CASING BOTTOM DRILLER
 BS  .IN             6.75:   BIT SIZE
 BSD .F               836:   BIT SIZE AT DEPTH
 DFT .            GEL-OIL:   DRILLING FLUID TYPE
 DFD .                9.2:   DRILLING FLUID DENSITY
 DFV .                 85:   DRILLING FLUID VISCOSITY
 DFPH.                  8:   DRILLING FLUID PH
 DFL .                3.6:   DRILLING FLUID LOSS
 MSS .           FLOWLINE:   MUD SAMPLE SOURCE
 RMS .OHMM           2.95:   RESISTIVITY MUD SAMPLE
 MST .F                88:   MUD SAMPLE TEMPERATURE
 RMF .OHMM           2.31:   RESISTIVITY MUD FILTRATE SAMPLE
 MFST.F                88:   MUD FILTRATE SAMPLE TEMPERATURE
 RMC .OHMM           2.65:   RESISTIVITY MUD CAKE
 MCST.F                88:   MUD CAKE SAMPLE TEMPERATURE
 MFSS.                  M:   MUD FILTRATE SAMPLE SOURCE
 MCSS.                  M:   MUD CAKE SAMPLE SOURCE
 TCS .HRS               1:   TIME CURCULATED STOPPED
 LUN .               2523:   LOGGING UNIT NUMBER
 LUL .              CSPR.:   LOGGING UNIT LOCATION
 ENGI.             KNOBEL:   RECORDING ENGINEER
 WITN.          JORGENSON:   WITNESSED BY
 CLNT.            A2DTECH:   CLIENT CODE
 ORIG.      2" , 5" PRINT:   ORIGIN OF DATA
 UWI .       490250649100:   UNIQUE WELL ID
 DICO. A2D Technologies, Inc.:   DIGITIZING COMPANY
~OTHER INFORMATION
~A   DEPT      SPR        ASN        ILD       CILD         DT         GR   
# ...
  350.5000   -26.1931     9.1261     9.8122   109.1713    98.0347  -999.2500
  351.0000   -26.6340     9.3892    10.2437    99.5996    98.5907  -999.2500
  351.5000   -27.2162     9.6433    10.4045    94.3443    98.6315  -999.2500
  352.0000   -27.8003     9.8982    10.5570    93.0048    98.5445  -999.2500
  352.5000   -28.3844    10.1108    10.6925    93.6230    98.4574  -999.2500
  353.0000   -28.9637    10.2901    10.7862    94.2413    98.4642  -999.2500
  353.5000   -29.2599    10.4690    10.8808    93.2086    98.6384  -999.2500
  354.0000   -29.1566    10.6511    10.9751    89.9746    98.8012  -999.2500
  354.5000   -29.0572    10.5441    11.0694    86.5866    99.4732  -999.2500
  355.0000   -28.9589    10.4091    11.1637    84.9183   100.0497  -999.2500
  355.5000   -28.9864    10.4315    11.2584    84.8348   100.4869  -999.2500
  356.0000   -29.1919    10.5422    11.3571    85.1440   100.7268  -999.2500
  356.5000   -29.3956    10.6551    11.4636    85.4531   101.2551  -999.2500
  357.0000   -29.6000    10.7679    11.5758    85.1626   101.9384  -999.2500
  357.5000   -29.8045    10.8805    11.6885    84.4224   102.4237  -999.2500
  358.0000   -30.0081    10.9931    11.8011    83.6823   102.0203  -999.2500
  358.5000   -30.2139    11.1058    11.9137    82.9421   101.5566  -999.2500
  359.0000   -30.1979    11.2184    12.0263    82.2019   101.0385  -999.2500
  359.5000   -30.0256    11.3310    12.1389    81.4617   100.1219  -999.2500
  360.0000   -29.8503    11.4436    12.2515    80.7216    98.5070  -999.2500
  360.5000   -29.6749    11.5562    12.3642    79.9814    97.3027  -999.2500
  361.0000   -29.4986    11.6688    12.4768    79.2412    97.3027  -999.2500
  361.5000   -29.3147    11.7814    12.5894    78.5010    97.3027  -999.2500
  362.0000   -29.6072    11.8940    12.7020    77.7609    97.6276  -999.2500
  362.5000   -29.9690    12.0066    12.8146    77.0201    98.1903  -999.2500
  363.0000   -30.3312    12.1193    12.9272    76.2786    98.7529  -999.2500
  363.5000   -30.6921    12.2318    13.0398    75.5815    99.3156  -999.2500
  364.0000   -31.0529    12.3445    13.1524    75.2450    99.8783  -999.2500
  364.5000   -31.4184    12.4606    13.2650    74.5717   100.0999  -999.2500
  365.0000   -31.7910    12.6126    13.3776    73.8892   100.0999  -999.2500
  365.5000   -32.1787    12.7702    13.4907    73.2075    99.3905  -999.2500
  366.0000   -32.1978    12.9279    13.6137    72.5262    97.9798  -999.2500
  366.5000   -31.9864    13.0856    13.7350    71.8450    97.2028  -999.2500
  367.0000   -31.6309    13.2432    13.8561    71.1638    97.6811  -999.2500
  367.5000   -31.2836    13.4007    13.9746    70.4825    98.2794  -999.2500
  368.0000   -31.2962    13.5579    14.0808    69.8013    99.9674  -999.2500
  368.5000   -32.1353    13.7549    14.3905    69.1194   101.6554  -999.2500
  369.0000   -32.9396    14.0343    14.6930    68.2425   102.9855  -999.2500
  369.5000   -33.7460    14.3099    14.9883    66.4870   103.9960  -999.2500
  370.0000   -34.5501    14.5820    15.2996    64.7314   102.5724  -999.2500
  370.5000   -35.3617    15.0685    16.0650    62.1926   100.8760  -999.2500
  371.0000   -35.4836    15.5274    16.8869    58.0798    97.8302  -999.2500
  371.5000   -34.5993    15.9992    18.0803    53.9670    92.9237  -999.2500
  372.0000   -32.9418    17.2959    19.2696    49.8542    87.9448  -999.2500
  372.5000   -31.2625    18.5627    20.4604    45.5456    82.9659  -999.2500
  373.0000   -30.1003    19.8319    21.6776    44.1636    78.1498  -999.2500
  373.5000   -29.3433    21.1004    21.5175    42.7185    73.9383  -999.2500
  374.0000   -28.9967    22.9730    21.0715    44.4643    71.1953  -999.2500
  374.5000   -28.7204    22.7895    20.3360    47.2710    70.9058  -999.2500
  375.0000   -28.9729    21.8940    18.9906    50.5505    77.0321  -999.2500
  375.5000   -29.6595    20.1650    17.6546    53.8351    83.2068  -999.2500
  376.0000   -31.0139    18.4218    16.3182    57.1196    89.3815  -999.2500
  376.5000   -33.4745    16.6812    14.9533    60.4041    95.5563  -999.2500
  377.0000   -35.8765    15.8087    14.2128    63.6887   100.5295  -999.2500
  377.5000   -37.0673    15.2081    13.6209    66.9732   104.6244  -999.2500
  378.0000   -37.8768    14.6427    13.0079    70.5706   106.6082  -999.2500
  378.5000   -37.4082    14.1399    12.8155    70.5706   106.8615  -999.2500
  379.0000   -36.9442    13.6762    12.7626    70.3036   106.4090  -999.2500
  379.5000   -36.4873    13.6605    12.7833    69.9533   105.9611  -999.2500
  380.0000   -36.0148    13.6632    12.8011    69.6029   105.8499  -999.2500
  380.5000   -35.7389    13.6638    12.8189    69.2526   106.0738  -999.2500
  381.0000   -35.5133    13.6651    12.8365    68.9022   106.2977  -999.2500
  381.5000   -35.2892    13.6565    12.8524    68.5686   106.3277  -999.2500
  382.0000   -35.0643    13.4709    12.7627    69.9449   105.9793  -999.2500
  382.5000   -34.8393    13.2848    12.5549    71.2518   105.6310  -999.2500
  383.0000   -34.6147    13.1092    11.9889    73.8185   105.5289  -999.2500
  383.5000   -34.3898    12.5276    11.1656    78.8122   105.9469  -999.2500
  384.0000   -34.1661    11.8647    10.3393    86.2740   106.1297  -999.2500
  384.5000   -33.6083    11.2003     9.5132    93.8166   105.9729  -999.2500
  385.0000   -32.8722    10.5369     8.6874   103.4184   106.0499  -999.2500
  385.5000   -30.8389     9.8872     7.8559   113.7283   106.3634  -999.2500
  386.0000   -28.0944     9.1148     6.9964   124.0199   106.4355  -999.2500
  386.5000   -25.3873     8.4751     6.6109   134.3114   106.1248  -999.2500
  387.0000   -24.4107     8.0674     6.2415   143.9773   105.7964  -999.2500
  387.5000   -23.7538     7.7426     5.9343   150.6507   105.8539  -999.2500
  388.0000   -23.4262     7.5244     5.8668   156.1562   105.9675  -999.2500
  388.5000   -23.0937     7.3047     5.7953   159.2664   106.0811  -999.2500
  389.0000   -22.7570     7.0845     5.7233   160.4382   106.1947  -999.2500
  389.5000   -22.6990     6.8809     5.6548   159.2704   106.2937  -999.2500
  390.0000   -22.6988     6.9085     5.7225   157.4074   105.8595  -999.2500
  390.5000   -22.7135     6.9785     5.8019   154.7907   105.2577  -999.2500
  391.0000   -22.8140     7.0473     5.8813   152.5373   104.6538  -999.2500
  391.5000   -22.9147     7.1163     5.9547   152.0278   104.0495  -999.2500
  392.0000   -23.0151     7.1857     5.9564   151.5015   103.4481  -999.2500
  392.5000   -23.0898     7.2548     5.9560   150.9760   103.0749  -999.2500
  393.0000   -22.9934     7.2597     5.9560   150.4505   103.2573  -999.2500
  393.5000   -22.8992     7.1874     5.9560   149.9249   103.8544  -999.2500
  394.0000   -22.8054     7.1008     5.9559   149.3943   104.4516  -999.2500
  394.5000   -22.7116     7.0137     5.9560   148.8580   105.0487  -999.2500
  395.0000   -22.6179     6.9581     5.9558   148.3218   105.4495  -999.2500
  395.5000   -22.5241     6.9702     5.9742   147.7855   105.5802  -999.2500
  396.0000   -22.4304     7.0496     6.0032   147.2493   105.3788  -999.2500
  396.5000   -22.3366     7.1283     6.0324   146.7130   104.6996  -999.2500
  397.0000   -22.2428     7.2075     6.0616   146.1765   104.0204  -999.2500
  397.5000   -22.1490     7.2645     6.0909   145.6392   103.3412  -999.2500
  398.0000   -22.0871     7.3077     6.1200   145.1059   102.8037  -999.2500
  398.5000   -22.0604     7.3251     6.1506   144.6988   102.7720  -999.2500
  399.0000   -22.0336     7.2859     6.0894   145.1478   103.2543  -999.2500
  399.5000   -22.0069     7.2078     5.9741   145.5831   103.7366  -999.2500
  400.0000   -21.9801     7.1218     5.8578   147.6421   104.0622  -999.2500
  400.5000   -21.9533     7.0355     5.7415   149.9713   104.1757  -999.2500
  401.0000   -21.9260     6.9704     5.6269   152.3005   104.2641  -999.2500
  401.5000   -21.9024     6.9206     5.5758   154.6297   104.3524  -999.2500
  402.0000   -21.9609     6.8714     5.6310   156.9590   104.4408  -999.2500
