~VERSION INFORMATION
 VERS.                2.0:   CWLS LOG ASCII STANDARD - VERSION 2.0
 WRAP.                 NO:   ONE LINE PER DEPTH STEP
~WELL INFORMATION
#MNEM.UNIT      DATA TYPE    INFORMATION
#----------   ------------   ------------------------------
 STRT.F          100.0000:   START DEPTH
 STOP.F         1196.0000:   STOP DEPTH
 STEP.F            0.5000:   STEP LENGTH
 NULL.          -999.2500:   NO VALUE
 COMP. DEPARTMENT OF ENERGY:   COMPANY
 WELL.     NRP ##3 77S-11:   WELL
 FLD .             TEAPOT:   FIELD
 LOC .      S11 T38N R78W:   LOCATION
 CNTY.            NATRONA:   COUNTY
 STAT.            WYOMING:   STATE
 CTRY. UNITED STATES OF AMERICA:   COUNTRY
 SRVC.       Schlumberger:   SERVICE COMPANY
 DATE.        18-AUG-1959:   LOGDATE
 API .       490250632900:   API NUMBER
~CURVE INFORMATION
#MNEM.UNIT       API CODE    CURVE DESCRIPTION
#----------   ------------   ------------------------------
 DEPT.F                  :   
 SPR .MV     05 010 01 00:   SPONTANEOUS POTENTIAL FROM RES.
 ASN .OHMM   05 041 16 00:   AMPLIFIED SHORT NORMAL 16"
 ILD .OHMM   05 120 46 00:   INDUCTION LOG DEEP
 CILD.MMHO   05 110 46 00:   CONDUCTIVITY INDUCTION LOG DEEP
~PARAMETER INFORMATION
#MNEM.UNIT          VALUE    DESCRIPTION
#----------   ------------   ------------------------------
 PD  .                 GL:   PERMANENT DATUM
 EPD .F              5258:   ELEVATION PERMANENT DATUM
 LMF .                 KB:   LOG MEASURED FROM
 DAPD.F                 4:   FEET ABOVE PERMANENT DATUM
 DMF .                 KB:   DRILLING MEASURED FROM
 EKB .F              5262:   KELLING BUSHING
 EGL .F              5258:   GROUND LEVEL
 DATE.            8-18-59:   RUN DATE
 RUN .                  1:   RUN NUMBER
 DD  .F              1200:   DEPTH DRILLER
 DL  .F              1201:   DEPTH LOGGER
 BLI .F              1196:   BOTTOM LOG INTERVAL
 TLI .F               100:   TOP LOG INTERVAL
 CBD .F                17:   CASING BOTTOM DRILLER
 BS  .IN             6.75:   BIT SIZE
 BSD .F              1200:   BIT SIZE AT DEPTH
 DFT . GEL-OIL-PHDS-CAUSTIC:   DRILLING FLUID TYPE
 DFD .               10.8:   DRILLING FLUID DENSITY
 DFV .                 60:   DRILLING FLUID VISCOSITY
 DFPH.                  9:   DRILLING FLUID PH
 DFL .                  4:   DRILLING FLUID LOSS
 RMS .OHMM            1.8:   RESISTIVITY MUD SAMPLE
 MST .F                90:   MUD SAMPLE TEMPERATURE
 RMF .OHMM            1.5:   RESISTIVITY MUD FILTRATE SAMPLE
 MFST.F                90:   MUD FILTRATE SAMPLE TEMPERATURE
 RMC .OHMM              2:   RESISTIVITY MUD CAKE
 MCST.F                90:   MUD CAKE SAMPLE TEMPERATURE
 TCS .HRS               1:   TIME CURCULATED STOPPED
 LUN .               2523:   LOGGING UNIT NUMBER
 LUL .               CSPR:   LOGGING UNIT LOCATION
 ENGI.             KNOBEL:   RECORDING ENGINEER
 WITN.             MARTIN:   WITNESSED BY
 CLNT.            A2DTECH:   CLIENT CODE
 ORIG.     1", 2.5" PRINT:   ORIGIN OF DATA
 UWI .       490250632900:   UNIQUE WELL ID
 DICO. A2D Technologies, Inc.:   DIGITIZING COMPANY
~OTHER INFORMATION
~A   DEPT      SPR          ASN        ILD      CILD  
# ...
  319.0000   -31.1801     8.3303     7.3337   132.5296
  319.5000   -31.2974     8.3357     7.2413   133.1087
  320.0000   -31.4487     8.3519     7.1672   133.8652
  320.5000   -31.5997     8.4558     7.1576   132.4184
  321.0000   -31.6657     8.6616     7.2317   130.3333
  321.5000   -31.6054     8.8928     7.3679   128.2482
  322.0000   -31.4334     9.1304     7.5241   126.1631
  322.5000   -31.1654     9.3947     7.6663   123.2270
  323.0000   -30.8693     9.6381     7.7955   121.4273
  323.5000   -30.7485     9.7792     7.9504   118.3865
  324.0000   -31.0105     9.7976     8.1570   115.3457
  324.5000   -31.6228     9.7362     8.3707   110.8156
  325.0000   -32.3367     9.6370     8.5052   110.8156
  325.5000   -32.9864     9.5199     8.5233   110.8156
  326.0000   -33.6190     9.4004     8.4589   115.1300
  326.5000   -34.2940     9.2868     8.3511   118.0260
  327.0000   -34.9111     9.1767     8.2112   119.6808
  327.5000   -35.3328     9.0616     8.0571   119.6808
  328.0000   -35.5701     8.9421     7.9224   121.7199
  328.5000   -35.7437     8.8284     7.8185   123.1678
  329.0000   -35.9213     8.7269     7.7386   124.6158
  329.5000   -36.0915     8.6311     7.6939   126.0638
  330.0000   -36.2610     8.5340     7.6917   127.5118
  330.5000   -36.4616     8.4486     7.6913   128.5461
  331.0000   -36.6485     8.4016     7.6425   127.6525
  331.5000   -36.6958     8.4023     7.5587   126.9575
  332.0000   -36.5484     8.4331     7.4989   126.2624
  332.5000   -36.3045     8.4737     7.4876   125.5674
  333.0000   -36.0894     8.5177     7.5076   125.0000
  333.5000   -35.9092     8.5611     7.5515   123.2270
  334.0000   -35.7015     8.5966     7.6282   123.2270
  334.5000   -35.4831     8.6310     7.7307   123.2270
  335.0000   -35.3520     8.6800     7.8276   123.2270
  335.5000   -35.3542     8.7276     7.8838   123.2270
  336.0000   -35.4295     8.7217     7.8760   123.2270
  336.5000   -35.4982     8.6350     7.8115   124.5441
  337.0000   -35.5431     8.5071     7.7342   125.7852
  337.5000   -35.5886     8.3970     7.6830   127.0263
  338.0000   -35.6472     8.3163     7.6422   128.2675
  338.5000   -35.7088     8.2468     7.5675   129.5086
  339.0000   -35.7619     8.1942     7.4583   130.7498
  339.5000   -35.8084     8.1835     7.3648   132.0922
  340.0000   -35.8603     8.2041     7.3206   133.8652
  340.5000   -35.9270     8.2088     7.3061   135.6383
  341.0000   -35.9897     8.1692     7.2882   136.2482
  341.5000   -36.0082     8.1015     7.2617   136.9433
  342.0000   -35.9563     8.0335     7.2356   137.6383
  342.5000   -35.8368     7.9766     7.2085   138.3333
  343.0000   -35.6461     7.9395     7.1798   139.1844
  343.5000   -35.3506     7.9458     7.1659   137.4113
  344.0000   -34.9298     8.0204     7.1850   137.4113
  344.5000   -34.4321     8.1653     7.2333   136.3741
  345.0000   -33.9355     8.3581     7.2888   134.9623
  345.5000   -33.4525     8.5588     7.3353   133.5505
  346.0000   -32.9297     8.7101     7.3755   132.1387
  346.5000   -32.3615     8.7566     7.4224   130.7269
  347.0000   -31.8516     8.7000     7.4791   129.3152
  347.5000   -31.5239     8.6245     7.5281   127.9034
  348.0000   -31.4065     8.6299     7.5596   126.4916
  348.5000   -31.4339     8.7377     7.6053   125.0798
  349.0000   -31.5256     8.8960     7.7084   123.6680
  349.5000   -31.6307     9.0645     7.8503   122.2562
  350.0000   -31.7292     9.2423     7.9581   120.8444
  350.5000   -31.8288     9.4024     8.0100   119.4326
  351.0000   -31.9396     9.4739     8.0764   118.0208
  351.5000   -32.0364     9.4324     8.2122   116.6090
  352.0000   -32.0719     9.3619     8.3598   115.1973
  352.5000   -32.0353     9.3723     8.4219   114.3617
  353.0000   -31.9685     9.4811     8.3949   113.5461
  353.5000   -31.9127     9.6214     8.3709   112.9669
  354.0000   -31.8696     9.7362     8.4149   112.3877
  354.5000   -31.8228     9.8158     8.5000   111.8085
  355.0000   -31.7691     9.8600     8.5636   111.2293
  355.5000   -31.7173     9.8623     8.5809   110.7835
  356.0000   -31.6688     9.8386     8.5708   110.8040
  356.5000   -31.6198     9.8197     8.5609   110.7738
  357.0000   -31.5687     9.8035     8.5670   110.8167
  357.5000   -31.5174     9.7555     8.5823   110.7590
  358.0000   -31.4672     9.6771     8.5772   110.8309
  358.5000   -31.4180     9.6286     8.5286   110.7467
  359.0000   -31.3680     9.6325     8.4450   110.8404
  359.5000   -31.3161     9.5906     8.3519   112.4504
  360.0000   -31.2648     9.3879     8.2574   114.0359
  360.5000   -31.2172     9.0840     8.1614   115.4427
  361.0000   -31.1692     8.8955     8.0833   117.0043
  361.5000   -31.1136     8.9353     8.0387   118.4390
  362.0000   -31.0585     9.0617     7.9984   119.9623
  362.5000   -31.0278     9.0580     7.9188   121.4355
  363.0000   -31.0354     8.8879     7.8089   122.9174
  363.5000   -31.0672     8.6828     7.7237   124.4292
  364.0000   -31.0991     8.5415     7.6838   125.8726
  364.5000   -31.1236     8.4569     7.6466   127.4241
  365.0000   -31.1487     8.4076     7.5682   128.8416
  365.5000   -31.1776     8.4072     7.4591   130.4124
  366.0000   -31.2048     8.4427     7.3607   132.0318
  366.5000   -31.2297     8.4474     7.2963   132.4805
  367.0000   -31.2581     8.3732     7.2605   132.8595
  367.5000   -31.2884     8.2434     7.2381   133.3244
  368.0000   -31.3113     8.1082     7.2075   133.8768
  368.5000   -31.3326     7.9789     7.1423   135.8287
  369.0000   -31.3818     7.8341     7.0250   139.2735
  369.5000   -31.4838     7.6708     6.8619   143.1603
  370.0000   -31.6295     7.5078     6.6760   148.9974
  370.5000   -31.7877     7.3436     6.4942   154.2581
  371.0000   -31.9390     7.1614     6.3325   159.9503
  371.5000   -32.0860     6.9729     6.1741   167.5532
  372.0000   -32.2360     6.8151     5.9840   168.8723
  372.5000   -32.3887     6.6975     5.7715   170.9574
  373.0000   -32.5407     6.6043     5.6162   173.0426
  373.5000   -32.6903     6.5545     5.5903   175.1277
  374.0000   -32.8387     6.5988     5.6704   178.1915
  374.5000   -32.9898     6.7378     5.7716   175.9787
  375.0000   -33.1450     6.8952     5.8468   171.8085
  375.5000   -33.2961     6.9993     5.9117   167.6383
  376.0000   -33.4298     7.0530     5.9879   163.4681
  376.5000   -33.5417     7.1055     6.0719   159.2979
  377.0000   -33.6387     7.1786     6.1532   156.9149
  377.5000   -33.7284     7.2399     6.2228   151.9503
  378.0000   -33.8134     7.2412     6.2662   149.8227
  378.5000   -33.8949     7.1758     6.2769   149.8227
  379.0000   -33.9761     7.0943     6.2712   151.0106
  379.5000   -34.0592     7.0555     6.2731   151.8794
  380.0000   -34.1433     7.0683     6.2886   152.7482
  380.5000   -34.2261     7.0998     6.3076   153.3688
  381.0000   -34.3070     7.1240     6.3222   152.4113
  381.5000   -34.3891     7.1400     6.3340   151.6667
  382.0000   -34.4747     7.1493     6.3479   150.9220
  382.5000   -34.5589     7.1462     6.3652   150.1773
  383.0000   -34.6366     7.1314     6.3807   149.4326
  383.5000   -34.7164     7.1160     6.3911   148.6879
  384.0000   -34.8090     7.1070     6.4033   148.0497
  384.5000   -34.8969     7.0983     6.4249   150.0355
  385.0000   -34.9387     7.0806     6.4439   151.7731
  385.5000   -34.9144     7.0509     6.4319   153.5106
  386.0000   -34.8504     7.0047     6.3758   155.2482
  386.5000   -34.7861     6.9271     6.2923   156.9858
  387.0000   -34.7351     6.8137     6.2068   158.7234
  387.5000   -34.6878     6.7020     6.1308   160.4610
  388.0000   -34.6341     6.6539     6.0608   162.1986
  388.5000   -34.5728     6.6869     5.9863   163.9362
  389.0000   -34.5142     6.7446     5.8997   165.6738
  389.5000   -34.4693     6.7547     5.8136   167.4113
  390.0000   -34.4258     6.7040     5.7627   169.1489
  390.5000   -34.3558     6.6447     5.7703   171.0993
  391.0000   -34.2773     6.6380     5.8194   162.2340
  391.5000   -34.2800     6.7017     5.8723   163.2269
