~VERSION INFORMATION
 VERS.                2.0:   CWLS LOG ASCII STANDARD - VERSION 2.0
 WRAP.                 NO:   ONE LINE PER DEPTH STEP
~WELL INFORMATION
#MNEM.UNIT      DATA TYPE    INFORMATION
#----------   ------------   ------------------------------
 STRT.F           26.0000:   START DEPTH
 STOP.F          543.5000:   STOP DEPTH
 STEP.F            0.5000:   STEP LENGTH
 NULL.          -999.2500:   NO VALUE
 COMP. LAWRENCE/ALLISON INC:   COMPANY
 WELL. NPR 3 #68-61-STX-3:   WELL
 FLD .             TEAPOT:   FIELD
 LOC .       S3 T38N R78W:   LOCATION
 CNTY.            NATRONA:   COUNTY
 STAT.            WYOMING:   STATE
 CTRY. UNITED STATES OF AMERICA:   COUNTRY
 SRVC.           Gearhart:   SERVICE COMPANY
 DATE.        30-MAY-1987:   LOGDATE
 API .       490251112800:   API NUMBER
~CURVE INFORMATION
#MNEM.UNIT       API CODE    CURVE DESCRIPTION
#----------   ------------   ------------------------------
 DEPT.F                  :   
 GRR .GAPI   07 310 01 00:   GAMMA RAY FROM RES. LOG.
 RILD.OHMM   07 120 46 00:   INDUCTION LOG DEEP RESISTIVITY
 RILM.OHMM   07 120 44 00:   INDUCTION LOG MEDIUM
~PARAMETER INFORMATION
#MNEM.UNIT          VALUE    DESCRIPTION
#----------   ------------   ------------------------------
 PD  .                 GL:   PERMANENT DATUM
 EPD .F              5176:   ELEVATION PERMANENT DATUM
 LMF .                 KB:   LOG MEASURED FROM
 DAPD.F                 8:   FEET ABOVE PERMANENT DATUM
 DMF .                 KB:   DRILLING MEASURED FROM
 EKB .F              5184:   KELLING BUSHING
 EDF .F              5182:   DRILLING FLOOR
 EGL .F              5176:   GROUND LEVEL
 DATE.          5-30-1987:   RUN DATE
 RUN .                  1:   RUN NUMBER
 DD  .F               550:   DEPTH DRILLER
 DL  .F               552:   DEPTH LOGGER
 BLI .F               544:   BOTTOM LOG INTERVAL
 TLI .F                30:   TOP LOG INTERVAL
 CS  .IN            8.625:   CASING SIZE
 CBD .F                50:   CASING BOTTOM DRILLER
 CBL .F                49:   CASING BOTTOM LOGGER
 BS  .IN            7.875:   BIT SIZE
 BSD .F               550:   BIT SIZE AT DEPTH
 DFT .                AIR:   DRILLING FLUID TYPE
 TLAB.HRS            0735:   TIME LOGGER AT BOTTOM
 MRT .F                80:   MAXIMUM RECORDED TEMPERATURE
 LUN .               7597:   LOGGING UNIT NUMBER
 LUL .           GILLETTE:   LOGGING UNIT LOCATION
 ENGI.         WEATHERMON:   RECORDING ENGINEER
 WITN.             STRONG:   WITNESSED BY
 CLNT.            A2DTECH:   CLIENT CODE
 ORIG.       2", 5" PRINT:   ORIGIN OF DATA
 UWI .       490251112800:   UNIQUE WELL ID
 DICO. A2D Technologies, Inc.:   DIGITIZING COMPANY
~OTHER INFORMATION
~A   DEPT       GRR      RILD       RILM   
   26.0000    97.3684  -999.2500  -999.2500
   26.5000   101.8219  -999.2500  -999.2500
   27.0000    99.1776  -999.2500  -999.2500
   27.5000   100.2952  -999.2500  -999.2500
   28.0000   101.6877  -999.2500  -999.2500
   28.5000   101.0072  -999.2500  -999.2500
   29.0000    99.4148  -999.2500  -999.2500
   29.5000    96.6841  -999.2500  -999.2500
   30.0000    95.5353  -999.2500  -999.2500
   30.5000    97.5926  -999.2500  -999.2500
   31.0000   103.6578  -999.2500  -999.2500
   31.5000   109.6941  -999.2500  -999.2500
   32.0000   109.4860  -999.2500  -999.2500
   32.5000   105.1158  -999.2500  -999.2500
   33.0000   100.6761  -999.2500  -999.2500
   33.5000    98.1862  -999.2500  -999.2500
   34.0000    97.0651  -999.2500  -999.2500
   34.5000    98.3801  -999.2500  -999.2500
   35.0000    99.6633  -999.2500  -999.2500
   35.5000    99.6699  -999.2500  -999.2500
   36.0000    99.4919  -999.2500  -999.2500
   36.5000    99.8504  -999.2500  -999.2500
   37.0000   101.4627  -999.2500  -999.2500
   37.5000   103.0444  -999.2500  -999.2500
   38.0000   103.2097  -999.2500  -999.2500
   38.5000   100.9716  -999.2500  -999.2500
   39.0000    98.9735  -999.2500  -999.2500
   39.5000    99.5192  -999.2500  -999.2500
   40.0000   102.7828  -999.2500  -999.2500
   40.5000   105.1416  -999.2500  -999.2500
   41.0000   103.1067  -999.2500  -999.2500
   41.5000   100.3352  -999.2500  -999.2500
   42.0000    97.5460  -999.2500  -999.2500
   42.5000    95.0690  -999.2500  -999.2500
   43.0000    92.7912  -999.2500  -999.2500
   43.5000    90.3826  -999.2500  -999.2500
   44.0000    87.9200  -999.2500  -999.2500
   44.5000    85.4749  -999.2500  -999.2500
   45.0000    84.3841  -999.2500  -999.2500
   45.5000    83.4496  -999.2500  -999.2500
   46.0000    83.2051  -999.2500  -999.2500
   46.5000    89.4885  -999.2500  -999.2500
   47.0000    97.8513  -999.2500  -999.2500
   47.5000   106.2493  -999.2500  -999.2500
   48.0000   114.6185  -999.2500  -999.2500
   48.5000   119.7698     2.6639  -999.2500
   49.0000   117.8858     2.6390     5.0002
   49.5000   114.8852     4.7174     5.1985
   50.0000   113.0439     8.8042     5.4235
   50.5000   116.2168    17.9038     6.3500
   51.0000   119.3977    18.3227     8.4955
   51.5000   122.5548    14.7013    11.3707
   52.0000   124.5305     9.8602    14.0595
   52.5000   126.3239     9.0392    13.6045
   53.0000   125.8879     8.7821    11.4333
   53.5000   123.6444     9.2392     9.7757
   54.0000   121.6589     9.7709     8.9922
   54.5000   122.3621    10.3316     8.3969
   55.0000   123.3915    10.5060     8.4712
   55.5000   122.3295    10.2620     8.5965
   56.0000   119.5955     9.7910     8.7236
   56.5000   118.8722     9.3415     8.7879
   57.0000   119.4280     9.1252     8.7285
   57.5000   121.7814     9.1316     8.7056
   58.0000   124.2831     9.1381     8.7858
   58.5000   126.5022     9.1445     8.8480
   59.0000   126.8832     9.1509     8.9106
   59.5000   126.2495     9.1573     8.9484
   60.0000   124.9012     9.1637     8.8709
   60.5000   123.6358     9.1701     8.8998
   61.0000   124.2358     9.1766     8.9321
   61.5000   125.5750     9.1830     8.9521
   62.0000   126.9348     9.1895     8.9195
   62.5000   126.7805     9.1959     8.8925
   63.0000   124.8618     9.2024     8.8656
   63.5000   122.9672     9.2090     8.8387
   64.0000   121.2523     9.2106     8.8120
   64.5000   120.0522     9.1772     8.7863
   65.0000   119.3485     9.1469     8.7702
   65.5000   119.6995     9.1167     8.7540
   66.0000   119.9857     9.0866     8.7379
   66.5000   122.0048     9.0566     8.7218
   67.0000   125.9252     9.0267     8.7057
   67.5000   129.8162     8.9969     8.6897
   68.0000   132.5894     8.9671     8.6737
   68.5000   132.2363     8.9375     8.6578
   69.0000   131.7274     8.9080     8.6418
   69.5000   131.3864     8.8786     8.6259
   70.0000   133.4630     8.8492     8.5806
   70.5000   134.2473     8.8198     8.5324
   71.0000   130.8273     8.7906     8.4844
   71.5000   127.5573     8.7877     8.4367
   72.0000   127.9593     8.9017     8.3845
   72.5000   130.2480     8.9902     8.4364
   73.0000   131.3376     9.1156     8.5111
   73.5000   130.9366     9.0392     8.5864
   74.0000   130.3435     9.1399     8.6487
   74.5000   127.7427     9.2324     8.8960
   75.0000   128.6178     9.3071     9.1676
   75.5000   129.7811     9.3384     9.2277
   76.0000   127.9814     9.3698     9.2466
   76.5000   125.4644     9.4013     9.2655
   77.0000   123.4502     9.4329     9.2844
   77.5000   123.4724     9.4646     9.2958
   78.0000   124.1551     9.4743     9.1931
   78.5000   124.8429     9.4145     9.1735
   79.0000   125.7052     9.3688     9.1542
   79.5000   124.2719     9.3234     9.1343
   80.0000   122.2931     9.2782     9.0120
   80.5000   124.6224     9.2332     8.9217
   81.0000   127.4834     9.1246     8.8323
   81.5000   130.3610     9.0587     8.7438
   82.0000   132.2448     8.9860     8.6562
   82.5000   133.4167     8.9139     8.5695
   83.0000   132.7250     8.8424     8.5213
   83.5000   132.1727     8.7714     8.4770
   84.0000   132.6678     8.7011     8.4328
   84.5000   132.7625     8.6313     8.3889
   85.0000   130.5659     8.5537     8.3452
   85.5000   128.3724     8.4637     8.3061
   86.0000   128.2177     8.5084     8.3296
   86.5000   128.5027     8.5726     8.3557
   87.0000   127.9689     8.6373     8.3819
   87.5000   125.8996     8.7025     8.4082
   88.0000   123.9738     8.7681     8.4341
   88.5000   120.7789     8.8477     8.4609
   89.0000   121.3174     8.9337     8.6014
   89.5000   123.0996     9.0205     8.7174
   90.0000   125.2672     9.1082     8.8353
   90.5000   127.5020     9.1968     8.9547
   91.0000   127.8404     9.2863     9.0757
   91.5000   126.8223     9.3766     9.1984
   92.0000   125.7244     9.4144     9.2199
   92.5000   124.7232     9.4722     9.2331
   93.0000   123.0621     9.5305     9.2462
   93.5000   121.0191     9.5890     9.2594
   94.0000   120.0405     9.6539     9.2726
   94.5000   122.9762     9.6365     9.2858
   95.0000   125.3539     9.6017     9.2975
   95.5000   124.5903     9.5671     9.2595
   96.0000   123.6927     9.5325     9.2171
   96.5000   123.7956     9.4981     9.1749
   97.0000   124.2079     9.4639     9.1330
   97.5000   124.6113     9.4297     9.0912
   98.0000   125.2912     9.3957     9.0496
   98.5000   128.4160     9.3616     9.0082
   99.0000   131.8041     9.3276     8.9670
   99.5000   132.3128     9.2972     8.9547
  100.0000   129.4861     9.4560     9.1289
  100.5000   126.6349     9.6356     9.2655
  101.0000   123.9242     9.8186     9.4039
  101.5000   123.0649    10.0049     9.5360
  102.0000   122.6944    10.1948     9.7451
  102.5000   122.2665    10.3883     9.9587
  103.0000   122.1512    10.6328    10.1771
  103.5000   122.4208    10.8157    10.4003
  104.0000   123.3412    11.0021    10.6220
  104.5000   122.0648    11.1917    10.7896
  105.0000   118.8202    11.3846    10.9597
  105.5000   116.6687    11.5808    11.1326
  106.0000   114.7636    11.7928    11.3972
  106.5000   112.8802    12.1234    11.7603
  107.0000   111.3047    12.4632    12.1345
  107.5000   110.7442    12.8125    12.5207
  108.0000   111.6142    13.1437    12.9192
  108.5000   113.3881    13.6045    13.2886
  109.0000   115.1267    14.0815    13.3319
  109.5000   116.0157    14.3262    13.3802
  110.0000   114.8196    14.1245    13.5259
  110.5000   113.1607    13.9713    13.3784
  111.0000   111.4933    13.8197    13.2325
  111.5000   110.1100    13.6697    13.0882
  112.0000   109.5252    13.5214    12.9455
  112.5000   112.5939    13.3747    12.8043
  113.0000   116.0169    13.2296    12.6786
  113.5000   118.4559    13.0861    12.6192
  114.0000   116.3036    12.9441    12.5534
  114.5000   113.9524    12.8037    12.4881
  115.0000   112.2812    12.6786    12.4230
  115.5000   112.1341    12.6006    12.3584
  116.0000   112.3442    12.4901    12.2765
  116.5000   112.1546    12.3805    12.0995
