~VERSION INFORMATION
 VERS.                2.0:   CWLS LOG ASCII STANDARD - VERSION 2.0
 WRAP.                 NO:   ONE LINE PER DEPTH STEP
~WELL INFORMATION
#MNEM.UNIT      DATA TYPE    INFORMATION
#----------   ------------   ------------------------------
 STRT.F           16.0000:   START DEPTH
 STOP.F          900.0000:   STOP DEPTH
 STEP.F            0.5000:   STEP LENGTH
 NULL.          -999.2500:   NO VALUE
 COMP. FENIX & SCISSON INC:   COMPANY
 WELL.    NPR-3 #65S15-15:   WELL
 FLD .             TEAPOT:   FIELD
 LOC .      S15 T38N R78W:   LOCATION
 CNTY.            NATRONA:   COUNTY
 STAT.            WYOMING:   STATE
 CTRY. UNITED STATES OF AMERICA:   COUNTRY
 SRVC.            Unknown:   SERVICE COMPANY
 DATE.        11-MAY-1978:   LOGDATE
 API .       490251062400:   API NUMBER
~CURVE INFORMATION
#MNEM.UNIT       API CODE    CURVE DESCRIPTION
#----------   ------------   ------------------------------
 DEPT.F                  :   
 RHOB.G/C3   45 350 01 00:   BULK DENSITY
 DPHI.DEC    45 890 12 00:   DENSITY POROSITY SANDSTONE
 CORR.G/C3   45 356 01 00:   DENSITY CORRECTION
 GRD .GAPI   45 310 01 00:   GAMMA RAY FROM DENSITY LOG
 CALD.IN     45 280 60 00:   CALIPER FROM DENSITY LOG
 SPR .MV     05 010 01 00:   SPONTANEOUS POTENTIAL FROM RES.
 SN  .OHMM   05 040 16 00:   SHORT NORMAL 16"
 IL  .OHMM   05 120 00 00:   INDUCTION LOG
~PARAMETER INFORMATION
#MNEM.UNIT          VALUE    DESCRIPTION
#----------   ------------   ------------------------------
 PD  .                 GL:   PERMANENT DATUM
 EPD .F              5289:   ELEVATION PERMANENT DATUM
 LMF .                 KB:   LOG MEASURED FROM
 DAPD.F                 4:   FEET ABOVE PERMANENT DATUM
 DMF .                 KB:   DRILLING MEASURED FROM
 EKB .F              5293:   KELLING BUSHING
 EDF .F                  :   DRILLING FLOOR
 EGL .F              5289:   GROUND LEVEL
 DATE.          5-11-1978:   RUN DATE
 RUN .                  1:   RUN NUMBER
 DD  .F               887:   DEPTH DRILLER
 DL  .F               889:   DEPTH LOGGER
 BLI .F               883:   BOTTOM LOG INTERVAL
 TLI .F                40:   TOP LOG INTERVAL
 CS  .IN            8.625:   CASING SIZE
 CBD .F                40:   CASING BOTTOM DRILLER
 CBL .F                40:   CASING BOTTOM LOGGER
 BS  .IN            7.875:   BIT SIZE
 BSD .F               887:   BIT SIZE AT DEPTH
 DFT .                KCL:   DRILLING FLUID TYPE
 DFD .                8.6:   DRILLING FLUID DENSITY
 DFV .                 30:   DRILLING FLUID VISCOSITY
 DFPH.                9.5:   DRILLING FLUID PH
 DFL .                  8:   DRILLING FLUID LOSS
 MSS .                   :   MUD SAMPLE SOURCE
 RMS .OHMM            .42:   RESISTIVITY MUD SAMPLE
 MST .F                68:   MUD SAMPLE TEMPERATURE
 RMF .OHMM            .38:   RESISTIVITY MUD FILTRATE SAMPLE
 MFST.F                68:   MUD FILTRATE SAMPLE TEMPERATURE
 RMC .OHMM            .68:   RESISTIVITY MUD CAKE
 MCST.F                66:   MUD CAKE SAMPLE TEMPERATURE
 MFSS.           MEASURED:   MUD FILTRATE SAMPLE SOURCE
 MCSS.                   :   MUD CAKE SAMPLE SOURCE
 RMB .OHMM               :   RESISTIVITY MUD AT BHT
 BHT .F                72:   BOTTOM HOLE TEMPERATURE
 TCS .HRS               2:   TIME CURCULATED STOPPED
 TLAB.HRS                :   TIME LOGGER AT BOTTOM
 MRT .F                72:   MAXIMUM RECORDED TEMPERATURE
 LUN .              CASP.:   LOGGING UNIT NUMBER
 LUL .               2958:   LOGGING UNIT LOCATION
 ENGI.             MILLER:   RECORDING ENGINEER
 WITN.           MCGINLEY:   WITNESSED BY
 CLNT.            A2DTECH:   CLIENT CODE
 ORIG.      2" & 5" PRINT:   ORIGIN OF DATA
 UWI .       490251062400:   UNIQUE WELL ID
 DICO. A2D Technologies, Inc.:   DIGITIZING COMPANY
 OS  .                   :   OTHER SERVICES
 PWI .                   :   PRIMARY WELL IDENTIFIER
 R1  .                   :   REMARKS 1
 R2  .                   :   REMARKS 2
~OTHER INFORMATION
~A   DEPT     RHOB       DPHI       CORR         GRD      CALD        SPR         SN         IL   
# ...
  866.5000     2.5340     0.0833     0.0308    76.1773     7.4875   -42.5698     9.0388     8.1452
  867.0000     2.5323     0.0844     0.0328    77.0764     7.5240   -42.5867     9.0264     8.1682
  867.5000     2.5329     0.0844     0.0353    78.0344     7.5668   -42.6036     9.0107     8.1907
  868.0000     2.5341     0.0844     0.0378    79.5969     7.5721   -42.6206     8.9814     8.2230
  868.5000     2.5353     0.0846     0.0403    82.0021     7.5781   -42.6375     8.9525     8.1175
  869.0000     2.5365     0.0857     0.0425    82.5081     7.5842   -42.6544     8.9237     8.0511
  869.5000     2.5377     0.0868     0.0412    80.5234     7.5801   -42.6713     8.8950     7.9852
  870.0000     2.5350     0.0878     0.0379    78.5551     7.5746   -42.6883     8.8664     7.9198
  870.5000     2.5310     0.0889     0.0324    76.7889     7.5691   -42.7052     8.8380     7.8529
  871.0000     2.5269     0.0900     0.0270    76.9395     7.5636   -42.7221     8.8095     7.7435
  871.5000     2.5203     0.0936     0.0246    76.7165     7.5581   -42.7390     8.7811     7.6041
  872.0000     2.5116     0.0979     0.0228    75.7989     7.5526   -42.7560     8.6672     7.4521
  872.5000     2.5100     0.0996     0.0199    75.6310     7.5470   -42.7729     8.5049     7.2558
  873.0000     2.5092     0.1006     0.0170    76.1405     7.5508   -42.7898     8.3457     7.0653
  873.5000     2.5071     0.1016     0.0141    76.6561     7.5603   -42.8067     8.0966     6.8794
  874.0000     2.5051     0.1027     0.0127    77.1702     7.5699   -42.8237     7.8173     6.6985
  874.5000     2.5031     0.1067     0.0132    75.9899     7.5796   -42.8406     7.5477     6.5223
  875.0000     2.5010     0.1116     0.0137    75.7990     7.5892   -42.8575     7.2874     6.3507
  875.5000     2.4964     0.1134     0.0141    76.0131     7.5988   -42.8744     7.0363     6.1837
  876.0000     2.4894     0.1217     0.0137    75.3176     7.6084   -42.8913     6.7923     5.9804
  876.5000     2.4819     0.1339     0.0087    73.0306     7.6180   -42.9083     6.5647     5.4693
  877.0000     2.4630     0.1382     0.0108    71.8086     7.6278   -42.9255     6.0493     4.7756
  877.5000     2.4495     0.1424     0.0144    73.1047     7.6372   -42.9294     5.5527     4.1285
  878.0000     2.4373     0.1565     0.0174    74.7225     7.6291   -42.9345     4.9385     3.5158
  878.5000     2.4249     0.1804     0.0158    76.3558     7.5459   -42.8928     4.2866     2.9940
  879.0000     2.4071     0.2017     0.0151    77.9567     7.4844   -42.1682     3.7201     2.5529
  879.5000     2.3793     0.2348     0.0184    78.1136     7.4889   -41.4610     3.2284     2.4380
  880.0000     2.3255     0.2679     0.0282    74.9292     7.4922   -40.7651     2.8017     2.4380
  880.5000     2.2819     0.2937     0.0601    73.9665     7.4954   -40.3339     2.5529     2.4790
  881.0000     2.2366     0.3037     0.0908    76.4040     7.4985   -40.3392     2.8769     2.5183
  881.5000     2.1908     0.3065     0.1301    76.6908     7.5010   -40.3381     3.2122     2.5938
  882.0000     2.1695     0.2692     0.1867    75.4069     7.5074   -40.3386     3.3345     2.9190
  882.5000     2.1646     0.2203     0.2347    74.3069     7.5683   -40.3386     3.9211     3.3654
  883.0000     2.2114     0.1714     0.0963    75.3518     7.9389   -40.3386     4.8397     3.3513
  883.5000     2.3088     0.1225    -0.0144    76.4153     8.1835  -999.2500     5.3935     3.3345
  884.0000     2.4067     0.0966     0.0206    75.7698     8.2371  -999.2500  -999.2500  -999.2500
  884.5000     2.5045     0.0991     0.0245    73.6588     8.2440  -999.2500  -999.2500  -999.2500
  885.0000     2.5127     0.1016     0.0245    71.5425     8.2436  -999.2500  -999.2500  -999.2500
  885.5000     2.5074     0.1006     0.0247    71.7460     8.2435  -999.2500  -999.2500  -999.2500
  886.0000     2.5020     0.0936     0.0397    75.2766     8.2435  -999.2500  -999.2500  -999.2500
  886.5000     2.5097     0.0866     0.0490    76.4260     8.2435  -999.2500  -999.2500  -999.2500
  887.0000     2.5214     0.0816     0.0578    77.5149     8.2435  -999.2500  -999.2500  -999.2500
  887.5000     2.5327     0.0860     0.0667    80.7540     8.2435  -999.2500  -999.2500  -999.2500
  888.0000     2.5348     0.0813     0.0756    77.4766     8.2416  -999.2500  -999.2500  -999.2500
  888.5000     2.5360     0.0755     0.0845    74.0564     8.2319  -999.2500  -999.2500  -999.2500
  889.0000     2.5396     0.0700     0.0934    70.6863     8.2259  -999.2500  -999.2500  -999.2500
  889.5000     2.5440     0.0735     0.0951    70.4189     8.2766  -999.2500  -999.2500  -999.2500
  890.0000     2.5483     0.0772     0.0957    74.8608     8.2813  -999.2500  -999.2500  -999.2500
  890.5000     2.5521     0.0753     0.0963    78.5047     8.2272  -999.2500  -999.2500  -999.2500
  891.0000     2.5495     0.0754     0.0947    81.8682     8.2230  -999.2500  -999.2500  -999.2500
  891.5000     2.5467     0.0775     0.0912    82.0331     8.2228  -999.2500  -999.2500  -999.2500
  892.0000     2.5440     0.0795     0.0876    82.0536     8.2558  -999.2500  -999.2500  -999.2500
  892.5000     2.5412     0.0816     0.0840    78.0934     8.2514  -999.2500  -999.2500  -999.2500
  893.0000     2.5384     0.0827     0.0807    71.4579     8.2310  -999.2500  -999.2500  -999.2500
  893.5000     2.5357     0.0835     0.0806    69.0780     8.2281  -999.2500  -999.2500  -999.2500
  894.0000     2.5329     0.0840     0.0806    69.0314     8.2348  -999.2500  -999.2500  -999.2500
  894.5000     2.5301     0.0826     0.0828    69.0372     8.2418  -999.2500  -999.2500  -999.2500
  895.0000     2.5274     0.0811     0.0876    69.0419     8.2487  -999.2500  -999.2500  -999.2500
  895.5000     2.5285     0.0796     0.0924    69.0419     8.2557  -999.2500  -999.2500  -999.2500
  896.0000     2.5333     0.0809     0.0926    69.0419     8.2626  -999.2500  -999.2500  -999.2500
  896.5000     2.5381     0.0824     0.0890    69.0419     8.2696  -999.2500  -999.2500  -999.2500
  897.0000     2.5417     0.0798     0.0876    69.0419     8.2766  -999.2500  -999.2500  -999.2500
  897.5000     2.5388     0.0759     0.0904    69.0419     8.2828  -999.2500  -999.2500  -999.2500
  898.0000     2.5359     0.0752     0.0909    69.0419     8.2683  -999.2500  -999.2500  -999.2500
  898.5000     2.5331     0.0807     0.0813    69.0419     8.2529  -999.2500  -999.2500  -999.2500
  899.0000     2.5310     0.0816     0.0727    69.0419     8.2375  -999.2500  -999.2500  -999.2500
  899.5000     2.5310     0.0816     0.0725    69.0419     8.2237  -999.2500  -999.2500  -999.2500
  900.0000     2.5310     0.0816     0.0726    69.0419     8.2235  -999.2500  -999.2500  -999.2500
