~VERSION INFORMATION
 VERS.                2.0:   CWLS LOG ASCII STANDARD - VERSION 2.0
 WRAP.                 NO:   ONE LINE PER DEPTH STEP
~WELL INFORMATION
#MNEM.UNIT      DATA TYPE    INFORMATION
#----------   ------------   ------------------------------
 STRT.F           70.0000:   START DEPTH
 STOP.F          960.0000:   STOP DEPTH
 STEP.F            0.5000:   STEP LENGTH
 NULL.          -999.2500:   NO VALUE
 COMP. U S NAVY/INTEX OIL CO:   COMPANY
 WELL.      NPR 3 #26S-35:   WELL
 FLD .             TEAPOT:   FIELD
 LOC .      S35 T39N R78W:   LOCATION
 CNTY.            NATRONA:   COUNTY
 STAT.            WYOMING:   STATE
 CTRY. UNITED STATES OF AMERICA:   COUNTRY
 SRVC.         Lane Wells:   SERVICE COMPANY
 DATE.        19-MAR-1960:   LOGDATE
 API .       490250651600:   API NUMBER
~CURVE INFORMATION
#MNEM.UNIT       API CODE    CURVE DESCRIPTION
#----------   ------------   ------------------------------
 DEPT.F                  :   
 ASN .OHMM   05 041 16 00:   AMPLIFIED SHORT NORMAL 16"
 ILD .OHMM   05 120 46 00:   INDUCTION LOG DEEP
 CILD.MMHO   05 110 00 00:   CONDUCTIVITY INDUCTION LOG
 SPR .MV     05 010 01 00:   SPONTANEOUS POTENTIAL FROM RES.
~PARAMETER INFORMATION
#MNEM.UNIT          VALUE    DESCRIPTION
#----------   ------------   ------------------------------
 PD  .                 GL:   PERMANENT DATUM
 EPD .F              5095:   ELEVATION PERMANENT DATUM
 LMF .                 KB:   LOG MEASURED FROM
 DAPD.F                 5:   FEET ABOVE PERMANENT DATUM
 DMF .                 KB:   DRILLING MEASURED FROM
 EKB .F              5101:   KELLING BUSHING
 EGL .F              9096:   GROUND LEVEL
 DATE.          3-19-1960:   RUN DATE
 RUN .                  1:   RUN NUMBER
 DD  .F               977:   DEPTH DRILLER
 DL  .F               959:   DEPTH LOGGER
 BLI .F               957:   BOTTOM LOG INTERVAL
 TLI .F                70:   TOP LOG INTERVAL
 CS  .IN            8.625:   CASING SIZE
 CBD .F                12:   CASING BOTTOM DRILLER
 BS  .IN            7.875:   BIT SIZE
 BSD .F               977:   BIT SIZE AT DEPTH
 DFT .   GEL-OIL EMULSION:   DRILLING FLUID TYPE
 DFD .                9.4:   DRILLING FLUID DENSITY
 DFV .                 40:   DRILLING FLUID VISCOSITY
 DFPH.                7.5:   DRILLING FLUID PH
 DFL .                8.2:   DRILLING FLUID LOSS
 MSS .           FLOWLINE:   MUD SAMPLE SOURCE
 RMS .OHMM            2.2:   RESISTIVITY MUD SAMPLE
 MST .F                64:   MUD SAMPLE TEMPERATURE
 RMF .OHMM            1.5:   RESISTIVITY MUD FILTRATE SAMPLE
 MFST.F                64:   MUD FILTRATE SAMPLE TEMPERATURE
 RMC .OHMM            3.1:   RESISTIVITY MUD CAKE
 MCST.F                64:   MUD CAKE SAMPLE TEMPERATURE
 MFSS.                MUD:   MUD FILTRATE SAMPLE SOURCE
 MCSS.              PRESS:   MUD CAKE SAMPLE SOURCE
 RMB .OHMM            2.0:   RESISTIVITY MUD AT BHT
 BHT .F                71:   BOTTOM HOLE TEMPERATURE
 MRT .F                71:   MAXIMUM RECORDED TEMPERATURE
 LUN .             L-4474:   LOGGING UNIT NUMBER
 LUL .             CASPER:   LOGGING UNIT LOCATION
 ENGI.             NELSON:   RECORDING ENGINEER
 WITN.          JORGENSBN:   WITNESSED BY
 CLNT.            A2DTECH:   CLIENT CODE
 ORIG.      2" & 5" PRINT:   ORIGIN OF DATA
 UWI .       490250651600:   UNIQUE WELL ID
 DICO. A2D Technologies, Inc.:   DIGITIZING COMPANY
~OTHER INFORMATION
~A   DEPT        ASN        ILD      CILD       SPR   
   70.0000     3.3163     3.6552   302.1084   -48.5383
   70.5000     3.3163     3.6552   304.5080   -48.3512
   71.0000     3.3821     3.6630   305.3045   -48.2012
   71.5000     3.4718     3.6735   306.1011   -48.0513
   72.0000     3.5614     3.6840   306.8976   -47.9013
   72.5000     3.6510     3.6946   307.5301   -47.7514
   73.0000     3.7406     3.7051   307.5301   -47.6014
   73.5000     3.7894     3.7168   308.1634   -47.6090
   74.0000     3.8720     3.7200   306.1188   -47.3768
   74.5000     4.0195     3.7324   304.0706   -47.2255
   75.0000     4.1556     3.7389   302.0224   -47.0780
   75.5000     4.2926     3.7754   300.3012   -46.9232
   76.0000     4.4279     3.8319   294.7590   -46.7849
   76.5000     4.5600     3.8814   289.9799   -46.6182
   77.0000     4.7513     3.9329   285.2008   -46.4876
   77.5000     4.9292     3.9852   280.4217   -46.4117
   78.0000     5.1101     4.0338   277.9458   -46.3303
   78.5000     5.2065     4.0906   276.8705   -46.2478
   79.0000     5.2034     4.0804   275.7952   -46.1908
   79.5000     5.1690     4.0185   274.7199   -46.2657
   80.0000     5.0593     3.9683   273.6446   -46.3471
   80.5000     4.9481     3.9123   276.7259   -46.4270
   81.0000     4.8382     3.8598   282.8193   -46.5081
   81.5000     4.7273     3.8046   288.9127   -46.5874
   82.0000     4.6178     3.7524   295.0060   -46.6694
   82.5000     4.5061     3.6957   301.0994   -46.7470
   83.0000     4.3982     3.6467   302.9518   -46.8331
   83.5000     4.3148     3.5832   301.1596   -46.8800
   84.0000     4.3787     3.6074   297.0643   -46.6630
   84.5000     4.5381     3.7149   290.8514   -46.4188
   85.0000     4.6824     3.8070   284.6385   -46.1787
   85.5000     4.8327     3.9068   278.4614   -45.9397
   86.0000     4.9820     4.0024   272.2408   -45.6934
   86.5000     5.1277     4.1004   266.0331   -45.4873
   87.0000     5.2846     4.1971   259.8313   -45.6472
   87.5000     5.3846     4.2950   253.3526   -45.8631
   88.0000     5.4184     4.3909   251.8702   -46.0669
   88.5000     5.4734     4.4901   250.3102   -46.2766
   89.0000     5.5803     4.5832   248.7479   -46.4829
   89.5000     5.7106     4.6894   247.3397   -46.6912
   90.0000     5.8258     4.7412   246.1385   -46.8984
   90.5000     5.9657     4.6951   244.9466   -47.1060
   91.0000     6.0078     4.6509   244.2413   -47.3132
   91.5000     5.9277     4.6030   245.7189   -47.5213
   92.0000     5.8654     4.5572   247.3591   -47.7278
   92.5000     5.7931     4.5103   249.0026   -47.9381
   93.0000     5.7274     4.4640   250.6298   -48.1405
   93.5000     5.6549     4.4172   252.2590   -48.3578
   94.0000     5.6719     4.3709   253.9458   -48.5475
   94.5000     5.6987     4.3240   255.9695   -48.7962
   95.0000     5.8149     4.2784   258.4337   -48.8024
   95.5000     5.8460     4.2304   260.8980   -48.4386
   96.0000     5.6929     4.1868   263.3622   -48.1101
   96.5000     5.5651     4.1334   265.8264   -47.7591
   97.0000     5.4034     4.1103   268.2906   -47.4220
   97.5000     5.3035     4.1368   270.7549   -47.0741
   98.0000     5.1570     4.1571   273.2191   -46.7384
   98.5000     5.1248     4.1809   273.0121   -46.3840
   99.0000     5.2865     4.2027   265.8434   -46.0629
   99.5000     5.4397     4.2256   258.6747   -45.6671
  100.0000     5.5890     4.2479   251.5060   -45.4610
  100.5000     5.7660     4.2705   249.0229   -45.6011
  101.0000     5.8683     4.2929   248.1191   -45.7001
  101.5000     5.8048     4.3155   247.2153   -45.8155
  102.0000     5.7673     4.3376   246.3116   -45.9332
  102.5000     5.7193     4.3612   245.4078   -46.0290
  103.0000     5.6755     4.3856   244.5040   -46.1750
  103.5000     5.6318     4.4389   243.6002   -45.9286
  104.0000     5.5789     4.4894   242.6965   -45.4588
  104.5000     5.6009     4.5389   241.7927   -45.0757
  105.0000     5.6534     4.5889   240.8889   -44.6532
  105.5000     5.6916     4.6386   239.9851   -44.2552
  106.0000     5.7404     4.6884   238.8554   -43.8379
  106.5000     5.7797     4.7383   237.0071   -43.4410
  107.0000     5.8515     4.7881   234.5427   -43.0228
  107.5000     5.9529     4.8380   232.0783   -42.9722
  108.0000     6.0400     4.8878   229.6139   -43.1274
  108.5000     6.1312     4.9375   227.1495   -43.2339
  109.0000     6.2230     4.9876   224.6851   -43.3626
  109.5000     6.3093     5.0371   222.2207   -43.4805
  110.0000     6.4211     5.0925   219.7563   -43.6019
  110.5000     6.3792     5.1010   217.2919   -43.7264
  111.0000     6.2984     5.0989   214.8275   -43.8176
  111.5000     6.2176     5.0998   211.7470   -43.8211
  112.0000     6.1790     5.0992   211.5005   -43.8218
  112.5000     6.2846     5.0995   211.1720   -43.8210
  113.0000     6.3703     5.0993   210.8434   -43.8226
  113.5000     6.4583     5.0994   210.5148   -43.8199
  114.0000     6.5607     5.0993   210.1862   -43.8250
  114.5000     6.5422     5.0995   209.9398   -43.8157
  115.0000     6.4912     5.0992   211.0693   -43.8347
  115.5000     6.4418     5.0999   211.7470   -43.6863
  116.0000     6.4069     5.0969   219.8795   -43.4285
  116.5000     6.2577     5.0778   228.0121   -43.2078
  117.0000     6.0242     5.0607   230.7229   -42.9730
  117.5000     5.8338     5.0434   233.4337   -42.7412
  118.0000     5.5994     5.0261   235.3701   -42.5481
  118.5000     5.5947     5.0090   236.9191   -42.4670
  119.0000     5.6442     4.9911   238.8554   -42.3889
  119.5000     5.7121     4.9751   238.8554   -42.3915
  120.0000     5.8872     4.9554   232.5996   -42.4436
  120.5000     6.0802     4.9424   227.5950   -42.4890
  121.0000     6.2022     4.9148   222.5904   -42.5278
  121.5000     6.2160     4.9784   217.5857   -42.6187
  122.0000     6.2434     5.0874   212.5811   -42.7513
  122.5000     6.2841     5.1764   206.3253   -42.8678
  123.0000     6.4394     5.2740   204.5181   -42.9909
  123.5000     6.5938     5.3668   202.7108   -43.1114
  124.0000     6.7314     5.4631   197.5473   -43.2311
  124.5000     6.9227     5.5560   193.4165   -43.3550
  125.0000     7.1643     5.6539   189.2857   -43.4701
  125.5000     7.4144     5.7426   185.1549   -43.6014
  126.0000     7.5907     5.8513   181.0241   -43.5935
  126.5000     7.7072     5.9300   176.8933   -43.4833
  127.0000     7.7800     6.0989   173.7952   -43.3965
  127.5000     7.6703     6.1494   175.6975   -43.2986
  128.0000     7.5949     6.0604   177.2194   -43.2067
  128.5000     7.5042     6.0365   178.7413   -43.1116
  129.0000     7.4170     5.9958   180.2632   -43.0177
  129.5000     7.3654     5.9646   181.7850   -42.9235
  130.0000     7.3105     5.9285   183.3069   -42.8289
  130.5000     7.2606     5.8944   184.8288   -42.7359
  131.0000     7.2083     5.8601   186.3507   -42.6399
  131.5000     7.1586     5.8246   188.2530   -42.5493
  132.0000     7.1054     5.7924   188.9923   -42.4477
  132.5000     7.0582     5.7524   189.9781   -42.3940
  133.0000     6.9976     5.7309   190.9639   -42.5905
  133.5000     6.9698     5.7514   191.9496   -42.8006
  134.0000     7.0250     5.7656   192.9354   -43.0051
  134.5000     7.0696     5.7822   193.6747   -43.1804
  135.0000     7.1154     5.7975   192.0611   -43.3356
  135.5000     7.1643     5.8136   190.7702   -43.4822
  136.0000     7.2084     5.8291   189.4794   -43.6418
  136.5000     7.2813     5.8454   188.1885   -43.7772
  137.0000     7.3918     5.8602   186.8976   -43.9585
  137.5000     7.4764     5.8778   185.6067   -43.8301
  138.0000     7.5889     5.8903   184.6385   -43.4194
  138.5000     7.5235     5.9141   187.7447   -43.0891
  139.0000     7.3799     5.8674   190.2297   -42.6889
  139.5000     7.2641     5.7863   192.7146   -42.6075
  140.0000     7.1386     5.7202   195.1996   -42.7833
  140.5000     7.0140     5.6477   197.6845   -42.9136
  141.0000     6.8968     5.5784   200.1694   -43.0664
  141.5000     6.7557     5.5078   202.6544   -43.2073
  142.0000     6.6719     5.4371   204.5181   -43.3544
  142.5000     6.7032     5.3677   204.3298   -43.5001
