~VERSION INFORMATION
 VERS.                2.0:   CWLS LOG ASCII STANDARD - VERSION 2.0
 WRAP.                 NO:   ONE LINE PER DEPTH STEP
~WELL INFORMATION
#MNEM.UNIT      DATA TYPE    INFORMATION
#----------   ------------   ------------------------------
 STRT.F            9.5000:   START DEPTH
 STOP.F          640.5000:   STOP DEPTH
 STEP.F            0.5000:   STEP LENGTH
 NULL.          -999.2500:   NO VALUE
 COMP. FENIX & SCISSON INC:   COMPANY
 WELL. 27-32 SX 11 WI #27-32 SX:   WELL
 FLD .            WILDCAT:   FIELD
 LOC .      S11 T38N R78W:   LOCATION
 CNTY.            NATRONA:   COUNTY
 STAT.            WYOMING:   STATE
 CTRY. UNITED STATES OF AMERICA:   COUNTRY
 SRVC.      Dresser Atlas:   SERVICE COMPANY
 DATE.        01-AUG-1980:   LOGDATE
 API .       490251083700:   API NUMBER
~CURVE INFORMATION
#MNEM.UNIT       API CODE    CURVE DESCRIPTION
#----------   ------------   ------------------------------
 DEPT.F                  :   
 SPR .MV     07 010 01 00:   SPONTANEOUS POTENTIAL
 SFL .OHMM   07 220 01 00:   SHALLOW FOCUSED LOG RESISTIVITY
 ILD .OHMM   07 120 46 00:   INDUCTION LOG DEEP
 ILM .OHMM   07 120 44 00:   INDUCTION LOG MEDIUM
 GRD .GAPI   45 310 01 00:   GAMMA RAY FROM DENSITY LOG
 CALD.IN     45 280 60 00:   CALIPER
 RHOB.G/C3   45 350 01 00:   BULK DENSITY
 CORR.G/C3   45 356 01 00:   DENSITY CORRECTION
 DPHI.DEC    45 890 12 00:   DENSITY POROSITY SANDSTONE
 NPHI.DEC    42 890 03 00:   NEUTRON POROSITY SANDSTONE
~PARAMETER INFORMATION
#MNEM.UNIT          VALUE    DESCRIPTION
#----------   ------------   ------------------------------
 PD  .                 GL:   PERMANENT DATUM
 EPD .F              5189:   ELEVATION PERMANENT DATUM
 LMF .                 KB:   LOG MEASURED FROM
 DAPD.F                 5:   FEET ABOVE PERMANENT DATUM
 DMF .                 KB:   DRILLING MEASURED FROM
 EKB .F              5194:   KELLING BUSHING
 EGL .F              5189:   GROUND LEVEL
 DATE.             8-1-80:   RUN DATE
 RUN .                  1:   RUN NUMBER
 DD  .F               625:   DEPTH DRILLER
 DL  .F               634:   DEPTH LOGGER
 BLI .F               632:   BOTTOM LOG INTERVAL
 TLI .F                12:   TOP LOG INTERVAL
 BS  .IN            7.875:   BIT SIZE
 BSD .F               625:   BIT SIZE AT DEPTH
 DFT .           CHEM GEL:   DRILLING FLUID TYPE
 DFD .                9.1:   DRILLING FLUID DENSITY
 DFV .                 44:   DRILLING FLUID VISCOSITY
 DFPH.                9.5:   DRILLING FLUID PH
 DFL .                7.6:   DRILLING FLUID LOSS
 MSS .           FLOWLINE:   MUD SAMPLE SOURCE
 RMS .OHMM            .27:   RESISTIVITY MUD SAMPLE
 MST .F                70:   MUD SAMPLE TEMPERATURE
 RMF .OHMM            .16:   RESISTIVITY MUD FILTRATE SAMPLE
 MFST.F                65:   MUD FILTRATE SAMPLE TEMPERATURE
 MFSS.               MEAS:   MUD FILTRATE SAMPLE SOURCE
 MCSS.               MEAS:   MUD CAKE SAMPLE SOURCE
 RMB .OHMM            .21:   RESISTIVITY MUD AT BHT
 BHT .F                94:   BOTTOM HOLE TEMPERATURE
 TCS .HRS            0040:   TIME CURCULATED STOPPED
 MRT .F                94:   MAXIMUM RECORDED TEMPERATURE
 LUN .               6145:   LOGGING UNIT NUMBER
 LUL .              GLTTE:   LOGGING UNIT LOCATION
 ENGI.              HENRY:   RECORDING ENGINEER
 WITN.              AMEND:   WITNESSED BY
 CLNT.            A2DTECH:   CLIENT CODE
 ORIG.     1", 2.5" PRINT:   ORIGIN OF DATA
 UWI .       490251083700:   UNIQUE WELL ID
 DICO. A2D Technologies, Inc.:   DIGITIZING COMPANY
~OTHER INFORMATION
~A    DEPT     SPR         SFL         ILD        ILM      GRD       CALD       RHOB       CORR       DPHI       NPHI   
# ...
  612.5000   -58.0569    13.0407     7.0635     8.5586   100.2542     8.3589     2.5225     0.0300     0.0936     0.2414
  613.0000   -57.9244    12.5839     7.5962     9.2743   100.6630     8.3589     2.5262     0.0343     0.0920     0.2423
  613.5000   -57.7928    12.2027     8.1691     9.9395    97.1231     8.3589     2.5220     0.0333     0.0947     0.2431
  614.0000   -57.6610    12.0932     8.6145    10.0629    98.1518     8.3589     2.5150     0.0247     0.0989     0.2440
  614.5000   -57.5294    11.9978     8.7633    10.1722    99.7142     8.3589     2.5078     0.0165     0.1031     0.2449
  615.0000   -57.3977    11.9031     8.9145    10.2827    99.5170     8.3589     2.5031     0.0078     0.1064     0.2458
  615.5000   -57.2661    11.7560     9.0684    10.3944    97.3747     8.3589     2.5030     0.0043     0.1072     0.2467
  616.0000   -57.1345    11.9996     9.2250    10.5074    96.0134     8.3588     2.5083     0.0061     0.1052     0.2459
  616.5000   -57.0028    12.5839     9.3842    10.6215    95.7387     8.3589     2.5168     0.0074     0.1007     0.2424
  617.0000   -56.8712    13.1966     9.5462    10.7369    97.6188     8.3589     2.5215     0.0087     0.0960     0.2384
  617.5000   -56.7396    13.8392     9.7110    10.8535   100.1982     8.3587     2.5210     0.0102     0.0957     0.2345
  618.0000   -56.6079    14.4321     9.8787    10.9112    99.3236     8.3604     2.5214     0.0116     0.0953     0.2307
  618.5000   -56.4763    14.5605    10.0492    11.1062    97.4166     8.3632     2.5255     0.0130     0.0929     0.2294
  619.0000   -56.3444    14.6763    10.1586    11.2836    95.5255     8.3658     2.5288     0.0143     0.0912     0.2281
  619.5000   -56.2127    14.7931    10.2162    11.4638    96.3605     8.3684     2.5266     0.0157     0.0930     0.2269
  620.0000   -56.0813    14.9108    10.2742    11.6469    97.9240     8.3710     2.5244     0.0171     0.0944     0.2256
  620.5000   -55.9484    15.0294    10.3325    11.8330    99.3760     8.3736     2.5243     0.0184     0.0914     0.2244
  621.0000   -55.8180    15.1489    10.3912    12.0220   100.4338     8.3761     2.5257     0.0200     0.0908     0.2231
  621.5000   -55.6868    15.2695    10.4503    12.2141   100.4170     8.3787     2.5194     0.0194     0.0955     0.2219
  622.0000   -55.5468    15.3909    10.5095    12.4092    98.8284     8.3813     2.5132     0.0176     0.1001     0.2228
  622.5000   -55.5001    15.5134    10.5691    12.6074    97.7321     8.3839     2.5067     0.0159     0.1056     0.2279
  623.0000   -55.5500    15.6368    10.6291    12.8088    99.9304     8.3864     2.5068     0.0142     0.1036     0.2329
  623.5000   -55.5908    15.7612    10.6895    12.9342   104.2107     8.3890     2.5135     0.0124     0.0984     0.2360
  624.0000   -55.6313    15.8422    10.7502    12.9902   104.6639     8.3916     2.5096     0.0120     0.1028     0.2381
  624.5000   -55.6742    15.8422    10.8112    13.0465   104.2998     8.3940     2.5000     0.0120     0.1078     0.2403
  625.0000   -55.7151    15.4053    10.8725    13.1030   102.7667     8.3969     2.4914     0.0120     0.1128     0.2403
  625.5000   -55.7576    14.9804    10.9347    13.1598   101.3246     8.3998     2.4819     0.0121     0.1176     0.2389
  626.0000   -55.7988    15.2766    10.9965    13.2168   100.5700     8.4117     2.4897     0.0121     0.1109     0.2372
  626.5000   -55.8392    15.6510    11.0583    13.2740   101.2729     8.4228     2.4991     0.0157     0.1044     0.2355
  627.0000   -55.8867    16.1344    11.1157    13.3315   101.9286     8.4345     2.5098     0.0209     0.0976     0.2339
  627.5000   -55.8511    15.9845    11.1159    13.3949   102.6141     8.4460     2.5157     0.0264     0.0988     0.2322
  628.0000   -55.7702    15.7501    11.1166    13.6470   102.5829     8.4574     2.5149     0.0269     0.1001     0.2305
  628.5000   -55.6948    15.5188    11.1170    13.9288   102.4765     8.4690     2.5148     0.0242     0.1013     0.2288
  629.0000   -55.6261    15.2909    11.1168    14.1859   102.8680     8.4805     2.5096     0.0219     0.1024     0.2271
  629.5000   -55.5457    14.9864    11.1164    14.4476   103.2554     8.4919     2.5055     0.0195     0.1019     0.2259
  630.0000   -55.4746    15.1141    11.1165    14.7142   103.6815     8.5035     2.5121     0.0170     0.1016     0.2259
  630.5000   -55.2787    15.3623    11.1165    14.9804   104.0416     8.5152     2.5066     0.0162     0.1040     0.2259
  631.0000   -55.0905    15.6077    11.1165    14.7683   104.3258     8.5209     2.4931     0.0168     0.1126     0.2282
  631.5000   -54.8157    15.8422    11.1165    14.5633   103.4082     8.5158     2.4794     0.0173     0.1210     0.2304
  632.0000   -54.4911    15.4131    11.1165    14.3610   102.4705     8.5115     2.4631     0.0177     0.1297     0.2327
  632.5000   -54.1720    15.0185    11.1165    14.1616   101.9885     8.5021     2.4699     0.0182     0.1233     0.2354
  633.0000   -53.8592    14.6341    11.1165    13.9650   102.5156     8.5038     2.4851     0.0187     0.1168     0.2370
  633.5000   -53.5389    14.2275    11.1180    13.6470   101.9753     8.4940     2.4810     0.0192     0.1185     0.2386
  634.0000   -53.5769    14.3549    11.1217    13.6776   102.1105     8.4738     2.4754     0.0196     0.1210     0.2395
  634.5000   -53.8005    14.6132    11.1310    13.7646   103.6457     8.4927     2.1939     0.0201  -999.2500  -999.2500
  635.0000   -53.9928    14.8760    11.1158    13.8521    87.7227     7.1447  -999.2500  -999.2500  -999.2500  -999.2500
  635.5000   -54.0972    14.9804    11.1339    13.9402  -999.2500  -999.2500  -999.2500  -999.2500  -999.2500  -999.2500
  636.0000   -54.3638    14.9804    11.1582    14.0288  -999.2500  -999.2500  -999.2500  -999.2500  -999.2500  -999.2500
  636.5000   -53.6304    14.9804    11.0769    14.1181  -999.2500  -999.2500  -999.2500  -999.2500  -999.2500  -999.2500
  637.0000   -53.0343    15.5165    10.4727    14.1880  -999.2500  -999.2500  -999.2500  -999.2500  -999.2500  -999.2500
  637.5000   -53.4389    16.1618     9.5762    12.2972  -999.2500  -999.2500  -999.2500  -999.2500  -999.2500  -999.2500
  638.0000   -37.2087    16.7535     5.9749     8.0421  -999.2500  -999.2500  -999.2500  -999.2500  -999.2500  -999.2500
  638.5000    -1.5817     6.3852  -999.2500     5.2683  -999.2500  -999.2500  -999.2500  -999.2500  -999.2500  -999.2500
  639.0000  -999.2500     2.6936  -999.2500     3.4530  -999.2500  -999.2500  -999.2500  -999.2500  -999.2500  -999.2500
  639.5000  -999.2500     1.1363  -999.2500     1.0999  -999.2500  -999.2500  -999.2500  -999.2500  -999.2500  -999.2500
  640.0000  -999.2500     0.4794  -999.2500     0.2140  -999.2500  -999.2500  -999.2500  -999.2500  -999.2500  -999.2500
  640.5000  -999.2500     0.2057  -999.2500  -999.2500  -999.2500  -999.2500  -999.2500  -999.2500  -999.2500  -999.2500
