~VERSION INFORMATION
 VERS.                2.0:   CWLS LOG ASCII STANDARD - VERSION 2.0
 WRAP.                 NO:   ONE LINE PER DEPTH STEP
~WELL INFORMATION
#MNEM.UNIT      DATA TYPE    INFORMATION
#----------   ------------   ------------------------------
 STRT.F           66.0000:   START DEPTH
 STOP.F          794.0000:   STOP DEPTH
 STEP.F            0.5000:   STEP LENGTH
 NULL.          -999.2500:   NO VALUE
 COMP. LAWRENCE/ALLISON INC:   COMPANY
 WELL.    27-16 SX #35-35:   WELL
 FLD .           NPR NO 3:   FIELD
 LOC .      S35 T39N R78W:   LOCATION
 CNTY.            NATRONA:   COUNTY
 STAT.            WYOMING:   STATE
 CTRY. UNITED STATES OF AMERICA:   COUNTRY
 SRVC.           Gearhart:   SERVICE COMPANY
 DATE.        16-MAY-1986:   LOGDATE
 API .       490251106100:   API NUMBER
~CURVE INFORMATION
#MNEM.UNIT       API CODE    CURVE DESCRIPTION
#----------   ------------   ------------------------------
 DEPT.F                  :   
 GRN .GAPI   42 310 01 00:   GAMMA RAY FROM COMPENSATED NEUTRON LOG
 CNC .DEC    42 890 01 00:   NEUTRON POROSITY LIMESTONE
~PARAMETER INFORMATION
#MNEM.UNIT          VALUE    DESCRIPTION
#----------   ------------   ------------------------------
 PD  .                 GL:   PERMANENT DATUM
 LMF .                 GL:   LOG MEASURED FROM
 DMF .                 GL:   DRILLING MEASURED FROM
 DATE.        16-MAY-1986:   RUN DATE
 RUN .                  1:   RUN NUMBER
 DD  .F               803:   DEPTH DRILLER
 DL  .F             793.5:   DEPTH LOGGER
 BLI .F             793.5:   BOTTOM LOG INTERVAL
 TLI .F                50:   TOP LOG INTERVAL
 BS  .IN             7.87:   BIT SIZE
 BSD .F               803:   BIT SIZE AT DEPTH
 DFT .              WATER:   DRILLING FLUID TYPE
 LUN .               6084:   LOGGING UNIT NUMBER
 LUL .           GILLETTE:   LOGGING UNIT LOCATION
 ENGI.                COX:   RECORDING ENGINEER
 WITN.             STRONG:   WITNESSED BY
 CLNT.            A2DTECH:   CLIENT CODE
 ORIG.           5" PRINT:   ORIGIN OF DATA
 UWI .       490251106100:   UNIQUE WELL ID
 DICO. A2D Technologies, Inc.:   DIGITIZING COMPANY
~OTHER INFORMATION
~A   DEPT       GRN       CNC   
# ...
  552.0000    89.8654     0.2650
  552.5000    95.6898     0.2512
  553.0000   100.4105     0.2504
  553.5000   103.0460     0.2799
  554.0000   101.2024     0.3066
  554.5000    99.6656     0.3063
  555.0000   101.8306     0.2966
  555.5000   103.3837     0.2774
  556.0000   105.5173     0.2581
  556.5000   106.7527     0.2467
  557.0000   107.0124     0.2446
  557.5000   102.4074     0.2386
  558.0000    97.1896     0.2296
  558.5000    94.4258     0.2292
  559.0000    93.1958     0.2380
  559.5000    92.2725     0.2402
  560.0000    92.8830     0.2475
  560.5000    94.7204     0.2529
  561.0000    96.8646     0.2552
  561.5000    99.0088     0.2653
  562.0000   100.5395     0.3095
  562.5000   101.4575     0.3305
  563.0000   100.2267     0.3323
  563.5000    98.9967     0.3054
  564.0000    98.0734     0.2758
  564.5000    97.7636     0.2689
  565.0000    99.2943     0.2580
  565.5000   101.1318     0.2378
  566.0000   101.1778     0.2205
  566.5000    98.6717     0.2223
  567.0000    98.6422     0.2311
  567.5000   100.5061     0.2381
  568.0000   102.9570     0.2424
  568.5000   103.5675     0.2415
  569.0000   102.3192     0.2336
  569.5000   101.1073     0.2306
  570.0000   100.7976     0.2370
  570.5000   101.1014     0.2416
  571.0000    95.8828     0.2357
  571.5000    89.7448     0.2216
  572.0000    80.2326     0.2092
  572.5000    70.4136     0.1987
  573.0000    69.7971     0.1987
  573.5000    70.7143     0.2069
  574.0000    72.2450     0.2190
  574.5000    73.4697     0.2351
  575.0000    74.0801     0.2536
  575.5000    72.3065     0.2632
  576.0000    69.4723     0.2795
  576.5000    67.3220     0.2891
  577.0000    66.3988     0.2948
  577.5000    66.4162     0.2962
  578.0000    71.0102     0.2595
  578.5000    70.9358     0.2462
  579.0000    69.0695     0.2447
  579.5000    66.8460     0.2523
  580.0000    63.9258     0.2645
  580.5000    64.8430     0.2766
  581.0000    66.6804     0.2791
  581.5000    69.7449     0.2800
  582.0000    70.6628     0.2685
  582.5000    70.0455     0.2634
  583.0000    69.1223     0.2791
  583.5000    69.7327     0.2962
  584.0000    72.1837     0.2971
  584.5000    71.5671     0.2629
  585.0000    68.8034     0.2590
  585.5000    67.5741     0.2557
  586.0000    71.2513     0.2457
  586.5000    78.3034     0.2330
  587.0000    80.1409     0.2306
  587.5000    79.2176     0.2279
  588.0000    76.1471     0.2267
  588.5000    74.6103     0.2434
  589.0000    74.6073     0.2492
  589.5000    75.8312     0.2543
  590.0000    78.2822     0.2700
  590.5000    75.2116     0.2880
  591.0000    73.0575     0.2941
  591.5000    70.8978     0.2947
  592.0000    69.0431     0.2633
  592.5000    67.4950     0.2378
  593.0000    69.8629     0.2135
  593.5000    74.4485     0.2002
  594.0000    77.0308     0.1955
  594.5000    75.4933     0.2225
  595.0000    73.0363     0.2352
  595.5000    72.1130     0.2404
  596.0000    77.3247     0.2459
  596.5000    81.0026     0.2471
  597.0000    82.5333     0.2386
  597.5000    82.2235     0.2247
  598.0000    80.9935     0.2151
  598.5000    80.0702     0.2151
  599.0000    78.5334     0.2212
  599.5000    76.6899     0.2327
  600.0000    75.4606     0.2400
  600.5000    75.8589     0.2409
  601.0000    76.0513     0.2388
  601.5000    76.0361     0.2243
  602.0000    76.6404     0.2304
  602.5000    77.8522     0.2389
  603.0000    79.3738     0.2313
  603.5000    80.8953     0.2283
  604.0000    79.9629     0.2456
  604.5000    77.4967     0.2664
  605.0000    76.2576     0.2808
  605.5000    77.1656     0.2790
  606.0000    79.9386     0.2551
  606.5000    83.3454     0.2527
  607.0000    85.7443     0.2664
  607.5000    86.0126     0.2840
  608.0000    84.7451     0.2891
  608.5000    82.9527     0.2901
  609.0000    82.5236     0.2846
  609.5000    84.1224     0.2874
  610.0000    85.3372     0.2913
  610.5000    84.0980     0.2883
  611.0000    82.2454     0.2808
  611.5000    84.4165     0.2732
  612.0000    88.3560     0.2660
  612.5000    87.0655     0.2720
  613.0000    81.4099     0.2909
  613.5000    75.1713     0.3039
  614.0000    70.7158     0.2967
  614.5000    72.9546     0.2752
  615.0000    72.0222     0.2794
  615.5000    71.3965     0.2961
  616.0000    71.6941     0.2863
  616.5000    74.7464     0.2698
  617.0000    78.1085     0.2553
  617.5000    82.6975     0.2632
  618.0000    85.0017     0.2729
  618.5000    87.7220     0.2753
  619.0000    90.4423     0.2657
  619.5000    89.7050     0.2525
  620.0000    86.0119     0.2427
  620.5000    83.5457     0.2389
  621.0000    82.3065     0.2325
  621.5000    81.0674     0.2230
  622.0000    80.7484     0.2091
  622.5000    80.4295     0.1988
  623.0000    80.7383     0.1992
  623.5000    82.5757     0.2110
  624.0000    84.7197     0.2180
  624.5000    85.2888     0.2201
  625.0000    84.5605     0.2208
  625.5000    82.8074     0.2229
  626.0000    81.8749     0.2326
  626.5000    81.8628     0.2417
  627.0000    82.1604     0.2448
  627.5000    83.0654     0.2466
  628.0000    83.9735     0.2433
  628.5000    84.5778     0.2364
  629.0000    84.8724     0.2315
  629.5000    84.5504     0.2290
  630.0000    83.9248     0.2379
  630.5000    83.6058     0.2446
  631.0000    82.9802     0.2489
  631.5000    82.6612     0.2495
  632.0000    82.6490     0.2515
  632.5000    82.6369     0.2523
  633.0000    82.6247     0.2441
  633.5000    82.9223     0.2352
  634.0000    83.2169     0.2293
  634.5000    83.8182     0.2457
  635.0000    84.1128     0.2515
  635.5000    84.4073     0.2474
  636.0000    84.6994     0.2384
  636.5000    85.3002     0.2348
  637.0000    87.1285     0.2304
  637.5000    92.0243     0.2277
  638.0000    95.6931     0.2307
  638.5000    97.2220     0.2383
  639.0000    94.1305     0.2432
  639.5000    90.7150     0.2477
  640.0000    86.6675     0.2490
  640.5000    82.7188     0.2499
  641.0000    82.4298     0.2502
  641.5000    85.3223     0.2448
  642.0000    87.9834     0.2424
  642.5000    88.2215     0.2442
  643.0000    87.2860     0.2482
  643.5000    85.7401     0.2503
  644.0000    82.6605     0.2488
  644.5000    79.8876     0.2413
  645.0000    80.1821     0.2322
  645.5000    81.3969     0.2274
  646.0000    82.9185     0.2320
  646.5000    82.5996     0.2423
  647.0000    81.3604     0.2444
  647.5000    80.7347     0.2438
  648.0000    81.3360     0.2369
  648.5000    85.3116     0.2402
  649.0000    88.3669     0.2463
  649.5000    89.2780     0.2491
  650.0000    87.4253     0.2500
  650.5000    92.3257     0.2336
  651.0000    91.3979     0.2300
  651.5000    90.1649     0.2297
  652.0000    88.3184     0.2319
  652.5000    86.1651     0.2294
  653.0000    84.3185     0.2236
  653.5000    84.0057     0.2180
  654.0000    86.1469     0.2143
  654.5000    82.7666     0.2269
  655.0000    76.9324     0.2458
  655.5000    73.2453     0.2551
  656.0000    72.3190     0.2677
  656.5000    73.5616     0.2665
  657.0000    75.1452     0.2598
  657.5000    77.3211     0.2544
  658.0000    80.2688     0.2580
  658.5000    80.8778     0.2589
  659.0000    81.1769     0.2538
  659.5000    82.0926     0.2481
  660.0000    80.2446     0.2459
  660.5000    78.3981     0.2505
  661.0000    77.1650     0.2650
  661.5000    76.8522     0.2794
  662.0000    79.3001     0.2926
  662.5000    81.1346     0.2928
  663.0000    80.8218     0.2763
  663.5000    80.2022     0.2619
  664.0000    79.5827     0.2500
  664.5000    78.9632     0.2394
  665.0000    78.9570     0.2395
  665.5000    78.9510     0.2462
  666.0000    79.6484     0.2578
  666.5000    83.8454     0.2700
  667.0000    84.4544     0.2774
  667.5000    83.2198     0.2876
  668.0000    81.3733     0.2943
  668.5000    79.8335     0.2874
  669.0000    79.5222     0.2727
  669.5000    80.7416     0.2583
  670.0000    81.9626     0.2463
  670.5000    83.1835     0.2344
  671.0000    84.7112     0.2231
  671.5000    83.1442     0.2195
  672.0000    81.6321     0.2213
  672.5000    83.4651     0.2310
  673.0000    85.9130     0.2392
