~VERSION INFORMATION
 VERS.                2.0:   CWLS LOG ASCII STANDARD - VERSION 2.0
 WRAP.                 NO:   ONE LINE PER DEPTH STEP
~WELL INFORMATION
#MNEM.UNIT      DATA TYPE    INFORMATION
#----------   ------------   ------------------------------
 STRT.F           30.0000:   START DEPTH
 STOP.F          500.0000:   STOP DEPTH
 STEP.F            0.5000:   STEP LENGTH
 NULL.          -999.2500:   NO VALUE
 COMP. FENIX & SCISSON INC:   COMPANY
 WELL.     3-FI #55-45 SX:   WELL
 FLD .             TEAPOT:   FIELD
 LOC .       S3 T38N R78W:   LOCATION
 CNTY.            NATRONA:   COUNTY
 STAT.            WYOMING:   STATE
 CTRY. UNITED STATES OF AMERICA:   COUNTRY
 SRVC.              Welex:   SERVICE COMPANY
 DATE.        16-MAY-1980:   LOGDATE
 API .       490251082700:   API NUMBER
~CURVE INFORMATION
#MNEM.UNIT       API CODE    CURVE DESCRIPTION
#----------   ------------   ------------------------------
 DEPT.F                  :   
 SPR .MV     07 010 01 00:   SPONTANEOUS POTENTIAL
 GURD.OHMM   07 220 05 00:   GUARD RESISTIVITY
 CALD.IN     45 280 60 00:   CALIPER
 GRD .GAPI   45 310 01 00:   GAMMA RAY FROM DENSITY LOG
 RHOB.G/C3   45 350 01 00:   BULK DENSITY
 CORR.G/C3   45 356 01 00:   DENSITY CORRECTION
 NPHI.DEC    42 890 03 00:   NEUTRON POROSITY SANDSTONE
 DPHI.DEC    45 890 12 00:   DENSITY POROSITY SANDSTONE
 ILD .OHMM   07 120 46 00:   INDUCTION LOG DEEP
 ILM .OHMM   07 120 44 00:   INDUCTION LOG MEDIUM
~PARAMETER INFORMATION
#MNEM.UNIT          VALUE    DESCRIPTION
#----------   ------------   ------------------------------
 PD  .                 GL:   PERMANENT DATUM
 EPD .F              5167:   ELEVATION PERMANENT DATUM
 LMF .                 KB:   LOG MEASURED FROM
 DAPD.F                 5:   FEET ABOVE PERMANENT DATUM
 DMF .                 KB:   DRILLING MEASURED FROM
 EKB .F              5172:   KELLING BUSHING
 EGL .F              5167:   GROUND LEVEL
 DATE.            5-16-80:   RUN DATE
 RUN .                  1:   RUN NUMBER
 DD  .F               483:   DEPTH DRILLER
 DL  .F               496:   DEPTH LOGGER
 BLI .F               494:   BOTTOM LOG INTERVAL
 TLI .F                35:   TOP LOG INTERVAL
 BS  .IN             9.75:   BIT SIZE
 BSD .F               483:   BIT SIZE AT DEPTH
 DFT .            KCL MUD:   DRILLING FLUID TYPE
 DFD .                9.5:   DRILLING FLUID DENSITY
 DFV .                 45:   DRILLING FLUID VISCOSITY
 DFL .                7.5:   DRILLING FLUID LOSS
 MSS .            MUD PIT:   MUD SAMPLE SOURCE
 RMS .OHMM            .29:   RESISTIVITY MUD SAMPLE
 MST .F                75:   MUD SAMPLE TEMPERATURE
 RMF .OHMM            .23:   RESISTIVITY MUD FILTRATE SAMPLE
 MFST.F                75:   MUD FILTRATE SAMPLE TEMPERATURE
 RMC .OHMM            .35:   RESISTIVITY MUD CAKE
 MCST.F                75:   MUD CAKE SAMPLE TEMPERATURE
 MFSS.           MEASURED:   MUD FILTRATE SAMPLE SOURCE
 MCSS.           MEASURED:   MUD CAKE SAMPLE SOURCE
 TCS .HRS               2:   TIME CURCULATED STOPPED
 LUN .               9685:   LOGGING UNIT NUMBER
 LUL .             CASPER:   LOGGING UNIT LOCATION
 ENGI.            TOTHILL:   RECORDING ENGINEER
 WITN.              AMEND:   WITNESSED BY
 CLNT.            A2DTECH:   CLIENT CODE
 ORIG.           5" PRINT:   ORIGIN OF DATA
 UWI .       490251082700:   UNIQUE WELL ID
 DICO. A2D Technologies, Inc.:   DIGITIZING COMPANY
~OTHER INFORMATION
~A   DEPT      SPR         GURD     CALD        GRD       RHOB       CORR         NPHI       DPHI        ILD        ILM 
# ...
   63.5000   -58.1085     5.7885    10.3387   111.8851     2.3726     0.0206     0.3257     0.1857     4.3826     5.7682
   64.0000   -57.0894     6.1779    10.3387   112.5605     2.3639     0.0046     0.3301     0.1495     4.4165     5.9183
   64.5000   -56.7290     6.8429    10.3352   113.2418     2.4230     0.0694     0.3205     0.1427     4.4507     6.0723
   65.0000   -57.2291     6.8368    10.3300   113.4650     2.4347     0.0435     0.3261     0.1371     4.4851     6.2367
   65.5000   -57.6440     6.8246    10.3248   112.9657     2.4471     0.0313     0.3317     0.1570     4.5199     6.2367
   66.0000   -57.8533     6.8125    10.3195   111.7795     2.4150     0.0019     0.3281     0.1585     4.5549     6.2439
   66.5000   -57.9413     6.8004    10.3142   110.6031     2.4105    -0.0087     0.3361     0.1563     4.5901     6.2645
   67.0000   -58.0230     6.7883    10.3090   109.4240     2.4137    -0.0047     0.3277     0.1590     4.6256     6.2853
   67.5000   -58.1122     6.7762    10.3037   108.2454     2.4083    -0.0006     0.3301     0.1546     4.6613     6.3060
   68.0000   -58.1968     6.7642    10.2985   107.0668     2.4082     0.0046     0.3301     0.1558     4.6974     6.3269
   68.5000   -58.2843     6.7522    10.2932   105.8866     2.4147    -0.0004     0.3249     0.1503     4.7152     6.3541
   69.0000   -58.3687     6.7402    10.2879   104.7032     2.4217     0.0073     0.3232     0.1481     4.6631     6.3187
   69.5000   -58.4548     6.7282    10.2827   103.5854     2.4265     0.0117     0.3252     0.1489     4.6165     6.2685
   70.0000   -58.5471     6.6905    10.2774   103.5492     2.4314     0.0132     0.3313     0.1556     4.5703     6.2187
   70.5000   -58.6033     6.5881    10.2721   103.5559     2.4153     0.0059     0.3256     0.1602     4.5246     6.1693
   71.0000   -58.5459     6.4874    10.2669   103.6368     2.4088     0.0037     0.3174     0.1490     4.4794     6.1203
   71.5000   -58.4899     6.3882    10.2617   104.0609     2.4403     0.0304     0.3145     0.1387     4.4345     6.0718
   72.0000   -58.4313     6.2905    10.2606   104.4767     2.4438     0.0295     0.3130     0.1542     4.3902     6.0235
   72.5000   -58.3729     6.1925    10.2660   104.8916     2.4180     0.0074     0.3193     0.1602     4.3463     5.9755
   73.0000   -58.3151     6.0967    10.2712   105.3065     2.4065     0.0066     0.3165     0.1452     4.2955     5.9279
   73.5000   -58.2567     6.0024    10.2765   105.7214     2.4330     0.0412     0.3133     0.1337     4.2955     5.8806
   74.0000   -58.1986     5.7913    10.2817   106.1363     2.4636     0.0709     0.3106     0.1258     4.2955     5.8337
   74.5000   -58.1404     5.8457    10.2870   106.5514     2.4513     0.0852     0.3034     0.1445     4.2955     5.7887
   75.0000   -58.0823     5.9986    10.2923   106.9680     2.4334     0.0506     0.2976     0.1447     4.2955     5.8327
   75.5000   -58.0241     6.1558    10.2976   107.3894     2.4324     0.0324     0.2919     0.1432     4.3324     5.9083
   76.0000   -57.9663     6.3170    10.2962   107.3988     2.4359     0.0224     0.2868     0.1399     4.3633     5.9850
   76.5000   -57.9076     6.4823    10.2828   107.0156     2.4383     0.0231     0.2858     0.1483     4.3946     6.0628
   77.0000   -57.8495     6.6514    10.2697   106.9246     2.4260     0.0137     0.2932     0.1449     4.4259     6.1412
   77.5000   -57.8015     6.8246    10.2530   107.1409     2.4329     0.0211     0.3020     0.1474     4.4574     6.2206
   78.0000   -57.8005     6.9749    10.2470   106.8078     2.4300     0.0201     0.3067     0.1423     4.4892     6.3010
   78.5000   -57.7995     6.9748    10.2562   107.6113     2.4364     0.0356     0.3066     0.1262     4.5213     6.3541
   79.0000   -57.8001     6.9748    10.2663   108.3558     2.4536     0.0519     0.3036     0.1280     4.5536     6.3685
   79.5000   -57.7999     6.9749    10.2764   109.1309     2.4627     0.0665     0.3010     0.1333     4.5861     6.3954
   80.0000   -57.7999     6.9750    10.2864   108.5089     2.4546     0.0537     0.3030     0.1366     4.6189     6.4223
   80.5000   -57.8001     6.9747    10.2964   107.2223     2.4463     0.0542     0.3189     0.1518     4.6519     6.4496
   81.0000   -57.8000     6.9747    10.3064   105.9225     2.4326     0.0473     0.3202     0.1511     4.6852     6.4769
   81.5000   -57.8003     6.9748    10.3164   104.6282     2.4231     0.0459     0.3250     0.1473     4.7187     6.5043
   82.0000   -57.8001     6.9749    10.3264   103.5268     2.4296     0.0584     0.3313     0.1455     4.7525     6.5320
   82.5000   -57.7999     6.9749    10.3367   103.5446     2.4279     0.0637     0.3377     0.1577     4.7865     6.5598
   83.0000   -57.8015     6.9749    10.3343   103.5907     2.4154     0.0547     0.3413     0.1606     4.8044     6.5947
   83.5000   -57.7982     6.9710    10.3266   105.0096     2.4084     0.0553     0.3413     0.1584     4.8043     6.5561
   84.0000   -57.7978     6.9562    10.3189   106.5229     2.4090     0.0624     0.3402     0.1558     4.7766     6.4945
   84.5000   -57.6482     6.9418    10.3112   106.2544     2.4148     0.0824     0.3378     0.1606     4.7452     6.4347
   85.0000   -57.4489     6.9271    10.3036   106.2043     2.4041     0.0846     0.3330     0.1539     4.7139     6.3755
   85.5000   -57.2499     6.9125    10.2985   106.1196     2.4204     0.1032     0.3281     0.1490     4.6829     6.3168
   86.0000   -57.0525     6.8982    10.2973   106.0304     2.4255     0.1140     0.3257     0.1523     4.6521     6.2586
   86.5000   -56.8576     6.8832    10.2949   105.6607     2.4202     0.1099     0.3280     0.1620     4.6214     6.2367
   87.0000   -56.6535     6.8695    10.2925   105.2345     2.4010     0.0962     0.3277     0.1653     4.5910     6.2524
   87.5000   -56.4619     6.8561    10.2901   104.3209     2.3991     0.0975     0.3317     0.1707     4.5608     6.2717
   88.0000   -56.2751     6.8428    10.2878   103.4220     2.3881     0.1253     0.3246     0.1775     4.5424     6.2911
   88.5000   -56.0343     6.8493    10.2853   102.6341     2.3712     0.1449     0.3202     0.1882     4.5901     6.3105
   89.0000   -55.7708     6.6571    10.2828   102.6542     2.3581     0.1497     0.3245     0.1986     4.6386     6.3300
   89.5000   -55.8324     6.5921    10.2805   102.6571     2.3422     0.1592     0.3230     0.2090     4.6876     6.3495
   90.0000   -55.8677     6.6784    10.2879   102.5168     2.3228     0.1279     0.3199     0.2186     4.7372     6.4106
   90.5000   -55.9076     6.7925    10.3576   101.4880     2.3135     0.1170     0.3094     0.2193     4.7874     6.4852
   91.0000   -55.9518     6.9084    10.4275   100.4579     2.3451     0.1448     0.3045     0.1841     4.8382     6.5606
   91.5000   -55.9914     7.0261    10.4968    99.4429     2.3677     0.1644     0.3010     0.1857     4.8896     6.6368
   92.0000   -56.0334     7.1455    10.5669    98.7312     2.3773     0.1409     0.2982     0.1611     4.9406     6.7139
   92.5000   -56.0732     7.2668    10.5707    98.9588     2.4235     0.1381     0.2986     0.1387     4.9865     6.7920
   93.0000   -56.1184     7.3901    10.5190    99.2419     2.4510     0.1124     0.3002     0.1307     5.1027     6.8710
   93.5000   -56.1540     7.5155    10.4666    99.5268     2.4574     0.0868     0.3006     0.1295     5.2086     6.9509
   94.0000   -56.1883     7.6429    10.4148    99.8157     2.4602     0.0718     0.3016     0.1314     5.3167     7.0317
   94.5000   -55.9964     7.7725    10.3780    99.5387     2.4531     0.0656     0.3022     0.1383     5.4271     7.1135
   95.0000   -55.7854     7.9044    10.3829    98.7619     2.4453     0.0492     0.3004     0.1379     5.5398     7.1962
   95.5000   -55.5669     8.0385    10.3884    97.9826     2.4434     0.0539     0.2915     0.1367     5.6548     7.2799
   96.0000   -55.3520     8.1749    10.3940    97.2019     2.4455     0.0565     0.2866     0.1403     5.7723     7.3645
   96.5000   -55.1410     8.3136    10.3955    96.4219     2.4395     0.0523     0.2858     0.1407     5.8921     7.4501
