~VERSION INFORMATION
 VERS.                2.0:   CWLS LOG ASCII STANDARD - VERSION 2.0
 WRAP.                 NO:   ONE LINE PER DEPTH STEP
~WELL INFORMATION
#MNEM.UNIT      DATA TYPE    INFORMATION
#----------   ------------   ------------------------------
 STRT.F           89.0000:   START DEPTH
 STOP.F         1360.0000:   STOP DEPTH
 STEP.F            0.5000:   STEP LENGTH
 NULL.          -999.2500:   NO VALUE
 COMP.           U S NAVY:   COMPANY
 WELL.     NPR 3 #85 S-11:   WELL
 FLD .             TEAPOT:   FIELD
 LOC .      S11 T38N R78W:   LOCATION
 CNTY.            NATRONA:   COUNTY
 STAT.            WYOMING:   STATE
 CTRY. UNITED STATES OF AMERICA:   COUNTRY
 SRVC.       Schlumberger:   SERVICE COMPANY
 DATE.        15-AUG-1966:   LOGDATE
 API .       490250959000:   API NUMBER
~CURVE INFORMATION
#MNEM.UNIT       API CODE    CURVE DESCRIPTION
#----------   ------------   ------------------------------
 DEPT.F                  :   
 SPR .MV     05 010 01 00:   SPONTANEOUS POTENTIAL FROM RES.
 CILD.MMHO   05 110 46 00:   CONDUCTIVITY INDUCTION LOG DEEP
 ASN .OHMM   05 041 16 00:   AMPLIFIED SHORT NORMAL 16"
 ILD .OHMM   05 120 46 00:   INDUCTION LOG DEEP
 GR  .GAPI   30 310 01 00:   GAMMA RAY
~PARAMETER INFORMATION
#MNEM.UNIT          VALUE    DESCRIPTION
#----------   ------------   ------------------------------
 PD  .                 GL:   PERMANENT DATUM
 EPD .F              5288:   ELEVATION PERMANENT DATUM
 LMF .                 KB:   LOG MEASURED FROM
 DAPD.F                 5:   FEET ABOVE PERMANENT DATUM
 DMF .                 KB:   DRILLING MEASURED FROM
 EKB .F            5286.9:   KELLING BUSHING
 EGL .F            5281.9:   GROUND LEVEL
 DATE.        15-AUG-1966:   RUN DATE
 RUN .                  1:   RUN NUMBER
 DD  .F              1360:   DEPTH DRILLER
 DL  .F              1361:   DEPTH LOGGER
 BLI .F              1360:   BOTTOM LOG INTERVAL
 TLI .F                88:   TOP LOG INTERVAL
 CS  .IN            8.625:   CASING SIZE
 CBD .F                12:   CASING BOTTOM DRILLER
 BS  .IN            7.875:   BIT SIZE
 BSD .F              1360:   BIT SIZE AT DEPTH
 DFT .          CHEM- GEL:   DRILLING FLUID TYPE
 DFD .                9.6:   DRILLING FLUID DENSITY
 DFV .                 60:   DRILLING FLUID VISCOSITY
 DFPH.                7.2:   DRILLING FLUID PH
 DFL .                6.4:   DRILLING FLUID LOSS
 MSS .         CIRCULATED:   MUD SAMPLE SOURCE
 RMS .OHMM           1.41:   RESISTIVITY MUD SAMPLE
 MST .F                72:   MUD SAMPLE TEMPERATURE
 RMF .OHMM           0.75:   RESISTIVITY MUD FILTRATE SAMPLE
 MFST.F                73:   MUD FILTRATE SAMPLE TEMPERATURE
 MFSS.               MEAS:   MUD FILTRATE SAMPLE SOURCE
 TCS .HRS             2.5:   TIME CURCULATED STOPPED
 LUN .               3527:   LOGGING UNIT NUMBER
 LUL .              CSPR.:   LOGGING UNIT LOCATION
 ENGI.               HAUG:   RECORDING ENGINEER
 WITN.             TUTTLE:   WITNESSED BY
 CLNT.            A2DTECH:   CLIENT CODE
 ORIG.       2", 5" PRINT:   ORIGIN OF DATA
 UWI .       490250959000:   UNIQUE WELL ID
 DICO. A2D Technologies, Inc.:   DIGITIZING COMPANY
~OTHER INFORMATION
~A   DEPT      SPR       CILD          ASN        ILD       GR   
# ...
 1248.0000   -30.1538   115.5456    11.4710     8.0026    69.6234
 1248.5000   -30.0125   115.6203    11.3883     7.9974    63.4758
 1249.0000   -29.8712   116.4570    11.4578     8.0678    55.9111
 1249.5000   -29.8842   116.5306    11.4517     8.0624    54.1135
 1250.0000   -29.8920   116.6254    11.4458     8.1325    65.1691
 1250.5000   -29.8524   117.1076    11.4619     8.1152    68.4586
 1251.0000   -29.8184   117.5898    11.4853     8.0643    73.7956
 1251.5000   -29.7800   118.0720    11.5077     8.0134    78.5063
 1252.0000   -29.7920   119.0732    11.3515     7.9536    71.8826
 1252.5000   -29.6492   119.1444    11.2718     7.7964    66.6789
 1253.0000   -29.5095   119.9509    11.1167     7.7144    66.0104
 1253.5000   -29.2180   119.2478    11.0370     7.6325    66.6539
 1254.0000   -29.5365   119.3217    11.1089     7.5505    68.0575
 1254.5000   -29.8519   119.3808    11.2551     7.5439    73.3944
 1255.0000   -29.5604   119.4399    11.3259     7.5372    74.3472
 1255.5000   -29.1172   119.4990    11.3968     7.5306    66.2893
 1256.0000   -28.9772   119.5581    11.3159     7.5239    64.3887
 1256.5000   -28.9894   119.6172    11.2362     7.5172    65.7965
 1257.0000   -29.6136   119.6763    11.1564     7.5106    67.0509
 1257.5000   -30.0759   118.9880    11.1519     7.5792    67.9699
 1258.0000   -30.2600   119.0471    11.1475     7.5726    67.7704
 1258.5000   -30.4315   119.1062    11.1430     7.6412    65.1755
 1259.0000   -30.5698   118.4155    11.2139     7.7835    58.4877
 1259.5000   -30.4301   116.9822    11.2904     7.7769    54.5185
 1260.0000   -30.4421   116.2930    11.4408     7.9208    60.8273
 1260.5000   -30.2993   114.8580    11.7265     7.9911    60.6574
 1261.0000   -30.3143   114.1505    12.0233     8.0598    62.0609
 1261.5000   -30.3263   112.7343    12.2447     8.2773    58.4266
 1262.0000   -30.4900   110.4636    12.6168     8.3476    54.4837
 1262.5000   -30.6538   108.1211    12.7640     8.6405    56.9886
 1263.0000   -31.5762   100.9683    13.1350     8.9351    51.3089
 1263.5000   -33.2574    95.7957    13.5823     9.3802    53.1844
 1264.0000   -35.6973    90.6231    14.1050     9.9087    57.7347
 1264.5000   -36.9233    86.9453    14.4770    10.4399    60.5574
 1265.0000   -37.6940    84.0148    14.8491    11.0152    55.6643
 1265.5000   -38.3129    81.8318    15.1458    11.3098    53.2949
 1266.0000   -39.0837    80.3961    15.2922    11.4537    57.0553
 1266.5000   -39.3991    79.6931    15.5134    11.5240    53.4241
 1267.0000   -39.2594    79.0048    15.7349    11.5927    52.7822
 1267.5000   -39.1196    80.5734    15.9563    11.3585    49.4687
 1268.0000   -39.1320    83.6221    15.6475    10.9000    53.3865
 1268.5000   -39.1721    87.4181    15.4129    10.2156    60.6116
 1269.0000   -39.3103    91.2141    15.1029     9.7572    63.5916
 1269.5000   -39.1676    93.5154    14.6573     9.4493    61.0586
 1270.0000   -38.7273    96.5640    14.3516     9.4427    59.1580
 1270.5000   -39.0428    97.3705    14.1212     9.4360    58.8340
 1271.0000   -38.4478    98.9244    13.9662     9.4293    62.2798
 1271.5000   -37.2459    99.7309    13.8111     9.4224    63.5260
 1272.0000   -36.7996   100.5381    13.7314     9.1132    64.9295
 1272.5000   -36.6599   100.5979    13.7269     9.1065    60.9835
 1273.0000   -36.8266   100.6577    13.7225     9.0999    61.6004
 1273.5000   -37.2938    99.9673    13.7180     9.0932    69.7694
 1274.0000   -38.2163   100.0411    13.6382     9.1635    63.9354
 1274.5000   -38.3800    99.3381    13.6338     9.1552    69.5871
 1275.0000   -38.2403    98.6498    13.6420     9.1485    66.4278
 1275.5000   -37.6453    97.9615    13.6249     9.1419    65.1566
 1276.0000   -37.0503    98.7828    13.4698     9.0599    68.6564
 1276.5000   -36.9105   101.0840    13.2392     9.0533    70.7958
 1277.0000   -36.6140   102.6379    13.0798     8.9713    61.4719
 1277.5000   -36.3275   103.4444    12.9204     8.8868    58.1838
 1278.0000   -36.0360   104.9982    12.7610     8.7319    60.6821
 1278.5000   -36.2282   105.8047    12.5428     8.5745    63.1237
 1279.0000   -37.1252   105.1164    12.4631     8.3406    64.9118
 1279.5000   -36.9855   105.1755    12.3833     8.1834    52.3092
 1280.0000   -36.0870   105.2346    12.3788     8.1014    46.9503
 1280.5000   -35.0368   108.2833    12.3744     8.2454    51.0254
 1281.0000   -34.4418   109.8372    12.3699     8.3157    54.0023
 1281.5000   -33.3915   110.6436    12.4419     8.3843    56.0384
 1282.0000   -32.1896   108.4606    12.5127     8.6019    51.9320
 1282.5000   -31.7463   105.5062    12.6578     8.8211    55.5382
 1283.0000   -31.6036   101.7937    12.8039     8.9654    60.8783
 1283.5000   -31.7703    98.8292    13.1007     9.2596    59.6040
 1284.0000   -31.7823    95.9915    13.4727     9.5542    58.6475
 1284.5000   -31.9460    93.8232    14.0707     9.7778    57.6909
 1285.0000   -31.0475    93.1201    14.5933     9.9272    59.0945
 1285.5000   -29.9973    91.6845    15.1178     9.9860    60.1864
 1286.0000   -29.7058    90.9962    15.4940     9.6765    61.2722
 1286.5000   -29.5660    91.0701    15.7095     9.5193    63.9344
 1287.0000   -29.5781    92.6239    15.1768     9.3620    64.7117
 1287.5000   -30.0581    94.1778    14.7205     9.2800    58.4026
 1288.0000   -30.5332    97.2264    13.9631     9.0475    58.0785
 1288.5000   -31.0082   100.2751    13.3562     8.8902    60.7376
 1289.0000   -31.6017   104.8185    12.6741     8.5071    57.7357
 1289.5000   -31.9172   110.1093    12.2931     8.1992    57.4086
 1290.0000   -32.0809   112.4105    12.1380     7.9666    61.4868
 1290.5000   -32.0929   113.9644    12.0583     7.9600    62.6367
 1291.0000   -31.9531   114.7709    11.9785     7.9533    63.8219
 1291.5000   -31.8134   114.8300    11.8988     8.0220    65.6974
 1292.0000   -31.6706   114.8891    11.8943     8.0901    72.6078
 1292.5000   -31.3791   114.9482    11.8899     8.0823    73.6968
 1293.0000   -31.2394   114.2599    11.8854     8.1521    69.4360
 1293.5000   -31.2544   113.5275    11.8809     8.1443    73.9863
 1294.0000   -30.9629   112.8833    11.8765     8.1376    72.5490
 1294.5000   -30.5196   112.9424    11.8720     8.2063    70.8020
 1295.0000   -30.2281   112.2541    11.8675     8.1996    69.5326
 1295.5000   -30.0880   112.3280    11.9384     8.1930    64.8501
 1296.0000   -29.9484   113.1345    11.9329     8.1863    61.4941
 1296.5000   -29.6571   113.1936    11.9284     8.1797    70.5876
 1297.0000   -29.5173   113.2527    11.8486     8.2485    67.2568
 1297.5000   -29.3776   113.3118    11.8442     8.2190    68.5337
 1298.0000   -29.2378   113.3709    11.8397     8.1810    65.8464
 1298.5000   -29.2504   113.4300    11.8353     8.1430    54.8203
 1299.0000   -29.2648   113.4891    11.8308     8.1050    53.3949
 1299.5000   -29.2768   113.5482    11.9028     8.0729    61.4035
 1300.0000   -29.1229   112.8599    11.8972     8.1250    60.9736
 1300.5000   -28.9874   113.0824    11.8175     8.1418    63.1238
 1301.0000   -28.8520   113.3922    11.8589     8.2142    68.7879
 1301.5000   -28.6996   113.7020    11.9034     8.2112    71.3053
 1302.0000   -28.7058   113.9031    11.9435     8.2082    74.7667
 1302.5000   -28.5588   113.9767    11.9341     8.1291    75.0814
 1303.0000   -28.4148   114.0508    11.9266     8.1261    71.1480
 1303.5000   -28.1176   113.3766    11.9192     8.1232    68.3159
 1304.0000   -27.9705   114.2003    11.9117     8.1202    72.7213
 1304.5000   -27.8250   114.2896    11.9795     8.1172    73.0360
 1305.0000   -27.6808   113.5975    11.9720     8.1142    75.2387
 1305.5000   -27.6873   113.6895    11.9645     8.1112    75.5534
 1306.0000   -27.5417   114.5106    11.9570     8.0328    73.1428
 1306.5000   -27.3963   114.5842    11.9495     8.0298    69.2599
 1307.0000   -27.2508   114.6578    11.8667     7.9514    71.3326
 1307.5000   -27.2383   114.7376    11.7839     7.8730    72.7213
 1308.0000   -27.1115   115.5525    11.6258     7.7944    77.5988
 1308.5000   -27.1193   115.6261    11.5430     7.7917    74.7667
