~VERSION INFORMATION
 VERS.                2.0:   CWLS LOG ASCII STANDARD - VERSION 2.0
 WRAP.                 NO:   ONE LINE PER DEPTH STEP
~WELL INFORMATION
#MNEM.UNIT      DATA TYPE    INFORMATION
#----------   ------------   ------------------------------
 STRT.F           46.0000:   START DEPTH
 STOP.F          670.0000:   STOP DEPTH
 STEP.F            0.5000:   STEP LENGTH
 NULL.          -999.2500:   NO VALUE
 COMP. FENIX & SCISSON INC:   COMPANY
 WELL. TEAPOT #27 62SX 11WI-11:   WELL
 FLD .             TEAPOT:   FIELD
 LOC .      S11 T38N R78W:   LOCATION
 CNTY.            NATRONA:   COUNTY
 STAT.            WYOMING:   STATE
 CTRY. UNITED STATES OF AMERICA:   COUNTRY
 SRVC.      Dresser Atlas:   SERVICE COMPANY
 DATE.        27-JUL-1980:   LOGDATE
 API .       490251084000:   API NUMBER
~CURVE INFORMATION
#MNEM.UNIT       API CODE    CURVE DESCRIPTION
#----------   ------------   ------------------------------
 DEPT.F                  :   
 GRD .GAPI   45 310 01 00:   GAMMA RAY FROM DENSITY LOG
 RHOB.G/C3   45 350 01 00:   BULK DENSITY
 CORR.G/C3   45 356 01 00:   DENSITY CORRECTION
 CALD.IN     45 280 60 00:   CALIPER
 DPOR.DEC    45 890 12 00:   DENSITY POROSITY SANDSTONE
 SPR .MV     07 010 01 00:   SPONTANEOUS POTENTIAL
 SFL .OHMM   07 220 01 00:   SHALLOW FOCUSED LOG RESISTIVITY
 ILD .OHMM   07 120 46 00:   INDUCTION LOG DEEP
 ILM .OHMM   07 120 44 00:   INDUCTION LOG MEDIUM
~PARAMETER INFORMATION
#MNEM.UNIT          VALUE    DESCRIPTION
#----------   ------------   ------------------------------
 PD  .                 GL:   PERMANENT DATUM
 EPD .F              5186:   ELEVATION PERMANENT DATUM
 LMF .                 KB:   LOG MEASURED FROM
 DAPD.F                 5:   FEET ABOVE PERMANENT DATUM
 DMF .                 KB:   DRILLING MEASURED FROM
 EKB .F              5191:   KELLING BUSHING
 EGL .F              5186:   GROUND LEVEL
 DATE.            7-27-80:   RUN DATE
 RUN .                  1:   RUN NUMBER
 DD  .F               660:   DEPTH DRILLER
 DL  .F               663:   DEPTH LOGGER
 BLI .F               661:   BOTTOM LOG INTERVAL
 TLI .F                46:   TOP LOG INTERVAL
 BS  .IN            7.875:   BIT SIZE
 BSD .F               660:   BIT SIZE AT DEPTH
 DFT .           CHEM GEL:   DRILLING FLUID TYPE
 DFD .                9.5:   DRILLING FLUID DENSITY
 DFV .                 50:   DRILLING FLUID VISCOSITY
 DFPH.                 11:   DRILLING FLUID PH
 DFL .                  6:   DRILLING FLUID LOSS
 MSS .           FLOWLINE:   MUD SAMPLE SOURCE
 RMS .OHMM            .08:   RESISTIVITY MUD SAMPLE
 MST .F                70:   MUD SAMPLE TEMPERATURE
 RMC .OHMM            .08:   RESISTIVITY MUD CAKE
 MCST.F                70:   MUD CAKE SAMPLE TEMPERATURE
 MFSS.               MEAS:   MUD FILTRATE SAMPLE SOURCE
 MCSS.               MEAS:   MUD CAKE SAMPLE SOURCE
 RMB .OHMM            .06:   RESISTIVITY MUD AT BHT
 BHT .F                90:   BOTTOM HOLE TEMPERATURE
 TCS .HRS               5:   TIME CURCULATED STOPPED
 MRT .F                90:   MAXIMUM RECORDED TEMPERATURE
 LUN .               6145:   LOGGING UNIT NUMBER
 LUL .              GLTTE:   LOGGING UNIT LOCATION
 ENGI.              HENRY:   RECORDING ENGINEER
 WITN.              AMEND:   WITNESSED BY
 CLNT.            A2DTECH:   CLIENT CODE
 ORIG.       2", 5" PRINT:   ORIGIN OF DATA
 UWI .       490251084000:   UNIQUE WELL ID
 DICO. A2D Technologies, Inc.:   DIGITIZING COMPANY
~OTHER INFORMATION
~A   DEPT      GRD       RHOB       CORR       CALD       DPOR        SPR          SFL        ILD      ILM   
# ...
   82.5000    86.5312     2.3936     0.0286     8.7459     0.1710   -27.8572     9.7657     7.3926     8.2987
   83.0000    85.9617     2.3927     0.0267     8.7543     0.1717   -27.8019     9.8494     7.4039     8.4218
   83.5000    87.4430     2.3902     0.0256     8.7624     0.1725   -27.4606     9.9338     7.2222     8.3447
   84.0000    88.7923     2.3950     0.0255     8.7704     0.1707   -26.9208    10.0307     7.2023     7.8965
   84.5000    87.9086     2.4102     0.0287     8.7786     0.1616   -26.2376     9.7965     7.5368     7.6111
   85.0000    85.9721     2.4243     0.0324     8.7944     0.1524   -26.0548     9.5320     7.7525     7.7972
   85.5000    84.9030     2.4290     0.0362     8.8357     0.1498   -25.9741     9.3154     7.7525     8.6807
   86.0000    84.3813     2.4276     0.0402     8.9719     0.1511   -26.1447     9.2335     7.7746     9.7404
   86.5000    84.7083     2.4194     0.0443     9.1145     0.1563   -26.6080     9.4667     7.8412    10.7969
   87.0000    84.9569     2.4142     0.0494     9.2584     0.1586   -27.0682     9.8699     7.9457    10.4427
   87.5000    83.9300     2.4179     0.0567     9.3246     0.1552   -27.5301    10.1500     8.2303     9.8478
   88.0000    83.8125     2.4239     0.0615     9.3426     0.1518   -27.9916    10.2183     8.5251     9.4050
   88.5000    83.6771     2.4207     0.0549     9.2387     0.1588   -28.4530    10.3114     8.8183     9.3188
   89.0000    83.6811     2.4055     0.0391     9.0899     0.1646   -28.9148    10.2895     9.0190     8.8916
   89.5000    84.6398     2.3987     0.0264     8.9409     0.1676   -29.3774    10.2544     9.2165     8.2696
   90.0000    86.6468     2.3958     0.0213     8.8072     0.1696   -29.8380    10.2165     9.3188     7.8482
   90.5000    89.0126     2.3921     0.0133     8.7338     0.1722   -29.9747    10.3357     9.3191     7.6111
   91.0000    89.9372     2.3835     0.0081     8.6598     0.1774   -30.0591    10.5071     9.3183     7.6111
   91.5000    89.1693     2.3723    -0.0007     8.5955     0.1826   -30.0399    10.6811     9.3187     7.6815
   92.0000    88.5255     2.3719    -0.0042     8.5592     0.1853   -29.9185    10.8589     9.4980     7.8254
   92.5000    88.4447     2.3914     0.0018     8.5231     0.1727   -30.1790    10.9719     9.6888     7.9781
   93.0000    88.7359     2.4019     0.0075     8.5031     0.1664   -30.5470    11.0693     9.9726     8.1338
   93.5000    89.1572     2.4010     0.0096     8.4994     0.1670   -30.9173    11.1637    10.2648     8.2588
   94.0000    90.5180     2.4119     0.0110     8.4956     0.1626   -31.2855    11.3328    10.6300     8.3652
   94.5000    89.7945     2.4247     0.0124     8.4919     0.1528   -31.4921    11.6291    11.0208     8.4218
   95.0000    88.2994     2.4387     0.0137     8.4881     0.1447   -31.4864    13.0973    11.5682     8.3755
   95.5000    87.6692     2.4450     0.0151     8.4847     0.1408   -31.4089    14.7626    12.5093     8.3447
   96.0000    88.2886     2.4485     0.0168     8.4831     0.1389   -31.3319    16.1853    13.6394     8.7135
   96.5000    88.8113     2.4533     0.0117     8.4814     0.1354   -31.2557    15.5384    14.6381     9.0930
   97.0000    87.3514     2.4707     0.0075     8.4797     0.1289   -31.1795    15.1757    15.7447     9.7863
   97.5000    85.0409     2.4917     0.0108     8.4780     0.1156   -31.1032    17.5974    15.4576    10.9110
   98.0000    82.7273     2.5036     0.0153     8.4763     0.1064   -31.0260    21.5963    14.9282    11.7290
   98.5000    79.8022     2.5052     0.0200     8.4746     0.1035   -30.9511    24.2631    13.8322    12.0573
   99.0000    76.9490     2.5171     0.0238     8.4729     0.0926   -30.9663    22.5413    12.8166    11.7669
   99.5000    72.6502     2.5474     0.0255     8.4712     0.0781   -31.3172    24.7267    11.9469    11.0119
  100.0000    69.2389     2.5672     0.0321     8.4696     0.0662   -31.6574    25.8773    10.8790    10.2353
  100.5000    66.3655     2.5769     0.0413     8.4679     0.0605   -31.9964    10.4067     9.9742     9.5135
  101.0000    64.5964     2.5817     0.0479     8.4662     0.0559   -32.2850    10.3049     9.2112     8.8855
  101.5000    65.2495     2.5666     0.0415     8.4641     0.0685   -32.2176    10.1175     8.5604     8.3774
  102.0000    68.5699     2.5076     0.0331     8.4614     0.0997   -32.1571     9.9152     8.1987     7.8965
  102.5000    73.6558     2.4573     0.0247     8.4586     0.1333   -32.1015     9.6994     7.9202     7.6833
  103.0000    80.5899     2.4234     0.0162     8.4559     0.1553   -31.8770     9.5363     7.6513     7.4750
  103.5000    86.6033     2.4062     0.0077     8.4532     0.1638   -31.6230     9.4369     7.4039     7.3361
  104.0000    89.5418     2.4058     0.0045     8.4504     0.1645   -31.3678     9.4050     7.4039     7.4168
  104.5000    90.4788     2.4036     0.0016     8.4476     0.1651   -31.1015     9.4708     7.4885     7.5106
  105.0000    91.3181     2.4032     0.0024     8.4453     0.1640   -30.7040     9.5664     7.5550     7.6111
  105.5000    91.6035     2.4030     0.0048     8.4501     0.1643   -30.2817     9.7944     7.6123     7.6825
  106.0000    91.2355     2.3989     0.0072     8.4548     0.1686   -29.8996    10.0279     7.5722     7.7591
  106.5000    91.1534     2.3959     0.0039     8.4595     0.1699   -29.2939    10.1869     7.4506     7.8364
  107.0000    92.8952     2.3967    -0.0009     8.4642     0.1698   -28.4067    10.3114     7.0092     7.8965
  107.5000    94.7770     2.4033    -0.0038     8.4690     0.1636   -27.5178    10.1763     6.5978     7.6026
  108.0000    96.2043     2.4192     0.0006     8.4737     0.1563   -26.6667    10.0177     6.2729     7.2602
  108.5000    95.0475     2.4311     0.0074     8.4784     0.1489   -24.6364     9.6526     6.0473     6.7649
  109.0000    94.6988     2.4321     0.0135     8.4831     0.1465   -23.4334     8.5478     5.8658     6.3055
  109.5000    94.0937     2.4223     0.0122     8.4872     0.1562   -22.2089     7.3361     5.6897     5.9834
  110.0000    93.3930     2.4217     0.0092     8.4908     0.1536   -21.6946     6.9421     5.5156     5.7731
  110.5000    94.4261     2.4380     0.0062     8.4944     0.1444   -21.3559     7.3134     5.4010     5.7757
  111.0000   100.4067     2.4571     0.0055     8.4980     0.1351   -21.0753     7.9695     5.2663     5.7969
  111.5000   103.5885     2.4739     0.0081     8.5015     0.1255   -20.7952     8.1925     5.2679     5.8152
  112.0000   104.4108     2.4829     0.0163     8.5058     0.1170   -20.5144     8.2945     5.3386     5.8285
  112.5000   101.8653     2.4790     0.0238     8.5245     0.1199   -20.2333     8.4218     5.4082     5.7920
  113.0000    99.5403     2.4691     0.0185     8.5427     0.1246   -19.9564     8.3640     5.4781     5.7634
  113.5000    99.9930     2.4628     0.0095     8.5608     0.1290   -19.7944     8.2331     5.5490     5.7349
  114.0000   102.0483     2.4569     0.0034     8.5789     0.1330   -19.8871     7.9943     5.5825     5.7220
  114.5000   104.0854     2.4462     0.0028     8.5971     0.1386   -19.9750     7.8533     5.6122     5.7224
  115.0000   106.1066     2.4445     0.0009     8.6086     0.1396   -20.0639     7.8242     5.6413     5.7216
  115.5000   107.3489     2.4444     0.0000     8.6154     0.1394   -20.1529     7.9695     5.6699     5.7213
  116.0000   108.3696     2.4534     0.0030     8.6224     0.1364   -20.1658     8.2686     5.7464     5.8705
  116.5000   108.0532     2.4697     0.0076     8.6085     0.1264   -20.1658     8.5660     5.8207     5.9918
  117.0000   105.7217     2.4800     0.0181     8.6048     0.1184   -20.1656     8.9028     5.8959     6.1102
  117.5000   104.4922     2.4837     0.0193     8.6047     0.1169   -20.1656     8.8551     5.9925     6.1613
  118.0000   104.5761     2.4710     0.0160     8.6048     0.1232   -20.1661     8.7735     5.9915     6.2146
  118.5000   106.3921     2.4633     0.0128     8.6048     0.1289   -20.1687     8.7038     5.9917     6.2680
