~VERSION INFORMATION
 VERS.                2.0:   CWLS LOG ASCII STANDARD - VERSION 2.0
 WRAP.                 NO:   ONE LINE PER DEPTH STEP
~WELL INFORMATION
#MNEM.UNIT      DATA TYPE    INFORMATION
#----------   ------------   ------------------------------
 STRT.F           20.0000:   START DEPTH
 STOP.F          478.0000:   STOP DEPTH
 STEP.F            0.5000:   STEP LENGTH
 NULL.          -999.2500:   NO VALUE
 COMP. FENIX & SCISSON INC:   COMPANY
 WELL.   56 31 SX #56-3FP:   WELL
 FLD .             TEAPOT:   FIELD
 LOC .       S3 T38N R78W:   LOCATION
 CNTY.            NATRONA:   COUNTY
 STAT.            WYOMING:   STATE
 CTRY. UNITED STATES OF AMERICA:   COUNTRY
 SRVC.              Welex:   SERVICE COMPANY
 DATE.        06-JUN-1980:   LOGDATE
 API .       490251082300:   API NUMBER
~CURVE INFORMATION
#MNEM.UNIT       API CODE    CURVE DESCRIPTION
#----------   ------------   ------------------------------
 DEPT.F                  :   
 RHOB.G/C3   45 350 01 00:   BULK DENSITY
 CORR.G/C3   45 356 01 00:   DENSITY CORRECTION
 GRD .GAPI   45 310 01 00:   GAMMA RAY FROM DENSITY LOG
 CALD.IN     45 280 60 00:   CALIPER
 DPHI.DEC    45 890 12 00:   DENSITY POROSITY SANDSTONE
 NPHI.DEC    42 890 03 00:   NEUTRON POROSITY SANDSTONE
 SPR .MV     07 010 01 00:   SPONTANEOUS POTENTIAL
 ILD .OHMM   07 120 46 00:   INDUCTION LOG DEEP
 ILM .OHMM   07 120 44 00:   INDUCTION LOG MEDIUM
 SGRD.OHMM   07 220 05 00:   SHALLOW GUARD RESISTIVITY
~PARAMETER INFORMATION
#MNEM.UNIT          VALUE    DESCRIPTION
#----------   ------------   ------------------------------
 PD  .                 GL:   PERMANENT DATUM
 EPD .F              5173:   ELEVATION PERMANENT DATUM
 LMF .                 KB:   LOG MEASURED FROM
 DAPD.F                 5:   FEET ABOVE PERMANENT DATUM
 DMF .                 KB:   DRILLING MEASURED FROM
 EKB .F              5178:   KELLING BUSHING
 EGL .F              5173:   GROUND LEVEL
 DATE.             6-6-80:   RUN DATE
 RUN .                  1:   RUN NUMBER
 DD  .F               450:   DEPTH DRILLER
 DL  .F               476:   DEPTH LOGGER
 BLI .F               474:   BOTTOM LOG INTERVAL
 TLI .F                30:   TOP LOG INTERVAL
 BS  .IN            9.875:   BIT SIZE
 BSD .F               450:   BIT SIZE AT DEPTH
 DFT .            KCL MUD:   DRILLING FLUID TYPE
 DFD .                9.5:   DRILLING FLUID DENSITY
 DFV .                 48:   DRILLING FLUID VISCOSITY
 DFPH.                7.5:   DRILLING FLUID PH
 DFL .                  7:   DRILLING FLUID LOSS
 MSS .           FLOWLINE:   MUD SAMPLE SOURCE
 RMS .OHMM           1.56:   RESISTIVITY MUD SAMPLE
 MST .F                62:   MUD SAMPLE TEMPERATURE
 RMF .OHMM           1.24:   RESISTIVITY MUD FILTRATE SAMPLE
 MFST.F                62:   MUD FILTRATE SAMPLE TEMPERATURE
 RMC .OHMM           1.87:   RESISTIVITY MUD CAKE
 MCST.F                62:   MUD CAKE SAMPLE TEMPERATURE
 MFSS.           MEASURED:   MUD FILTRATE SAMPLE SOURCE
 MCSS.           MEASURED:   MUD CAKE SAMPLE SOURCE
 RMB .OHMM           1.32:   RESISTIVITY MUD AT BHT
 BHT .F                73:   BOTTOM HOLE TEMPERATURE
 TCS .HRS               6:   TIME CURCULATED STOPPED
 MRT .F                73:   MAXIMUM RECORDED TEMPERATURE
 LUN .               1892:   LOGGING UNIT NUMBER
 LUL .             CASPER:   LOGGING UNIT LOCATION
 ENGI.               REIN:   RECORDING ENGINEER
 WITN.              AMEND:   WITNESSED BY
 CLNT.            A2DTECH:   CLIENT CODE
 ORIG.        2" 5" PRINT:   ORIGIN OF DATA
 UWI .       490251082300:   UNIQUE WELL ID
 DICO. A2D Technologies, Inc.:   DIGITIZING COMPANY
~OTHER INFORMATION
~A   DEPT     RHOB       CORR        GRD       CALD       DPHI       NPHI        SPR          ILD        ILM     SGRD   
# ...
  120.5000     2.4607     0.0744    82.9199     9.8515     0.1395     0.3156   -38.3935     4.0993     4.6706     5.6086
  121.0000     2.4548     0.0736    83.1435     9.8515     0.1447     0.3178   -38.6487     4.1128     4.6843     5.7594
  121.5000     2.4485     0.0730    83.3683     9.8515     0.1517     0.3131   -38.4931     4.1264     4.6981     5.7855
  122.0000     2.4408     0.0717    83.5899     9.8515     0.1581     0.3070   -38.2680     4.1686     4.7118     5.8117
  122.5000     2.4258     0.0613    83.6921     9.8515     0.1638     0.3013   -38.0415     4.2508     4.7256     5.8380
  123.0000     2.4191     0.0508    83.3134     9.8515     0.1588     0.3010   -37.8147     4.3287     4.7395     5.8627
  123.5000     2.4204     0.0540    82.9468     9.8515     0.1526     0.3042   -37.6115     4.3594     4.7534     5.8842
  124.0000     2.4378     0.0581    82.5812     9.8513     0.1526     0.3074   -37.4309     4.3883     4.7673     5.9045
  124.5000     2.4239     0.0540    82.2155     9.8461     0.1709     0.3022   -37.2501     4.4090     4.7813     5.9248
  125.0000     2.4007     0.0409    81.8490     9.8407     0.1746     0.3050   -37.0696     4.3842     4.7893     5.9452
  125.5000     2.4087     0.0478    81.4844     9.8353     0.1620     0.3075   -36.9133     4.3649     4.6961     5.9714
  126.0000     2.4199     0.0583    81.1954     9.8300     0.1536     0.3098   -36.9962     4.3457     4.6315     5.8443
  126.5000     2.4311     0.0687    81.2901     9.8246     0.1495     0.3052   -37.0766     4.3266     4.5680     5.6722
  127.0000     2.4391     0.0743    81.3781     9.8192     0.1540     0.3014   -37.1561     4.3076     4.5053     5.5734
  127.5000     2.4249     0.0661    81.4651     9.8138     0.1571     0.3086   -37.2354     4.2887     4.4431     5.5310
  128.0000     2.4259     0.0662    81.5520     9.8085     0.1601     0.3146   -37.3148     4.2698     4.4092     5.4870
  128.5000     2.4288     0.0621    81.6389     9.8031     0.1681     0.3093   -37.3942     4.2499     4.4636     5.4470
  129.0000     2.4079     0.0537    81.7245     9.7976     0.1814     0.3046   -37.4736     4.2286     4.5021     5.5737
  129.5000     2.3954     0.0454    81.7635     9.7926     0.1774     0.3023   -37.5531     4.2060     4.5409     5.6865
  130.0000     2.3876     0.0363    81.7033     9.8067     0.1717     0.3022   -37.6324     4.1725     4.5742     5.8090
  130.5000     2.4093     0.0504    81.6424     9.8224     0.1666     0.2984   -37.6986     4.1783     4.5629     5.7668
  131.0000     2.4085     0.0661    81.5949     9.8379     0.1690     0.3018   -37.6969     4.1899     4.5531     5.7219
  131.5000     2.4122     0.0640    82.2234     9.8493     0.1711     0.3019   -37.6980     4.2015     4.5433     5.6774
  132.0000     2.3976     0.0622    82.9178     9.8279     0.1598     0.3049   -37.6007     4.2132     4.5336     5.6333
  132.5000     2.4233     0.0696    83.6123     9.8070     0.1636     0.3053   -37.4453     4.2249     4.5323     5.5993
  133.0000     2.4266     0.0784    84.3040     9.7932     0.1690     0.3046   -37.2886     4.2366     4.5323     5.6628
  133.5000     2.4029     0.0603    84.9934     9.7983     0.1738     0.3106   -37.1318     4.2499     4.5323     5.7151
  134.0000     2.4057     0.0532    85.1600     9.8030     0.1742     0.3092   -36.9751     4.2251     4.5328     5.7559
  134.5000     2.3932     0.0348    84.7794     9.8078     0.1702     0.3076   -36.8179     4.1967     4.5026     5.6359
  135.0000     2.4001     0.0422    84.4025     9.8125     0.1674     0.3060   -36.6597     4.1686     4.4736     5.5399
  135.5000     2.4084     0.0440    84.0228     9.8172     0.1841     0.3046   -36.5261     4.1406     4.4447     5.4456
  136.0000     2.3840     0.0311    83.6453     9.8220     0.1952     0.3062   -36.7095     4.1128     4.4160     5.3478
  136.5000     2.3639     0.0106    83.3632     9.8267     0.1979     0.2970   -36.8953     4.0852     4.3875     5.3813
  137.0000     2.3560    -0.0086    83.4362     9.8315     0.1974     0.2898   -37.0793     4.0578     4.3591     5.4169
  137.5000     2.3623    -0.0018    83.5072     9.8362     0.1986     0.2975   -37.2632     4.0305     4.3310     5.4470
  138.0000     2.3568    -0.0127    83.5312     9.8410     0.1931     0.3042   -37.4552     4.0035     4.3030     5.3848
  138.5000     2.3692     0.0050    82.7605     9.8457     0.1872     0.3082   -37.4701     3.9766     4.2752     5.3317
  139.0000     2.3742     0.0111    81.9854     9.8504     0.1838     0.3042   -37.4299     3.9486     4.2476     5.2946
  139.5000     2.3817     0.0214    81.4435     9.8552     0.1838     0.3065   -37.3880     3.8641     4.2202     5.2832
  140.0000     2.3844     0.0256    81.8230     9.8599     0.1838     0.3044   -37.3459     3.7769     4.1633     5.2719
  140.5000     2.3822     0.0244    82.1831     9.8647     0.1871     0.3038   -37.3028     3.6918     4.0924     5.2606
  141.0000     2.3775     0.0251    82.5411     9.8695     0.1908     0.3065   -37.3096     3.6086     4.0227     5.2504
  141.5000     2.3717     0.0259    82.8992     9.8704     0.1949     0.3094   -37.6560     3.5272     3.9202     4.8033
  142.0000     2.3643     0.0258    83.2565     9.8691     0.1952     0.3086   -38.0399     3.4477     3.7803     4.4028
  142.5000     2.3517     0.0154    83.6166     9.8678     0.1953     0.3135   -38.4375     3.3773     3.6018     4.4156
  143.0000     2.3530     0.0071    83.7349     9.8664     0.1856     0.3167   -38.8291     3.3773     3.6854     3.8285
  143.5000     2.3797     0.0241    83.6711     9.8651     0.1766     0.3144   -38.9276     3.3773     3.8142     3.6351
  144.0000     2.3927     0.0320    83.6087     9.8637     0.1677     0.3121   -38.5312     3.3982     3.9479     4.8424
  144.5000     2.4091     0.0437    83.7113     9.8624     0.1614     0.3114   -38.1426     3.4657     4.0272     5.2989
  145.0000     2.4202     0.0598    84.1284     9.8610     0.1676     0.3128   -37.7523     3.5346     4.0508     5.1442
  145.5000     2.4113     0.0487    84.5387     9.8597     0.1724     0.3140   -37.3621     3.6048     4.0738     5.0609
  146.0000     2.3959     0.0354    84.6265     9.8583     0.1865     0.3124   -36.9739     3.6763     4.0971     5.1630
  146.5000     2.3723     0.0221    84.6974     9.8570     0.1985     0.3105   -36.7134     3.7452     4.1207     5.3187
  147.0000     2.3605     0.0109    84.7700     9.8556     0.1918     0.3086   -36.4801     3.7925     4.1443     5.4973
  147.5000     2.3661     0.0253    84.8424     9.8543     0.1879     0.3067   -36.2490     3.8407     4.1725     5.2916
  148.0000     2.3791     0.0303    84.9164     9.8529     0.1899     0.3050   -36.2148     3.8894     4.1650     5.2024
  148.5000     2.3623     0.0224    84.7730     9.8516     0.1921     0.3070   -36.4366     3.9124     4.1527     5.2024
  149.0000     2.3710     0.0191    84.4352     9.8525     0.1827     0.3034   -36.6850     3.9124     4.1405     5.2023
  149.5000     2.3735     0.0303    84.0966     9.8536     0.1722     0.3081   -36.9312     3.9124     4.1283     5.2025
  150.0000     2.3971     0.0409    83.7576     9.8548     0.1670     0.3090   -37.0906     3.9124     4.1161     5.2024
  150.5000     2.4063     0.0487    83.4185     9.8559     0.1672     0.3066   -37.0082     3.9001     4.1039     5.2028
  151.0000     2.4021     0.0497    83.0811     9.8570     0.1644     0.3096   -36.9321     3.8766     4.0725     5.1009
  151.5000     2.4168     0.0531    82.7407     9.8581     0.1574     0.3126   -36.8558     3.8533     4.0105     5.0137
  152.0000     2.4337     0.0646    82.7210     9.8593     0.1598     0.3171   -36.7798     3.8004     3.9494     4.9687
  152.5000     2.4245     0.0689    83.0015     9.8604     0.1622     0.3213   -36.7217     3.7180     3.8892     5.0609
  153.0000     2.4195     0.0660    83.2844     9.8615     0.1678     0.3244   -36.8252     3.6365     3.8158     4.9595
  153.5000     2.4024     0.0634    83.5687     9.8626     0.1790     0.3273   -36.9285     3.5569     3.6855     4.7871
