~VERSION INFORMATION
 VERS.                2.0:   CWLS LOG ASCII STANDARD - VERSION 2.0
 WRAP.                 NO:   ONE LINE PER DEPTH STEP
~WELL INFORMATION
#MNEM.UNIT      DATA TYPE    INFORMATION
#----------   ------------   ------------------------------
 STRT.F          906.5000:   START DEPTH
 STOP.F         2710.5000:   STOP DEPTH
 STEP.F            0.5000:   STEP LENGTH
 NULL.          -999.2500:   NO VALUE
 COMP.   FLUOR DANIEL INC:   COMPANY
 WELL. NAVAL PETROLEUM RESERVE 3 X-4 #77-4:   WELL
 FLD .             TEAPOT:   FIELD
 LOC .       S4 T38N R78W:   LOCATION
 CNTY.            NATRONA:   COUNTY
 STAT.            WYOMING:   STATE
 CTRY. UNITED STATES OF AMERICA:   COUNTRY
 SRVC.            Unknown:   SERVICE COMPANY
 DATE.        21-JUN-1995:   LOGDATE
 API .       490252273600:   API NUMBER
~CURVE INFORMATION
#MNEM.UNIT       API CODE    CURVE DESCRIPTION
#----------   ------------   ------------------------------
 DEPT.F                  :   
 TGAS.UNITS  91 830 01 00:   TOTAL GAS FROM HOTWIRE
 ROP .MIN/FT 91 810 01 00:   RAT OF DRILLING PENETRATION
~PARAMETER INFORMATION
#MNEM.UNIT          VALUE    DESCRIPTION
#----------   ------------   ------------------------------
 EKB .F              5291:   KELLING BUSHING
 EGL .F              5281:   GROUND LEVEL
 DATE.            6-21-95:   RUN DATE
 DD  .F              2711:   DEPTH DRILLER
 CBD .F               893:   CASING BOTTOM DRILLER
 ENGI.               HUSK:   RECORDING ENGINEER
 WITN.              TOWER:   WITNESSED BY
 CLNT.            A2DTECH:   CLIENT CODE
 ORIG.           5" PRINT:   ORIGIN OF DATA
 UWI .       490252273600:   UNIQUE WELL ID
 DICO. A2D Technologies, Inc.:   DIGITIZING COMPANY
~OTHER INFORMATION
~A   DEPT      TGAS         ROP 
# ...
 1392.5000   230.8240     0.9769
 1393.0000   231.4126     0.9883
 1393.5000   232.0013     1.0110
 1394.0000   233.1541     1.1944
 1394.5000   233.1795     1.1942
 1395.0000   233.2094     1.2056
 1395.5000   232.6702     1.2169
 1396.0000   232.1310     1.2167
 1396.5000   232.1558     1.2281
 1397.0000   232.7444     1.2279
 1397.5000   232.7691     1.2393
 1398.0000   232.2293     1.7667
 1398.5000   232.2547     1.7665
 1399.0000   232.8440     1.7663
 1399.5000   232.3102     1.7777
 1400.0000   232.3303     2.0408
 1400.5000   232.3491     2.0398
 1401.0000   232.3680     2.0388
 1401.5000   232.3868     2.0378
 1402.0000   232.4056     1.8091
 1402.5000   232.4245     1.8057
 1403.0000   232.4433     1.8022
 1403.5000   232.4621     1.7988
 1404.0000   232.4809     1.7953
 1404.5000   232.4998     1.0766
 1405.0000   232.5186     1.0680
 1405.5000   232.5374     1.0593
 1406.0000   232.5562     0.6576
 1406.5000   232.5751     0.6580
 1407.0000   232.5939     0.6584
 1407.5000   232.6127     0.6587
 1408.0000   232.6316     0.6591
 1408.5000   232.6517     0.6595
 1409.0000   232.1016     0.6598
 1409.5000   232.6884     0.6602
 1410.0000   232.7068     0.7852
 1410.5000   232.7256     0.7849
 1411.0000   232.7480     0.7849
 1411.5000   232.2025     0.7849
 1412.0000   232.2208     0.7849
 1412.5000   232.2391     0.7849
 1413.0000   232.2575     0.7849
 1413.5000   232.2758     0.7849
 1414.0000   232.2942     0.7848
 1414.5000   232.3125     0.7848
 1415.0000   231.7669     0.7848
 1415.5000   231.7857     0.7848
 1416.0000   231.8082     1.0227
 1416.5000   231.8265     1.0187
 1417.0000   231.2809     1.0149
 1417.5000   230.7308     1.0111
 1418.0000   230.7537     1.7329
 1418.5000   230.7721     1.7320
 1419.0000   230.7904     1.7310
 1419.5000   230.8087     1.7300
 1420.0000   230.8271     1.2756
 1420.5000   230.8459     1.2794
 1421.0000   230.8683     1.2829
 1421.5000   230.8867     1.2865
 1422.0000   230.9050     1.7540
 1422.5000   230.9234     1.7545
 1423.0000   230.9417     1.7551
 1423.5000   230.9600     1.7557
 1424.0000   230.9784     1.7562
 1424.5000   230.9967     1.7568
 1425.0000   231.0150     1.7574
 1425.5000   231.0338     1.7579
 1426.0000   231.0563     1.2709
 1426.5000   231.0746     1.2744
 1427.0000   231.0930     1.2777
 1427.5000   231.1113     1.2809
 1428.0000   231.1297     1.2847
 1428.5000   231.1480     1.5347
 1429.0000   231.1663     1.5352
 1429.5000   231.1847     1.5358
 1430.0000   231.2030     0.9921
 1430.5000   231.2218     0.9927
 1431.0000   231.2443     1.0046
 1431.5000   231.2626     1.0051
 1432.0000   231.2809     0.8243
 1432.5000   231.2993     0.7307
 1433.0000   231.3176     0.7428
 1433.5000   231.3360     0.7548
 1434.0000   231.3543     0.7669
 1434.5000   231.3727     0.4983
 1435.0000   231.3910     0.4989
 1435.5000   231.4098     0.4994
 1436.0000   231.4323     0.5000
 1436.5000   231.4506     0.5006
 1437.0000   231.4689     0.5011
 1437.5000   231.4873     0.5017
 1438.0000   231.5056     0.5023
 1438.5000   231.5239     0.5028
 1439.0000   231.5423     0.5034
 1439.5000   231.5606     0.5040
 1440.0000   231.5789     0.5046
 1440.5000   231.5977     0.5063
 1441.0000   231.6202     0.5081
 1441.5000   231.6385     0.5100
 1442.0000   231.6569     0.5118
 1442.5000   231.6752     0.5136
 1443.0000   231.6936     0.5155
 1443.5000   231.7119     0.5173
 1444.0000   231.7302     0.5192
 1444.5000   231.7486     0.5210
 1445.0000   231.7669     0.5229
 1445.5000   231.7857     0.5247
 1446.0000   231.8082     0.6482
 1446.5000   231.8265     0.6442
 1447.0000   231.8449     0.6403
 1447.5000   231.8632     0.6364
 1448.0000   231.8815     0.8038
 1448.5000   231.8999     0.7999
 1449.0000   231.9182     0.7960
 1449.5000   231.9366     0.7920
 1450.0000   231.9549     0.7880
 1450.5000   231.9737     0.7841
 1451.0000   231.9962     0.7801
 1451.5000   232.0145     0.7761
 1452.0000   232.0328     0.7722
 1452.5000   232.0512     0.7682
 1453.0000   232.0695     0.7642
 1453.5000   232.0878     0.7603
 1454.0000   232.1062     0.7563
 1454.5000   232.1245     0.7524
 1455.0000   232.1429     0.7484
 1455.5000   232.1617     0.7444
 1456.0000   232.1841     0.7403
 1456.5000   232.2025     0.9660
 1457.0000   232.2208     0.9649
 1457.5000   232.2391     0.9751
 1458.0000   232.2575     1.2685
 1458.5000   232.2758     1.2790
 1459.0000   232.2942     1.2776
 1459.5000   232.3125     1.2881
 1460.0000   232.3268     1.7176
 1460.5000   232.3290     1.7171
 1461.0000   232.3313     1.7165
 1461.5000   232.3335     1.7273
 1462.0000   232.3357     1.7267
 1462.5000   232.3380     1.9757
 1463.0000   232.3402     1.9750
 1463.5000   232.3424     1.9745
 1464.0000   232.3447     1.8605
 1464.5000   232.3469     0.9756
 1465.0000   232.3491     0.9751
 1465.5000   232.3513     0.9631
 1466.0000   232.3536     0.7584
 1466.5000   232.3558     0.7694
 1467.0000   232.3580     0.7687
 1467.5000   232.3603     0.7908
 1468.0000   232.3625     0.7902
 1468.5000   232.3647     0.8011
 1469.0000   232.3670     0.8004
 1469.5000   232.3692     0.7998
 1470.0000   232.3714     0.7879
 1470.5000   232.3737     0.7874
 1471.0000   232.3759     0.8095
 1471.5000   232.3781     0.8090
 1472.0000   232.3804     0.9898
 1472.5000   232.3826     0.9891
 1473.0000   232.3848     0.9886
 1473.5000   232.3870     0.9881
 1474.0000   232.3893     1.0102
 1474.5000   232.3915     1.0096
 1475.0000   232.3937     0.9826
 1475.5000   232.3960     0.7363
 1476.0000   232.3982     0.7358
 1476.5000   232.4004     0.7352
 1477.0000   232.4027     0.7347
 1477.5000   232.4049     0.7341
 1478.0000   232.4071     0.7336
 1478.5000   232.4094     0.7329
 1479.0000   232.4116     0.7323
 1479.5000   232.4138     0.7318
 1480.0000   232.4161     0.7426
 1480.5000   232.4183     0.7426
 1481.0000   232.4205     0.7426
 1481.5000   232.4227     0.7426
 1482.0000   232.4250     0.7426
 1482.5000   232.4272     0.7540
 1483.0000   232.4294     0.7540
 1483.5000   232.4317     0.7426
 1484.0000   232.4339     0.8220
 1484.5000   232.4361     0.9354
 1485.0000   232.4384     0.9467
 1485.5000   232.4406     0.9580
 1486.0000   232.4428     0.8882
 1486.5000   232.4451     0.7313
 1487.0000   232.4473     0.7313
 1487.5000   232.4495     0.7313
 1488.0000   232.4518     0.7313
 1488.5000   232.4540     0.7313
 1489.0000   232.4562     0.7313
 1489.5000   232.4585     0.7313
 1490.0000   232.4607     0.7313
 1490.5000   232.4629     0.7313
 1491.0000   232.4651     0.7313
 1491.5000   232.4674     0.7313
 1492.0000   232.4696     0.7313
 1492.5000   232.4718     0.7200
 1493.0000   232.4741     0.7313
 1493.5000   232.4763     0.7313
 1494.0000   232.4785     0.9580
 1494.5000   232.4808     0.9580
 1495.0000   232.4830     0.9580
 1495.5000   232.4852     0.9580
 1496.0000   232.4875     0.9580
 1496.5000   232.4897     0.9580
 1497.0000   232.4919     0.9580
 1497.5000   232.4942     1.0034
 1498.0000   232.4964     1.0488
 1498.5000   232.4986     1.0488
 1499.0000   232.5009     1.0601
 1499.5000   232.5031     1.0488
 1500.0000   232.5053     0.7993
 1500.5000   232.5076     0.8101
 1501.0000   232.5098     0.8209
 1501.5000   232.5120     0.8203
 1502.0000   232.5143     0.8197
 1502.5000   232.5165     0.8192
 1503.0000   232.5187     0.8186
 1503.5000   232.5210     0.8179
 1504.0000   232.5232     0.8060
 1504.5000   232.5254     0.7941
 1505.0000   232.5276     0.7936
 1505.5000   232.5299     0.8045
 1506.0000   232.5321     0.7925
 1506.5000   232.5343     0.8828
 1507.0000   232.5366     0.8934
 1507.5000   232.5388     0.9042
 1508.0000   232.5410     0.9036
 1508.5000   232.5433     0.9031
 1509.0000   232.5455     0.9025
 1509.5000   232.5477     0.9018
 1510.0000   232.5500     0.9013
 1510.5000   232.5522     0.9007
 1511.0000   232.5544     0.9002
 1511.5000   232.5567     0.8883
 1512.0000   232.5589     0.7630
 1512.5000   232.5611     0.6717
 1513.0000   232.5633     0.6712
 1513.5000   232.5656     0.6706
