~VERSION INFORMATION
 VERS.                2.0:   CWLS LOG ASCII STANDARD - VERSION 2.0
 WRAP.                 NO:   ONE LINE PER DEPTH STEP
~WELL INFORMATION
#MNEM.UNIT      DATA TYPE    INFORMATION
#----------   ------------   ------------------------------
 STRT.F           32.0000:   START DEPTH
 STOP.F          502.0000:   STOP DEPTH
 STEP.F            0.5000:   STEP LENGTH
 NULL.          -999.2500:   NO VALUE
 COMP.    FENIX & SCISSON:   COMPANY
 WELL. NPR # #3 65-36-SX-3-FP:   WELL
 FLD .             TEAPOT:   FIELD
 LOC .       S3 T38N R78W:   LOCATION
 CNTY.            NATRONA:   COUNTY
 STAT.            WYOMING:   STATE
 CTRY. UNITED STATES OF AMERICA:   COUNTRY
 SRVC.              Welex:   SERVICE COMPANY
 DATE.        15-JUN-1980:   LOGDATE
 API .       490251082600:   API NUMBER
~CURVE INFORMATION
#MNEM.UNIT       API CODE    CURVE DESCRIPTION
#----------   ------------   ------------------------------
 DEPT.F                  :   
 CALD.IN     45 280 60 00:   CALIPER FROM DENSITY LOG
 CORR.G/C3   45 356 01 00:   DENSITY CORRECTION
 DPHI.DEC    45 890 12 00:   DENSITY POROSITY SANDSTONE
 GRD .GAPI   45 310 01 00:   GAMMA RAY FROM DENSITY LOG
 RHOB.G/C3   45 350 01 00:   BULK DENSITY
 NPHI.DEC    42 890 03 00:   NEUTRON POROSITY SANDSTONE
 ILD .OHMM   07 120 46 00:   INDUCTION LOG DEEP
 ILM .OHMM   07 120 44 00:   INDUCTION LOG MEDIUM
 SGRD.OHMM   07 220 05 00:   SHALLOW GUARD RESISTIVITY
 SPR .MV     07 010 01 00:   SPONTANEOUS POTENTIAL FROM RES.
~PARAMETER INFORMATION
#MNEM.UNIT          VALUE    DESCRIPTION
#----------   ------------   ------------------------------
 PD  .                 GL:   PERMANENT DATUM
 EPD .F              5159:   ELEVATION PERMANENT DATUM
 LMF .                 KB:   LOG MEASURED FROM
 DAPD.F                 5:   FEET ABOVE PERMANENT DATUM
 DMF .                 KB:   DRILLING MEASURED FROM
 EKB .F              5164:   KELLING BUSHING
 EGL .F              5159:   GROUND LEVEL
 DATE.            6-15-80:   RUN DATE
 RUN .                  1:   RUN NUMBER
 DD  .F               505:   DEPTH DRILLER
 DL  .F               504:   DEPTH LOGGER
 BLI .F               502:   BOTTOM LOG INTERVAL
 TLI .F                30:   TOP LOG INTERVAL
 BS  .IN            9.875:   BIT SIZE
 BSD .F               505:   BIT SIZE AT DEPTH
 DFT .             2% KCL:   DRILLING FLUID TYPE
 DFD .                9.4:   DRILLING FLUID DENSITY
 DFV .                 51:   DRILLING FLUID VISCOSITY
 DFPH.                 12:   DRILLING FLUID PH
 DFL .                5.6:   DRILLING FLUID LOSS
 MSS .           FLOWLINE:   MUD SAMPLE SOURCE
 RMS .OHMM            .36:   RESISTIVITY MUD SAMPLE
 MST .F                65:   MUD SAMPLE TEMPERATURE
 RMF .OHMM            .29:   RESISTIVITY MUD FILTRATE SAMPLE
 MFST.F                65:   MUD FILTRATE SAMPLE TEMPERATURE
 RMC .OHMM            .42:   RESISTIVITY MUD CAKE
 MCST.F                65:   MUD CAKE SAMPLE TEMPERATURE
 MFSS.           MEASURED:   MUD FILTRATE SAMPLE SOURCE
 MCSS.           MEASURED:   MUD CAKE SAMPLE SOURCE
 RMB .OHMM            .32:   RESISTIVITY MUD AT BHT
 BHT .F                74:   BOTTOM HOLE TEMPERATURE
 TCS .HRS               2:   TIME CURCULATED STOPPED
 MRT .F                74:   MAXIMUM RECORDED TEMPERATURE
 LUN .               1892:   LOGGING UNIT NUMBER
 LUL .             CASPER:   LOGGING UNIT LOCATION
 ENGI.               REIN:   RECORDING ENGINEER
 WITN.              AMEND:   WITNESSED BY
 CLNT.            A2DTECH:   CLIENT CODE
 ORIG.       2", 5" PRINT:   ORIGIN OF DATA
 UWI .       490251082600:   UNIQUE WELL ID
 DICO. A2D Technologies, Inc.:   DIGITIZING COMPANY
~OTHER INFORMATION
~A   DEPT     CALD       CORR       DPHI        GRD       RHOB       NPHI         ILD         ILM       SGRD      SPR   
   32.0000  -999.2500  -999.2500  -999.2500  -999.2500  -999.2500  -999.2500    35.3934     4.9006     5.1076   -57.3910
   32.5000  -999.2500  -999.2500  -999.2500  -999.2500  -999.2500  -999.2500    31.4690     5.2143     5.4003   -57.5243
   33.0000  -999.2500  -999.2500  -999.2500  -999.2500  -999.2500  -999.2500    28.1710     5.4370     5.6640   -57.9561
   33.5000  -999.2500  -999.2500  -999.2500  -999.2500  -999.2500  -999.2500    24.5348     5.6640     5.7824   -58.2073
   34.0000  -999.2500  -999.2500  -999.2500  -999.2500  -999.2500  -999.2500    23.2107     5.7032     5.7824   -58.6238
   34.5000  -999.2500  -999.2500  -999.2500  -999.2500  -999.2500  -999.2500    21.3609     5.6640     5.8627   -58.6103
   35.0000  -999.2500  -999.2500  -999.2500  -999.2500  -999.2500  -999.2500    20.7732     5.5865     5.8627   -58.5938
   35.5000  -999.2500  -999.2500  -999.2500  -999.2500  -999.2500  -999.2500    24.6705     5.5100     5.8224   -58.5817
   36.0000    10.1428  -999.2500     0.0623    96.6153  -999.2500  -999.2500    20.7202     5.5100     5.7824   -58.5671
   36.5000    10.1299  -999.2500     0.0743    97.1839  -999.2500  -999.2500    17.4661     5.5481     5.7824   -58.5530
   37.0000    10.1303  -999.2500     0.0877    97.8362  -999.2500  -999.2500    16.4086     5.5865     5.7824   -58.5371
   37.5000    10.1306  -999.2500     0.0951    98.4885  -999.2500  -999.2500    14.7918     5.7032     5.7824   -58.5238
   38.0000    10.1312     0.1118     0.0981    99.1386     2.4903     0.3092    15.5181     5.9032     5.8224   -58.5100
   38.5000    10.1323     0.1088     0.1010   101.5728     2.4844     0.3139    16.3927     6.1103     5.9441   -58.4938
   39.0000    10.1037     0.1042     0.1028   103.1554     2.4777     0.3125    16.0506     6.1951     6.1103   -58.4805
   39.5000    10.1052     0.1027     0.1036   104.0044     2.4800     0.3107    15.3952     6.2811     6.2429   -58.4670
   40.0000    10.0914     0.1133     0.0972   103.6775     2.5055     0.3071    14.8688     6.3903     6.4567   -58.4505
   40.5000    10.0778     0.1239     0.0936   102.9680     2.5034     0.3112    14.4597     6.5014     6.6832   -58.4372
   41.0000    10.0645     0.1254     0.0935   102.6989     2.5027     0.3099    14.2559     6.5014     6.7759   -58.2806
   41.5000    10.0657     0.1254     0.0935   102.5588     2.4997     0.3060    14.0561     6.5464     6.8228   -58.4105
   42.0000    10.0669     0.1254     0.0934   102.2557     2.4998     0.3057    13.6694     6.5916     6.8228   -58.3939
   42.5000    10.0678     0.1284     0.0934   101.9836     2.5014     0.3059    13.2019     6.5916     6.8700   -58.5238
   43.0000    10.0773     0.1347     0.0894   101.9912     2.5149     0.3059    12.2328     6.5916     6.8700   -58.5100
   43.5000    10.0852     0.1437     0.0824   102.0113     2.5224     0.3058    11.4142     6.5464     6.8570   -58.6404
   44.0000    10.0861     0.1480     0.0821   102.4602     2.5210     0.3060    11.4105     6.5464     6.8228   -59.0536
   44.5000    10.0900     0.1383     0.0973   103.2149     2.4952     0.3060    11.8886     6.5464     6.7759   -59.4747
   45.0000    10.1032     0.1132     0.1066   103.9479     2.4827     0.3062    12.4713     6.5718     6.6923   -60.0298
   45.5000    10.1192     0.0921     0.1182   104.7006     2.4396     0.3062    12.4672     6.5916     6.6372   -60.2996
   46.0000    10.1351     0.0559     0.1295   105.8859     2.4164     0.3061    12.3776     6.5916     6.6372   -60.7161
   46.5000    10.1510     0.0438     0.1322   106.4744     2.4165     0.3061    12.3735     6.6372     6.6463   -60.8787
   47.0000    10.1670     0.0438     0.1324   106.6224     2.4196     0.3054    12.1992     6.6372     6.6906   -61.2592
   47.5000    10.1694     0.0393     0.1336   106.4822     2.4129     0.3045    12.1114     6.5916     6.7294   -61.5324
   48.0000    10.1841     0.0363     0.1341   106.3343     2.4119     0.3050    12.1075     6.5014     6.7294   -61.6646
   48.5000    10.1853     0.0363     0.1301   105.4616     2.4280     0.3086    12.1036     6.4567     6.7776   -61.7923
   49.0000    10.1717     0.0423     0.1217   104.5851     2.4422     0.3118    12.0155     6.5014     6.8228   -61.6324
   49.5000    10.1581     0.0529     0.1180   104.1509     2.4580     0.3135    11.6849     6.5464     6.8379   -61.1843
   50.0000    10.1593     0.0680     0.1183   103.7168     2.4588     0.3108    11.4736     6.6002     6.9175   -60.9455
   50.5000    10.1605     0.0635     0.1182   102.1018     2.4559     0.3077    11.2287     6.6223     7.0136   -61.1158
   51.0000    10.1617     0.0606     0.1182   101.3717     2.4515     0.3044    11.1262     6.6823     7.0136   -61.1722
   51.5000    10.1628     0.0607     0.1145   103.0015     2.4493     0.3004    11.2016     6.6818     7.0136   -61.3138
   52.0000    10.1640     0.0820     0.0923   104.1888     2.4860     0.3028    11.0455     6.6813     7.0136   -61.1688
   52.5000    10.1653     0.1002     0.0877   104.1962     2.5145     0.3063    10.8916     6.5893     7.0136   -61.1675
   53.0000    10.1664     0.1048     0.0934   103.1712     2.5071     0.3063    10.6666     6.5436     6.9528   -61.1661
   53.5000    10.1676     0.0733     0.1071   100.3762     2.4862     0.3062    10.5185     6.4982     6.8688   -61.1700
   54.0000    10.1688     0.0567     0.1202    99.7936     2.4429     0.3068    10.3724     6.4978     6.7759   -61.3067
   54.5000    10.1552     0.0463     0.1262    99.9485     2.4347     0.3094    10.2990     6.4973     6.7294   -61.3050
   55.0000    10.1414     0.0403     0.1261   100.5458     2.4355     0.3109    10.2967     6.4969     6.7102   -61.5902
   55.5000    10.1428     0.0374     0.1204   101.7332     2.4513     0.3114    10.4381     6.5414     6.6351   -61.7803
   56.0000    10.1440     0.0436     0.1188   102.7730     2.4446     0.3155    10.5804     6.5862     6.5916   -61.8740
   56.5000    10.1452     0.0452     0.1248   103.5179     2.4364     0.3107    10.7989     6.7233     6.5916   -62.1589
   57.0000    10.1464     0.0408     0.1214   104.2627     2.4407     0.3106    10.7226     6.7694     6.5916   -62.1575
   57.5000    10.1476     0.0454     0.1183   104.8601     2.4560     0.3151    10.5737     6.7689     6.5916   -62.5860
   58.0000    10.1487     0.0651     0.1063   105.4574     2.4830     0.3153    10.4990     6.7220     6.6372   -62.7279
   58.5000    10.1499     0.0849     0.1035   106.0548     2.4778     0.3153    10.4248     6.7214     6.6372   -62.7262
   59.0000    10.1806     0.0941     0.0999   105.9147     2.4824     0.3176    10.4223     6.6748     6.6372   -62.7248
   59.5000    10.1966     0.1002     0.0941   105.6271     2.5011     0.3200    10.4203     6.6744     6.6372   -62.7235
   60.0000    10.2124     0.1018     0.0956   105.6345     2.4990     0.3205    10.3467     6.5826     6.7294   -62.1487
   60.5000    10.2137     0.1050     0.0937   105.7893     2.4975     0.3204    10.2731     6.5820     6.7759   -61.8664
   61.0000    10.2149     0.1141     0.0894   106.3867     2.5073     0.3204    10.2891     6.5817     6.8228   -61.4747
   61.5000    10.2159     0.1188     0.0927   106.6891     2.5021     0.3203    10.3671     6.6268     6.9175   -60.8553
   62.0000    10.2171     0.1038     0.1064   106.6965     2.4782     0.3203    10.4817     6.6721     6.9772   -60.4238
   62.5000    10.2183     0.0888     0.1067   106.5564     2.4753     0.3187    10.5521     6.7178     7.0621   -60.1630
   63.0000    10.2196     0.0843     0.1021   105.8263     2.4769     0.3142    10.6226     6.7639     7.1110   -59.8480
   63.5000    10.2206     0.0935     0.1015   103.3263     2.4941     0.3093    10.8430     6.8101     7.1110   -59.7034
   64.0000    10.2220     0.0861     0.1089   100.5310     2.4695     0.3087    11.0668     6.8568     7.1110   -59.4155
   64.5000    10.1937     0.0756     0.1058   101.1287     2.4718     0.3095    10.9881     6.8562     7.1110   -58.9840
   65.0000    10.1650     0.0757     0.1061   102.3160     2.4771     0.3113    11.0625     6.8558     7.1110   -57.9798
