~VERSION INFORMATION
 VERS.                2.0:   CWLS LOG ASCII STANDARD - VERSION 2.0
 WRAP.                 NO:   ONE LINE PER DEPTH STEP
~WELL INFORMATION
#MNEM.UNIT      DATA TYPE    INFORMATION
#----------   ------------   ------------------------------
 STRT.F           32.0000:   START DEPTH
 STOP.F          697.0000:   STOP DEPTH
 STEP.F            0.5000:   STEP LENGTH
 NULL.          -999.2500:   NO VALUE
 COMP.    FENIX & SCISSON:   COMPANY
 WELL.      NPR-3 #81S3-3:   WELL
 FLD .        TEAPOT DOME:   FIELD
 LOC .       S3 T38N R78W:   LOCATION
 CNTY.            NATRONA:   COUNTY
 STAT.            WYOMING:   STATE
 CTRY. UNITED STATES OF AMERICA:   COUNTRY
 SRVC.           BIRDWELL:   SERVICE COMPANY
 DATE.        11-JAN-1978:   LOGDATE
 API .       490251055400:   API NUMBER
~CURVE INFORMATION
#MNEM.UNIT       API CODE    CURVE DESCRIPTION
#----------   ------------   ------------------------------
 DEPT.F                  :   
 ILD .OHMM   05 120 46 00:   INDUCTION LOG DEEP
 SN  .OHMM   05 040 16 00:   SHORT NORMAL 16"
 SPR .MV     05 010 01 00:   SPONTANEOUS POTENTIAL FROM RES.
 CALD.IN     45 280 60 00:   CALIPER FROM DENSITY LOG
 DPHI.DEC    45 890 12 00:   DENSITY POROSITY SANDSTONE
 DRHO.G/C3   45 356 01 00:   DENSITY CORRECTION
 GRD .GAPI   45 310 01 00:   GAMMA RAY FROM DENSITY LOG
 RHOB.G/C3   45 350 01 00:   BULK DENSITY
~PARAMETER INFORMATION
#MNEM.UNIT          VALUE    DESCRIPTION
#----------   ------------   ------------------------------
 PD  .                 GL:   PERMANENT DATUM
 EPD .F              5119:   ELEVATION PERMANENT DATUM
 LMF .                 KB:   LOG MEASURED FROM
 DAPD.F                 4:   FEET ABOVE PERMANENT DATUM
 DMF .                 KB:   DRILLING MEASURED FROM
 EKB .F              5123:   KELLING BUSHING
 EGL .F              5119:   GROUND LEVEL
 DATE.        11-JAN-1978:   RUN DATE
 RUN .                  1:   RUN NUMBER
 DD  .F               695:   DEPTH DRILLER
 DL  .F               704:   DEPTH LOGGER
 BLI .F               697:   BOTTOM LOG INTERVAL
 TLI .F                40:   TOP LOG INTERVAL
 CS  .IN            8.625:   CASING SIZE
 CBD .F                40:   CASING BOTTOM DRILLER
 CBL .F                40:   CASING BOTTOM LOGGER
 BS  .IN            7.875:   BIT SIZE
 BSD .F               695:   BIT SIZE AT DEPTH
 DFT .                KCL:   DRILLING FLUID TYPE
 DFD .                8.6:   DRILLING FLUID DENSITY
 DFV .                 31:   DRILLING FLUID VISCOSITY
 DFPH.                9.5:   DRILLING FLUID PH
 DFL .                7.6:   DRILLING FLUID LOSS
 MSS .           FLOWLINE:   MUD SAMPLE SOURCE
 RMS .OHMM           0.32:   RESISTIVITY MUD SAMPLE
 MST .F                62:   MUD SAMPLE TEMPERATURE
 RMF .OHMM           0.32:   RESISTIVITY MUD FILTRATE SAMPLE
 MFST.F                62:   MUD FILTRATE SAMPLE TEMPERATURE
 RMC .OHMM            0.8:   RESISTIVITY MUD CAKE
 MCST.F                63:   MUD CAKE SAMPLE TEMPERATURE
 MFSS.               MEAS:   MUD FILTRATE SAMPLE SOURCE
 MCSS.               MEAS:   MUD CAKE SAMPLE SOURCE
 TCS .HRS               2:   TIME CURCULATED STOPPED
 LUN .               2958:   LOGGING UNIT NUMBER
 LUL .             CASPER:   LOGGING UNIT LOCATION
 ENGI.           REYNOLDS:   RECORDING ENGINEER
 WITN.         HARRINGTON:   WITNESSED BY
 CLNT.            A2DTECH:   CLIENT CODE
 ORIG.           5" PRINT:   ORIGIN OF DATA
 UWI .       490251055400:   UNIQUE WELL ID
 DICO. A2D Technologies, Inc.:   DIGITIZING COMPANY
~OTHER INFORMATION
~A   DEPT      ILD         SN        SPR       CALD       DPHI       DRHO         GRD      RHOB   
# ...
  315.5000    12.9140    12.9845   -40.1127     8.7695     0.0880     0.0678    89.9762     2.5006
  316.0000    13.0971    13.0765   -39.9575     8.7720     0.0874     0.0695    93.7080     2.5028
  316.5000    13.1910    13.1692   -39.9516     8.7746     0.0832     0.0741    94.4605     2.5059
  317.0000    13.3780    13.3547   -39.9456     8.7753     0.0808     0.0802    91.0132     2.5082
  317.5000    13.5677    13.4494   -39.7904     8.7792     0.0789     0.0845    87.6154     2.5112
  318.0000    13.7626    13.6388   -39.7844     8.7917     0.0777     0.0845    89.8688     2.5143
  318.5000    14.0559    13.7355   -39.7785     8.8073     0.0771     0.0861    90.1609     2.5165
  319.0000    14.5559    13.9290   -39.7725     8.8080     0.0780     0.0909    88.2325     2.5158
  319.5000    14.9695    14.0277   -39.7666     8.8237     0.0783     0.0969    85.4036     2.5151
  320.0000    15.2814    14.1272   -39.9099     8.8244     0.0774     0.1027    85.8581     2.5175
  320.5000    15.6059    14.2273   -39.9039     8.8251     0.0746     0.0997    85.8640     2.5242
  321.0000    15.8367    14.3281   -39.3009     8.8259     0.0680     0.0998    86.0190     2.5265
  321.5000    16.1633    14.5300   -38.9964     8.8266     0.0602     0.1043    86.0249     2.5365
  322.0000    16.5312    14.7346   -39.1412     8.8274     0.0590     0.1104    85.8803     2.5445
  322.5000    17.2255    15.0460   -39.2845     8.8281     0.0662     0.1179    82.1619     2.5359
  323.0000    17.8383    15.2580   -39.2771     8.8289     0.0718     0.1239    81.7193     2.5250
  323.5000    18.2184    15.3661   -38.6741     8.8296     0.0685     0.1300    81.2796     2.5291
  324.0000    18.4591    15.4750   -37.7726     8.8304     0.0649     0.1390    80.3913     2.5397
  324.5000    18.4629    15.5847   -37.6174     8.8312     0.0640     0.1451    82.0366     2.5409
  325.0000    18.4668    15.5869   -37.7622     8.8319     0.0640     0.1466    81.4463     2.5341
  325.5000    18.4706    15.6974   -37.9055     8.8176     0.0642     0.1467    80.2600     2.5345
  326.0000    18.6029    15.6996   -38.0488     8.8037     0.0642     0.1467    80.4150     2.5381
  326.5000    18.4781    15.6974   -38.1921     8.7895     0.0642     0.1437    80.2704     2.5395
  327.0000    18.2283    15.4879   -38.1846     8.7752     0.0642     0.1362    79.9797     2.5396
  327.5000    17.6107    15.3831   -38.3279     8.7464     0.0639     0.1287    80.1346     2.5419
  328.0000    17.0140    15.1736   -38.4712     8.7320     0.0642     0.1197    82.9722     2.5389
  328.5000    16.5519    15.0613   -38.4652     8.7330     0.0647     0.1122    86.2568     2.5367
  329.0000    16.3273    14.7523   -38.6100     8.7337     0.0671     0.1048    85.2195     2.5314
  329.5000    16.2170    14.6512   -38.9011     8.7194     0.0731     0.0988    84.6278     2.5217
  330.0000    16.1082    14.4636   -38.8951     8.7203     0.0773     0.0973    85.3803     2.5149
  330.5000    16.0011    14.4510   -39.0399     8.7060     0.0767     0.0988    85.6843     2.5142
  331.0000    16.0044    14.3677   -38.7340     8.6771     0.0773     0.0943    86.1373     2.5135
  331.5000    16.0077    14.2706   -38.5787     8.6628     0.0754     0.0839    85.9942     2.5180
  332.0000    15.9935    14.2726   -38.4235     8.6637     0.0658     0.0749    84.2117     2.5278
  332.5000    15.9028    14.2750   -38.2683     8.6794     0.0694     0.0689    83.0254     2.5309
  333.0000    15.7962    14.2770   -37.9638     8.6801     0.0754     0.0689    83.7765     2.5189
  333.5000    15.8003    14.1799   -37.9579     8.6808     0.0790     0.0704    85.2757     2.5144
  334.0000    15.6935    14.1823   -37.9519     8.6830     0.0787     0.0720    85.5767     2.5159
  334.5000    15.6976    14.1843   -38.3952     8.6854     0.0807     0.0735    82.9865     2.5115
  335.0000    15.8101    14.1859   -38.3878     8.6877     0.0819     0.0750    79.8658     2.5077
  335.5000    15.7041    14.0898   -37.9340     8.6900     0.0780     0.0751    77.3011     2.5168
  336.0000    15.7074    14.0923   -37.9281     8.6924     0.0741     0.0736    76.6585     2.5176
  336.5000    15.7107    14.0942   -37.9221     8.6947     0.0741     0.0646    77.7853     2.5168
  337.0000    15.6045    14.0961   -38.0657     8.6970     0.0704     0.0601    82.3350     2.5236
  337.5000    15.4999    14.0981   -38.3580     8.6994     0.0698     0.0632    83.5331     2.5289
  338.0000    15.3959    14.0023   -38.6505     8.7017     0.0746     0.0632    83.9862     2.5214
  338.5000    15.2927    13.9075   -38.9433     8.7031     0.0803     0.0557    84.8863     2.5140
  339.0000    15.1902    13.8135   -39.0866     8.7040     0.0761     0.0512    85.9354     2.5170
  339.5000    14.8805    13.7200   -39.0804     8.7195     0.0700     0.0513    86.8355     2.5253
  340.0000    14.4771    13.6272   -39.0744     8.7202     0.0772     0.0558    84.7550     2.5193
  340.5000    14.5808    13.5355   -39.2179     8.7195     0.0934     0.0573    76.2661     2.4923
  341.0000    14.5839    13.4440   -39.2118     8.7177     0.0943     0.0574    75.0783     2.4923
  341.5000    14.4853    13.4458   -39.3552     8.7159     0.0922     0.0604    78.8115     2.4931
  342.0000    14.2888    13.4477   -39.4983     8.7141     0.0940     0.0619    88.6535     2.4924
  342.5000    14.0949    13.3562   -39.6416     8.7123     0.0964     0.0605    91.3419     2.4856
  343.0000    13.9043    13.3586   -39.7851     8.7105     0.0942     0.0590    89.8576     2.4894
  343.5000    13.8103    13.3604   -39.3312     8.7087     0.0909     0.0590    85.3925     2.4947
  344.0000    13.8139    13.3622   -38.8775     8.7069     0.0879     0.0605    84.2047     2.4948
  344.5000    13.8168    13.2714   -38.7223     8.7050     0.0894     0.0621    84.3611     2.4925
  345.0000    14.0127    13.1816   -38.5671     8.7032     0.0900     0.0651    83.9200     2.4926
  345.5000    14.1131    13.0925   -38.5611     8.7014     0.0882     0.0682    82.2865     2.4948
  346.0000    14.3132    13.2774   -38.8537     8.6996     0.0839     0.0682    81.6963     2.5122
  346.5000    14.4159    13.5580   -39.2955     8.6978     0.0785     0.0637    78.4236     2.5167
  347.0000    14.4188    13.6541   -39.1402     8.6960     0.0713     0.0577    77.2372     2.5227
  347.5000    14.5222    13.8464   -38.9850     8.6942     0.0683     0.0577    75.9019     2.5348
  348.0000    14.5252    14.0414   -39.5761     8.6924     0.0691     0.0608    73.3742     2.5408
  348.5000    14.5282    14.1410   -39.7224     8.6906     0.0718     0.0653    72.4860     2.5356
  349.0000    14.5313    14.2412   -39.5642     8.6889     0.0784     0.0684    70.8525     2.5153
  349.5000    14.4338    14.0468   -39.5582     8.6750     0.0880     0.0714    71.1565     2.5011
  350.0000    14.0418    13.5711   -39.4030     8.6766     0.0937     0.0714    74.8882     2.4906
  350.5000    13.6604    13.2021   -39.3970     8.6811     0.0934     0.0745    75.9374     2.4944
  351.0000    13.2894    12.8432   -39.3910     8.6857     0.0904     0.0745    75.7942     2.4974
  351.5000    12.9285    12.4941   -39.6866     8.6903     0.0888     0.0745    76.5857     2.4982
  352.0000    12.5767    12.2389   -40.2786     8.6935     0.0885     0.0746    79.1744     2.4960
  352.5000    12.2358    11.9889   -40.7214     8.6943     0.0888     0.0746    82.8465     2.4945
  353.0000    12.0691    11.9074   -41.1642     8.6951     0.0891     0.0761    89.8657     2.4953
  353.5000    11.9882    11.9094   -41.6001     8.6957     0.0897     0.0762    92.5168     2.4969
  354.0000    11.9913    11.9111   -41.4368     8.6964     0.0896     0.0793    92.2247     2.4991
  354.5000    11.9103    11.9127   -41.1403     8.6972     0.0866     0.0837    87.4616     2.4999
  355.0000    11.9134    11.9144   -40.9751     8.6995     0.0878     0.0868    80.7611     2.4992
  355.5000    11.9159    11.9160   -40.5204     8.7025     0.0897     0.0868    80.2019     2.4968
