~VERSION INFORMATION
 VERS.                2.0:   CWLS LOG ASCII STANDARD - VERSION 2.0
 WRAP.                 NO:   ONE LINE PER DEPTH STEP
~WELL INFORMATION
#MNEM.UNIT      DATA TYPE    INFORMATION
#----------   ------------   ------------------------------
 STRT.F         1470.0000:   START DEPTH
 STOP.F         2310.0000:   STOP DEPTH
 STEP.F            0.5000:   STEP LENGTH
 NULL.          -999.2500:   NO VALUE
 COMP. BROWN JOHN E&C INC:   COMPANY
 WELL. NAVAL PETROLEUM RESERVE 3 STX- #22-10:   WELL
 FLD .             TEAPOT:   FIELD
 LOC .      S10 T38N R78W:   LOCATION
 CNTY.            NATRONA:   COUNTY
 STAT.            WYOMING:   STATE
 CTRY. UNITED STATES OF AMERICA:   COUNTRY
 SRVC.            Unknown:   SERVICE COMPANY
 DATE.        26-AUG-1991:   LOGDATE
 API .       490251111700:   API NUMBER
~CURVE INFORMATION
#MNEM.UNIT       API CODE    CURVE DESCRIPTION
#----------   ------------   ------------------------------
 DEPT.F                  :   
 ROP .MIN/FT 91 810 01 00:   RAT OF DRILLING PENETRATION
 TGAS.UNITS  91 830 01 00:   TOTAL GAS FROM HOTWIRE
~PARAMETER INFORMATION
#MNEM.UNIT          VALUE    DESCRIPTION
#----------   ------------   ------------------------------
 EKB .F              5277:   KELLING BUSHING
 EGL .F              5267:   GROUND LEVEL
 DATE.            8-26-91:   RUN DATE
 DD  .F              2311:   DEPTH DRILLER
 TCS .HRS            0200:   TIME CURCULATED STOPPED
 TLAB.HRS            2335:   TIME LOGGER AT BOTTOM
 ENGI.              TOWER:   RECORDING ENGINEER
 WITN.               HUSK:   WITNESSED BY
 CLNT.            A2DTECH:   CLIENT CODE
 ORIG.           5" PRINT:   ORIGIN OF DATA
 UWI .       490251111700:   UNIQUE WELL ID
 DICO. A2D Technologies, Inc.:   DIGITIZING COMPANY
~OTHER INFORMATION
~A  DEPT         ROP      TGAS  
# ...
 2077.5000     0.7693   134.3765
 2078.0000     0.8568   134.3345
 2078.5000     0.8480   134.2925
 2079.0000     0.7874   134.2506
 2079.5000     0.7265   134.2086
 2080.0000     0.6654   134.1667
 2080.5000     0.6043   134.1247
 2081.0000     0.5436   134.0827
 2081.5000     0.4871   134.0409
 2082.0000     0.4503   133.9992
 2082.5000     0.4905   133.9537
 2083.0000     0.5424   133.9029
 2083.5000     0.5862   133.8524
 2084.0000     0.5925   133.8019
 2084.5000     0.5554   133.7514
 2085.0000     0.5410   133.7009
 2085.5000     0.5733   133.6504
 2086.0000     0.5747   133.6000
 2086.5000     0.5529   133.5495
 2087.0000     0.5818   133.4990
 2087.5000     0.6457   133.4485
 2088.0000     0.7467   133.3980
 2088.5000     0.8469   133.3476
 2089.0000     0.9467   133.2971
 2089.5000     0.9903   133.2466
 2090.0000     0.9471   133.1961
 2090.5000     0.8698   133.1456
 2091.0000     0.7923   133.0952
 2091.5000     0.7343   133.0447
 2092.0000     0.7591   132.9942
 2092.5000     0.7458   132.9437
 2093.0000     0.7371   132.8932
 2093.5000     0.8024   132.8427
 2094.0000     0.8654   132.7922
 2094.5000     0.9283   132.7415
 2095.0000     0.9922   132.6934
 2095.5000     1.0685   132.6920
 2096.0000     1.1088   132.6922
 2096.5000     1.0398   132.6923
 2097.0000     0.9722   132.6923
 2097.5000     0.9060   132.6923
 2098.0000     0.9305   132.6923
 2098.5000     0.9574   132.6923
 2099.0000     0.9384   132.6923
 2099.5000     0.9166   132.6923
 2100.0000     0.9007   132.6923
 2100.5000     0.9578   132.6923
 2101.0000     0.9971   132.6923
 2101.5000     1.0314   132.6923
 2102.0000     1.0652   132.6923
 2102.5000     1.0992   132.6923
 2103.0000     1.1343   132.6923
 2103.5000     1.0871   132.6923
 2104.0000     1.0728   132.6923
 2104.5000     1.1203   132.6923
 2105.0000     1.1677   132.6923
 2105.5000     1.2153   132.6923
 2106.0000     1.2486   132.6923
 2106.5000     1.2359   132.6923
 2107.0000     1.1928   132.6923
 2107.5000     1.1508   132.6923
 2108.0000     1.1089   132.6923
 2108.5000     1.0884   132.6923
 2109.0000     1.1289   132.6923
 2109.5000     1.1689   132.6923
 2110.0000     1.2033   132.6923
 2110.5000     1.1859   132.6923
 2111.0000     1.1506   132.6923
 2111.5000     1.1603   132.6923
 2112.0000     1.1723   132.6923
 2112.5000     1.1198   132.6923
 2113.0000     1.0366   132.6923
 2113.5000     0.9530   132.6923
 2114.0000     0.8699   132.6923
 2114.5000     0.8107   132.6923
 2115.0000     0.8537   132.6923
 2115.5000     0.8961   132.6923
 2116.0000     0.9340   132.6923
 2116.5000     0.8999   132.6923
 2117.0000     0.8641   132.6923
 2117.5000     0.8292   132.6923
 2118.0000     0.8083   132.6923
 2118.5000     0.8076   132.6923
 2119.0000     0.8302   132.6923
 2119.5000     0.8434   132.6923
 2120.0000     0.8152   132.6923
 2120.5000     0.7808   132.6923
 2121.0000     0.7461   132.6923
 2121.5000     0.7119   132.6923
 2122.0000     0.6851   132.6923
 2122.5000     0.6794   132.6923
 2123.0000     0.7169   132.6923
 2123.5000     0.7537   132.6923
 2124.0000     0.7911   132.6923
 2124.5000     0.7787  -999.2500
 2125.0000     0.7475  -999.2500
 2125.5000     0.7153  -999.2500
 2126.0000     0.7271  -999.2500
 2126.5000     0.7456  -999.2500
 2127.0000     0.7002  -999.2500
 2127.5000     0.6519  -999.2500
 2128.0000     0.6038  -999.2500
 2128.5000     0.5947  -999.2500
 2129.0000     0.6539  -999.2500
 2129.5000     0.7132  -999.2500
 2130.0000     0.7703  -999.2500
 2130.5000     0.7496  -999.2500
 2131.0000     0.7251  -999.2500
 2131.5000     0.7154  -999.2500
 2132.0000     0.7316  -999.2500
 2132.5000     0.7467  -999.2500
 2133.0000     0.7336  -999.2500
 2133.5000     0.7191  -999.2500
 2134.0000     0.7192  -999.2500
 2134.5000     0.7479  -999.2500
 2135.0000     0.7948  -999.2500
 2135.5000     0.8422  -999.2500
 2136.0000     0.8880  -999.2500
 2136.5000     0.9373  -999.2500
 2137.0000     0.9273  -999.2500
 2137.5000     0.8999  -999.2500
 2138.0000     0.8718  -999.2500
 2138.5000     0.8451  -999.2500
 2139.0000     0.8263  -999.2500
 2139.5000     0.8147  -999.2500
 2140.0000     0.8459  -999.2500
 2140.5000     0.8773  -999.2500
 2141.0000     0.9154  -999.2500
 2141.5000     0.9557  -999.2500
 2142.0000     0.9981  -999.2500
 2142.5000     1.0666  -999.2500
 2143.0000     1.1392  -999.2500
 2143.5000     1.2120  -999.2500
 2144.0000     1.2856  -999.2500
 2144.5000     1.3594  -999.2500
 2145.0000     1.3280  -999.2500
 2145.5000     1.3386  -999.2500
 2146.0000     1.3493  -999.2500
 2146.5000     1.2419  -999.2500
 2147.0000     1.1225  -999.2500
 2147.5000     1.0021  -999.2500
 2148.0000     0.8780  -999.2500
 2148.5000     0.8461  -999.2500
 2149.0000     0.8166  -999.2500
 2149.5000     0.8584  -999.2500
 2150.0000     0.8002  -999.2500
 2150.5000     0.6988  -999.2500
 2151.0000     0.6159  -999.2500
 2151.5000     0.5521  -999.2500
 2152.0000     0.4853  -999.2500
 2152.5000     0.5301  -999.2500
 2153.0000     0.5973  -999.2500
 2153.5000     0.6666  -999.2500
 2154.0000     0.6905  -999.2500
 2154.5000     0.6919  -999.2500
 2155.0000     0.6700  -999.2500
 2155.5000     0.6357   108.1322
 2156.0000     0.5883   108.5590
 2156.5000     0.5483   108.4977
 2157.0000     0.5871   108.5845
 2157.5000     0.5700   108.6712
 2158.0000     0.5329   108.7578
 2158.5000     0.4951   108.8444
 2159.0000     0.4573   108.9311
 2159.5000     0.4183   109.0177
 2160.0000     0.4075   109.1043
 2160.5000     0.4238   109.1909
 2161.0000     0.4970   109.2775
 2161.5000     0.5672   109.3642
 2162.0000     0.6368   109.4508
 2162.5000     0.6496   109.5374
 2163.0000     0.6059   109.6240
 2163.5000     0.5624   109.7107
 2164.0000     0.5186   109.7973
 2164.5000     0.5099   109.8839
 2165.0000     0.5367   109.9706
 2165.5000     0.5653   110.0572
 2166.0000     0.5318   110.1438
 2166.5000     0.4731   110.2304
 2167.0000     0.4950   110.3170
 2167.5000     0.4887   110.4037
 2168.0000     0.4565   110.4903
 2168.5000     0.5517   110.5769
 2169.0000     0.6256   110.6637
 2169.5000     0.6692   110.7505
 2170.0000     0.6660   110.8362
 2170.5000     0.5973   110.8835
 2171.0000     0.5300   110.8230
 2171.5000     0.4843   110.7657
 2172.0000     0.4599   110.7086
 2172.5000     0.4773   110.6513
 2173.0000     0.4951   110.5941
 2173.5000     0.4735   110.5369
 2174.0000     0.4511   110.4796
 2174.5000     0.4697   110.4224
 2175.0000     0.5030   110.3652
 2175.5000     0.5366   110.3079
 2176.0000     0.5703   110.2507
 2176.5000     0.6039   110.1935
 2177.0000     0.6375   110.1362
 2177.5000     0.6712   110.0790
 2178.0000     0.7050   110.0218
 2178.5000     0.7338   109.9645
 2179.0000     0.7123   109.9073
 2179.5000     0.6909   109.8501
 2180.0000     0.6700   109.7927
 2180.5000     0.6494   109.7352
 2181.0000     0.6405   109.6755
 2181.5000     0.6521   109.6209
 2182.0000     0.6235   110.0571
 2182.5000     0.6835   110.5515
 2183.0000     0.7530   111.0447
 2183.5000     0.8225   111.5382
 2184.0000     0.8967   112.0545
 2184.5000     0.9335   111.8660
 2185.0000     0.9152   111.4306
 2185.5000     0.8739   110.9867
 2186.0000     0.8322   110.5505
 2186.5000     0.7478   110.0872
 2187.0000     0.6669   109.4997
 2187.5000     0.5867   111.1972
 2188.0000     0.5364   111.8565
 2188.5000     0.5250   113.2818
 2189.0000     0.5401   117.5151
 2189.5000     0.5560   121.6745
 2190.0000     0.5241   125.2260
 2190.5000     0.4748   131.1022
 2191.0000     0.4244   136.7950
 2191.5000     0.3733   142.4671
 2192.0000     0.3944   148.1498
 2192.5000     0.4884   153.8338
 2193.0000     0.5606   159.5175
 2193.5000     0.6140   165.1807
 2194.0000     0.6673   170.8696
 2194.5000     0.7203   174.2725
 2195.0000     0.7176   176.2667
 2195.5000     0.6595   176.9398
 2196.0000     0.6015   177.6389
 2196.5000     0.5962   178.3443
 2197.0000     0.6449   178.8026
 2197.5000     0.6283   178.5774
 2198.0000     0.6098   178.3704
 2198.5000     0.6496   178.1640
