~VERSION INFORMATION
 VERS.                2.0:   CWLS LOG ASCII STANDARD - VERSION 2.0
 WRAP.                 NO:   ONE LINE PER DEPTH STEP
~WELL INFORMATION
#MNEM.UNIT      DATA TYPE    INFORMATION
#----------   ------------   ------------------------------
 STRT.F            8.0000:   START DEPTH
 STOP.F          551.0000:   STOP DEPTH
 STEP.F            0.5000:   STEP LENGTH
 NULL.          -999.2500:   NO VALUE
 COMP.   FLUOR DANIEL INC:   COMPANY
 WELL. NAVAL PETROLEUM RESERVE 3 S-10 #31-10:   WELL
 FLD .        TEAPOT DOME:   FIELD
 LOC .      S10 T38N R78W:   LOCATION
 CNTY.            NATRONA:   COUNTY
 STAT.            WYOMING:   STATE
 CTRY. UNITED STATES OF AMERICA:   COUNTRY
 SRVC.       Schlumberger:   SERVICE COMPANY
 DATE.        21-JUN-1970:   LOGDATE
 API .       490251039400:   API NUMBER
~CURVE INFORMATION
#MNEM.UNIT       API CODE    CURVE DESCRIPTION
#----------   ------------   ------------------------------
 DEPT.F                  :   
 SPR .MV     05 010 01 00:   SPONTANEOUS POTENTIAL FROM RES.
 ASN .OHMM   05 041 16 00:   AMPLIFIED SHORT NORMAL 16"
 ILD .OHMM   05 120 46 00:   INDUCTION LOG DEEP
 CILD.MMHO   05 110 46 00:   CONDUCTIVITY INDUCTION LOG DEEP
 CALD.IN     45 280 60 00:   CALIPER FROM DENSITY LOG
 CORR.G/C3   45 356 01 00:   DENSITY CORRECTION
 RHOB.G/C3   45 350 01 00:   BULK DENSITY
 DPHI.DEC    45 890 12 00:   DENSITY POROSITY SANDSTONE
~PARAMETER INFORMATION
#MNEM.UNIT          VALUE    DESCRIPTION
#----------   ------------   ------------------------------
 PD  .                 GL:   PERMANENT DATUM
 EPD .F              5256:   ELEVATION PERMANENT DATUM
 LMF .                 KB:   LOG MEASURED FROM
 DAPD.F                10:   FEET ABOVE PERMANENT DATUM
 DMF .                 KB:   DRILLING MEASURED FROM
 EKB .F              5266:   KELLING BUSHING
 EGL .F              5256:   GROUND LEVEL
 DATE.        27-JUN-1970:   RUN DATE
 RUN .                  1:   RUN NUMBER
 DD  .F               553:   DEPTH DRILLER
 DL  .F               552:   DEPTH LOGGER
 BLI .F               551:   BOTTOM LOG INTERVAL
 TLI .F                44:   TOP LOG INTERVAL
 CS  .IN             9.75:   CASING SIZE
 BS  .IN                9:   BIT SIZE
 BSD .F               553:   BIT SIZE AT DEPTH
 DFT .        FRESHGELMUD:   DRILLING FLUID TYPE
 DFD .                9.2:   DRILLING FLUID DENSITY
 BHT .F               100:   BOTTOM HOLE TEMPERATURE
 TCS .HRS               1:   TIME CURCULATED STOPPED
 MRT .F               100:   MAXIMUM RECORDED TEMPERATURE
 ENGI.             TUSNES:   RECORDING ENGINEER
 WITN.                HAZ:   WITNESSED BY
 CLNT.            A2DTECH:   CLIENT CODE
 ORIG.           5" PRINT:   ORIGIN OF DATA
 UWI .       490251039400:   UNIQUE WELL ID
 DICO. A2D Technologies, Inc.:   DIGITIZING COMPANY
~OTHER INFORMATION
~A    DEPT     SPR        ASN        ILD       CILD         CALD     CORR       RHOB       DPHI   
# ...
  251.0000   -30.1242     9.2155     8.2547   115.5296     8.7481     0.0133     2.4562     0.1228
  251.5000   -30.2795     9.3498     8.3311   113.2033     8.7454     0.0052     2.4405     0.1321
  252.0000   -30.4348     9.4582     8.4075   112.4177     8.7428    -0.0013     2.4098     0.1381
  252.5000   -30.5901     9.5511     8.4839   111.6322     8.7425     0.0055     2.4466     0.1258
  253.0000   -30.7453     9.6130     8.5603   110.8467     8.7433     0.0228     2.4624     0.1155
  253.5000   -30.9006     9.6130     8.5593   110.0611     8.7290     0.0282     2.4715     0.1101
  254.0000   -31.0559     9.5511     8.4042   110.0460     8.7297     0.0230     2.4813     0.1056
  254.5000   -31.3665     9.4737     8.3263   111.5898     8.7305     0.0110     2.4903     0.1023
  255.0000   -31.5217     9.3963     8.2484   113.0975     8.7312     0.0291     2.4956     0.1002
  255.5000   -31.6770     9.3034     8.2477   114.6232     8.7320     0.0239     2.4347     0.1155
  256.0000   -31.8323     9.2415     8.2469   114.6043     8.7327     0.0014     2.4448     0.1240
  256.5000   -31.8323     9.2099     8.2461   115.3633     8.7336    -0.0098     2.4764     0.1067
  257.0000   -31.6770     9.1796     8.2454   115.3444     8.7344     0.0128     2.4964     0.1013
  257.5000   -31.5217     9.1950     8.2446   114.5589     8.7351     0.0181     2.4712     0.1010
  258.0000   -31.3665     9.2415     8.2437   114.5438     8.7509     0.0264     2.5027     0.1034
  258.5000   -31.2112     9.2879     8.2429   113.7583     8.7516     0.0273     2.4930     0.0964
  259.0000   -31.2112     9.3034     8.2422   113.7431     8.7524     0.0197     2.4616     0.1132
  259.5000   -31.2112     9.2879     8.2414   112.9576     8.7681     0.0153     2.4571     0.1172
  260.0000   -31.2112     9.2415     8.2407   113.7134     8.7839     0.0236     2.4767     0.1169
  260.5000   -31.0559     9.1950     8.2399   113.6978     8.7846    -0.0096     2.4850     0.1102
  261.0000   -31.0559     9.1486     8.1620   114.4531     8.7854     0.0033     2.4693     0.1063
  261.5000   -30.9006     9.1022     8.0841   114.4376     8.7861     0.0087     2.4446     0.1159
  262.0000   -30.5901     9.0402     8.0833   115.1933     8.7868     0.0118     2.4401     0.1078
  262.5000   -30.4348     8.9783     8.0054   115.1744     8.7876    -0.0024     2.4432     0.1255
  263.0000   -30.1242     8.9152     8.0046   115.9297     8.8033    -0.0046     2.4545     0.1164
  263.5000   -30.1449     8.8545     7.9267   115.9145     8.8041     0.0082     2.4695     0.1095
  264.0000   -30.4348     8.8235     7.8488   117.4403     8.7898     0.0150     2.4778     0.1068
  264.5000   -30.5901     8.8080     7.7707   118.1993     8.7755     0.0060     2.4651     0.1095
  265.0000   -30.5901     8.7926     7.6928   118.9546     8.7312    -0.0014     2.4367     0.1227
  265.5000   -30.5901     8.7771     7.6920   120.4803     8.6869     0.0031     2.4547     0.1158
  266.0000   -30.5901     8.7461     7.6141   122.0061     8.6727     0.0137     2.4690     0.1094
  266.5000   -30.5901     8.6533     7.4590   124.2984     8.6584     0.0235     2.4736     0.1070
  267.0000   -30.7453     8.5294     7.3039   126.5945     8.6441     0.0173     2.4797     0.1043
  267.5000   -30.7453     8.4056     7.1489   130.4441     8.6599     0.0499     2.5142     0.0956
  268.0000   -30.9006     8.2353     6.9166   134.4115     8.6608     0.0439     2.5166     0.0913
  268.5000   -30.9006     8.0495     6.7615   139.0064     8.6615     0.0320     2.4716     0.1046
  269.0000   -30.9006     7.8768     6.5293   143.4794     8.6623     0.0380     2.4943     0.1088
  269.5000   -30.7453     7.6743     6.4514   146.5460     8.6630     0.0458     2.5002     0.1006
  270.0000   -30.7453     7.5851     6.3735   148.0755     8.6638     0.0486     2.4583     0.1135
  270.5000   -30.7349     7.6006     6.3616   149.5974     8.6645     0.0143     2.4147     0.1286
  271.0000   -30.5901     7.6625     6.3720   149.5823     8.6653     0.0075     2.4223     0.1379
  271.5000   -30.4348     7.7864     6.4482   148.7968     8.6660     0.0075     2.4434     0.1327
  272.0000   -30.2795     7.9257     6.5246   147.2408     8.6667     0.0076     2.4112     0.1393
  272.5000   -30.2795     8.0495     6.6012   143.3736     8.6676     0.0076     2.4435     0.1234
  273.0000   -30.2795     8.1269     6.7545   138.7360     8.6682     0.0084     2.4540     0.1216
  273.5000   -30.2795     8.2043     6.8311   134.0984     8.6840     0.0107     2.4586     0.1258
  274.0000   -30.1242     8.2663     6.9847   130.9916     8.6847     0.0138     2.4631     0.1209
  274.5000   -30.1242     8.3127     7.0611   128.6058     8.7006     0.0289     2.4677     0.1149
  275.0000   -30.1242     8.3591     7.1373   127.1187     8.7162     0.0409     2.4737     0.1107
  275.5000   -30.1242     8.3746     7.2909   126.3300     8.7170     0.0470     2.4783     0.1080
  276.0000   -30.1242     8.3566     7.3673   126.3148     8.7327     0.0140     2.4679     0.1061
  276.5000   -30.1242     8.3127     7.3665   126.2997     8.7485     0.0321     2.4409     0.1187
  277.0000   -30.2795     8.2353     7.3549   126.2846     8.7492     0.0347     2.4657     0.1097
  277.5000   -30.4348     8.1579     7.2877   127.8103     8.7500     0.0262     2.4717     0.1100
  278.0000   -30.5901     8.0650     7.1326   129.3360     8.7507     0.0172     2.4478     0.1178
  278.5000   -30.6108     7.9721     7.0547   130.8617     8.7365     0.0097     2.4314     0.1250
  279.0000   -30.7453     7.8638     6.8996   133.9283     8.7222     0.0044     2.4397     0.1253
  279.5000   -30.9006     7.7864     6.6673   137.7652     8.7231     0.0015     2.4495     0.1244
  280.0000   -31.0559     7.6780     6.5123   142.3726     8.7087    -0.0021     2.4210     0.1258
  280.5000   -31.2112     7.5387     6.3572   148.5357     8.7096    -0.0036     2.4241     0.1289
  281.0000   -31.2112     7.3220     6.2021   155.6388     8.7103    -0.0027     2.4459     0.1203
  281.5000   -31.0559     7.0087     6.0470   163.3804     8.6959    -0.0019     2.4542     0.1174
  282.0000   -30.7453     6.7281     5.8920   171.5842     8.6968    -0.0011     2.4197     0.1192
  282.5000   -30.5901     6.5635     5.7369   175.4211     8.6823    -0.0018     2.4168     0.1312
  283.0000   -30.4348     6.4241     5.7361   176.9506     8.6681    -0.0010     2.4423     0.1333
  283.5000   -30.1242     6.3932     5.6582   176.9317     8.6690     0.0028     2.4116     0.1399
  284.0000   -29.9689     6.5480     5.5801   176.1462     8.6697     0.0088     2.4304     0.1257
  284.5000   -29.9689     6.9350     5.7337   172.2790     8.6705     0.0156     2.4582     0.1167
  285.0000   -29.9689     7.3684     5.8872   164.5597     8.6712     0.0217     2.4740     0.1107
  285.5000   -29.8137     7.6161     6.1180   156.8405     8.6870     0.0240     2.4839     0.1058
  286.0000   -29.8344     7.8173     6.3487   147.5803     8.6877     0.0038     2.4622     0.1067
  286.5000   -29.9689     8.0031     6.5794   140.6315     8.6885     0.0020     2.4247     0.1290
  287.0000   -29.9689     8.1579     6.8103   134.4480     8.6892     0.0114     2.4645     0.1251
  287.5000   -30.1242     8.2817     7.0408   130.5214     8.6900     0.0295     2.4833     0.1157
  288.0000   -30.2795     8.3771     7.2716   128.9062     8.6907     0.0551     2.5164     0.1055
  288.5000   -30.4348     8.5034     7.4251   126.6997     8.6764     0.0566     2.5172     0.0916
  289.0000   -30.5901     8.6378     7.5787   125.9142     8.6922     0.0357     2.4962     0.0997
  289.5000   -30.5901     8.7152     7.6595   124.3605     8.6929     0.0162     2.4828     0.1081
  290.0000   -30.7453     8.7926     7.8858   122.8023     8.6937     0.0035     2.4656     0.0988
  290.5000   -31.0559     8.8700     7.9622   121.2463     8.6944     0.0133     2.4506     0.1162
  291.0000   -31.3665     8.9164     8.0386   120.4608     8.6801     0.0193     2.4649     0.1192
