~VERSION INFORMATION
 VERS.                2.0:   CWLS LOG ASCII STANDARD - VERSION 2.0
 WRAP.                 NO:   ONE LINE PER DEPTH STEP
~WELL INFORMATION
#MNEM.UNIT      DATA TYPE    INFORMATION
#----------   ------------   ------------------------------
 STRT.F           11.0000:   START DEPTH
 STOP.F          807.0000:   STOP DEPTH
 STEP.F            0.5000:   STEP LENGTH
 NULL.          -999.2500:   NO VALUE
 COMP. BROWN JOHN E&C INC:   COMPANY
 WELL. NPR 3 SHX-34 #77-1-34:   WELL
 FLD .             TEAPOT:   FIELD
 LOC .      S34 T39N R79W:   LOCATION
 CNTY.            NATRONA:   COUNTY
 STAT.            WYOMING:   STATE
 CTRY. UNITED STATES OF AMERICA:   COUNTRY
 SRVC.     Atlas Wireline:   SERVICE COMPANY
 DATE.        07-DEC-1991:   LOGDATE
 API .       490252248000:   API NUMBER
~CURVE INFORMATION
#MNEM.UNIT       API CODE    CURVE DESCRIPTION
#----------   ------------   ------------------------------
 DEPT.F                  :   
 CALD.IN     45 280 60 00:   CALIPER FROM DENSITY LOG
 CORR.G/C3   45 356 01 00:   DENSITY CORRECTION
 DEN .G/C3   45 350 01 00:   COMPENSATED BULK DENSTIY
 GRD .GAPI   45 310 01 00:   GAMMA RAY FROM DENSITY LOG
 PORD.DEC    45 890 12 00:   POROSITY DENSITY SANDSTONE
 GRR .GAPI   07 310 01 00:   GAMMA RAY FROM RESISTIVITY
 RILD.OHMM   07 120 46 00:   RESISTIVITY INDUCTION LOG DEEP
 RILM.OHMM   07 120 44 00:   RESITIVITY INDUCTION LOG MEDIUM
~PARAMETER INFORMATION
#MNEM.UNIT          VALUE    DESCRIPTION
#----------   ------------   ------------------------------
 PD  .                 GL:   PERMANENT DATUM
 EPD .F              5098:   ELEVATION PERMANENT DATUM
 LMF .                 KB:   LOG MEASURED FROM
 DAPD.F                10:   FEET ABOVE PERMANENT DATUM
 DMF .                 KB:   DRILLING MEASURED FROM
 EKB .F              5108:   KELLING BUSHING
 EDF .F              5107:   DRILLING FLOOR
 EGL .F              5098:   GROUND LEVEL
 DATE.        07-DEC-1991:   RUN DATE
 RUN .                  1:   RUN NUMBER
 DD  .F               810:   DEPTH DRILLER
 DL  .F               810:   DEPTH LOGGER
 BLI .F               808:   BOTTOM LOG INTERVAL
 CS  .IN            9.625:   CASING SIZE
 CBD .F                85:   CASING BOTTOM DRILLER
 CBL .F                97:   CASING BOTTOM LOGGER
 BS  .IN             8.75:   BIT SIZE
 BSD .F               810:   BIT SIZE AT DEPTH
 DFT .                AIR:   DRILLING FLUID TYPE
 BHT .F                90:   BOTTOM HOLE TEMPERATURE
 MRT .F                90:   MAXIMUM RECORDED TEMPERATURE
 LUN .            HL 6274:   LOGGING UNIT NUMBER
 LUL .             CASPER:   LOGGING UNIT LOCATION
 ENGI.       P. RASMUSSEN:   RECORDING ENGINEER
 WITN.        GARY STRONG:   WITNESSED BY
 CLNT.            A2DTECH:   CLIENT CODE
 ORIG.           5" PRINT:   ORIGIN OF DATA
 UWI .       490252248000:   UNIQUE WELL ID
 DICO. A2D Technologies, Inc.:   DIGITIZING COMPANY
~OTHER INFORMATION
~A   DEPT     CALD       CORR        DEN        GRD       PORD         GRR      RILD       RILM   
# ...
  173.0000     9.5013     0.0074     2.3620   127.6296     0.1737    99.6087     7.2755     7.0216
  173.5000     9.5012     0.0074     2.3590   121.7804     0.1746    91.4515     6.9799     6.8284
  174.0000     9.5010     0.0043     2.3560   118.7746     0.1755    88.7663     6.5138     6.4596
  174.5000     9.5009     0.0057     2.3544   116.9600     0.1770    89.0525     5.5954     5.7421
  175.0000     9.5007     0.0087     2.3506   115.7660     0.1843    89.3423     4.8734     4.9651
  175.5000     9.5006     0.0131     2.3394   121.1679     0.1990    89.0244     4.1864     4.2634
  176.0000     9.5005     0.0130     2.3077   128.9729     0.2045    90.5083     3.2613     3.6107
  176.5000     9.5003     0.0084     2.2791   136.7772     0.2168    92.2960     2.6174     2.8537
  177.0000     9.5001     0.0038     2.2442   141.5793     0.2440   101.8916     2.3114     2.2975
  177.5000     9.5000     0.0007     2.1496   144.8798     0.2901   118.6908     2.0695     2.0468
  178.0000     9.4998    -0.0008     2.0751   148.8609     0.3213   125.2834     1.9560     1.9632
  178.5000     9.4997     0.0006     2.0216   151.7804     0.3703   127.0711     1.8786     1.9226
  179.0000     9.4995     0.0005     1.9998   154.4803     0.3950   122.5525     1.8527     1.9355
  179.5000     9.4994     0.0215     1.9990   155.9790     0.4062   118.6310     1.9578     2.0310
  180.0000     9.4992     0.0624     1.9989   149.3689     0.4068   117.7161     2.2250     2.4138
  180.5000     9.4991     0.0906     2.0214   143.3601     0.3701   114.9993     2.5447     3.0955
  181.0000     9.4989     0.0996     2.1223   135.5495     0.3155   100.4384     2.8028     4.1376
  181.5000     9.4988     0.0453     2.1900   122.9334     0.2483    87.9406     3.7454     4.8165
  182.0000     9.4986     0.0061     2.2772   118.1258     0.2302    82.5212     4.9364     5.6068
  182.5000     9.5435    -0.0015     2.3329   115.7206     0.1917    85.2098     6.8756     7.1901
  183.0000     9.5583    -0.0031     2.3396   115.1171     0.1872    87.2943     7.6781     8.3694
  183.5000     9.5582     0.0059     2.3358   113.3119     0.1902    86.6797     8.8145     9.3467
  184.0000     9.5580     0.0148     2.3335   110.6064     0.1917    80.9599     9.7755    10.0139
  184.5000     9.5279     0.0208     2.3328   108.4815     0.1917    80.6455     9.9796    10.2975
  185.0000     9.5277     0.0190     2.3327   110.2998     0.1914    80.6279     9.9788    10.1490
  185.5000     9.5276     0.0146     2.3327   118.1049     0.1905    79.4127     9.8413     9.5348
  186.0000     9.5274     0.0115     2.3372   121.4054     0.1875    74.5938     9.3117     8.8960
  186.5000     9.5273     0.0083     2.3424   121.7029     0.1851    73.9790     8.4533     8.2773
  187.0000     9.5271     0.0023     2.3447   121.0988     0.1848    73.3609     7.5687     7.2263
  187.5000     9.5270     0.0007     2.3393   124.9999     0.1864    72.1492     6.6339     6.4236
  188.0000     9.5268    -0.0008     2.3265   135.6676     0.1920    84.7442     6.1518     5.7101
  188.5000     9.5267     0.0021     2.3039   151.1197     0.2027    97.5647     5.9018     5.2906
  189.0000     9.5265     0.0080     2.2603   155.9217     0.2283   105.7336     5.8205     5.5136
  189.5000     9.5347     0.0230     2.2106   159.8228     0.2710   102.7165     5.8201     5.9895
  190.0000     9.5562     0.0350     2.1895   149.9094     0.2820    96.6965     5.8196     6.5970
  190.5000     9.5561     0.0289     2.1940   141.4982     0.2717    89.4717     5.8192     7.0676
  191.0000     9.5709     0.0213     2.2203   128.8828     0.2455    84.3525     5.9406     7.5721
  191.5000     9.5858     0.0364     2.2496   115.6661     0.2347    84.6423     6.9625     8.2256
  192.0000     9.5856     0.0407     2.2661   112.0604     0.2287    88.2363     8.1041     8.8210
  192.5000     9.5855     0.0165     2.2886   120.1650     0.2214    90.3128     8.5637     9.5070
  193.0000     9.5853     0.0089     2.2984   124.7467     0.2134    90.6025     8.8029     9.9078
  193.5000     9.5851     0.0044     2.3051   125.5649     0.2064    86.3808     9.3665    10.1136
  194.0000     9.5850     0.0043     2.3081   123.4593     0.2064    83.3354     9.8297    10.2713
  194.5000     9.5849     0.0042     2.2983   125.2783     0.2083    82.4452    10.1043    10.5373
  195.0000     9.5847     0.0072     2.2968   127.0566     0.2107    82.7314    10.2441    10.6825
  195.5000     9.5846     0.0086     2.3028   126.4532     0.2113    84.5195    10.3859    10.8286
  196.0000     9.5844     0.0115     2.3065   121.6456     0.2083    83.9010    10.5296    10.9773
  196.5000     9.5843     0.0144     2.3080   120.1413     0.2077    82.6857    10.6752    11.0507
  197.0000     9.5841     0.0174     2.3049   120.4388     0.2101    83.2758    10.7549    11.1258
  197.5000     9.5839     0.0218     2.2883   119.8347     0.2176    85.0600    10.8970    11.1231
  198.0000     9.5838     0.0217     2.2793   117.3093     0.2254    85.6465    10.9720    11.2758
  198.5000     9.5837     0.0202     2.2710   113.8224     0.2309    83.8272    11.1236    11.4306
  199.0000     9.5835     0.0186     2.2641   112.6184     0.2331    77.2065    11.2108    11.5875
  199.5000     9.5833     0.0185     2.2596   112.3153     0.2355    71.1862    11.5371    11.7460
  200.0000     9.5832     0.0169     2.2596   114.4139     0.2373    73.2709    11.7530    11.9893
  200.5000     9.5831     0.0214     2.2611   116.2130     0.2352    76.5602    11.9155    12.1539
  201.0000     9.5829     0.0303     2.2686   117.4114     0.2307    82.5521    12.1641    12.4062
  201.5000     9.5828     0.0212     2.2806   117.7089     0.2217    86.2703    12.2476    12.5765
  202.0000     9.5826     0.0121     2.2986   115.0027     0.2105    88.5265    12.4171    12.6613
  202.5000     9.5825     0.0060     2.3129   110.4954     0.2000    89.7136    12.5887    12.7461
  203.0000     9.5823     0.0044     2.3234   107.7898     0.1938    89.6995    12.7627    12.7436
  203.5000     9.5821     0.0029     2.3309   108.3870     0.1904    83.6759    12.8503    12.8295
  204.0000     9.5820     0.0028     2.3284   109.2858     0.1928    83.0613    12.9385    12.9161
  204.5000     9.5819     0.0043     2.3112   108.0811     0.2029    84.5487    12.9376    13.0031
  205.0000     9.5817     0.0086     2.2961   110.7803     0.2160    87.8579    13.0262    13.0902
  205.5000     9.5815     0.0116     2.2908   113.1799     0.2169    85.4180    13.1158    13.2699
  206.0000     9.5814     0.0145     2.2870   114.9789     0.2194    79.9985    13.2973    13.3587
  206.5000     9.5812     0.0160     2.2809   115.5767     0.2248    79.3838    13.4811    13.4495
  207.0000     9.5811     0.0159     2.2779   114.3720     0.2254    79.9704    13.6677    13.6334
  207.5000     9.5765     0.0128     2.2771   112.5675     0.2236    81.1540    13.9526    13.9158
  208.0000     9.5759     0.0097     2.2802   111.0230     0.2217    81.1399    14.2437    14.2047
  208.5000     9.5755     0.0081     2.2906   111.3607     0.2182    81.7267    14.4408    14.3998
  209.0000     9.5751     0.0141     2.2988   112.8587     0.2160    82.3130    14.7419    14.6108
  209.5000     9.5747     0.0200     2.3055   113.4565     0.2109    82.2954    15.0494    15.0032
  210.0000     9.5742     0.0199     2.3025   112.5521     0.2068    81.6807    15.2577    15.2099
  210.5000     9.5738     0.0153     2.2977   111.0478     0.2140    82.8689    15.4688    15.4180
  211.0000     9.5733     0.0138     2.2941   110.5766     0.2165    87.0545    15.6829    15.8465
  211.5000     9.5728     0.0227     2.2918   110.3718     0.2183    85.8392    15.8999    16.0648
  212.0000     9.5724     0.0317     2.2895   110.0658     0.2195    83.1225    16.1197    16.3975
  212.5000     9.5719     0.0376     2.2865   109.1592     0.2198    84.0591    16.3428    16.6226
  213.0000     9.5715     0.0375     2.2962   107.3502     0.2171    86.9947    16.5689    16.7347
