~VERSION INFORMATION
 VERS.                2.0:   CWLS LOG ASCII STANDARD - VERSION 2.0
 WRAP.                 NO:   ONE LINE PER DEPTH STEP
~WELL INFORMATION
#MNEM.UNIT      DATA TYPE    INFORMATION
#----------   ------------   ------------------------------
 STRT.F            0.0000:   START DEPTH
 STOP.F          547.0000:   STOP DEPTH
 STEP.F            0.1000:   STEP LENGTH
 NULL.          -999.2500:   NO VALUE
 COMP.       F D SERV INC:   COMPANY
 WELL.    87-5 SX 3 #87-3:   WELL
 FLD .             TEAPOT:   FIELD
 LOC .       S3 T38N R78W:   LOCATION
 CNTY.            NATRONA:   COUNTY
 STAT.            WYOMING:   STATE
 CTRY. UNITED STATES OF AMERICA:   COUNTRY
 SRVC.     Atlas Wireline:   SERVICE COMPANY
 DATE.        31-OCT-1992:   LOGDATE
 API .       490252254800:   API NUMBER
~CURVE INFORMATION
#MNEM.UNIT       API CODE    CURVE DESCRIPTION
#----------   ------------   ------------------------------
 DEPT.F                  :   
 GRR .GAPI   07 310 01 00:   GAMMA RAY
 RILD.OHMM   07 120 46 00:   INDUCTION LOG DEEP RESISTIVITY
 RILM.OHMM   07 120 44 00:   INDUCTION LOG MEDIUM RESISTIVITY
~PARAMETER INFORMATION
#MNEM.UNIT          VALUE    DESCRIPTION
#----------   ------------   ------------------------------
 PD  .                 GL:   PERMANENT DATUM
 EPD .F              5119:   ELEVATION PERMANENT DATUM
 LMF .                 KB:   LOG MEASURED FROM
 DAPD.F                10:   FEET ABOVE PERMANENT DATUM
 DMF .                 KB:   DRILLING MEASURED FROM
 EKB .F              5129:   KELLING BUSHING
 EDF .F              5128:   DRILLING FLOOR
 EGL .F              5119:   GROUND LEVEL
 DATE.        31-OCT-1992:   RUN DATE
 RUN .                  1:   RUN NUMBER
 DD  .F               568:   DEPTH DRILLER
 DL  .F               555:   DEPTH LOGGER
 BLI .F               547:   BOTTOM LOG INTERVAL
 TLI .F                71:   TOP LOG INTERVAL
 CS  .IN            8.625:   CASING SIZE
 CBD .F                70:   CASING BOTTOM DRILLER
 CBL .F                71:   CASING BOTTOM LOGGER
 BS  .IN            7.875:   BIT SIZE
 BSD .F               568:   BIT SIZE AT DEPTH
 DFT .           AIR FOAM:   DRILLING FLUID TYPE
 TCS .HRS               2:   TIME CURCULATED STOPPED
 MRT .F                64:   MAXIMUM RECORDED TEMPERATURE
 LUN .            HL-6274:   LOGGING UNIT NUMBER
 LUL .             CASPER:   LOGGING UNIT LOCATION
 ENGI.        P.RASHUSSEN:   RECORDING ENGINEER
 WITN.     BRUCE ANDERSON:   WITNESSED BY
 CLNT.            A2DTECH:   CLIENT CODE
 ORIG.           5" PRINT:   ORIGIN OF DATA
 UWI .       490252254800:   UNIQUE WELL ID
 DICO. A2D Technologies, Inc.:   DIGITIZING COMPANY
~OTHER INFORMATION
~A    DEPT      GRR      RILD       RILM   
# ...
  291.2000   149.5486     5.5219     6.0486
  291.3000   149.2775     5.5916     6.1609
  291.4000   148.8004     5.6520     6.1942
  291.5000   148.4785     5.7182     6.2567
  291.6000   147.9526     5.8214     6.3294
  291.7000   147.3604     5.9586     6.3904
  291.8000   147.0717     6.0989     6.4321
  291.9000   146.5279     6.2510     6.5121
  292.0000   146.0557     6.3549     6.5469
  292.1000   145.9150     6.4387     6.5568
  292.2000   145.9120     6.5141     6.5967
  292.3000   145.9907     6.5767     6.6733
  292.4000   146.2709     6.6211     6.7459
  292.5000   146.8131     6.7016     6.7879
  292.6000   147.0426     6.7391     6.8238
  292.7000   147.1108     6.7784     6.8919
  292.8000   147.2381     6.7953     6.9301
  292.9000   147.5668     6.8099     6.9423
  293.0000   148.0405     6.8495     6.9869
  293.1000   148.3123     6.8902     7.0753
  293.2000   148.3096     6.9295     7.1124
  293.3000   148.4854     6.9698     7.1239
  293.4000   148.6070     6.9864     7.1445
  293.5000   148.5270     6.9862     7.1856
  293.6000   148.2455     6.9940     7.2248
  293.7000   147.6871     7.0347     7.2455
  293.8000   147.2295     7.0838     7.2662
  293.9000   147.0744     7.1169     7.2869
  294.0000   146.9459     7.1583     7.3075
  294.1000   146.8393     7.1827     7.3282
  294.2000   147.0887     7.1825     7.3489
  294.3000   147.3654     7.1831     7.3719
  294.4000   147.8126     7.2324     7.3714
  294.5000   148.4885     7.2322     7.3709
  294.6000   149.1200     7.2585     7.3704
  294.7000   149.7660     7.3008     7.3699
  294.8000   150.7519     7.3333     7.3693
  294.9000   151.5960     7.3346     7.3688
  295.0000   152.0383     7.3842     7.4062
  295.1000   152.7119     7.3840     7.4488
  295.2000   153.4664     7.3838     7.4917
  295.3000   154.0817     7.3836     7.5227
  295.4000   154.3684     7.3834     7.5254
  295.5000   155.2196     7.3856     7.5743
  295.6000   155.4371     7.4346     7.6123
  295.7000   155.6866     7.4344     7.6264
  295.8000   155.5816     7.4342     7.6259
  295.9000   154.9393     7.4340     7.6253
  296.0000   153.9424     7.4338     7.6276
  296.1000   153.0770     7.4336     7.6776
  296.2000   152.2036     7.4334     7.6771
  296.3000   151.3573     7.4332     7.6473
  296.4000   150.7125     7.4035     7.6227
  296.5000   150.3338     7.3811     7.6221
  296.6000   150.3446     7.3809     7.6216
  296.7000   150.6308     7.3807     7.6210
  296.8000   150.8435     7.3805     7.6205
  296.9000   151.0930     7.3803     7.6200
  297.0000   151.3424     7.3801     7.6195
  297.1000   151.5919     7.4017     7.6299
  297.2000   151.8302     7.4313     7.6718
  297.3000   151.8265     7.4311     7.6178
  297.4000   152.0368     7.4309     7.6173
  297.5000   152.2863     7.4307     7.6168
  297.6000   152.5358     7.4305     7.6163
  297.7000   152.7852     7.4303     7.6157
  297.8000   153.0259     7.4301     7.6137
  297.9000   152.7188     7.4299     7.5616
  298.0000   152.7162     7.4297     7.5612
  298.1000   152.3943     7.4295     7.5606
  298.2000   151.9947     7.4293     7.5601
  298.3000   151.7967     7.4290     7.5596
  298.4000   151.7871     7.4288     7.5579
  298.5000   151.4866     7.4286     7.5058
  298.6000   151.0681     7.4284     7.5054
  298.7000   150.8741     7.4282     7.5049
  298.8000   150.8710     7.4280     7.5044
  298.9000   150.8680     7.4278     7.5038
  299.0000   150.8650     7.4276     7.5033
  299.1000   151.1648     7.4274     7.5027
  299.2000   151.1624     7.4272     7.5023
  299.3000   151.1593     7.4270     7.5017
  299.4000   151.1563     7.4268     7.5012
  299.5000   151.1533     7.4266     7.5007
  299.6000   151.1502     7.4431     7.5002
  299.7000   151.1466     7.4864     7.4995
  299.8000   151.1441     7.5303     7.4991
  299.9000   150.9889     7.5739     7.5249
  300.0000   150.8346     7.4435     7.5682
  300.1000   150.7813     7.3737     7.6031
  300.2000   145.3657     7.3735     7.6025
  300.3000   144.6075     7.3733     7.6019
  300.4000   144.2484     7.3731     7.6014
  300.5000   143.9929     7.3728     7.6009
  300.6000   143.7374     7.3377     7.6003
  300.7000   143.4818     7.2948     7.5998
  300.8000   143.2230     7.2521     7.5993
  300.9000   144.4667     7.2193     7.5987
  301.0000   145.7261     7.2178     7.5982
  301.1000   146.6909     7.1687     7.5977
  301.2000   147.5417     7.1685     7.5804
  301.3000   148.5032     7.1683     7.5438
  301.4000   149.2746     7.1681     7.5432
  301.5000   149.5184     7.1679     7.5427
  301.6000   149.9637     7.1677     7.5422
  301.7000   150.6105     7.1675     7.5417
  301.8000   151.2711     7.1673     7.5249
  301.9000   151.7303     7.1671     7.4881
  302.0000   151.9878     7.1669     7.4876
  302.1000   152.2292     7.1667     7.4871
  302.2000   152.2853     7.1665     7.4866
  302.3000   152.2823     7.1663     7.4860
  302.4000   152.1878     7.1661     7.4855
  302.5000   151.7300     7.1659     7.4850
  302.6000   150.1486     7.1657     7.4844
  302.7000   148.9359     7.1655     7.4424
  302.8000   148.0523     7.1653     7.4314
  302.9000   147.2918     7.1651     7.4308
  303.0000   146.4421     7.1649     7.4152
  303.1000   145.4290     7.1647     7.3781
  303.2000   144.3640     7.1855     7.3776
  303.3000   143.6425     7.2145     7.3365
  303.4000   143.0705     7.2143     7.3252
  303.5000   142.8376     7.2141     7.3247
  303.6000   142.8346     7.2139     7.3097
  303.7000   142.8671     7.2439     7.2727
  303.8000   143.1318     7.2640     7.2722
  303.9000   143.1290     7.2638     7.2717
  304.0000   143.4982     7.2636     7.2712
  304.1000   144.0002     7.2634     7.2707
  304.2000   144.4180     7.2632     7.2702
  304.3000   144.7338     7.2319     7.2697
  304.4000   145.5415     7.2123     7.2691
  304.5000   146.2428     7.2121     7.2687
  304.6000   147.1810     7.2119     7.2375
  304.7000   148.8516     7.2117     7.2171
  304.8000   150.7940     7.1716     7.2031
  304.9000   151.9921     7.1297     7.1608
  305.0000   152.8071     7.0881     7.1155
  305.1000   153.5011     7.0466     7.0771
  305.2000   154.0743     7.0054     7.0650
  305.3000   154.7066     6.9632     7.0434
  305.4000   155.4610     6.8848     6.9894
  305.5000   156.1588     6.8048     6.9126
  305.6000   156.4307     6.7257     6.8684
  305.7000   156.4279     6.6475     6.8318
  305.8000   156.2460     6.5772     6.7640
  305.9000   155.9905     6.5383     6.7050
  306.0000   155.6581     6.5006     6.6656
  306.1000   155.1242     6.4626     6.6266
  306.2000   154.2880     6.4472     6.5838
  306.3000   153.8304     6.4470     6.5491
  306.4000   153.3224     6.4468     6.5107
  306.5000   152.9398     6.4466     6.4912
  306.6000   152.8332     6.4464     6.4797
  306.7000   153.1531     6.4463     6.4417
  306.8000   154.2698     6.4461     6.3998
  306.9000   155.6170     6.4459     6.3664
  307.0000   156.9551     6.4457     6.3291
  307.1000   158.3376     6.4445     6.3098
  307.2000   159.7774     6.4005     6.3093
  307.3000   161.0371     6.4315     6.3089
  307.4000   162.4458     6.4450     6.3084
  307.5000   163.7786     6.4448     6.3080
  307.6000   164.7758     6.4447     6.2828
  307.7000   165.4097     6.4445     6.2982
  307.8000   165.6331     6.4443     6.3817
  307.9000   165.1064     6.4123     6.4877
  308.0000   164.2485     6.3991     6.5298
  308.1000   163.1450     6.3990     6.5294
  308.2000   162.0487     6.3988     6.5290
  308.3000   160.6811     6.3986     6.5285
  308.4000   158.9777     6.3984     6.5280
  308.5000   157.4275     6.3982     6.5276
  308.6000   155.1255     6.3730     6.5271
  308.7000   154.2522     6.3183     6.4941
  308.8000   153.5726     6.2549     6.4808
  308.9000   153.0645     6.2184     6.4461
  309.0000   152.6859     6.1780     6.3806
  309.1000   152.6692     6.1142     6.3431
  309.2000   152.3759     6.0432     6.3005
  309.3000   152.3733     5.9729     6.3001
