~VERSION INFORMATION
 VERS.                2.0:   CWLS LOG ASCII STANDARD - VERSION 2.0
 WRAP.                 NO:   ONE LINE PER DEPTH STEP
~WELL INFORMATION
#MNEM.UNIT      DATA TYPE    INFORMATION
#----------   ------------   ------------------------------
 STRT.F           34.5000:   START DEPTH
 STOP.F          756.0000:   STOP DEPTH
 STEP.F            0.5000:   STEP LENGTH
 NULL.          -999.2500:   NO VALUE
 COMP. FENIX & SCISSON INC:   COMPANY
 WELL.    36 SX 11 #36-11:   WELL
 FLD .        TEAPOT DOME:   FIELD
 LOC .      S11 T38N R78W:   LOCATION
 CNTY.            NATRONA:   COUNTY
 STAT.            WYOMING:   STATE
 CTRY. UNITED STATES OF AMERICA:   COUNTRY
 SRVC.           BIRDWELL:   SERVICE COMPANY
 DATE.        21-FEB-1978:   LOGDATE
 API .       490251059700:   API NUMBER
~CURVE INFORMATION
#MNEM.UNIT       API CODE    CURVE DESCRIPTION
#----------   ------------   ------------------------------
 DEPT.F                  :   
 SPR .MV     05 010 01 00:   SPONTANEOUS POTENTIAL FROM RES.
 SN  .OHMM   05 040 16 00:   SHORT NORMAL 16"
 ILD .OHMM   05 120 46 00:   INDUCTION LOG DEEP
 RHOB.G/C3   45 350 01 00:   BULK DENSITY
 DPHI.DEC    45 890 12 00:   DENSITY POROSITY SANDSTONE
 GRD .GAPI   45 310 01 00:   GAMMA RAY FROM DENSITY LOG
 CALD.IN     45 280 60 00:   CALIPER
 CORR.G/C3   45 356 01 00:   DENSITY CORRECTION
~PARAMETER INFORMATION
#MNEM.UNIT          VALUE    DESCRIPTION
#----------   ------------   ------------------------------
 PD  .                 GL:   PERMANENT DATUM
 EPD .F              5175:   ELEVATION PERMANENT DATUM
 LMF .                 KB:   LOG MEASURED FROM
 DAPD.F                 4:   FEET ABOVE PERMANENT DATUM
 DMF .                 KB:   DRILLING MEASURED FROM
 EKB .F              5179:   KELLING BUSHING
 EGL .F              5175:   GROUND LEVEL
 DATE.          2-21-1978:   RUN DATE
 RUN .                  1:   RUN NUMBER
 DD  .F               765:   DEPTH DRILLER
 DL  .F               760:   DEPTH LOGGER
 BLI .F               754:   BOTTOM LOG INTERVAL
 TLI .F                40:   TOP LOG INTERVAL
 CS  .IN            8.625:   CASING SIZE
 CBD .F                39:   CASING BOTTOM DRILLER
 CBL .F                40:   CASING BOTTOM LOGGER
 BS  .IN            7.875:   BIT SIZE
 BSD .F               765:   BIT SIZE AT DEPTH
 DFT .         LIGNO/SULF:   DRILLING FLUID TYPE
 DFD .                8.6:   DRILLING FLUID DENSITY
 DFV .                 33:   DRILLING FLUID VISCOSITY
 DFPH.               10.5:   DRILLING FLUID PH
 DFL .                 84:   DRILLING FLUID LOSS
 MSS .          FLOW LINE:   MUD SAMPLE SOURCE
 RMS .OHMM            1.8:   RESISTIVITY MUD SAMPLE
 MST .F                56:   MUD SAMPLE TEMPERATURE
 RMF .OHMM            1.8:   RESISTIVITY MUD FILTRATE SAMPLE
 MFST.F                58:   MUD FILTRATE SAMPLE TEMPERATURE
 RMC .OHMM              4:   RESISTIVITY MUD CAKE
 MCST.F                62:   MUD CAKE SAMPLE TEMPERATURE
 MFSS.               MEAS:   MUD FILTRATE SAMPLE SOURCE
 RMB .OHMM           1.48:   RESISTIVITY MUD AT BHT
 BHT .F                68:   BOTTOM HOLE TEMPERATURE
 TCS .HRS               5:   TIME CURCULATED STOPPED
 MRT .F                68:   MAXIMUM RECORDED TEMPERATURE
 LUN .               2958:   LOGGING UNIT NUMBER
 LUL .               CASP:   LOGGING UNIT LOCATION
 ENGI.            POINTER:   RECORDING ENGINEER
 WITN.           MCGINLEY:   WITNESSED BY
 CLNT.            A2DTECH:   CLIENT CODE
 ORIG.       2", 5" PRINT:   ORIGIN OF DATA
 UWI .       490251059700:   UNIQUE WELL ID
 DICO. A2D Technologies, Inc.:   DIGITIZING COMPANY
~OTHER INFORMATION
~A   DEPT      SPR         SN        ILD       RHOB       DPHI         GRD      CALD       CORR   
# ...
  277.5000   -26.1687     8.7187     8.0359     2.4649     0.1182   112.2902     7.9989     0.0104
  278.0000   -25.7359     8.7229     8.0688     2.4722     0.1178   113.7398     7.9986     0.0103
  278.5000   -25.3238     8.7270     8.1017     2.4761     0.1174   115.1880     7.9984     0.0101
  279.0000   -25.5689     8.7312     8.1168     2.4651     0.1176   116.6435     7.9981     0.0100
  279.5000   -25.8542     8.7354     8.0967     2.4758     0.1194   114.8175     7.9978     0.0098
  280.0000   -25.8142     8.7411     8.0823     2.4722     0.1210   110.8022     7.9976     0.0097
  280.5000   -25.6568     8.7306     8.0679     2.4674     0.1207   100.3514     7.9973     0.0095
  281.0000   -25.4973     8.7089     8.0536     2.4626     0.1198    93.0950     7.9970     0.0094
  281.5000   -25.3329     8.6872     8.0393     2.4611     0.1205    90.3482     7.9968     0.0092
  282.0000   -25.4287     8.6655     8.0250     2.4647     0.1214    90.4327     7.9965     0.0091
  282.5000   -25.6459     8.6439     8.0107     2.4657     0.1185    90.6231     7.9963     0.0093
  283.0000   -25.8652     8.6223     7.9964     2.4676     0.1155    92.7863     7.9960     0.0109
  283.5000   -26.0855     8.6008     7.9822     2.4712     0.1130    95.8598     7.9957     0.0126
  284.0000   -26.3022     8.5836     7.9715     2.4749     0.1137    97.6161     7.9955     0.0143
  284.5000   -26.3120     8.7229     7.9899     2.4753     0.1143    99.2814     7.9952     0.0160
  285.0000   -26.3109     8.8535     8.0083     2.4775     0.1084   100.8773     7.9949     0.0176
  285.5000   -26.3107     8.9861     8.0268     2.4837     0.0974    96.0773     7.9947     0.0193
  286.0000   -26.3127     9.1209     8.0417     2.4948     0.0799    92.0104     7.9944     0.0211
  286.5000   -26.2153     9.2577     7.9939     2.5186     0.0566    91.2539     7.9942     0.0354
  287.0000   -26.0903     9.3262     7.9489     2.5501     0.0772    96.1705     7.9938     0.0617
  287.5000   -25.9637     9.2403     7.9042     2.5687     0.1031   102.9499     7.9933     0.0575
  288.0000   -25.9004     8.9922     7.8597     2.5112     0.1162   106.2087     7.9928     0.0379
  288.5000   -25.8432     8.7641     7.8155     2.4714     0.1209   107.7109     7.9923     0.0184
  289.0000   -25.7872     8.5419     7.7716     2.4668     0.1230   104.9039     7.9917     0.0115
  289.5000   -25.7310     8.3466     7.7278     2.4613     0.1214   101.3787     7.9912     0.0112
  290.0000   -25.7065     8.3613     7.6844     2.4648     0.1176    98.6530     7.9907     0.0116
  290.5000   -25.7350     8.3784     7.6801     2.4715     0.1154    97.6548     7.9902     0.0119
  291.0000   -25.7665     8.3956     7.6801     2.4785     0.1160    98.8657     7.9896     0.0121
  291.5000   -25.7981     8.4126     7.6801     2.4754     0.1167   101.8221     7.9891     0.0124
  292.0000   -25.8295     8.4228     7.6801     2.4718     0.1174   105.0558     7.9886     0.0127
  292.5000   -25.8609     8.2848     7.6801     2.4692     0.1181   104.7541     7.9881     0.0131
  293.0000   -25.8925     8.1789     7.6801     2.4664     0.1190   104.9676     7.9876     0.0167
  293.5000   -25.9070     8.0743     7.6801     2.4657     0.1153   105.9152     7.9871     0.0202
  294.0000   -25.9073     8.0433     7.6801     2.4739     0.1037   107.2858     7.9865     0.0238
  294.5000   -25.9071     8.0613     7.6801     2.4894     0.1004   110.2700     7.9860     0.0248
  295.0000   -25.9063     8.0776     7.6801     2.4860     0.1029   113.1983     7.9855     0.0238
  295.5000   -25.9090     8.0938     7.6801     2.4834     0.1042   113.8225     7.9850     0.0229
  296.0000   -26.0852     8.1101     7.6801     2.4884     0.1034   113.4501     7.9844     0.0220
  296.5000   -26.2803     8.1264     7.6801     2.4828     0.1022   114.5845     7.9839     0.0210
  297.0000   -26.4754     8.1428     7.6800     2.4647     0.1092   112.6143     7.9834     0.0201
  297.5000   -26.6701     8.1591     7.6802     2.4717     0.1088   108.9627     7.9829     0.0192
  298.0000   -26.8651     8.1754     7.6908     2.4786     0.1073   104.6764     7.9823     0.0182
  298.5000   -27.0679     8.1918     7.7264     2.4856     0.1057    99.8512     7.9818     0.0173
  299.0000   -27.0957     8.2943     7.7622     2.4906     0.1072    95.1239     7.9813     0.0171
  299.5000   -27.0238     8.4079     7.7982     2.4894     0.1094    86.2729     7.9808     0.0144
  300.0000   -26.9514     8.5229     7.9112     2.4871     0.1100    83.5376     7.9803     0.0115
  300.5000   -26.7110     8.6395     8.2109     2.4845     0.1150    86.2330     7.9798     0.0094
  301.0000   -26.3049     8.7577     8.4648     2.4759     0.1203    88.3135     7.9792     0.0120
  301.5000   -25.8971     8.8776     8.5971     2.4667     0.1226    88.5400     7.9787     0.0140
  302.0000   -25.6706     8.9999     8.7314     2.4667     0.1012    87.8986     7.9782     0.0160
  302.5000   -25.5946     9.1193     8.8228     2.4948     0.0997    84.1421     7.9777     0.0170
  303.0000   -25.5196     9.2373     8.8453     2.4966     0.1010    80.8190     7.9771     0.0170
  303.5000   -25.5060     9.1634     8.8696     2.4975     0.1034    82.8732     7.9766     0.0170
  304.0000   -25.3946     9.1132     8.9048     2.5014     0.1057    87.6068     7.9761     0.0170
  304.5000   -25.3334     9.0352     8.7790     2.4937     0.1080    92.9991     7.9756     0.0170
  305.0000   -25.5399     8.8047     8.5550     2.4816     0.1120    98.1610     7.9751     0.0170
  305.5000   -25.7434     8.5801     8.3368     2.4691     0.1166   101.8775     7.9745     0.0170
  306.0000   -25.9468     8.3612     8.1241     2.4680     0.1166   105.6279     7.9741     0.0179
  306.5000   -26.1505     8.2698     7.9169     2.4737     0.1166   107.7934     7.9633     0.0202
  307.0000   -26.3533     8.3076     7.7434     2.4711     0.1168   100.2110     7.9453     0.0225
  307.5000   -26.5167     8.3399     7.6993     2.4709     0.1178    94.4623     7.9272     0.0253
  308.0000   -26.4857     8.3466     7.6554     2.4738     0.1169    92.3301     7.9090     0.0380
  308.5000   -26.4525     8.2806     7.6118     2.4863     0.1103    95.7880     7.8909     0.0512
  309.0000   -26.4196     8.1985     7.5684     2.4974     0.1038    99.4212     7.8733     0.0677
  309.5000   -26.3868     8.1172     7.5253     2.4985     0.1026   103.8925     7.8849     0.0895
  310.0000   -26.3541     8.0366     7.4825     2.4957     0.1057   106.0976     7.9043     0.1115
  310.5000   -26.3207     7.9569     7.4398     2.4910     0.1095   107.5021     7.9239     0.1147
  311.0000   -26.3118     7.8962     7.3975     2.4856     0.1097   108.8647     7.9434     0.1101
  311.5000   -26.2223     7.9117     7.3553     2.4839     0.1090   110.2174     7.9628     0.1000
  312.0000   -26.1110     7.9244     7.3134     2.4893     0.1097   106.8352     7.9739     0.0659
  312.5000   -26.1688     7.9372     7.2656     2.4780     0.1125   102.5560     7.9738     0.0318
  313.0000   -26.2915     7.9499     7.2961     2.4680     0.1162    98.2569     7.9738     0.0211
  313.5000   -26.4134     7.9627     7.3430     2.4700     0.1171    95.2908     7.9738     0.0187
  314.0000   -26.5348     8.0335     7.3903     2.4737     0.1160   100.5222     7.9738     0.0198
  314.5000   -26.6581     8.1728     7.4378     2.4768     0.1148   105.6473     7.9738     0.0210
  315.0000   -26.5865     8.3145     7.4857     2.4774     0.1134   106.6508     7.9738     0.0206
  315.5000   -26.3522     8.4586     7.5339     2.4796     0.1142   105.0496     7.9738     0.0201
  316.0000   -26.1175     8.6053     7.6881     2.4843     0.1151   103.6742     7.9738     0.0197
  316.5000   -26.0534     8.7545     7.8594     2.4860     0.1130   104.2466     7.9738     0.0192
  317.0000   -25.9978     8.9063     8.0345     2.4760     0.1075   106.7218     7.9738     0.0170
  317.5000   -25.9410     9.0607     8.1937     2.4749     0.1021   109.1119     7.9738     0.0181
