~VERSION INFORMATION
 VERS.                2.0:   CWLS LOG ASCII STANDARD - VERSION 2.0
 WRAP.                 NO:   ONE LINE PER DEPTH STEP
~WELL INFORMATION
#MNEM.UNIT      DATA TYPE    INFORMATION
#----------   ------------   ------------------------------
 STRT.F           32.0000:   START DEPTH
 STOP.F          757.0000:   STOP DEPTH
 STEP.F            0.5000:   STEP LENGTH
 NULL.          -999.2500:   NO VALUE
 COMP. FENIX & SCISSON INC:   COMPANY
 WELL.     88 S 34 #88-34:   WELL
 FLD .             NPR #3:   FIELD
 LOC .      S34 T39N R78W:   LOCATION
 CNTY.            NATRONA:   COUNTY
 STAT.            WYOMING:   STATE
 CTRY. UNITED STATES OF AMERICA:   COUNTRY
 SRVC.              Welex:   SERVICE COMPANY
 DATE.        10-MAY-1977:   LOGDATE
 API .       490251035800:   API NUMBER
~CURVE INFORMATION
#MNEM.UNIT       API CODE    CURVE DESCRIPTION
#----------   ------------   ------------------------------
 DEPT.F                  :   
 GURD.OHMM   07 220 05 00:   SHALLOW GUARD RESISTIVITY
 ILD .OHMM   07 120 46 00:   INDUCTION LOG DEEP
 ILM .OHMM   07 120 44 00:   INDUCTION LOG MEDIUM
 SPR .MV     07 010 01 00:   SPONTANEOUS POTENTIAL FROM RES.
 CALD.IN     45 280 60 00:   CALIPER FROM DENSITY LOG
 CORR.G/C3   45 356 01 00:   DENSITY CORRECTION
 DPHI.DEC    45 890 12 00:   DENSITY POROSITY SANDSTONE
 GRD .GAPI   45 310 01 00:   GAMMA RAY FROM DENSITY LOG
 RHOB.G/C3   45 350 01 00:   BULK DENSITY
~PARAMETER INFORMATION
#MNEM.UNIT          VALUE    DESCRIPTION
#----------   ------------   ------------------------------
 PD  .                 GL:   PERMANENT DATUM
 EPD .F              5094:   ELEVATION PERMANENT DATUM
 LMF .                 GL:   LOG MEASURED FROM
 DMF .                 GL:   DRILLING MEASURED FROM
 EGL .F              5094:   GROUND LEVEL
 DATE.        10-MAY-1977:   RUN DATE
 RUN .                  1:   RUN NUMBER
 DD  .F               760:   DEPTH DRILLER
 DL  .F               759:   DEPTH LOGGER
 BLI .F               757:   BOTTOM LOG INTERVAL
 TLI .F                30:   TOP LOG INTERVAL
 CS  .IN            8.625:   CASING SIZE
 CBD .F                40:   CASING BOTTOM DRILLER
 CBL .F                45:   CASING BOTTOM LOGGER
 BS  .IN            7.875:   BIT SIZE
 BSD .F               760:   BIT SIZE AT DEPTH
 DFT .            KCL MUD:   DRILLING FLUID TYPE
 DFD .                9.0:   DRILLING FLUID DENSITY
 DFV .                 33:   DRILLING FLUID VISCOSITY
 DFPH.                7.5:   DRILLING FLUID PH
 DFL .                7.4:   DRILLING FLUID LOSS
 MSS .           FLOWLINE:   MUD SAMPLE SOURCE
 RMS .OHMM           0.33:   RESISTIVITY MUD SAMPLE
 MST .F                70:   MUD SAMPLE TEMPERATURE
 RMF .OHMM           0.28:   RESISTIVITY MUD FILTRATE SAMPLE
 MFST.F                70:   MUD FILTRATE SAMPLE TEMPERATURE
 RMC .OHMM           0.40:   RESISTIVITY MUD CAKE
 MCST.F                70:   MUD CAKE SAMPLE TEMPERATURE
 MFSS.           FANN KIT:   MUD FILTRATE SAMPLE SOURCE
 MCSS.           FANN KIT:   MUD CAKE SAMPLE SOURCE
 RMB .OHMM           0.26:   RESISTIVITY MUD AT BHT
 BHT .F                86:   BOTTOM HOLE TEMPERATURE
 TCS .HRS             1.5:   TIME CURCULATED STOPPED
 MRT .F                86:   MAXIMUM RECORDED TEMPERATURE
 LUN .               8611:   LOGGING UNIT NUMBER
 LUL .             CASPER:   LOGGING UNIT LOCATION
 ENGI.            C. DOAK:   RECORDING ENGINEER
 WITN.         D. RHOADES:   WITNESSED BY
 CLNT.            A2DTECH:   CLIENT CODE
 ORIG.           5" PRINT:   ORIGIN OF DATA
 UWI .       490251035800:   UNIQUE WELL ID
 DICO. A2D Technologies, Inc.:   DIGITIZING COMPANY
~OTHER INFORMATION
~A   DEPT     GURD        ILD        ILM        SPR         CALD      CORR      DPHI         GRD        RHOB 
# ...
  360.5000     9.9331     7.0329     8.3120   -33.8849     7.6756     0.0272     0.1051   133.6650     2.5131
  361.0000     9.8653     7.0834     8.3131   -33.5824     7.6908     0.0212     0.1138   132.9157     2.4973
  361.5000     9.7981     7.0849     8.0876   -33.4291     7.7357     0.0183     0.1213   135.3199     2.4741
  362.0000     9.6642     7.0863     7.3429   -33.1266     7.7955     0.0183     0.1264   136.3724     2.4687
  362.5000     9.6650     7.1368     7.0945   -32.9733     7.8404     0.0229     0.1225   136.2237     2.4748
  363.0000     9.8681     7.1383     7.1446   -33.4160     7.8702     0.0291     0.1222   135.7747     2.4750
  363.5000    10.0755     7.2390     7.4029   -33.4106     7.8700     0.0350     0.1216   135.3256     2.4794
  364.0000    10.2164     7.3415     7.8914   -33.4062     7.7733     0.0350     0.1189   134.4265     2.4869
  364.5000    10.2879     7.4451     8.4370   -33.4019     7.6298     0.0350     0.1156   132.6262     2.4877
  365.0000    10.2958     7.5501     8.9795   -33.3975     7.5997     0.0336     0.1198   129.4745     2.4779
  365.5000    10.3608     7.7097     8.8574   -33.3932     7.6145     0.0336     0.1313   130.5273     2.4629
  366.0000    10.3615     7.7647     8.3823   -33.3888     7.6594     0.0339     0.1348   129.3276     2.4517
  366.5000    10.5793     7.7662     8.2111   -33.6825     7.7192     0.0427     0.1276   128.4281     2.4660
  367.0000    10.7272     7.8216     8.1559   -33.8381     7.7790     0.0473     0.1261   129.0302     2.4675
  367.5000    10.9526     7.8232     8.1571   -33.9719     7.8089     0.0518     0.1281   130.8334     2.4630
  368.0000    11.0293     7.7709     8.1627   -34.1155     7.7937     0.0533     0.1282   133.3874     2.4728
  368.5000    11.1065     7.7726     8.2161   -33.9621     7.7336     0.0519     0.1227   132.1127     2.4758
  369.0000    11.1429     7.7206     8.2172   -34.1079     7.6585     0.0488     0.1224   128.7360     2.4750
  369.5000    11.2626     7.6690     8.3327   -34.2525     7.5983     0.0415     0.1233   126.0347     2.4721
  370.0000    11.1858     7.6182     8.2761   -34.3972     7.5992     0.0205     0.1278   126.0362     2.4616
  370.5000    11.1095     7.5669     8.2202   -34.5410     7.6580    -0.0004     0.1365   126.3379     2.4533
  371.0000    10.9578     7.6213     8.1647   -34.5365     7.7328    -0.0019     0.1320   126.3393     2.4601
  371.5000    10.8083     7.5703     8.1098   -34.5320     7.7926    -0.0048     0.1311   126.8664     2.4594
  372.0000    10.6607     7.5719     8.1672   -34.5405     7.8375    -0.0063     0.1344   130.2465     2.4548
  372.5000    10.4427     7.5734     8.1683   -34.6724     7.8373    -0.0047     0.1347   130.3981     2.4511
  373.0000    10.0888     7.5750     8.1697   -34.6670     7.8372    -0.0002     0.1332   126.6458     2.4541
  373.5000    10.0894     7.6293     8.2274   -34.5136     7.8070     0.0104     0.1284   129.6502     2.4692
  374.0000    10.0206     7.6838     8.1716   -34.6594     7.8069     0.0134     0.1209   131.6036     2.4805
  374.5000    10.0952     7.6853     8.1730   -34.5049     7.8067     0.0164     0.1152   125.7495     2.4857
  375.0000    10.3148     7.6869     8.2307   -34.5006     7.8066     0.0165     0.1162   122.1474     2.4880
  375.5000    10.5195     7.6884     8.2318   -34.1982     7.8215     0.0165     0.1211   121.3977     2.4808
  376.0000    10.6666     7.7432     8.3475   -33.8957     7.8213     0.0136     0.1280   124.2524     2.4655
  376.5000    10.3765     7.8130     8.4648   -33.5931     7.8361     0.0166     0.1292   125.7553     2.4603
  377.0000    10.2347     7.9085     8.5909   -33.4389     7.8525     0.0182     0.1262   124.8559     2.4618
  377.5000    10.2355     8.0393     8.8258   -33.2855     7.8658     0.0212     0.1220   119.9025     2.4678
  378.0000    10.8179     8.1367     9.1372   -32.9831     7.8738     0.0288     0.1165   117.9518     2.4806
  378.5000    11.3548     8.3055     9.5913   -32.6806     7.8955     0.0365     0.1124   119.1548     2.4897
  379.0000    11.6738     8.4227     9.9298   -32.3782     7.8804     0.0468     0.1112   120.9581     2.4956
  379.5000    11.7555     8.4828    10.4955   -32.2248     7.8652     0.0559     0.1109   122.6112     2.4979
  380.0000    11.7565     8.6621    10.7911   -32.0715     7.8650     0.0634     0.1142   121.8619     2.4941
  380.5000    12.0868     8.9064    11.0186   -31.7690     7.8349     0.0680     0.1166   120.0865     2.4844
  381.0000    12.4263     9.0947    11.0201   -31.6157     7.7448     0.0710     0.1190   117.0603     2.4799
  381.5000    12.2564     9.4160    10.9352   -31.7603     7.6847     0.0710     0.1091   114.2085     2.4854
  382.0000    12.0058     9.6816    10.7969   -32.0530     7.5946     0.0681     0.1055   118.2644     2.5062
  382.5000    12.0900     9.8217    11.0249   -32.0492     7.5185     0.0651     0.1058   118.8664     2.5040
  383.0000    12.4297     9.8883    11.3354   -32.0443     7.4893     0.0637     0.1103   118.2673     2.4980
  383.5000    12.9567     9.9633    11.4155   -32.1900     7.5042     0.0547     0.1232   116.5171     2.4852
  384.0000    14.9811    10.0425    11.1058   -32.3336     7.5640     0.0383     0.1234   113.9162     2.4745
  384.5000    15.4017    10.1124    10.9844   -32.1802     7.6538     0.0218     0.1159   113.1665     2.4839
  385.0000    14.2757    10.1739    10.8060   -32.1759     7.7436     0.0174     0.1111   113.9190     2.4935
  385.5000    13.4159    10.2464    10.7330   -32.1714     7.8188     0.0144     0.1063   112.5691     2.5011
  386.0000    14.0816    10.2485    10.7345   -32.3162     7.8782     0.0160     0.1039   109.2673     2.5056
  386.5000    14.0946    10.2506    10.7363   -32.3115     7.9081     0.0145     0.1075   106.9915     2.4996
  387.0000    13.9866    10.2526    10.7377   -32.3064     7.8929     0.0116     0.1143   105.6669     2.4921
  387.5000    13.7956    10.1841    10.6648   -32.3021     7.7579     0.0101     0.1195   102.9656     2.4816
  388.0000    13.7017    10.1166    10.5928   -32.2977     7.6528     0.0117     0.1207    99.8139     2.4779
  388.5000    13.7026    10.0485    10.5213   -32.1443     7.6076     0.0132     0.1219   100.2658     2.4771
  389.0000    13.4224     9.9814    10.3903   -32.1400     7.6869     0.0148     0.1231   100.8679     2.4749
  389.5000    13.3307     9.9147    10.2376   -31.9866     7.7872     0.0148     0.1228   102.8965     2.4727
  390.0000    13.7054     9.9170    10.1685   -31.9821     7.8321     0.0178     0.1185   107.0273     2.4817
  390.5000    13.8011     9.9191    10.0303   -31.9768     7.8319     0.0179     0.1150   108.9807     2.4900
  391.0000    12.9699     9.9213    10.0320   -31.6744     7.8318     0.0194     0.1165   109.2824     2.4860
  391.5000    13.1515     9.9233     9.9639   -31.6701     7.8316     0.0180     0.1201   109.2838     2.4810
  392.0000    12.6160     9.9253     9.9656   -31.5167     7.8315     0.0150     0.1170   109.5856     2.4847
  392.5000    12.0137     9.9273    10.0360   -31.5123     7.8313     0.0121     0.1125   110.3629     2.4938
  393.0000    11.9413     9.9986    10.0373   -31.3589     7.8312     0.0106     0.1153   111.6909     2.4908
  393.5000    12.1085    10.0006    10.1784   -31.0565     7.8460     0.0107     0.1188   113.1939     2.4855
  394.0000    12.2778     9.9333    10.2503   -30.9031     7.8459     0.0092     0.1218   113.4953     2.4801
  394.5000    12.7984     9.9358    10.3290   -30.7312     7.8457     0.0108     0.1260   110.4940     2.4706
  395.0000    12.9771     9.9378    10.5408   -30.5953     7.8306     0.0093     0.1284   111.6967     2.4623
  395.5000    12.1957     9.9398    10.7630   -30.7411     7.8304     0.0093     0.1257   112.2991     2.4668
  396.0000    12.3663     9.9418    10.9142   -31.0337     7.8153     0.0094     0.1230   110.9492     2.4729
  396.5000    12.9800     9.9438    11.0676   -31.3285     7.8001     0.0109     0.1212   109.2990     2.4744
