~VERSION INFORMATION
 VERS.                2.0:   CWLS LOG ASCII STANDARD - VERSION 2.0
 WRAP.                 NO:   ONE LINE PER DEPTH STEP
~WELL INFORMATION
#MNEM.UNIT      DATA TYPE    INFORMATION
#----------   ------------   ------------------------------
 STRT.F           95.0000:   START DEPTH
 STOP.F          922.0000:   STOP DEPTH
 STEP.F            0.5000:   STEP LENGTH
 NULL.          -999.2500:   NO VALUE
 COMP.          U.S. NAVY:   COMPANY
 WELL. RES 3 TEAPOT DOM #57S-11:   WELL
 FLD .             TEAPOT:   FIELD
 LOC .      S11 T38N R78W:   LOCATION
 CNTY.            NATRONA:   COUNTY
 STAT.            WYOMING:   STATE
 CTRY. UNITED STATES OF AMERICA:   COUNTRY
 SRVC.       Schlumberger:   SERVICE COMPANY
 DATE.        02-AUG-1961:   LOGDATE
 API .       490250632800:   API NUMBER
~CURVE INFORMATION
#MNEM.UNIT       API CODE    CURVE DESCRIPTION
#----------   ------------   ------------------------------
 DEPT.F                  :   
 GR  .GAPI   30 310 01 00:   GAMMA RAY
 SPR .MV     05 010 01 00:   SPONTANEOUS POTENTIAL FROM RES.
 CILD.MMHO   05 110 46 00:   CONDUCTIVITY INDUCTION LOG DEEP
 ASN .OHMM   05 041 16 00:   AMPLIFIED SHORT NORMAL 16"
 ILD .OHMM   05 120 46 00:   INDUCTION LOG DEEP
~PARAMETER INFORMATION
#MNEM.UNIT          VALUE    DESCRIPTION
#----------   ------------   ------------------------------
 PD  .                 GL:   PERMANENT DATUM
 EPD .F              5213:   ELEVATION PERMANENT DATUM
 LMF .                 KB:   LOG MEASURED FROM
 DAPD.F                 6:   FEET ABOVE PERMANENT DATUM
 DMF .                 KB:   DRILLING MEASURED FROM
 EKB .F              5219:   KELLING BUSHING
 EGL .F              5213:   GROUND LEVEL
 DATE.             8-2-61:   RUN DATE
 RUN .                  1:   RUN NUMBER
 DD  .F               920:   DEPTH DRILLER
 DL  .F               921:   DEPTH LOGGER
 BLI .F               920:   BOTTOM LOG INTERVAL
 TLI .F               100:   TOP LOG INTERVAL
 BS  .IN             6.75:   BIT SIZE
 BSD .F               920:   BIT SIZE AT DEPTH
 DFT .       OIL EMULSION:   DRILLING FLUID TYPE
 DFD .                9.2:   DRILLING FLUID DENSITY
 DFV .                 55:   DRILLING FLUID VISCOSITY
 MFSS.                  M:   MUD FILTRATE SAMPLE SOURCE
 MCSS.                  M:   MUD CAKE SAMPLE SOURCE
 RMB .OHMM            .75:   RESISTIVITY MUD AT BHT
 BHT .F                80:   BOTTOM HOLE TEMPERATURE
 TCS .HRS               1:   TIME CURCULATED STOPPED
 MRT .F                80:   MAXIMUM RECORDED TEMPERATURE
 LUN .               2552:   LOGGING UNIT NUMBER
 LUL .                RIV:   LOGGING UNIT LOCATION
 ENGI.             RANDLE:   RECORDING ENGINEER
 WITN.          VORGENSEN:   WITNESSED BY
 CLNT.            A2DTECH:   CLIENT CODE
 ORIG.       2", 5" PRINT:   ORIGIN OF DATA
 UWI .       490250632800:   UNIQUE WELL ID
 DICO. A2D Technologies, Inc.:   DIGITIZING COMPANY
~OTHER INFORMATION
~A   DEPT       GR        SPR       CILD        ASN        ILD   
# ...
  156.0000  -999.2500   -51.9104   189.0501     6.0753     5.2572
  156.5000  -999.2500   -52.0368   189.8798     6.0878     5.2612
  157.0000  -999.2500   -52.1597   189.8798     6.1129     5.2598
  157.5000  -999.2500   -52.2876   189.5541     6.1490     5.2595
  158.0000  -999.2500   -52.4067   187.9960     6.1840     5.2709
  158.5000  -999.2500   -52.5442   185.3106     6.2200     5.3056
  159.0000  -999.2500   -52.6024   182.6252     6.2555     5.3380
  159.5000  -999.2500   -52.4556   180.5654     6.2913     5.3733
  160.0000  -999.2500   -52.2933   179.7023     6.3269     5.4045
  160.5000  -999.2500   -52.1313   178.8391     6.3626     5.4433
  161.0000  -999.2500   -51.9666   177.8557     6.3992     5.4535
  161.5000  -999.2500   -51.8169   177.5668     6.4077     5.4228
  162.0000  -999.2500   -51.8001   177.2311     6.4112     5.3971
  162.5000  -999.2500   -51.8039   176.8537     6.4162     5.3686
  163.0000  -999.2500   -51.8002   177.8557     6.4203     5.3415
  163.5000  -999.2500   -51.8135   180.2204     6.4143     5.3138
  164.0000  -999.2500   -51.9282   182.9058     6.4177     5.2860
  164.5000  -999.2500   -52.0558   185.8717     6.3547     5.2590
  165.0000  -999.2500   -52.1786   187.2245     6.2649     5.2304
  165.5000  -999.2500   -52.3062   188.8778     6.2132     5.2049
  166.0000  -999.2500   -52.4267   188.8647     6.2052     5.1729
  166.5000  -999.2500   -52.5587   188.8828     6.1881     5.1724
  167.0000  -999.2500   -52.5948   188.5326     6.1815     5.2114
  167.5000  -999.2500   -52.5536   187.6705     6.1821     5.2452
  168.0000  -999.2500   -52.5271   186.8039     6.1813     5.2819
  168.5000  -999.2500   -52.4932   185.8791     6.1852     5.3169
  169.0000  -999.2500   -52.4634   183.9892     6.2180     5.3529
  169.5000  -999.2500   -52.4314   181.9679     6.2617     5.3882
  170.0000  -999.2500   -52.4004   179.9599     6.3078     5.4243
  170.5000  -999.2500   -52.3690   177.9459     6.5171     5.4580
  171.0000  -999.2500   -52.3378   176.1623     6.6161     5.4617
  171.5000  -999.2500   -52.3067   174.6518     6.5158     5.4611
  172.0000  -999.2500   -52.2754   173.1413     6.4864     5.4611
  172.5000  -999.2500   -52.2447   171.6308     6.5343     5.4616
  173.0000  -999.2500   -52.2134   170.8417     6.5898     5.4605
  173.5000  -999.2500   -52.2034   171.0577     6.6398     5.4629
  174.0000  -999.2500   -52.2040   171.5052     6.6543     5.4441
  174.5000  -999.2500   -52.2048   171.9528     6.6630     5.4033
  175.0000  -999.2500   -52.2026   172.4004     6.6745     5.3661
  175.5000  -999.2500   -52.2004   172.8457     6.6810     5.3265
  176.0000  -999.2500   -52.0394   173.6819     6.6726     5.2893
  176.5000  -999.2500   -52.0818   175.3297     6.6380     5.2487
  177.0000  -999.2500   -52.2140   176.9776     6.5815     5.2147
  177.5000  -999.2500   -52.3220   178.6254     6.5288     5.1679
  178.0000  -999.2500   -52.4422   180.2733     6.4745     5.1448
  178.5000  -999.2500   -52.5559   181.8637     6.4205     5.0761
  179.0000  -999.2500   -52.6732   182.8657     6.3675     5.1382
  179.5000  -999.2500   -52.7864   182.8657     6.3115     5.3749
  180.0000  -999.2500   -52.6847   184.1283     6.2686     5.3348
  180.5000  -999.2500   -52.5242   185.3367     6.2880     5.3390
  181.0000  -999.2500   -52.3749   184.9740     6.3258     5.3203
  181.5000  -999.2500   -52.2205   183.4115     6.3721     5.3136
  182.0000  -999.2500   -52.2002   181.7863     6.4166     5.3013
  182.5000  -999.2500   -52.2068   180.1623     6.4610     5.2906
  183.0000  -999.2500   -52.1988   178.5383     6.5075     5.2808
  183.5000  -999.2500   -52.2112   177.1527     6.5819     5.2667
  184.0000  -999.2500   -52.1884   175.9468     6.6569     5.2733
  184.5000  -999.2500   -52.2577   174.8728     6.7235     5.4054
  185.0000  -999.2500   -52.4101   171.3773     6.7832     5.5388
  185.5000  -999.2500   -52.4727   168.1002     6.8324     5.6762
  186.0000  -999.2500   -52.6632   162.7589     6.8942     5.9021
  186.5000  -999.2500   -52.8317   156.0454     6.9312     6.1198
  187.0000  -999.2500   -52.9843   149.3320     7.0952     6.3409
  187.5000  -999.2500   -52.8764   144.4973     7.3538     6.5548
  188.0000  -999.2500   -52.7375   140.8049     7.5845     6.7835
  188.5000  -999.2500   -52.6033   137.1126     7.8249     6.9512
  189.0000  -999.2500   -52.4683   135.7715     8.0618     6.9754
  189.5000  -999.2500   -52.3308   135.7715     8.1617     6.9363
  190.0000  -999.2500   -52.2131   136.7735     8.1096     6.8678
  190.5000  -999.2500   -52.2027   139.3988     7.9442     6.7739
  191.0000  -999.2500   -52.2042   143.4268     7.7790     6.5859
  191.5000  -999.2500   -52.2037   147.4549     7.6369     6.4297
  192.0000  -999.2500   -52.2041   151.4830     7.4889     6.2610
  192.5000  -999.2500   -52.2040   154.8096     7.4341     6.0942
  193.0000  -999.2500   -52.2043   158.8577     7.4283     5.9641
  193.5000  -999.2500   -52.2043   159.8196     7.4168     5.9763
  194.0000  -999.2500   -52.2044   158.4369     7.4058     6.0013
  194.5000  -999.2500   -52.2044   156.4229     7.4054     6.0308
  195.0000  -999.2500   -52.2044   154.4088     7.4108     6.0455
  195.5000  -999.2500   -52.2043   152.3948     7.5123     6.0869
  196.0000  -999.2500   -52.2044   148.6992     7.6763     6.1764
  196.5000  -999.2500   -52.2040   144.3050     7.8116     6.4300
  197.0000  -999.2500   -52.2047   139.9107     7.9666     6.7292
  197.5000  -999.2500   -52.2034   135.5165     8.0930     6.9871
  198.0000  -999.2500   -52.2056   131.1222     8.2709     7.2612
  198.5000  -999.2500   -52.2009   127.7555     8.4876     7.5295
  199.0000  -999.2500   -52.2377   123.4068     8.6376     7.7881
  199.5000  -999.2500   -52.2986   120.7415     8.7680     7.8996
  200.0000  -999.2500   -52.3503   119.7395     8.8792     7.9944
  200.5000  -999.2500   -52.4043   118.7375     8.9910     8.0465
  201.0000  -999.2500   -52.4599   119.3467     9.1152     8.0378
  201.5000  -999.2500   -52.5093   120.1523     9.1147     7.9142
  202.0000  -999.2500   -52.5742   121.9712     8.9807     7.7771
  202.5000  -999.2500   -52.5859   126.5486     8.7863     7.5585
  203.0000  -999.2500   -52.5032   131.1259     8.6100     7.2699
  203.5000  -999.2500   -52.4221   135.7032     8.4019     7.0057
  204.0000  -999.2500   -52.3464   140.2806     8.1976     6.6736
  204.5000  -999.2500   -52.2511   145.7916     7.9901     6.5482
  205.0000  -999.2500   -52.2303   144.7896     7.7684     6.5563
  205.5000  -999.2500   -52.3467   144.7285     7.6151     6.5307
  206.0000  -999.2500   -52.4513   144.5271     7.5824     6.5212
  206.5000  -999.2500   -52.5645   144.3257     7.6563     6.5028
  207.0000  -999.2500   -52.6715   144.1243     7.8451     6.4899
  207.5000  -999.2500   -52.7907   143.9229     7.9530     6.4720
  208.0000  -999.2500   -52.7629   143.7876     7.8829     6.4628
  208.5000  -999.2500   -52.7044   145.7916     7.8129     6.4642
  209.0000  -999.2500   -52.6379   149.4644     7.7288     6.4541
  209.5000  -999.2500   -52.6312   153.8586     7.5957     6.2779
  210.0000  -999.2500   -52.7383   158.2529     7.4425     6.0435
  210.5000  -999.2500   -52.8333   162.6471     7.2741     5.8194
  211.0000  -999.2500   -52.9387   167.0414     7.1529     5.5868
  211.5000  -999.2500   -53.0331   170.8417     7.0970     5.5805
  212.0000  -999.2500   -53.1468   170.8417     7.0294     5.6153
  212.5000  -999.2500   -53.2123   170.8417     6.9596     5.6437
  213.0000  -999.2500   -53.2060   169.6660     6.9203     5.6629
  213.5000  -999.2500   -53.2434   168.3233     6.9422     5.6598
  214.0000  -999.2500   -53.2885   166.9806     6.9643     5.6617
  214.5000  -999.2500   -53.3316   165.6379     7.0168     5.6611
  215.0000  -999.2500   -53.3815   164.8297     7.0824     5.6617
  215.5000  -999.2500   -53.4068   164.8297     7.1336     5.6617
  216.0000  -999.2500   -53.3367   165.8317     7.1759     5.6613
  216.5000  -999.2500   -53.2491   166.8318     7.1204     5.6620
