~VERSION INFORMATION
 VERS.                2.0:   CWLS LOG ASCII STANDARD - VERSION 2.0
 WRAP.                 NO:   ONE LINE PER DEPTH STEP
~WELL INFORMATION
#MNEM.UNIT      DATA TYPE    INFORMATION
#----------   ------------   ------------------------------
 STRT.F           40.0000:   START DEPTH
 STOP.F          684.0000:   STOP DEPTH
 STEP.F            0.5000:   STEP LENGTH
 NULL.          -999.2500:   NO VALUE
 COMP.    FENIX & SCISSON:   COMPANY
 WELL.   N P R-3 #26SX2-2:   WELL
 FLD .             TEAPOT:   FIELD
 LOC .       S2 T38N R78W:   LOCATION
 CNTY.            NATRONA:   COUNTY
 STAT.            WYOMING:   STATE
 CTRY. UNITED STATES OF AMERICA:   COUNTRY
 SRVC.            Unknown:   SERVICE COMPANY
 DATE.        26-JAN-1978:   LOGDATE
 API .       490251056400:   API NUMBER
~CURVE INFORMATION
#MNEM.UNIT       API CODE    CURVE DESCRIPTION
#----------   ------------   ------------------------------
 DEPT.F                  :   
 ILD .OHMM   05 120 46 00:   INDUCTION LOG DEEP
 SN  .OHMM   05 040 16 00:   SHORT NORMAL 16"
 SPR .MV     05 010 01 00:   SPONTANEOUS POTENTIAL FROM RES.
 CALD.IN     45 280 60 00:   CALIPER FROM DENSITY LOG
 CORR.G/C3   45 356 01 00:   DENSITY CORRECTION
 DPHI.DEC    45 890 12 00:   DENSITY POROSITY SANDSTONE
 GRD .GAPI   45 310 01 00:   GAMMA RAY FROM DENSITY LOG
 RHOB.G/C3   45 350 01 00:   BULK DENSITY
~PARAMETER INFORMATION
#MNEM.UNIT          VALUE    DESCRIPTION
#----------   ------------   ------------------------------
 PD  .                 GL:   PERMANENT DATUM
 EPD .F              5142:   ELEVATION PERMANENT DATUM
 LMF .                 KB:   LOG MEASURED FROM
 DMF .                 KB:   DRILLING MEASURED FROM
 EKB .F              5146:   KELLING BUSHING
 EGL .F              5142:   GROUND LEVEL
 DATE.        26-JAN-1978:   RUN DATE
 RUN .                  1:   RUN NUMBER
 DD  .F               690:   DEPTH DRILLER
 DL  .F               684:   DEPTH LOGGER
 BLI .F               684:   BOTTOM LOG INTERVAL
 TLI .F                50:   TOP LOG INTERVAL
 CS  .IN            8.625:   CASING SIZE
 CBD .F                39:   CASING BOTTOM DRILLER
 CBL .F                40:   CASING BOTTOM LOGGER
 BS  .IN            7.875:   BIT SIZE
 BSD .F               690:   BIT SIZE AT DEPTH
 DFT .                KCL:   DRILLING FLUID TYPE
 DFD .                8.5:   DRILLING FLUID DENSITY
 DFV .                 33:   DRILLING FLUID VISCOSITY
 DFPH.                  9:   DRILLING FLUID PH
 MSS .           FLOWLINE:   MUD SAMPLE SOURCE
 RMS .OHMM           0.48:   RESISTIVITY MUD SAMPLE
 MST .F                75:   MUD SAMPLE TEMPERATURE
 RMF .OHMM           0.46:   RESISTIVITY MUD FILTRATE SAMPLE
 MFST.F                75:   MUD FILTRATE SAMPLE TEMPERATURE
 RMC .OHMM              1:   RESISTIVITY MUD CAKE
 MCST.F                75:   MUD CAKE SAMPLE TEMPERATURE
 MFSS.               MEAS:   MUD FILTRATE SAMPLE SOURCE
 MCSS.               MEAS:   MUD CAKE SAMPLE SOURCE
 RMB .OHMM           0.47:   RESISTIVITY MUD AT BHT
 BHT .F                76:   BOTTOM HOLE TEMPERATURE
 TCS .HRS               1:   TIME CURCULATED STOPPED
 MRT .F                76:   MAXIMUM RECORDED TEMPERATURE
 LUN .               2958:   LOGGING UNIT NUMBER
 LUL .             CASPER:   LOGGING UNIT LOCATION
 ENGI.           REYNOLDS:   RECORDING ENGINEER
 WITN.       MR. MCGINLEY:   WITNESSED BY
 CLNT.            A2DTECH:   CLIENT CODE
 ORIG.      2.5" 5" PRINT:   ORIGIN OF DATA
 UWI .       490251056400:   UNIQUE WELL ID
 DICO. A2D Technologies, Inc.:   DIGITIZING COMPANY
~OTHER INFORMATION
~A   DEPT      ILD         SN        SPR       CALD       CORR       DPHI         GRD        RHOB 
# ...
  202.0000     7.0198     7.4969   -58.3764     9.4383     0.2621     0.2322   106.2691     2.2803
  202.5000     7.0335     7.7118   -58.3663     9.4385     0.2654     0.2285   105.6575     2.2812
  203.0000     7.0873     7.8245   -58.2079     9.4386     0.2686     0.2267   105.0459     2.2818
  203.5000     7.0925     7.9388   -58.1975     9.4388     0.2708     0.2267   104.7350     2.2833
  204.0000     7.0977     7.9995   -58.0370     9.4389     0.2709     0.2261   104.1080     2.2864
  204.5000     7.0530     8.0056   -57.8786     9.4087     0.2709     0.2249   103.7513     2.2894
  205.0000     7.0594     8.0127   -57.7202     9.4088     0.2710     0.2218   102.8542     2.2924
  205.5000     7.0647     8.0186   -57.5619     9.4090     0.2711     0.2188   102.0948     2.2970
  206.0000     7.0699     8.0245   -57.5518     9.4091     0.2664     0.2170   103.5575     2.3000
  206.5000     7.0266     8.0304   -57.3934     9.3789     0.2591     0.2151   106.0602     2.3061
  207.0000     7.0330     8.0363   -57.5316     9.3790     0.2561     0.2139   105.2905     2.3076
  207.5000     7.0373     8.0422   -57.5214     9.3488     0.2502     0.2126   102.9562     2.3106
  208.0000     7.0434     7.9929   -57.6597     9.3489     0.2472     0.2121   101.7023     2.3074
  208.5000     7.0486     7.9989   -57.6471     9.3491     0.2412     0.2137   100.4485     2.3061
  209.0000     7.0538     8.0061   -57.7852     9.3492     0.2352     0.2153    99.5005     2.3045
  209.5000     7.0590     8.0119   -57.7751     9.3494     0.2353     0.2166    98.9297     2.3030
  210.0000     7.0642     7.9614   -57.7650     9.3495     0.2323     0.2175    98.9297     2.3030
  210.5000     7.0694     7.9687   -57.7550     9.3497     0.2324     0.2160    99.2355     2.3030
  211.0000     7.0747     7.9745   -57.8936     9.3498     0.2324     0.2141   101.0703     2.3043
  211.5000     7.0811     7.9255   -58.0315     9.3500     0.2325     0.2126   102.9052     2.3083
  212.0000     7.0854     7.8749   -58.0211     9.3502     0.2326     0.2120   105.0459     2.3114
  212.5000     7.0915     7.7131   -58.1837     9.3503     0.2356     0.2108   106.2691     2.3121
  213.0000     7.0968     7.6231   -58.4458     9.3505     0.2357     0.2108   106.2691     2.3091
  213.5000     7.1020     7.6287   -58.5840     9.3506     0.2358     0.2108   106.2691     2.3076
  214.0000     7.1072     7.6343   -58.5714     9.3508     0.2358     0.2114   106.2691     2.3076
  214.5000     7.1616     7.5861   -58.7121     9.3509     0.2359     0.2114   106.2691     2.3091
  215.0000     7.1668     7.5931   -58.5512     9.3511     0.2372     0.2108   105.9633     2.3106
  215.5000     7.2217     7.5987   -58.5411     9.3512     0.2390     0.2095   105.2854     2.3121
  216.0000     7.2283     7.6043   -58.0862     9.3514     0.2406     0.2076   104.2711     2.3167
  216.5000     7.2835     7.5590   -57.9277     9.3504     0.2422     0.2051   103.3232     2.3197
  217.0000     7.2889     7.5646   -57.7670     9.3494     0.2422     0.2029   102.4873     2.3182
  217.5000     7.3058     7.5701   -57.6086     9.3485     0.2423     0.2059   101.8603     2.3165
  218.0000     7.2983     7.6807   -57.4502     9.3475     0.2454     0.2084   101.3761     2.3134
  218.5000     7.3050     7.7394   -57.2919     9.3466     0.2454     0.2110   101.5341     2.3121
  219.0000     7.3102     7.9067   -57.2818     9.3456     0.2455     0.2119   102.4669     2.3106
  219.5000     7.3158     7.9672   -57.2717     9.3447     0.2456     0.2109   103.5168     2.3110
  220.0000     7.3212     7.9183   -57.2616     9.3437     0.2456     0.2070   103.5168     2.3141
  220.5000     7.3268     7.9256   -57.3998     9.3427     0.2396     0.2004   102.9052     2.3266
  221.0000     7.3333     7.8756   -57.5380     9.3418     0.2367     0.1895   102.5994     2.3412
  221.5000     7.3893     7.7736   -57.8219     9.3408     0.2277     0.1949   102.2936     2.3433
  222.0000     7.4458     7.7807   -57.8118     9.3399     0.2215     0.1979   102.2936     2.3364
  222.5000     7.5545     7.7316   -57.8017     9.3389     0.2154     0.1997   102.5994     2.3364
  223.0000     7.6648     7.8460   -57.7916     9.3380     0.2123     0.1937   103.2110     2.3364
  223.5000     7.6177     8.0156   -57.7815     9.3370     0.2128     0.1919   102.9001     2.3333
  224.0000     7.5712     8.1935   -57.7714     9.3361     0.2196     0.1926   102.5790     2.3273
  224.5000     7.5769     8.2529   -57.7613     9.3351     0.2250     0.1981   101.9521     2.3227
  225.0000     7.5826     8.2023   -57.7512     9.3341     0.2291     0.2011   101.3761     2.3227
  225.5000     7.8011     8.2084   -57.7409     9.3332     0.2312     0.2027   101.0041     2.3227
  226.0000     8.0246     8.2711   -57.5803     9.3322     0.2312     0.2033   100.4587     2.3227
  226.5000     8.2546     8.3344   -57.5702     9.3313     0.2313     0.2033   102.9868     2.3212
  227.0000     8.1478     8.5145   -57.5601     9.3303     0.2283     0.2033   105.0459     2.3212
  227.5000     8.0424     8.6389   -57.5500     9.3294     0.2254     0.2033   105.1733     2.3213
  228.0000     8.0483     8.8315   -57.6890     9.3284     0.2254     0.2027   105.4944     2.3242
  228.5000     8.1658     9.0803   -57.5298     9.3274     0.2225     0.2023   105.8155     2.3258
  229.0000     8.3450     9.2130   -57.3714     9.3265     0.2225     0.2014   106.2691     2.3273
  229.5000     8.5226     9.1548   -57.3613     9.3255     0.2226     0.2026   106.2691     2.3253
  230.0000     8.4702     9.1626   -57.2026     9.3252     0.2227     0.2026   105.0459     2.3237
  230.5000     8.4183     9.1700   -57.1904     9.3254     0.2227     0.2032   104.4342     2.3227
  231.0000     8.4253     9.1767   -57.0336     9.3255     0.2228     0.2026   103.8226     2.3227
  231.5000     8.4323     9.1834   -57.0219     9.3257     0.2228     0.2020   103.2110     2.3242
  232.0000     8.4385     9.2538   -57.0118     9.3384     0.2229     0.2008   102.5994     2.3266
  232.5000     8.5617     9.3261   -57.1500     9.3564     0.2260     0.2014   102.2936     2.3297
  233.0000     8.6867     9.5277   -57.1399     9.3565     0.2260     0.2020   101.6820     2.3303
  233.5000     8.8158     9.7337   -57.2783     9.3567     0.2261     0.2026   101.3711     2.3303
  234.0000     9.0042     9.8758   -57.5645     9.3569     0.2262     0.2026   100.4383     2.3303
  234.5000     9.0744    10.0201   -57.7027     9.3570     0.2262     0.2024    99.1998     2.3303
  235.0000     9.2069    10.1664   -57.8409     9.3572     0.2263     0.2019    97.8593     2.3303
  235.5000     9.2773    10.1739   -57.9790     9.3573     0.2263     0.2002    96.4832     2.3318
  236.0000     9.3482    10.3227   -57.9664     9.3574     0.2264     0.1943    98.8685     2.3424
  236.5000     9.3551    10.4034   -58.1071     9.3576     0.2234     0.1934    99.8471     2.3439
  237.0000     9.3620    10.4110   -58.0945     9.3578     0.2191     0.1934    98.8175     2.3424
  237.5000     9.3689    10.4186   -58.0844     9.3579     0.2145     0.1921    98.1906     2.3409
  238.0000     9.3758    10.3529   -58.0743     9.3277     0.2146     0.1868    97.7064     2.3428
  238.5000     9.3829    10.2894   -58.0552     9.3278     0.2116     0.1807    98.0224     2.3490
  239.0000     9.3913    10.2988   -57.2867     9.3280     0.2117     0.1867    98.9297     2.3556
  239.5000     9.3982    10.2357   -56.8554     9.3281     0.2117     0.1928    98.9297     2.3621
  240.0000     9.4051    10.2435   -56.8453     9.3283     0.2118     0.1976    98.3180     2.3394
  240.5000     9.4121    10.2526   -56.8352     9.3284     0.2118     0.1988    98.0122     2.3358
  241.0000     9.2886    10.2601   -56.8251     9.3286     0.2119     0.1988    98.0122     2.3342
  241.5000     9.1701    10.1273   -56.8150     9.3287     0.2120     0.1963    97.7064     2.3341
  242.0000     9.1138    10.0634   -56.8049     9.3289     0.2120     0.1926    97.0948     2.3380
