~VERSION INFORMATION
 VERS.                2.0:   CWLS LOG ASCII STANDARD - VERSION 2.0
 WRAP.                 NO:   ONE LINE PER DEPTH STEP
~WELL INFORMATION
#MNEM.UNIT      DATA TYPE    INFORMATION
#----------   ------------   ------------------------------
 STRT.F            8.0000:   START DEPTH
 STOP.F         3200.0000:   STOP DEPTH
 STEP.F            0.5000:   STEP LENGTH
 NULL.          -999.2500:   NO VALUE
 COMP. BROWN JOHN E&C INC:   COMPANY
 WELL.  62 x 15-17 #62-15:   WELL
 FLD .        N.P.R NO. 3:   FIELD
 LOC .      S15 T38N R78W:   LOCATION
 CNTY.            NATRONA:   COUNTY
 STAT.            WYOMING:   STATE
 CTRY. UNITED STATES OF AMERICA:   COUNTRY
 SRVC.      Western Atlas:   SERVICE COMPANY
 DATE.        17-JUN-1986:   LOGDATE
 API .       490251104300:   API NUMBER
~CURVE INFORMATION
#MNEM.UNIT       API CODE    CURVE DESCRIPTION
#----------   ------------   ------------------------------
 DEPT.F                  :   
 GRR .GAPI   07 310 01 00:   GAMMA RAY
 CALR.IN     07 280 01 00:   CALIPER FROM RESISTIVITY
 SPR .MV     07 010 01 00:   SPONTANEOUS POTENTIAL
 RILD.OHMM   07 120 46 00:   INDUCTION LOG DEEP RESISTIVITY
 RILM.OHMM   07 120 44 00:   INDUCTION LOG MEDIUM RESISTIVITY
 RFOC.OHMM   07 220 04 00:   RESISTIVITY FOCUSED LOG
 PORD.DEC    45 890 12 00:   POROSITY DENSITY SANDSTONE
 CNC .DEC    42 890 03 00:   NEUTRON POROSITY SANDSTONE
 CORR.G/C3   45 356 01 00:   DENSITY CORRECTION
 DEN .G/C3   45 350 01 00:   COMPENSATED BULK DENSTIY
~PARAMETER INFORMATION
#MNEM.UNIT          VALUE    DESCRIPTION
#----------   ------------   ------------------------------
 PD  .                 GL:   PERMANENT DATUM
 EPD .F              5242:   ELEVATION PERMANENT DATUM
 LMF .                 KB:   LOG MEASURED FROM
 DAPD.F                11:   FEET ABOVE PERMANENT DATUM
 DMF .                 KB:   DRILLING MEASURED FROM
 EKB .F              5253:   KELLING BUSHING
 EGL .F              5242:   GROUND LEVEL
 DATE.            6-17-86:   RUN DATE
 RUN .                  1:   RUN NUMBER
 DD  .F              3200:   DEPTH DRILLER
 DL  .F              3202:   DEPTH LOGGER
 BLI .F              3200:   BOTTOM LOG INTERVAL
 CS  .IN            8.625:   CASING SIZE
 CBD .F               573:   CASING BOTTOM DRILLER
 CBL .F               573:   CASING BOTTOM LOGGER
 BS  .IN            7.875:   BIT SIZE
 BSD .F              3200:   BIT SIZE AT DEPTH
 DFT .            KCL/GEL:   DRILLING FLUID TYPE
 DFD .                8.9:   DRILLING FLUID DENSITY
 DFV .                 37:   DRILLING FLUID VISCOSITY
 DFPH.                8.5:   DRILLING FLUID PH
 DFL .               10.2:   DRILLING FLUID LOSS
 MSS .           MUD TANK:   MUD SAMPLE SOURCE
 RMS .OHMM            .39:   RESISTIVITY MUD SAMPLE
 MST .F                80:   MUD SAMPLE TEMPERATURE
 RMF .OHMM            .29:   RESISTIVITY MUD FILTRATE SAMPLE
 MFST.F                80:   MUD FILTRATE SAMPLE TEMPERATURE
 RMC .OHMM            .49:   RESISTIVITY MUD CAKE
 MCST.F                80:   MUD CAKE SAMPLE TEMPERATURE
 MFSS.               CALC:   MUD FILTRATE SAMPLE SOURCE
 MCSS.               CALC:   MUD CAKE SAMPLE SOURCE
 RMB .OHMM            .24:   RESISTIVITY MUD AT BHT
 BHT .F               130:   BOTTOM HOLE TEMPERATURE
 TCS .HRS               5:   TIME CURCULATED STOPPED
 MRT .F               130:   MAXIMUM RECORDED TEMPERATURE
 LUN .            HL 6264:   LOGGING UNIT NUMBER
 LUL .           GILLETTE:   LOGGING UNIT LOCATION
 ENGI.      P.H. FAHLSING:   RECORDING ENGINEER
 WITN.             STRONG:   WITNESSED BY
 CLNT.            A2DTECH:   CLIENT CODE
 UWI .       490251104300:   UNIQUE WELL ID
 DICO. A2D Technologies, Inc.:   DIGITIZING COMPANY
~OTHER INFORMATION
~A    DEPT     GRR       CALR        SPR       RILD       RILM       RFOC       PORD        CNC       CORR        DEN   
# ...
 1448.5000    98.7567    10.2090   -48.1333     8.0320     7.6958     8.1100  -999.2500  -999.2500  -999.2500  -999.2500
 1449.0000    95.1675    10.2090   -48.1290     8.0307     7.6942     7.9405  -999.2500  -999.2500  -999.2500  -999.2500
 1449.5000    94.8781    10.2090   -48.1246     8.0294     7.6927     8.1726  -999.2500  -999.2500  -999.2500  -999.2500
 1450.0000    96.8864    10.2117   -48.1203     8.0285     7.6912     8.4731  -999.2500  -999.2500  -999.2500  -999.2500
 1450.5000    98.0861    10.2388   -47.9169     8.0274     7.6675     8.7567  -999.2500  -999.2500  -999.2500  -999.2500
 1451.0000    96.4340    10.2389   -47.9579     8.0263     7.6439     8.9291  -999.2500  -999.2500  -999.2500  -999.2500
 1451.5000    94.0490    10.2537   -48.5740     8.0252     7.6202     8.9276  -999.2500  -999.2500  -999.2500  -999.2500
 1452.0000    92.8651    10.2836   -49.1493     7.9686     7.5965     9.1769  -999.2500  -999.2500  -999.2500  -999.2500
 1452.5000    91.6220    10.2985   -49.2939     7.9127     7.5827     9.2394  -999.2500  -999.2500  -999.2500  -999.2500
 1453.0000    89.9011    10.3284   -49.5874     7.8571     7.5299     8.8010  -999.2500  -999.2500  -999.2500  -999.2500
 1453.5000    89.0132    10.3134   -49.7334     7.8019     7.5294     8.4420  -999.2500  -999.2500  -999.2500  -999.2500
 1454.0000    92.9388    10.2985   -49.7262     7.8006     7.4768     8.2674  -999.2500  -999.2500  -999.2500  -999.2500
 1454.5000    96.2595    10.2836   -49.5699     7.7458     7.4763     8.4397  -999.2500  -999.2500  -999.2500  -999.2500
 1455.0000    99.5802    10.2836   -49.2620     7.6914     7.4758     8.6754  -999.2500  -999.2500  -999.2500  -999.2500
 1455.5000   101.4116    10.2985   -49.1059     7.6904     7.4753     8.7952  -999.2500  -999.2500  -999.2500  -999.2500
 1456.0000   100.5187    10.2836   -48.7993     7.6364     7.3720     8.7940  -999.2500  -999.2500  -999.2500  -999.2500
 1456.5000   100.2314    10.2836   -48.4928     7.6354     7.3715     8.7925  -999.2500  -999.2500  -999.2500  -999.2500
 1457.0000   101.1540    10.2836   -48.1863     7.6343     7.3709     8.7914  -999.2500  -999.2500  -999.2500  -999.2500
 1457.5000   103.2734    10.2836   -47.8797     7.6331     7.3704     8.7296  -999.2500  -999.2500  -999.2500  -999.2500
 1458.0000   103.8914    10.2836   -47.8725     7.6853     7.3191     8.5491  -999.2500  -999.2500  -999.2500  -999.2500
 1458.5000   100.3095    10.2836   -47.8667     7.6840     7.3186     8.3146  -999.2500  -999.2500  -999.2500  -999.2500
 1459.0000    98.5207    10.2985   -47.8609     7.6830     7.3181     8.1427  -999.2500  -999.2500  -999.2500  -999.2500
 1459.5000    98.8427    10.3284   -47.8551     7.6820     7.3176     8.2013  -999.2500  -999.2500  -999.2500  -999.2500
 1460.0000    99.7609    10.3433   -47.9997     7.6809     7.3171     8.5442  -999.2500  -999.2500  -999.2500  -999.2500
 1460.5000   100.3789    10.3582   -47.9939     7.6799     7.3165     8.7828  -999.2500  -999.2500  -999.2500  -999.2500
 1461.0000   100.9968    10.3433   -47.9880     7.6786     7.3160     8.8429  -999.2500  -999.2500  -999.2500  -999.2500
 1461.5000    94.4119    10.3284   -48.2816     7.6776     7.3155     8.6001  -999.2500  -999.2500  -999.2500  -999.2500
 1462.0000    92.3228    10.3284   -48.7270     7.6766     7.2645     8.3642  -999.2500  -999.2500  -999.2500  -999.2500
 1462.5000    94.1463    10.3134   -49.1738     7.6756     7.2641     8.1913  -999.2500  -999.2500  -999.2500  -999.2500
 1463.0000    95.3649    10.3134   -49.6191     7.6745     7.2636     8.1337  -999.2500  -999.2500  -999.2500  -999.2500
 1463.5000    95.3822    10.3134   -49.7624     7.6735     7.2630     8.3029  -999.2500  -999.2500  -999.2500  -999.2500
 1464.0000    92.3966    10.3134   -49.7564     7.6722     7.2625     8.5348  -999.2500  -999.2500  -999.2500  -999.2500
 1464.5000    89.6103    10.3134   -49.5988     7.6712     7.2620     8.7130  -999.2500  -999.2500  -999.2500  -999.2500
 1465.0000    87.6308    10.3134   -49.4427     7.6702     7.2615     8.8329  -999.2500  -999.2500  -999.2500  -999.2500
 1465.5000    87.6482    10.3284   -49.1362     7.6692     7.2610     8.6503  -999.2500  -999.2500  -999.2500  -999.2500
 1466.0000    89.7676    10.3300   -48.8296     7.6682     7.2606     8.4714  -999.2500  -999.2500  -999.2500  -999.2500
 1466.5000    93.0883    10.3433   -48.5231     7.6143     7.2600     8.5291  -999.2500  -999.2500  -999.2500  -999.2500
 1467.0000    96.1086    10.3433   -48.0661     7.6133     7.3099     8.5869  -999.2500  -999.2500  -999.2500  -999.2500
 1467.5000    98.5486    10.3433   -47.8872     7.6120     7.3094     8.5857  -999.2500  -999.2500  -999.2500  -999.2500
 1468.0000    99.7513    10.3582   -47.6020     7.6641     7.3089     8.5846  -999.2500  -999.2500  -999.2500  -999.2500
 1468.5000   100.3692    10.3582   -47.4458     7.6628     7.3085     8.5834  -999.2500  -999.2500  -999.2500  -999.2500
 1469.0000   102.1884    10.3582   -47.4400     7.6618     7.3080     8.5231  -999.2500  -999.2500  -999.2500  -999.2500
 1469.5000   104.6081    10.3731   -47.4343     7.6607     7.3075     8.3469  -999.2500  -999.2500  -999.2500  -999.2500
 1470.0000   102.8237    10.3881   -47.5790     7.6597     7.3578     8.5248  -999.2500  -999.2500  -999.2500  -999.2500
 1470.5000    98.6368    10.4030   -47.5865     7.6587     7.3572     8.6984  -999.2500  -999.2500  -999.2500  -999.2500
 1471.0000    99.0189    10.4030   -47.8666     7.6574     7.3567     8.4012  -999.2500  -999.2500  -999.2500  -999.2500
 1471.5000   101.3786    10.3881   -48.1615     7.6564     7.3562     8.1708  -999.2500  -999.2500  -999.2500  -999.2500
 1472.0000   103.4980    10.3859   -48.4565     7.6554     7.3049     8.0574  -999.2500  -999.2500  -999.2500  -999.2500
 1472.5000    99.0109    10.3582   -48.7515     7.6544     7.2540     8.0563  -999.2500  -999.2500  -999.2500  -999.2500
 1473.0000    98.4233    10.3582   -48.8962     7.6533     7.2034     8.0552  -999.2500  -999.2500  -999.2500  -999.2500
 1473.5000   101.4480    10.3731   -48.8902     7.6523     7.2029     8.1101  -999.2500  -999.2500  -999.2500  -999.2500
 1474.0000   104.1761    10.3731   -48.8830     7.6511     7.1527     8.1087  -999.2500  -999.2500  -999.2500  -999.2500
 1474.5000   105.6912    10.3731   -48.7269     7.6500     7.1522     8.2206  -999.2500  -999.2500  -999.2500  -999.2500
 1475.0000   102.7056    10.3731   -48.5707     7.6490     7.1517     8.3919  -999.2500  -999.2500  -999.2500  -999.2500
 1475.5000   100.3205    10.3731   -48.4145     7.6480     7.1513     8.6263  -999.2500  -999.2500  -999.2500  -999.2500
 1476.0000    98.2358    10.3731   -48.2584     7.6470     7.1508     8.7457  -999.2500  -999.2500  -999.2500  -999.2500
 1476.5000    98.8538    10.3582   -48.1022     7.6990     7.1502     8.5055  -999.2500  -999.2500  -999.2500  -999.2500
 1477.0000   100.3726    10.3582   -47.9459     7.6980     7.1497     8.2680  -999.2500  -999.2500  -999.2500  -999.2500
 1477.5000   103.1533    10.3582   -47.9388     7.6967     7.1492     8.1009  -999.2500  -999.2500  -999.2500  -999.2500
 1478.0000   102.5138    10.3881   -47.9330     7.6957     7.1488     8.0998  -999.2500  -999.2500  -999.2500  -999.2500
 1478.5000    98.6272    10.4030   -47.9272     7.6946     7.1483     8.2118  -999.2500  -999.2500  -999.2500  -999.2500
 1479.0000    95.0409    10.4478   -47.9214     7.7470     7.1478     8.3252  -999.2500  -999.2500  -999.2500  -999.2500
 1479.5000    92.6559    10.4627   -47.7653     7.6926     7.1472     8.3816  -999.2500  -999.2500  -999.2500  -999.2500
 1480.0000    92.6328    10.4627   -47.7493     7.6916     7.1467     8.3227  -999.2500  -999.2500  -999.2500  -999.2500
 1480.5000    94.7928    10.4627   -47.4515     7.6375     7.1463     8.3215  -999.2500  -999.2500  -999.2500  -999.2500
 1481.0000    93.6132    10.4627   -47.1450     7.5837     7.1458     8.3202  -999.2500  -999.2500  -999.2500  -999.2500
 1481.5000    91.8287    10.4627   -47.1392     7.5304     7.0960     8.2617  -999.2500  -999.2500  -999.2500  -999.2500
