~VERSION INFORMATION
 VERS.                2.0:   CWLS LOG ASCII STANDARD - VERSION 2.0
 WRAP.                 NO:   ONE LINE PER DEPTH STEP
~WELL INFORMATION
#MNEM.UNIT      DATA TYPE    INFORMATION
#----------   ------------   ------------------------------
 STRT.F           38.5000:   START DEPTH
 STOP.F          606.0000:   STOP DEPTH
 STEP.F            0.5000:   STEP LENGTH
 NULL.          -999.2500:   NO VALUE
 COMP. FENIX & SCISSON INC:   COMPANY
 WELL.      NPR-X3 #185-2:   WELL
 FLD .             TEAPOT:   FIELD
 LOC .       S2 T38N R78W:   LOCATION
 CNTY.            NATRONA:   COUNTY
 STAT.            WYOMING:   STATE
 CTRY. UNITED STATES OF AMERICA:   COUNTRY
 SRVC.            Unknown:   SERVICE COMPANY
 DATE.        30-JAN-1978:   LOGDATE
 API .       490251056200:   API NUMBER
~CURVE INFORMATION
#MNEM.UNIT       API CODE    CURVE DESCRIPTION
#----------   ------------   ------------------------------
 DEPT.F                  :   
 CALD.IN     45 280 60 00:   CALIPER
 GRD .GAPI   45 310 01 00:   GAMMA RAY FROM DENSITY LOG
 CORR.G/C3   45 356 01 00:   DENSITY CORRECTION
 RHOB.G/C3   45 350 01 00:   BULK DENSITY
 DPHI.DEC    45 890 12 00:   DENSITY POROSITY SANDSTONE
 SPR .MV     05 010 01 00:   SPONTANEOUS POTENTIAL FROM RES.
 SN  .OHMM   05 040 16 00:   SHORT NORMAL 16"
 ILD .OHMM   05 120 46 00:   INDUCTION LOG DEEP
~PARAMETER INFORMATION
#MNEM.UNIT          VALUE    DESCRIPTION
#----------   ------------   ------------------------------
 PD  .                 GL:   PERMANENT DATUM
 EPD .F              5134:   ELEVATION PERMANENT DATUM
 LMF .                 KB:   LOG MEASURED FROM
 DAPD.F                 4:   FEET ABOVE PERMANENT DATUM
 DMF .                 KB:   DRILLING MEASURED FROM
 EKB .F              5138:   KELLING BUSHING
 EGL .F              5134:   GROUND LEVEL
 DATE.            1-30-78:   RUN DATE
 RUN .                  1:   RUN NUMBER
 DD  .F               600:   DEPTH DRILLER
 DL  .F               604:   DEPTH LOGGER
 BLI .F               598:   BOTTOM LOG INTERVAL
 TLI .F                40:   TOP LOG INTERVAL
 CS  .IN            8.625:   CASING SIZE
 CBD .F                40:   CASING BOTTOM DRILLER
 CBL .F                41:   CASING BOTTOM LOGGER
 BS  .IN            7.875:   BIT SIZE
 BSD .F               600:   BIT SIZE AT DEPTH
 DFT .                KCL:   DRILLING FLUID TYPE
 DFD .                8.6:   DRILLING FLUID DENSITY
 DFV .                 34:   DRILLING FLUID VISCOSITY
 DFPH.                 10:   DRILLING FLUID PH
 DFL .                  7:   DRILLING FLUID LOSS
 MSS .                PIT:   MUD SAMPLE SOURCE
 RMS .OHMM            .65:   RESISTIVITY MUD SAMPLE
 MST .F                70:   MUD SAMPLE TEMPERATURE
 RMF .OHMM            1.2:   RESISTIVITY MUD FILTRATE SAMPLE
 MFST.F                64:   MUD FILTRATE SAMPLE TEMPERATURE
 MFSS.               MEAS:   MUD FILTRATE SAMPLE SOURCE
 RMB .OHMM            .64:   RESISTIVITY MUD AT BHT
 BHT .F                71:   BOTTOM HOLE TEMPERATURE
 TCS .HRS               3:   TIME CURCULATED STOPPED
 MRT .F                71:   MAXIMUM RECORDED TEMPERATURE
 LUN .               2958:   LOGGING UNIT NUMBER
 LUL .                CAS:   LOGGING UNIT LOCATION
 ENGI.           REYNOLDS:   RECORDING ENGINEER
 WITN.         HARRINGTON:   WITNESSED BY
 CLNT.            A2DTECH:   CLIENT CODE
 ORIG.        2" 5" PRINT:   ORIGIN OF DATA
 UWI .       490251056200:   UNIQUE WELL ID
 DICO. A2D Technologies, Inc.:   DIGITIZING COMPANY
~OTHER INFORMATION
~A   DEPT     CALD        GRD        CORR      RHOB       DPHI        SPR         SN        ILD   
# ...
  119.5000     8.1695   118.1367     0.2886     2.4338     0.1455   -70.9888     9.0795     8.2066
  120.0000     8.1582   116.1183     0.3082     2.4218     0.1491   -71.0161     8.9984     8.1870
  120.5000     8.1469   110.5622     0.3083     2.4180     0.1472   -71.0428     8.9112     8.1675
  121.0000     8.1352   110.7456     0.3082     2.4183     0.1460   -71.0657     8.8249     8.1480
  121.5000     8.1210   112.2538     0.3087     2.4198     0.1494   -71.2287     8.7397     8.1267
  122.0000     8.1071   110.5542     0.3095     2.4104     0.1548   -71.4046     8.6654     8.0976
  122.5000     8.0932   110.5555     0.3103     2.3985     0.1559   -71.5808     8.6347     8.0686
  123.0000     8.0796   112.2408     0.3023     2.3992     0.1547   -71.7530     8.6038     7.9615
  123.5000     8.0802   114.3008     0.2943     2.4043     0.1423   -71.8009     8.5730     7.8100
  124.0000     8.0821   116.5212     0.2768     2.4228     0.1345   -71.5972     8.5422     7.6614
  124.5000     8.0839   119.0211     0.2350     2.4497     0.1257   -71.4699     8.5142     7.5561
  125.0000     8.0857   119.0059     0.1911     2.4533     0.1352   -71.4714     8.2392     7.4459
  125.5000     8.0876   117.5754     0.1544     2.4335     0.1431   -71.4715     7.9931     7.3082
  126.0000     8.0894   118.8828     0.1532     2.4247     0.1421   -71.4753     7.7544     7.1732
  126.5000     8.0912   120.9246     0.1570     2.4151     0.1587   -71.3236     7.5561     7.0857
  127.0000     8.0930   120.2427     0.1607     2.3985     0.1567   -71.1457     7.4870     7.0857
  127.5000     8.0948   120.8847     0.1635     2.4012     0.1517   -70.9698     7.4870     7.0857
  128.0000     8.0966   120.5076     0.1646     2.4098     0.1458   -70.9701     7.5601     7.1398
  128.5000     8.0986   120.5451     0.1661     2.4185     0.1451   -71.1730     7.6863     7.2329
  129.0000     8.1012   121.2710     0.1689     2.4222     0.1396   -71.2696     7.8146     7.3272
  129.5000     8.1086   118.1941     0.1710     2.4265     0.1394   -71.2381     7.9450     7.4228
  130.0000     8.1158   114.2408     0.1698     2.4307     0.1378   -71.1234     8.0776     7.5196
  130.5000     8.1231   111.7734     0.1517     2.4385     0.1287   -71.2404     8.2124     7.6177
  131.0000     8.1304   112.7396     0.1224     2.4514     0.1243   -71.5409     8.2828     7.7170
  131.5000     8.1376   112.7574     0.1225     2.4577     0.1236   -71.8430     8.2828     7.7662
  132.0000     8.1449   117.1575     0.1213     2.4585     0.1124   -72.1481     8.2828     7.7530
  132.5000     8.1522   119.7093     0.1112     2.4729     0.0900   -72.2482     8.2828     7.7434
  133.0000     8.1586   117.6742     0.0943     2.4911     0.0794   -72.2233     8.2828     7.7339
  133.5000     8.1584   119.0322     0.0768     2.5310     0.0708   -72.1958     8.2828     7.7244
  134.0000     8.1584   119.3836     0.0607     2.5450     0.0848   -72.1683     8.2828     7.7149
  134.5000     8.1584   121.2808     0.0558     2.5243     0.0965   -72.1412     8.2828     7.7056
  135.0000     8.1584   122.0196     0.0568     2.4999     0.1081   -72.1144     8.2828     7.6969
  135.5000     8.1584   125.9224     0.0610     2.4837     0.1133   -72.0855     8.2828     7.7225
  136.0000     8.1584   128.0540     0.0693     2.4757     0.1134   -71.9685     8.2828     7.7481
  136.5000     8.1584   131.3608     0.0751     2.4731     0.1120   -71.6389     8.2826     7.7740
  137.0000     8.1584   132.8091     0.0756     2.4782     0.1099   -71.4806     8.2829     7.7999
  137.5000     8.1584   134.6707     0.0755     2.4834     0.1077   -71.6579     8.2811     7.8260
  138.0000     8.1584   136.4388     0.0755     2.4837     0.1168   -71.8626     8.3639     7.8521
  138.5000     8.1584   137.0827     0.0763     2.4719     0.1195   -72.0618     8.4271     7.8783
  139.0000     8.1584   130.3790     0.0827     2.4665     0.1213   -72.0356     8.4908     7.9107
  139.5000     8.1584   131.9534     0.0984     2.4609     0.1231   -71.9916     8.5549     7.9079
  140.0000     8.1584   127.0371     0.1106     2.4569     0.1213   -71.9483     8.6195     7.9037
  140.5000     8.1584   120.2445     0.1173     2.4616     0.1182   -71.9054     8.6720     7.8995
  141.0000     8.1584   118.8458     0.1185     2.4636     0.1196   -71.8625     8.6395     7.8952
  141.5000     8.1584   110.5816     0.1163     2.4615     0.1209   -71.8196     8.6068     7.8910
  142.0000     8.1584   113.0375     0.1142     2.4589     0.1213   -71.7768     8.5743     7.8868
  142.5000     8.1584   114.9482     0.1109     2.4613     0.1197   -71.7340     8.5419     7.8825
  143.0000     8.1584   115.2543     0.1195     2.4644     0.1197   -71.6910     8.5097     7.8783
  143.5000     8.1584   116.5710     0.1386     2.4605     0.1252   -71.6128     8.4775     7.8741
  144.0000     8.1584   116.6389     0.1582     2.4545     0.1250   -71.4934     8.4450     7.8699
  144.5000     8.1584   116.8663     0.1744     2.4528     0.1221   -71.6197     8.4278     7.8657
  145.0000     8.1584   116.9641     0.1812     2.4620     0.1168   -71.8206     8.4157     7.8614
  145.5000     8.1584   115.9025     0.1883     2.4686     0.1149   -72.0279     8.4035     7.8572
  146.0000     8.1584   118.1958     0.1879     2.4720     0.1141   -72.0678     8.3915     7.8530
  146.5000     8.1573   121.5563     0.1815     2.4752     0.1110   -72.0682     8.3794     7.8488
  147.0000     8.1550   123.0210     0.1855     2.4903     0.1101   -72.0677     8.3674     7.8446
  147.5000     8.1528   121.9020     0.1908     2.4980     0.1133   -72.0671     8.3554     7.8406
  148.0000     8.1505   124.2774     0.1961     2.4786     0.1136   -72.0383     8.3434     7.8203
  148.5000     8.1483   126.9908     0.2321     2.4736     0.1129   -71.9706     8.3314     7.7912
  149.0000     8.1460   123.9504     0.2382     2.4756     0.1022   -71.9033     8.3195     7.7621
  149.5000     8.1437   123.0600     0.2373     2.4857     0.0934   -71.8357     8.3075     7.7330
  150.0000     8.1415   124.7115     0.2388     2.5017     0.1077   -71.7685     8.2956     7.7041
  150.5000     8.1392   122.6511     0.2436     2.5023     0.1045   -71.7002     8.2835     7.6753
  151.0000     8.1345   118.4524     0.2380     2.4943     0.1054   -71.7202     8.3028     7.6466
  151.5000     8.1290   118.0182     0.2307     2.4886     0.0973   -71.8155     8.3246     7.6180
  152.0000     8.1235   118.4016     0.2279     2.4986     0.0893   -72.0709     8.3465     7.5895
  152.5000     8.1180   118.0155     0.1912     2.5122     0.0807   -72.5855     8.3590     7.5561
  153.0000     8.1125   117.5396     0.1537     2.5237     0.0739   -72.9730     8.3497     7.5606
  153.5000     8.1070   115.5827     0.1381     2.5386     0.0828   -73.2138     8.3429     7.5660
  154.0000     8.1015   114.2057     0.1100     2.5228     0.0976   -73.4542     8.3362     7.5713
  154.5000     8.0991   113.8615     0.0949     2.5203     0.1003   -73.6640     8.3294     7.5767
  155.0000     8.0979   112.9737     0.0931     2.5055     0.1059   -73.6588     8.3227     7.5821
  155.5000     8.0964   111.1497     0.0917     2.4858     0.1106   -73.6581     8.3159     7.5875
  156.0000     8.0949   110.6208     0.0986     2.4804     0.1145   -73.6581     8.3092     7.5929
  156.5000     8.0934   113.2353     0.1053     2.4715     0.1193   -73.6581     8.3024     7.5983
  157.0000     8.0920   114.8403     0.1042     2.4640     0.1233   -73.6581     8.2956     7.6038
  157.5000     8.0905   117.7413     0.1084     2.4550     0.1320   -73.6581     8.2883     7.6092
  158.0000     8.0890   119.1386     0.1257     2.4439     0.1407   -73.6581     8.2828     7.6147
  158.5000     8.0875   117.0046     0.1292     2.4278     0.1402   -73.6581     8.3675     7.6202
  159.0000     8.0860   116.8253     0.1293     2.4260     0.1402   -73.6581     8.4466     7.6263
  159.5000     8.0846   116.7819     0.1293     2.4269     0.1415   -73.6581     8.5264     7.6930
