~VERSION INFORMATION
 VERS.                2.0:   CWLS LOG ASCII STANDARD - VERSION 2.0
 WRAP.                 NO:   ONE LINE PER DEPTH STEP
~WELL INFORMATION
#MNEM.UNIT      DATA TYPE    INFORMATION
#----------   ------------   ------------------------------
 STRT.F           30.0000:   START DEPTH
 STOP.F          732.0000:   STOP DEPTH
 STEP.F            0.5000:   STEP LENGTH
 NULL.          -999.2500:   NO VALUE
 COMP. FENIX & SCISSON INC:   COMPANY
 WELL.        31-S #31-14:   WELL
 FLD .             TEAPOT:   FIELD
 LOC .      S14 T38N R78W:   LOCATION
 CNTY.            NATRONA:   COUNTY
 STAT.            WYOMING:   STATE
 CTRY. UNITED STATES OF AMERICA:   COUNTRY
 SRVC.              Welex:   SERVICE COMPANY
 DATE.        16-FEB-1977:   LOGDATE
 API .       490251027300:   API NUMBER
~CURVE INFORMATION
#MNEM.UNIT       API CODE    CURVE DESCRIPTION
#----------   ------------   ------------------------------
 DEPT.F                  :   
 CALD.IN     45 280 60 00:   CALIPER FROM DENSITY LOG
 CORR.G/C3   45 356 01 00:   DENSITY CORRECTION
 DPHI.DEC    45 890 12 00:   DENSITY POROSITY SANDSTONE
 GRD .GAPI   45 310 01 00:   GAMMA RAY FROM DENSITY LOG
 RHOB.G/C3   45 350 01 00:   BULK DENSITY
 GURD.OHMM   07 270 05 00:   SHALLOW SHORT GUARD RESISTIVITY
 ILM .OHMM   07 120 44 00:   INDUCTION LOG MEDIUM
 ILD .OHMM   07 120 46 00:   INDUCTION LOG DEEP
 SPR .MV     07 010 01 00:   SPONTANEOUS POTENTIAL
~PARAMETER INFORMATION
#MNEM.UNIT          VALUE    DESCRIPTION
#----------   ------------   ------------------------------
 PD  .                 GL:   PERMANENT DATUM
 EPD .F              5186:   ELEVATION PERMANENT DATUM
 LMF .                 GL:   LOG MEASURED FROM
 DMF .                 GL:   DRILLING MEASURED FROM
 EKB .F              5195:   KELLING BUSHING
 EGL .F              5186:   GROUND LEVEL
 DATE.        16-FEB-1977:   RUN DATE
 RUN .                  1:   RUN NUMBER
 DD  .F               740:   DEPTH DRILLER
 DL  .F               736:   DEPTH LOGGER
 BLI .F               734:   BOTTOM LOG INTERVAL
 TLI .F                30:   TOP LOG INTERVAL
 CS  .IN            8.625:   CASING SIZE
 CBD .F                40:   CASING BOTTOM DRILLER
 CBL .F                44:   CASING BOTTOM LOGGER
 BS  .IN            7.875:   BIT SIZE
 BSD .F               740:   BIT SIZE AT DEPTH
 DFT .   OIL EMULSION MUD:   DRILLING FLUID TYPE
 DFD .                8.3:   DRILLING FLUID DENSITY
 DFV .                 48:   DRILLING FLUID VISCOSITY
 DFPH.               10.5:   DRILLING FLUID PH
 DFL .                7.5:   DRILLING FLUID LOSS
 MSS .           FLOWLINE:   MUD SAMPLE SOURCE
 RMS .OHMM           0.80:   RESISTIVITY MUD SAMPLE
 MST .F                64:   MUD SAMPLE TEMPERATURE
 RMF .OHMM           0.68:   RESISTIVITY MUD FILTRATE SAMPLE
 MFST.F                64:   MUD FILTRATE SAMPLE TEMPERATURE
 RMC .OHMM           1.01:   RESISTIVITY MUD CAKE
 MCST.F                63:   MUD CAKE SAMPLE TEMPERATURE
 MFSS.               MEAS:   MUD FILTRATE SAMPLE SOURCE
 MCSS.               MEAS:   MUD CAKE SAMPLE SOURCE
 RMB .OHMM           0.74:   RESISTIVITY MUD AT BHT
 BHT .F                69:   BOTTOM HOLE TEMPERATURE
 TCS .HRS               5:   TIME CURCULATED STOPPED
 MRT .F                69:   MAXIMUM RECORDED TEMPERATURE
 LUN .               8611:   LOGGING UNIT NUMBER
 LUL .           GILLETTE:   LOGGING UNIT LOCATION
 ENGI.           D.LAWSON:   RECORDING ENGINEER
 WITN.             K.JAPP:   WITNESSED BY
 CLNT.            A2DTECH:   CLIENT CODE
 ORIG.         2.5" PRINT:   ORIGIN OF DATA
 UWI .       490251027300:   UNIQUE WELL ID
 DICO. A2D Technologies, Inc.:   DIGITIZING COMPANY
~OTHER INFORMATION
~A   DEPT       CALD      CORR      DPHI         GRD        RHOB     GURD        ILM        ILD        SPR   
# ...
  650.5000     8.0464     0.1445     0.1279    91.0594     2.4253   992.6139    15.7905    10.4587   -22.2521
  651.0000     8.0159     0.1477     0.1339    87.1266     2.4056  1040.2709    16.1227    10.9730   -22.6505
  651.5000     8.0151     0.1519     0.1303    84.4432     2.4387  1078.9869    18.6995    11.6263   -22.8647
  652.0000     8.0142     0.1548     0.1196    82.0475     2.4541  1093.8604    20.1377    12.6206   -23.1751
  652.5000     8.0431     0.1547     0.1222    81.1573     2.4323  1054.5662    20.6982    13.5154   -23.4279
  653.0000     8.0421     0.1546     0.1338    80.5638     2.4055  1036.1627    20.9843    14.2763   -23.7211
  653.5000     8.0412     0.1543     0.1451    81.1573     2.3935  1024.3846    20.9843    15.0801   -23.7176
  654.0000     8.0404     0.1514     0.1470    82.3502     2.3919  1018.0615    20.9843    15.2992   -24.0119
  654.5000     8.0691     0.1513     0.1400    84.1908     2.4188  1011.7381    20.9843    15.4958   -24.3056
  655.0000     8.0681     0.1512     0.1351    85.5044     2.4352  1004.2671    20.9843    15.4935   -24.3026
  655.5000     8.0376     0.1511     0.1375    86.7952     2.4302   998.2781    20.5764    15.4914   -24.3180
  656.0000     8.0367     0.1510     0.1405    86.0752     2.4158   992.2893    19.5692    15.4893   -24.5937
  656.5000     8.0359     0.1509     0.1417    85.6083     2.4138   989.2807    18.0435    15.4868   -24.5905
  657.0000     8.0647     0.1508     0.1375    87.9822     2.4345   989.2516    17.3156    15.2737   -24.5875
  657.5000     8.0638     0.1507     0.1270    89.7626     2.4557   989.2218    17.5549    15.0635   -24.7354
  658.0000     8.0629     0.1506     0.1107    89.8081     2.4943   993.0267    18.5509    14.8562   -24.8783
  658.5000     8.0620     0.1505     0.0972    89.1691     2.4928   999.2902    19.6587    14.7464   -24.8750
  659.0000     8.0611     0.1504     0.1106    87.9654     2.4720  1002.5739    20.5505    14.6497   -25.1691
  659.5000     8.0601     0.1503     0.1244    87.3887     2.4501  1004.0042    21.0863    14.6477   -25.4629
  660.0000     8.0592     0.1501     0.1364    88.2988     2.4303  1003.9707    21.1390    14.6457   -25.4599
  660.5000     8.0584     0.1500     0.1424    90.3901     2.4170  1000.9621    20.6982    14.6437   -25.7540
  661.0000     8.0575     0.1529     0.1466    92.1087     2.4109   997.9536    20.4161    14.8440   -25.8368
  661.5000     8.0567     0.1528     0.1483    94.2137     2.4236   994.7404    20.4161    14.8417   -26.0451
  662.0000     8.0558     0.1527     0.1445    95.4006     2.4168   991.9365    20.4161    14.8398   -26.0415
  662.5000     8.0549     0.1526     0.1401    95.1039     2.4049   997.8688    20.1377    14.6356   -26.3353
  663.0000     8.0540     0.1525     0.1440    93.9169     2.4019   997.8350    19.8632    14.6197   -26.6287
  663.5000     8.0684     0.1524     0.1446    93.0267     2.4138   997.8051    19.7897    14.2001   -26.6259
  664.0000     8.0819     0.1516     0.1424    93.0583     2.4275   997.7701    19.3253    13.8480   -26.9199
  664.5000     8.0809     0.1482     0.1342    93.9169     2.4300   997.7418    19.0619    13.5820   -27.2138
  665.0000     8.0801     0.1448     0.1336    94.2137     2.4153   991.7530    18.8020    13.3744   -27.2651
  665.5000     8.1089     0.1400     0.1389    94.0420     2.4107   991.7247    18.8020    13.2836   -27.5049
  666.0000     8.1080     0.1369     0.1390    94.8230     2.4152   992.1333    18.5457    13.4654   -27.7988
  666.5000     8.1071     0.1368     0.1155    96.8843     2.4522   998.7281    18.5457    13.8384   -27.9490
  667.0000     8.1062     0.1397     0.0940    98.3680     2.4849  1007.4219    18.5653    14.2217   -28.0890
  667.5000     8.1053     0.1456     0.0719    98.0712     2.5250  1013.6851    19.1123    14.6156   -28.3828
  668.0000     8.1045     0.1516     0.0470    96.5875     2.5665  1024.4789    19.7596    14.8157   -28.6766
  668.5000     8.1034     0.1573     0.0460    94.4338     2.5710  1170.3610    20.6557    14.7532   -28.9703
  669.0000     8.0729     0.1580     0.0542    91.7002     2.5557  1083.9032    21.4321    14.5279   -29.2642
  669.5000     8.0720     0.1601     0.0749    89.9817     2.5309  1068.9734    22.1687    14.3059   -29.3170
  670.0000     8.0712     0.1570     0.0938    90.4945     2.5058  1048.0828    21.5683    14.0160   -29.5553
  670.5000     8.0407     0.1539     0.1096    93.8666     2.4816  1016.8488    20.6982    13.8231   -29.8492
  671.0000     8.0398     0.1508     0.1130    96.5076     2.4668   983.1724    19.3253    13.6329   -30.1424
  671.5000     8.0389     0.1477     0.1077    96.8843     2.4579   955.8856    18.7451    13.4453   -30.1390
  672.0000     8.0380     0.1476     0.1052    97.1810     2.4549   936.9774    17.9328    13.2602   -30.4332
  672.5000     8.0371     0.1446     0.1124    97.7745     2.4727   927.1564    16.9215    13.0776   -30.7270
  673.0000     8.0360     0.1444     0.1184    98.6647     2.4679   925.7059    15.7495    12.8976   -31.0207
  673.5000     8.0352     0.1443     0.1160   100.8324     2.4602   928.6615    14.8610    12.7200   -31.0420
  674.0000     8.0344     0.1442     0.1106   101.9288     2.4547   931.6121    14.2883    12.5449   -31.3118
  674.5000     8.0335     0.1441     0.1070   101.2428     2.4597   937.5425    14.0935    12.3719   -31.6958
  675.0000     8.0326     0.1455     0.1059   100.1979     2.4792   943.4750    13.9013    12.2016   -32.0227
  675.5000     8.0318     0.1469     0.1076    98.9485     2.4665   947.0051    14.0935    12.0337   -32.1929
  676.0000     8.0607     0.1468     0.1101    96.8843     2.4531   950.2891    14.0935    11.7063   -32.4861
  676.5000     8.0596     0.1467     0.1135    94.8071     2.4442   952.3312    14.0935    11.5318   -32.4833
  677.0000     8.0745     0.1496     0.1184    92.7300     2.4427   952.2956    14.0935    11.3557   -32.7773
  677.5000     8.0875     0.1525     0.1188    92.1365     2.4534   949.2803    14.0935    11.0764   -32.7744
  678.0000     8.0865     0.1520     0.1102    93.9863     2.4688   943.2915    13.9013    10.9239   -33.0684
  678.5000     8.0857     0.1486     0.1096    96.7227     2.4708   934.3223    13.7118    10.7735   -33.0653
  679.0000     8.1145     0.1432     0.1153    98.2234     2.4626   925.3531    13.3405    10.9209   -33.0623
  679.5000     8.1136     0.1388     0.1208    99.3655     2.4500   919.0994    12.9793    11.2231   -33.0593
  680.0000     8.1128     0.1340     0.1250    99.4164     2.4321   915.7568    12.6278    11.3769   -33.0564
  680.5000     8.1211     0.1279     0.1288    98.9189     2.4187   913.3427    12.4248    11.5325   -33.0529
  681.0000     8.1407     0.1249     0.1317    98.0712     2.4097   913.3129    12.2859    11.5309   -33.3472
  681.5000     8.1398     0.1248     0.1318    97.7745     2.4067   916.2634    12.3558    11.5294   -33.3440
  682.0000     8.1387     0.1247     0.1239    97.7745     2.4129   922.1893    12.5463    11.3706   -33.3412
  682.5000     8.1379     0.1307     0.1192    98.0712     2.4288   925.1448    12.9793    11.3032   -33.3383
  683.0000     8.1370     0.1364     0.1168    98.0999     2.4468   928.0934    13.3405    10.9788   -33.3353
  683.5000     8.1362     0.1325     0.1194    98.7245     2.4527   928.0652    13.5249    10.6118   -33.3323
  684.0000     8.1353     0.1272     0.1249    99.3491     2.4417   931.0173    13.7118    10.3231   -33.3294
  684.5000     8.1642     0.1241     0.1348    99.9738     2.4214   930.9862    13.9209    10.1810   -33.3264
  685.0000     8.1632     0.1210     0.1379    99.8417     2.4050   930.9564    14.0935     9.9041   -33.3229
  685.5000     8.1623     0.1209     0.1337    98.0712     2.4110   930.9266    14.0935     9.8899   -33.6169
  686.0000     8.1318     0.1238     0.1204    97.4777     2.4317   930.8968    14.0077     9.7389   -33.6141
  686.5000     8.1307     0.1267     0.1116    98.6647     2.4603   930.8621    13.7949     9.6319   -33.3145
