~VERSION INFORMATION
 VERS.                2.0:   CWLS LOG ASCII STANDARD - VERSION 2.0
 WRAP.                 NO:   ONE LINE PER DEPTH STEP
~WELL INFORMATION
#MNEM.UNIT      DATA TYPE    INFORMATION
#----------   ------------   ------------------------------
 STRT.F            2.0000:   START DEPTH
 STOP.F          508.0000:   STOP DEPTH
 STEP.F            0.1000:   STEP LENGTH
 NULL.          -999.2500:   NO VALUE
 COMP. LAWRENCE/ALLISON INC:   COMPANY
 WELL.      48-41 SX #3-3:   WELL
 FLD .             TEAPOT:   FIELD
 LOC .       S3 T38N R78W:   LOCATION
 CNTY.            NATRONA:   COUNTY
 STAT.            WYOMING:   STATE
 CTRY. UNITED STATES OF AMERICA:   COUNTRY
 SRVC.           Gearhart:   SERVICE COMPANY
 DATE.        09-JUL-1988:   LOGDATE
 API .       490251123300:   API NUMBER
~CURVE INFORMATION
#MNEM.UNIT       API CODE    CURVE DESCRIPTION
#----------   ------------   ------------------------------
 DEPT.F                  :   
 GRR .GAPI   07 310 01 00:   GAMMA RAY
 RILD.OHMM   07 120 46 00:   INDUCTION LOG DEEP RESISTIVITY
 RILM.OHMM   07 120 44 00:   INDUCTION LOG MEDIUM RESISTIVITY
~PARAMETER INFORMATION
#MNEM.UNIT          VALUE    DESCRIPTION
#----------   ------------   ------------------------------
 PD  .                 GL:   PERMANENT DATUM
 EPD .F              5200:   ELEVATION PERMANENT DATUM
 LMF .                 KB:   LOG MEASURED FROM
 DAPD.F                 5:   FEET ABOVE PERMANENT DATUM
 DMF .                 KB:   DRILLING MEASURED FROM
 EKB .F              5205:   KELLING BUSHING
 EDF .F              5204:   DRILLING FLOOR
 EGL .F              5200:   GROUND LEVEL
 DATE.        09-JUL-1988:   RUN DATE
 RUN .                  1:   RUN NUMBER
 DD  .F               510:   DEPTH DRILLER
 DL  .F               516:   DEPTH LOGGER
 BLI .F               508:   BOTTOM LOG INTERVAL
 TLI .F               1.5:   TOP LOG INTERVAL
 CS  .IN            9.625:   CASING SIZE
 CBD .F                40:   CASING BOTTOM DRILLER
 CBL .F                45:   CASING BOTTOM LOGGER
 BS  .IN             8.75:   BIT SIZE
 BSD .F               510:   BIT SIZE AT DEPTH
 DFT .                AIR:   DRILLING FLUID TYPE
 TCS .HRS            1800:   TIME CURCULATED STOPPED
 TLAB.HRS            1843:   TIME LOGGER AT BOTTOM
 MRT .F                70:   MAXIMUM RECORDED TEMPERATURE
 LUN .               7597:   LOGGING UNIT NUMBER
 LUL .           GILLETTE:   LOGGING UNIT LOCATION
 ENGI.         WEATHERMON:   RECORDING ENGINEER
 WITN.              FIVAS:   WITNESSED BY
 CLNT.            A2DTECH:   CLIENT CODE
 ORIG.           5" PRINT:   ORIGIN OF DATA
 UWI .       490251123300:   UNIQUE WELL ID
 DICO. A2D Technologies, Inc.:   DIGITIZING COMPANY
~OTHER INFORMATION
~A    DEPT      GRR      RILD       RILM   
# ...
   74.8000   119.9084     9.1713     9.3706
   74.9000   119.9089     9.1713     9.3698
   75.0000   119.9095     9.1713     9.3693
   75.1000   119.9101     9.1713     9.4009
   75.2000   119.9107     9.1713     9.4331
   75.3000   119.9113     9.1713     9.4325
   75.4000   119.9120     9.1713     9.4318
   75.5000   119.9126     9.2124     9.4311
   75.6000   120.3405     9.2351     9.4305
   75.7000   121.0002     9.2351     9.4298
   75.8000   121.5396     9.2351     9.4292
   75.9000   122.3282     9.2351     9.4285
   76.0000   122.5662     9.2351     9.4278
   76.1000   123.0025     9.2351     9.4272
   76.2000   123.3690     9.2351     9.4266
   76.3000   123.6195     9.2351     9.4259
   76.4000   123.8700     9.2351     9.4253
   76.5000   124.1418     9.2351     9.4246
   76.6000   124.3713     9.1867     9.4239
   76.7000   124.4446     9.1713     9.3735
   76.8000   124.4452     9.1713     9.3576
   76.9000   124.4459     9.1713     9.3570
   77.0000   124.4465     9.1713     9.3563
   77.1000   124.4471     9.1713     9.3556
   77.2000   124.2272     9.1250     9.3550
   77.3000   123.9779     9.1079     9.3065
   77.4000   123.7286     9.1079     9.2891
   77.5000   123.4792     9.1079     9.2629
   77.6000   123.2297     9.1079     9.2238
   77.7000   122.9425     9.1079     9.2232
   77.8000   122.7310     9.1079     9.2224
   77.9000   122.4817     9.1079     9.2219
   78.0000   122.2323     9.1079     9.2213
   78.1000   121.9259     9.0960     9.2206
   78.2000   121.4319     9.0450     9.2200
   78.3000   121.1362     9.0450     9.2194
   78.4000   120.5264     9.0029     9.2186
   78.5000   119.9286     8.9826     9.2180
   78.6000   119.4291     8.9620     9.2174
   78.7000   118.9783     8.9205     9.1944
   78.8000   118.7258     8.9205     9.1526
   78.9000   118.2330     8.9205     9.1519
   79.0000   117.7335     8.8807     9.1511
   79.1000   117.3775     8.8589     9.1083
   79.2000   117.0365     8.8589     9.0869
   79.3000   116.5372     8.8589     9.0656
   79.4000   116.0145     8.8589     9.0131
   79.5000   115.5383     8.8589     8.9600
   79.6000   115.7858     8.8589     8.9593
   79.7000   116.5561     8.8315     8.9189
   79.8000   117.6396     8.7977     8.8963
   79.9000   118.8900     8.7914     8.8770
   80.0000   120.2414     8.7370     8.8337
   80.1000   120.9317     8.6910     8.8331
   80.2000   121.6821     8.6766     8.8325
   80.3000   122.4325     8.6515     8.7940
   80.4000   123.1081     8.6167     8.7430
   80.5000   123.6316     8.6122     8.7092
   80.6000   124.4682     8.5572     8.7086
   80.7000   124.6902     8.5572     8.7079
   80.8000   124.9407     8.5240     8.6612
   80.9000   125.1914     8.4981     8.6467
   81.0000   125.3755     8.4852     8.6206
   81.1000   125.3909     8.4366     8.5858
   81.2000   125.6785     8.3811     8.5802
   81.3000   125.0403     8.3811     8.5253
   81.4000   124.1299     8.3811     8.4810
   81.5000   123.2400     8.3601     8.4654
   81.6000   122.4323     8.3232     8.4413
   81.7000   121.4457     8.3220     8.3924
   81.8000   120.8556     8.2658     8.3473
   81.9000   120.2428     8.2658     8.3466
   82.0000   119.9518     8.2369     8.3461
   82.1000   119.8511     8.2087     8.3455
   82.2000   119.6018     8.2087     8.3449
   82.3000   119.3502     8.2087     8.3324
   82.4000   119.1031     8.2087     8.2862
   82.5000   119.0498     8.1718     8.2855
   82.6000   119.0504     8.1520     8.2850
   82.7000   118.9583     8.1520     8.2544
   82.8000   118.7498     8.1444     8.2267
   82.9000   118.7505     8.0957     8.2262
   83.0000   118.7511     8.0957     8.2256
   83.1000   118.7517     8.0957     8.2249
   83.2000   118.7523     8.0705     8.2244
   83.3000   118.6687     8.0398     8.1954
   83.4000   118.4518     8.0398     8.1666
   83.5000   118.4525     8.0398     8.1660
   83.6000   118.4531     8.0398     8.1654
   83.7000   118.4537     8.0068     8.1648
   83.8000   118.4543     7.9842     8.1642
   83.9000   118.5307     7.9842     8.1637
   84.0000   118.7572     7.9842     8.1631
   84.1000   118.7578     7.9842     8.1626
   84.2000   118.9808     7.9842     8.1620
   84.3000   119.2313     7.9842     8.2065
   84.4000   119.4819     7.9842     8.2176
   84.5000   119.7997     7.9842     8.2170
   84.6000   120.2848     7.9842     8.2325
   84.7000   120.5714     7.9842     8.2794
   84.8000   120.7859     7.9842     8.3298
   84.9000   121.0364     8.0141     8.3739
   85.0000   121.2870     8.0398     8.4216
   85.1000   121.4787     8.0507     8.4443
   85.2000   121.4866     8.0957     8.4589
   85.3000   121.7817     8.0957     8.5070
   85.4000   121.9876     8.1340     8.5602
   85.5000   122.0845     8.1520     8.5597
   85.6000   122.0850     8.1712     8.5934
   85.7000   122.1361     8.2087     8.6180
   85.8000   122.3879     8.2087     8.6315
   85.9000   122.3886     8.3031     8.6767
   86.0000   122.3892     8.3232     8.6760
   86.1000   122.3897     8.3511     8.7191
   86.2000   122.4840     8.3992     8.7352
   86.3000   122.6926     8.4394     8.7345
   86.4000   122.6932     8.4394     8.7340
   86.5000   122.6938     8.4862     8.7334
   86.6000   122.6944     8.4981     8.7326
   86.7000   122.6950     8.5249     8.7321
   86.8000   122.6104     8.5572     8.7315
   86.9000   122.3945     8.5638     8.7310
   87.0000   122.3952     8.6167     8.7304
   87.1000   122.1639     8.6167     8.7297
   87.2000   121.7343     8.6525     8.7897
   87.3000   121.3636     8.6766     8.7892
   87.4000   121.0374     8.6766     8.7885
   87.5000   120.5378     8.6766     8.7880
   87.6000   119.9856     8.6766     8.7874
   87.7000   119.7627     8.6766     8.7867
   87.8000   119.5134     8.6766     8.7861
   87.9000   119.2639     8.6766     8.7855
   88.0000   119.0830     8.6766     8.7849
   88.1000   119.0835     8.6766     8.8032
   88.2000   119.0843     8.6766     8.8448
   88.3000   119.0848     8.6766     8.8441
   88.4000   119.0854     8.6766     8.8435
   88.5000   119.0860     8.6766     8.8429
   88.6000   119.0866     8.6766     8.8423
   88.7000   119.0872     8.6766     8.8417
   88.8000   119.0879     8.6766     8.8480
   88.9000   119.2948     8.6766     8.9018
   89.0000   119.5455     8.7076     8.9013
   89.1000   119.8994     8.7370     8.9006
   89.2000   120.3483     8.7474     8.9000
   89.3000   120.5991     8.7977     8.8994
   89.4000   120.8494     8.7977     8.8988
   89.5000   121.1001     8.8379     8.8981
   89.6000   121.3507     8.8589     8.9439
   89.7000   121.6012     8.8589     8.9587
   89.8000   121.8517     8.8677     8.9581
   89.9000   122.1110     8.9205     8.9723
   90.0000   122.3530     8.9205     9.0192
   90.1000   122.6036     8.9596     9.0184
   90.2000   122.7161     8.9826     9.0179
   90.3000   122.8029     9.0004     9.0520
   90.4000   123.0190     9.0450     9.0793
   90.5000   123.0196     9.0450     9.0787
   90.6000   122.7873     9.0936     9.0807
   90.7000   122.7191     9.1079     9.1404
   90.8000   122.5903     9.1079     9.1398
   90.9000   122.1853     9.1079     9.1392
   91.0000   121.4619     9.1134     9.1386
   91.1000   120.9117     9.1713     9.1379
   91.2000   120.4634     9.1713     9.1373
   91.3000   119.6188     9.1713     9.1366
   91.4000   118.6192     9.1969     9.1361
   91.5000   117.6890     9.2351     9.1355
   91.6000   116.9398     9.2351     9.1348
   91.7000   116.0888     9.2351     9.1341
   91.8000   115.6574     9.2351     9.1335
   91.9000   115.1579     9.2351     9.1329
   92.0000   114.7712     9.2351     9.1121
   92.1000   114.5219     9.2222     9.0686
   92.2000   114.2817     9.1713     9.0680
   92.3000   114.2825     9.1713     9.0168
   92.4000   114.9058     9.1713     9.0042
   92.5000   115.8124     9.1385     8.9745
   92.6000   116.7084     9.1079     8.9408
   92.7000   117.4063     9.1079     8.9325
   92.8000   117.9076     9.1077     8.8778
   92.9000   118.6585     9.0556     8.8773
