~VERSION INFORMATION
 VERS.                2.0:   CWLS LOG ASCII STANDARD - VERSION 2.0
 WRAP.                 NO:   ONE LINE PER DEPTH STEP
~WELL INFORMATION
#MNEM.UNIT      DATA TYPE    INFORMATION
#----------   ------------   ------------------------------
 STRT.F          520.5000:   START DEPTH
 STOP.F         2062.0000:   STOP DEPTH
 STEP.F            0.5000:   STEP LENGTH
 NULL.          -999.2500:   NO VALUE
 COMP. LAWRENCE-ALLISON &AS:   COMPANY
 WELL.     NPR 3 #18-X-28:   WELL
 FLD .             TEAPOT:   FIELD
 LOC .      S28 T39N R78W:   LOCATION
 CNTY.            NATRONA:   COUNTY
 STAT.            WYOMING:   STATE
 CTRY. UNITED STATES OF AMERICA:   COUNTRY
 SRVC.            Unknown:   SERVICE COMPANY
 DATE.        08-DEC-1987:   LOGDATE
 API .       490251119700:   API NUMBER
~CURVE INFORMATION
#MNEM.UNIT       API CODE    CURVE DESCRIPTION
#----------   ------------   ------------------------------
 DEPT.F                  :   
 ROP .MIN/FT 91 810 01 00:   RAT OF DRILLING PENETRATION
 TGAS.UNITS  91 830 01 00:   TOTAL GAS FROM HOTWIRE
~PARAMETER INFORMATION
#MNEM.UNIT          VALUE    DESCRIPTION
#----------   ------------   ------------------------------
 EKB .F              5090:   KELLING BUSHING
 EGL .F              5080:   GROUND LEVEL
 DATE.            12-8-87:   RUN DATE
 DD  .F              2062:   DEPTH DRILLER
 CS  .IN                7:   CASING SIZE
 CBD .F               513:   CASING BOTTOM DRILLER
 TCS .HRS            1000:   TIME CURCULATED STOPPED
 TLAB.HRS            0432:   TIME LOGGER AT BOTTOM
 ENGI.              TOWER:   RECORDING ENGINEER
 WITN.               HUSK:   WITNESSED BY
 CLNT.            A2DTECH:   CLIENT CODE
 ORIG.           5" PRINT:   ORIGIN OF DATA
 UWI .       490251119700:   UNIQUE WELL ID
 DICO. A2D Technologies, Inc.:   DIGITIZING COMPANY
~OTHER INFORMATION
~A   DEPT      ROP         TGAS 
# ...
 1492.5000     0.4424     0.0004
 1493.0000     0.4419     0.0004
 1493.5000     0.4414     0.0004
 1494.0000     0.4409     0.0004
 1494.5000     0.4404     0.0004
 1495.0000     0.4399     0.0004
 1495.5000     0.4394     0.0004
 1496.0000     0.4389     0.0004
 1496.5000     0.4384     0.0004
 1497.0000     0.4379     0.0004
 1497.5000     0.4374     0.0004
 1498.0000     0.4369     0.0004
 1498.5000     0.4363     0.0004
 1499.0000     0.4358     0.0004
 1499.5000     0.4352     0.0004
 1500.0000     0.4347     0.0004
 1500.5000     0.4342     0.0004
 1501.0000     0.4337     0.0004
 1501.5000     0.4332     0.0004
 1502.0000     0.4327     0.0004
 1502.5000     0.4322     0.0004
 1503.0000     0.4316     0.0004
 1503.5000     0.4311     0.0004
 1504.0000     0.4306     0.0004
 1504.5000     0.4301     0.0004
 1505.0000     0.4296     0.0004
 1505.5000     0.4291     0.0004
 1506.0000     0.4181     0.0004
 1506.5000     0.4176     0.0004
 1507.0000     0.4171     0.0004
 1507.5000     0.4166     0.0004
 1508.0000     0.4057     0.0004
 1508.5000     0.4052     0.0004
 1509.0000     0.3944     0.0004
 1509.5000     0.3939     0.0004
 1510.0000     0.3934     0.0004
 1510.5000     0.3928     0.0004
 1511.0000     0.3923     0.0004
 1511.5000     0.3815     0.0004
 1512.0000     0.3913     0.0004
 1512.5000     0.3907     0.0004
 1513.0000     0.3902     0.0004
 1513.5000     0.3897     0.0004
 1514.0000     0.3892     0.0004
 1514.5000     0.3783     0.0004
 1515.0000     0.3778     0.0004
 1515.5000     0.3876     0.0004
 1516.0000     0.3871     0.0004
 1516.5000     0.3866     0.0004
 1517.0000     0.3965     0.0004
 1517.5000     0.3960     0.0004
 1518.0000     0.4058     0.0004
 1518.5000     0.4053     0.0004
 1519.0000     0.4048     0.0004
 1519.5000     0.4042     0.0004
 1520.0000     0.4036     0.0026
 1520.5000     0.4136     0.0209
 1521.0000     0.4129     0.0459
 1521.5000     0.4124     0.0663
 1522.0000     0.4119     0.0867
 1522.5000     0.4114     0.1071
 1523.0000     0.4109     0.0004
 1523.5000     0.4104     0.0004
 1524.0000     0.4099     0.0004
 1524.5000     0.4094     0.0004
 1525.0000     0.3986     0.0004
 1525.5000     0.3980     0.0004
 1526.0000     0.3974     0.0004
 1526.5000     0.3969     0.0004
 1527.0000     0.4069     0.0004
 1527.5000     0.4063     0.0004
 1528.0000     0.4057     0.0004
 1528.5000     0.4052     0.0004
 1529.0000     0.4047     0.0004
 1529.5000     0.4042     0.0004
 1530.0000     0.4037     0.0004
 1530.5000     0.4032     0.0004
 1531.0000     0.4026     0.0004
 1531.5000     0.4126     0.0004
 1532.0000     0.4119     0.0004
 1532.5000     0.4114     0.0004
 1533.0000     0.4109     0.0004
 1533.5000     0.4104     0.0004
 1534.0000     0.4204     0.0004
 1534.5000     0.4198     0.0004
 1535.0000     0.4296     0.0004
 1535.5000     0.4301     0.0004
 1536.0000     0.4389     0.0004
 1536.5000     0.4488     0.0004
 1537.0000     0.4482     0.0004
 1537.5000     0.4581     0.0004
 1538.0000     0.4575     0.0004
 1538.5000     0.4570     0.0004
 1539.0000     0.4565     0.0004
 1539.5000     0.4560     0.0004
 1540.0000     0.4555     0.0004
 1540.5000     0.4550     0.0004
 1541.0000     0.4544     0.0004
 1541.5000     0.4643     0.0004
 1542.0000     0.4533     0.0004
 1542.5000     0.4528     0.0004
 1543.0000     0.4523     0.0004
 1543.5000     0.4518     0.1470
 1544.0000     0.4513     0.1674
 1544.5000     0.4508     0.1884
 1545.0000     0.4503     0.2133
 1545.5000     0.4498     0.2337
 1546.0000     0.4597     0.2541
 1546.5000     0.4590     0.2745
 1547.0000     0.4690     0.2949
 1547.5000     0.4684     0.3153
 1548.0000     0.4679     0.3357
 1548.5000     0.4674     0.3561
 1549.0000     0.4668     0.0004
 1549.5000     0.4663     0.0004
 1550.0000     0.4658     0.0038
 1550.5000     0.4664     0.0242
 1551.0000     0.4752     0.0446
 1551.5000     0.4745     0.0004
 1552.0000     0.4740     0.0004
 1552.5000     0.4735     0.1058
 1553.0000     0.4730     0.1262
 1553.5000     0.4725     0.1466
 1554.0000     0.4825     0.1674
 1554.5000     0.4819     0.1925
 1555.0000     0.4814     0.2129
 1555.5000     0.4808     0.2333
 1556.0000     0.4802     0.2537
 1556.5000     0.4797     0.2741
 1557.0000     0.4792     0.2945
 1557.5000     0.4787     0.3149
 1558.0000     0.4782     0.0004
 1558.5000     0.4777     0.0004
 1559.0000     0.4772     0.0004
 1559.5000     0.4767     0.0004
 1560.0000     0.4762     0.0034
 1560.5000     0.4966     0.0440
 1561.0000     0.4964     0.0004
 1561.5000     0.5065     0.0004
 1562.0000     0.5062     0.0004
 1562.5000     0.4956     0.0004
 1563.0000     0.4332     0.0004
 1563.5000     0.4019     0.0004
 1564.0000     0.4120     0.0004
 1564.5000     0.4117     0.0004
 1565.0000     0.4218     0.0004
 1565.5000     0.4216     0.0004
 1566.0000     0.4213     0.0004
 1566.5000     0.4211     0.0004
 1567.0000     0.4208     0.0004
 1567.5000     0.4309     0.0004
 1568.0000     0.4410     0.0004
 1568.5000     0.4407     0.0004
 1569.0000     0.4509     0.0004
 1569.5000     0.4505     0.0004
 1570.0000     0.4503     0.0004
 1570.5000     0.4604     0.0004
 1571.0000     0.4601     0.0004
 1571.5000     0.4599     0.0004
 1572.0000     0.4596     0.0004
 1572.5000     0.4594     0.0004
 1573.0000     0.4695     0.0004
 1573.5000     0.4692     0.0004
 1574.0000     0.4793     0.0004
 1574.5000     0.4790     0.0004
 1575.0000     0.4787     0.0004
 1575.5000     0.4785     0.0004
 1576.0000     0.4887     0.0004
 1576.5000     0.4883     0.0004
 1577.0000     0.4881     0.0004
 1577.5000     0.4878     0.0004
 1578.0000     0.4876     0.0004
 1578.5000     0.4976     0.0004
 1579.0000     0.4974     0.0004
 1579.5000     0.4971     0.0004
 1580.0000     0.4969     0.0004
 1580.5000     0.4966     0.0004
 1581.0000     0.4964     0.0004
 1581.5000     0.4961     0.0004
 1582.0000     0.4959     0.0004
 1582.5000     0.4956     0.0004
 1583.0000     0.4953     0.0004
 1583.5000     0.4951     0.0004
 1584.0000     0.4948     0.0004
 1584.5000     0.4945     0.0004
 1585.0000     0.4839     0.0004
 1585.5000     0.4837     0.0004
 1586.0000     0.4834     0.0004
 1586.5000     0.4832     0.0004
 1587.0000     0.4726     0.0004
 1587.5000     0.4723     0.0004
 1588.0000     0.4720     0.0004
 1588.5000     0.4718     0.0004
 1589.0000     0.4715     0.0004
 1589.5000     0.4712     0.0004
 1590.0000     0.4710     0.0004
 1590.5000     0.4604     0.0004
 1591.0000     0.4601     0.0004
 1591.5000     0.4495     0.0004
 1592.0000     0.4493     0.0004
 1592.5000     0.4490     0.0004
 1593.0000     0.4488     0.0004
 1593.5000     0.4053     0.0004
 1594.0000     0.3654     0.0004
 1594.5000     0.3651     0.0004
 1595.0000     0.3649     0.0004
 1595.5000     0.3646     0.0495
 1596.0000     0.3644     0.0004
 1596.5000     0.3745     0.0004
 1597.0000     0.3846     0.0004
 1597.5000     0.3947     0.0004
 1598.0000     0.3944     0.0004
 1598.5000     0.4045     0.0004
 1599.0000     0.4057     0.0004
 1599.5000     0.4144     0.0004
 1600.0000     0.4140     0.0030
 1600.5000     0.4136     0.0004
 1601.0000     0.4026     0.0004
 1601.5000     0.3917     0.0004
 1602.0000     0.3809     0.0004
 1602.5000     0.3700     0.0004
 1603.0000     0.3592     0.0004
 1603.5000     0.3483     0.0004
 1604.0000     0.3478     0.0004
 1604.5000     0.3473     0.0004
 1605.0000     0.3468     0.0004
 1605.5000     0.3463     0.0004
 1606.0000     0.3458     0.0004
 1606.5000     0.3451     0.0004
 1607.0000     0.3446     0.0004
 1607.5000     0.3546     0.0004
 1608.0000     0.3540     0.0004
 1608.5000     0.3638     0.0004
 1609.0000     0.3633     0.0004
 1609.5000     0.3628     0.0004
 1610.0000     0.3623     0.0004
 1610.5000     0.3618     0.0004
 1611.0000     0.3613     0.0004
 1611.5000     0.3607     0.0004
 1612.0000     0.3602     0.0004
 1612.5000     0.3597     0.0004
 1613.0000     0.3591     0.0004
 1613.5000     0.3586     0.0004
