~VERSION INFORMATION
 VERS.                2.0:   CWLS LOG ASCII STANDARD - VERSION 2.0
 WRAP.                 NO:   ONE LINE PER DEPTH STEP
~WELL INFORMATION
#MNEM.UNIT      DATA TYPE    INFORMATION
#----------   ------------   ------------------------------
 STRT.F           90.0000:   START DEPTH
 STOP.F          784.0000:   STOP DEPTH
 STEP.F            0.5000:   STEP LENGTH
 NULL.          -999.2500:   NO VALUE
 COMP.               NAVY:   COMPANY
 WELL. RES 3 TEAPOT DOM #41S-11:   WELL
 FLD .             TEAPOT:   FIELD
 LOC .      S11 T38N R78W:   LOCATION
 CNTY.            NATRONA:   COUNTY
 STAT.            WYOMING:   STATE
 CTRY. UNITED STATES OF AMERICA:   COUNTRY
 SRVC.       Schlumberger:   SERVICE COMPANY
 DATE.        14-JUL-1962:   LOGDATE
 API .       490250638000:   API NUMBER
~CURVE INFORMATION
#MNEM.UNIT       API CODE    CURVE DESCRIPTION
#----------   ------------   ------------------------------
 DEPT.F                  :   
 GR  .GAPI   30 310 01 00:   GAMMA RAY
 SPR .MV     05 010 01 00:   SPONTANEOUS POTENTIAL FROM RES.
 ASN .OHMM   05 041 16 00:   AMPLIFIED SHORT NORMAL 16"
 ILD .OHMM   05 120 46 00:   INDUCTION LOG DEEP
 CILD.MMHO   05 110 46 00:   CONDUCTIVITY INDUCTION LOG DEEP
~PARAMETER INFORMATION
#MNEM.UNIT          VALUE    DESCRIPTION
#----------   ------------   ------------------------------
 LMF .                 KB:   LOG MEASURED FROM
 DMF .                 KB:   DRILLING MEASURED FROM
 EKB .F              5162:   KELLING BUSHING
 EGL .F              5157:   GROUND LEVEL
 DATE.        14-JUL-1962:   RUN DATE
 RUN .                  1:   RUN NUMBER
 DD  .F               785:   DEPTH DRILLER
 DL  .F               785:   DEPTH LOGGER
 BLI .F               784:   BOTTOM LOG INTERVAL
 TLI .F               100:   TOP LOG INTERVAL
 CBD .F                10:   CASING BOTTOM DRILLER
 BS  .IN             6.75:   BIT SIZE
 BSD .F               785:   BIT SIZE AT DEPTH
 DFT .           OIL EMUL:   DRILLING FLUID TYPE
 DFD .               10.2:   DRILLING FLUID DENSITY
 DFV .                 43:   DRILLING FLUID VISCOSITY
 DFL .                4.6:   DRILLING FLUID LOSS
 RMS .OHMM            5.2:   RESISTIVITY MUD SAMPLE
 MST .F                78:   MUD SAMPLE TEMPERATURE
 RMF .OHMM            5.2:   RESISTIVITY MUD FILTRATE SAMPLE
 MFST.F                78:   MUD FILTRATE SAMPLE TEMPERATURE
 RMC .OHMM              6:   RESISTIVITY MUD CAKE
 MCST.F                78:   MUD CAKE SAMPLE TEMPERATURE
 TCS .HRS              .5:   TIME CURCULATED STOPPED
 LUN .               2503:   LOGGING UNIT NUMBER
 LUL .               CSPR:   LOGGING UNIT LOCATION
 ENGI.           ELLERMAN:   RECORDING ENGINEER
 WITN.          JORGENSON:   WITNESSED BY
 CLNT.            A2DTECH:   CLIENT CODE
 ORIG.           5" PRINT:   ORIGIN OF DATA
 UWI .       490250638000:   UNIQUE WELL ID
 DICO. A2D Technologies, Inc.:   DIGITIZING COMPANY
~OTHER INFORMATION
~A   DEPT       GR        SPR          ASN        ILD       CILD 
# ...
  395.0000  -999.2500   -39.5921     7.8625     7.6208   131.6690
  395.5000  -999.2500   -40.1949     7.7243     7.3951   134.7140
  396.0000  -999.2500   -39.7260     7.5772     7.3959   135.4826
  396.5000  -999.2500   -38.5299     7.5626     7.5477   132.4706
  397.0000  -999.2500   -37.7732     7.6240     7.6239   129.4550
  397.5000  -999.2500   -37.6206     7.8815     7.8513   126.4268
  398.0000  -999.2500   -38.3745     8.2448     8.0786   124.0705
  398.5000  -999.2500   -39.2793     8.4721     8.3059   119.6542
  399.0000  -999.2500   -39.1268     8.5182     8.5332   117.3961
  399.5000  -999.2500   -38.8232     8.5793     8.6097   114.3805
  400.0000  -999.2500   -39.1239     8.7009     8.6859   113.6339
  400.5000  -999.2500   -39.4416     8.7923     8.8547   115.1674
  401.0000  -999.2500   -39.8550     8.7479     8.7568   118.2124
  401.5000  -999.2500   -40.0124     8.6580     8.5299   118.9848
  402.0000  -999.2500   -39.5520     8.5517     8.3774   119.0030
  402.5000  -999.2500   -39.2441     8.3678     8.3004   119.0177
  403.0000  -999.2500   -38.9362     8.2770     8.2235   117.4242
  403.5000  -999.2500   -38.9159     8.2769     8.2220   118.1818
  404.0000  -999.2500   -39.4019     8.3547     8.2961   119.6970
  404.5000  -999.2500   -39.8251     8.4880     8.2943   120.4545
  405.0000  -999.2500   -39.0626     8.3368     8.2928   121.9697
  405.5000  -999.2500   -38.1505     8.1252     8.2914   121.8435
  406.0000  -999.2500   -37.8426     8.4725     8.3658   120.4545
  406.5000  -999.2500   -37.9879     8.7443     8.4396   118.9394
  407.0000  -999.2500   -37.9819     8.6643     8.5136   117.4242
  407.5000  -999.2500   -37.8238     8.5173     8.5118   116.6667
  408.0000  -999.2500   -37.3648     8.4719     8.5104   115.9091
  408.5000  -999.2500   -37.2080     8.4415     8.5089   115.9091
  409.0000  -999.2500   -37.0511     8.4716     8.5075   115.9091
  409.5000  -999.2500   -37.0454     8.5477     8.5061   115.9091
  410.0000  -999.2500   -37.0381     8.6374     8.5800   115.9091
  410.5000  -999.2500   -36.8813     8.6071     8.5783   115.9091
  411.0000  -999.2500   -36.8755     8.5465     8.5769   115.9091
  411.5000  -999.2500   -36.8697     8.5162     8.6513   115.9091
  412.0000  -999.2500   -37.0151     8.5160     8.6495   116.6667
  412.5000  -999.2500   -37.6385     8.5310     8.6481   117.4242
  413.0000  -999.2500   -38.6636     8.5308     8.6463   118.1818
  413.5000  -999.2500   -39.5641     8.5155     8.7207   118.1818
  414.0000  -999.2500   -40.0115     8.4852     8.7189   118.1818
  414.5000  -999.2500   -40.4589     8.5152     8.7174   118.1818
  415.0000  -999.2500   -40.9063     8.5453     8.7160   117.4242
  415.5000  -999.2500   -41.0516     8.5430     8.6390   117.4242
  416.0000  -999.2500   -41.0443     8.4695     8.6372   117.4242
  416.5000  -999.2500   -40.4343     8.4391     8.6358   117.4242
  417.0000  -999.2500   -40.1264     8.4239     8.5588   118.1818
  417.5000  -999.2500   -40.2717     8.3935     8.4817   118.1818
  418.0000  -999.2500   -40.5720     8.3329     8.4804   118.1818
  418.5000  -999.2500   -40.7133     8.3176     8.4786   118.1818
  419.0000  -999.2500   -40.7061     8.3175     8.4771   118.9394
  419.5000  -999.2500   -40.3982     8.3325     8.4757   118.9394
  420.0000  -999.2500   -39.9392     8.3172     8.4742   118.9394
  420.5000  -999.2500   -39.3292     8.2566     8.3972   119.0656
  421.0000  -999.2500   -38.4037     8.2099     8.3958   119.6970
  421.5000  -999.2500   -37.9566     8.1204     8.3185   120.4545
  422.0000  -999.2500   -38.8572     8.0598     8.3170   120.4545
  422.5000  -999.2500   -39.4556     8.0295     8.2400   120.4545
  423.0000  -999.2500   -38.8456     8.0746     8.2386   121.2121
  423.5000  -999.2500   -38.0845     8.1047     8.1616   122.7273
  424.0000  -999.2500   -37.6254     8.1196     8.1601   123.4848
  424.5000  -999.2500   -37.4673     8.0893     8.0828   123.4848
  425.0000  -999.2500   -37.6140     8.0438     8.0059   124.2424
  425.5000  -999.2500   -37.7593     8.0134     7.9289   125.0000
  426.0000  -999.2500   -37.9033     7.9982     7.7764   125.7576
  426.5000  -999.2500   -38.3505     7.9673     7.6994   127.2727
  427.0000  -999.2500   -38.7979     7.9374     7.6976   128.0303
  427.5000  -999.2500   -38.9432     7.9071     7.6962   128.7879
  428.0000  -999.2500   -38.0296     7.8919     7.7702   128.7879
  428.5000  -999.2500   -37.4196     7.9823     7.7688   128.0303
  429.0000  -999.2500   -37.4008     8.1030     7.8429   126.5152
  429.5000  -999.2500   -37.8747     8.1496     7.9925   124.8738
  430.0000  -999.2500   -38.4582     8.2689     8.1421   121.9697
  430.5000  -999.2500   -38.9055     8.4198     8.2917   120.4545
  431.0000  -999.2500   -39.0523     8.5254     8.4413   119.6970
  431.5000  -999.2500   -39.0450     8.5555     8.5154   118.1818
  432.0000  -999.2500   -39.0392     8.5704     8.5891   118.1818
  432.5000  -999.2500   -38.8822     8.5702     8.5876   117.2980
  433.0000  -999.2500   -38.8752     8.5701     8.5859   116.6667
  433.5000  -999.2500   -39.0219     8.5548     8.5089   116.6667
  434.0000  -999.2500   -39.3168     8.5547     8.4319   116.6667
  434.5000  -999.2500   -39.6133     8.4941     8.2794   116.6667
  435.0000  -999.2500   -39.9094     8.3726     8.2024   116.6667
  435.5000  -999.2500   -39.6001     8.2672     8.2761   118.3080
  436.0000  -999.2500   -38.9901     8.2368     8.2747   120.4545
  436.5000  -999.2500   -38.3800     8.2065     8.2733   121.9697
  437.0000  -999.2500   -37.7700     8.1761     8.2718   123.4848
  437.5000  -999.2500   -37.3111     8.1458     8.1193   125.7576
  438.0000  -999.2500   -37.0031     8.0371     7.9668   128.0303
  438.5000  -999.2500   -36.8449     7.8735     7.7384   129.6717
  439.0000  -999.2500   -36.6880     7.7677     7.5859   132.5758
  439.5000  -999.2500   -36.6822     7.6769     7.4334   134.8485
  440.0000  -999.2500   -36.8290     7.5861     7.3564   137.1212
  440.5000  -999.2500   -37.2749     7.5255     7.3550   139.3939
  441.0000  -999.2500   -37.5941     7.4650     7.3650   140.1515
  441.5000  -999.2500   -38.4703     7.5252     7.5031   139.3939
  442.0000  -999.2500   -39.3709     7.6308     7.6524   137.8788
  442.5000  -999.2500   -40.2714     7.7213     7.7268   136.3636
  443.0000  -999.2500   -40.8701     7.7967     7.8006   134.0909
  443.5000  -999.2500   -41.3173     7.8727     7.7236   131.8182
  444.0000  -999.2500   -41.3100     7.9625     7.7218   130.3030
  444.5000  -999.2500   -41.0021     8.0379     7.7203   127.9041
  445.0000  -999.2500   -40.3921     8.0982     7.7944   125.7576
  445.5000  -999.2500   -39.7821     8.1433     7.7930   123.4848
  446.0000  -999.2500   -39.4742     8.1432     7.8670   121.9697
  446.5000  -999.2500   -39.4683     8.1928     7.9484   120.4545
  447.0000  -999.2500   -39.6137     8.4450     8.0152   118.9394
  447.5000  -999.2500   -39.7590     8.5053     8.1645   118.0556
  448.0000  -999.2500   -39.7517     8.4447     8.2389   116.6667
  448.5000  -999.2500   -39.7459     8.5201     8.3130   116.6667
  449.0000  -999.2500   -39.7402     8.7012     8.3867   116.6667
  449.5000  -999.2500   -39.0825     8.7464     8.3852   117.4242
  450.0000  -999.2500   -37.9144     8.5196     8.3079   118.1818
  450.5000  -999.2500   -37.1534     8.4156     8.2502   119.8277
  451.0000  -999.2500   -37.4497     8.3717     8.1816   120.2946
  451.5000  -999.2500   -37.8971     8.3278     8.1617   121.1892
  452.0000  -999.2500   -38.3405     8.2840     8.1631   122.6972
  452.5000  -999.2500   -38.6404     8.2528     8.0890   123.4475
  453.0000  -999.2500   -38.6163     8.2117     8.0149   122.6809
  453.5000  -999.2500   -37.8721     8.1977     7.9408   122.6737
  454.0000  -999.2500   -37.7167     8.2902     7.8671   122.6665
  454.5000  -999.2500   -38.0131     8.3822     7.8686   122.6591
  455.0000  -999.2500   -38.0058     8.3082     7.8704   123.4096
  455.5000  -999.2500   -37.6900     8.2492     7.8718   122.6430
