~VERSION INFORMATION
 VERS.                2.0:   CWLS LOG ASCII STANDARD - VERSION 2.0
 WRAP.                 NO:   ONE LINE PER DEPTH STEP
~WELL INFORMATION
#MNEM.UNIT      DATA TYPE    INFORMATION
#----------   ------------   ------------------------------
 STRT.F            9.5000:   START DEPTH
 STOP.F          640.5000:   STOP DEPTH
 STEP.F            0.5000:   STEP LENGTH
 NULL.          -999.2500:   NO VALUE
 COMP. FENIX & SCISSON INC:   COMPANY
 WELL. 27-32 SX 11 WI #27-32 SX:   WELL
 FLD .            WILDCAT:   FIELD
 LOC .      S11 T38N R78W:   LOCATION
 CNTY.            NATRONA:   COUNTY
 STAT.            WYOMING:   STATE
 CTRY. UNITED STATES OF AMERICA:   COUNTRY
 SRVC.      Dresser Atlas:   SERVICE COMPANY
 DATE.        01-AUG-1980:   LOGDATE
 API .       490251083700:   API NUMBER
~CURVE INFORMATION
#MNEM.UNIT       API CODE    CURVE DESCRIPTION
#----------   ------------   ------------------------------
 DEPT.F                  :   
 SPR .MV     07 010 01 00:   SPONTANEOUS POTENTIAL
 SFL .OHMM   07 220 01 00:   SHALLOW FOCUSED LOG RESISTIVITY
 ILD .OHMM   07 120 46 00:   INDUCTION LOG DEEP
 ILM .OHMM   07 120 44 00:   INDUCTION LOG MEDIUM
 GRD .GAPI   45 310 01 00:   GAMMA RAY FROM DENSITY LOG
 CALD.IN     45 280 60 00:   CALIPER
 RHOB.G/C3   45 350 01 00:   BULK DENSITY
 CORR.G/C3   45 356 01 00:   DENSITY CORRECTION
 DPHI.DEC    45 890 12 00:   DENSITY POROSITY SANDSTONE
 NPHI.DEC    42 890 03 00:   NEUTRON POROSITY SANDSTONE
~PARAMETER INFORMATION
#MNEM.UNIT          VALUE    DESCRIPTION
#----------   ------------   ------------------------------
 PD  .                 GL:   PERMANENT DATUM
 EPD .F              5189:   ELEVATION PERMANENT DATUM
 LMF .                 KB:   LOG MEASURED FROM
 DAPD.F                 5:   FEET ABOVE PERMANENT DATUM
 DMF .                 KB:   DRILLING MEASURED FROM
 EKB .F              5194:   KELLING BUSHING
 EGL .F              5189:   GROUND LEVEL
 DATE.             8-1-80:   RUN DATE
 RUN .                  1:   RUN NUMBER
 DD  .F               625:   DEPTH DRILLER
 DL  .F               634:   DEPTH LOGGER
 BLI .F               632:   BOTTOM LOG INTERVAL
 TLI .F                12:   TOP LOG INTERVAL
 BS  .IN            7.875:   BIT SIZE
 BSD .F               625:   BIT SIZE AT DEPTH
 DFT .           CHEM GEL:   DRILLING FLUID TYPE
 DFD .                9.1:   DRILLING FLUID DENSITY
 DFV .                 44:   DRILLING FLUID VISCOSITY
 DFPH.                9.5:   DRILLING FLUID PH
 DFL .                7.6:   DRILLING FLUID LOSS
 MSS .           FLOWLINE:   MUD SAMPLE SOURCE
 RMS .OHMM            .27:   RESISTIVITY MUD SAMPLE
 MST .F                70:   MUD SAMPLE TEMPERATURE
 RMF .OHMM            .16:   RESISTIVITY MUD FILTRATE SAMPLE
 MFST.F                65:   MUD FILTRATE SAMPLE TEMPERATURE
 MFSS.               MEAS:   MUD FILTRATE SAMPLE SOURCE
 MCSS.               MEAS:   MUD CAKE SAMPLE SOURCE
 RMB .OHMM            .21:   RESISTIVITY MUD AT BHT
 BHT .F                94:   BOTTOM HOLE TEMPERATURE
 TCS .HRS            0040:   TIME CURCULATED STOPPED
 MRT .F                94:   MAXIMUM RECORDED TEMPERATURE
 LUN .               6145:   LOGGING UNIT NUMBER
 LUL .              GLTTE:   LOGGING UNIT LOCATION
 ENGI.              HENRY:   RECORDING ENGINEER
 WITN.              AMEND:   WITNESSED BY
 CLNT.            A2DTECH:   CLIENT CODE
 ORIG.     1", 2.5" PRINT:   ORIGIN OF DATA
 UWI .       490251083700:   UNIQUE WELL ID
 DICO. A2D Technologies, Inc.:   DIGITIZING COMPANY
~OTHER INFORMATION
~A    DEPT     SPR         SFL         ILD        ILM      GRD       CALD       RHOB       CORR       DPHI       NPHI   
# ...
  579.0000   -53.8181    15.7048    11.4636    14.0658    84.3956     8.2507     2.4694     0.0201     0.1243     0.2404
  579.5000   -53.7884    15.7298    11.4783    14.1655    83.6462     8.2553     2.4762     0.0200     0.1204     0.2359
  580.0000   -53.7613    15.7548    11.4931    14.1655    83.2748     8.2599     2.4825     0.0202     0.1152     0.2314
  580.5000   -53.7306    15.7799    11.5087    14.1655    85.2212     8.2645     2.4848     0.0200     0.1181     0.2299
  581.0000   -53.7017    15.8050    11.5223    14.1655    87.4800     8.2691     2.4767     0.0198     0.1224     0.2310
  581.5000   -53.6726    15.8302    11.5369    14.1655    89.2068     8.2737     2.4690     0.0144     0.1268     0.2324
  582.0000   -53.6431    15.8554    11.5053    14.1655    88.0775     8.2783     2.4609     0.0095     0.1299     0.2325
  582.5000   -53.6139    15.8806    11.4696    14.1655    86.4240     8.2829     2.4578     0.0042     0.1320     0.2315
  583.0000   -53.5854    15.9059    11.4328    14.1650    84.8020     8.2875     2.4570    -0.0012     0.1337     0.2307
  583.5000   -53.5547    15.9312    11.3963    14.1650    83.3056     8.2921     2.4593    -0.0042     0.1324     0.2347
  584.0000   -53.5274    15.9568    11.3600    14.1652    85.4644     8.2967     2.4612    -0.0015     0.1298     0.2387
  584.5000   -53.4993    15.9824    11.3238    14.1645    88.1273     8.3013     2.4632     0.0009     0.1298     0.2387
  585.0000   -53.4587    16.0087    11.2879    14.1637    86.7280     8.3059     2.4670     0.0034     0.1258     0.2367
  585.5000   -53.5521    16.0337    11.2525    14.1649    87.7520     8.3105     2.4746     0.0059     0.1199     0.2323
  586.0000   -53.7828    16.0596    11.2174    14.0558    87.5057     8.3152     2.4825     0.0083     0.1136     0.2280
  586.5000   -54.0012    16.0883    11.1805    13.9009    87.0672     8.3191     2.4904     0.0108     0.1124     0.2243
  587.0000   -54.2188    16.1067    11.1450    13.7488    87.7465     8.3210     2.4969     0.0133     0.1111     0.2270
  587.5000   -54.4396    16.1403    11.1165    13.5982    89.6271     8.3230     2.4930     0.0158     0.1096     0.2347
  588.0000   -54.6593    15.8768    10.9665    13.4492    91.4842     8.3250     2.4892     0.0183     0.1133     0.2338
  588.5000   -54.8789    15.5554    10.8426    13.3019    96.9333     8.3270     2.4849     0.0197     0.1169     0.2318
  589.0000   -55.0812    15.2404    10.7201    13.1562   101.7766     8.3289     2.4828     0.0181     0.1173     0.2299
  589.5000   -55.1926    14.9318    10.5990    13.0121   108.3688     8.3309     2.4830     0.0166     0.1170     0.2373
  590.0000   -55.3012    14.6295    10.4792    12.8695   104.4698     8.3329     2.4860     0.0149     0.1161     0.2435
  590.5000   -55.4012    14.4321    10.3608    12.6663    93.9682     8.3349     2.4862     0.0134     0.1152     0.2425
  591.0000   -55.4789    14.4562    10.2437    12.7050    90.4165     8.3369     2.4852     0.0121     0.1144     0.2395
  591.5000   -55.3637    14.4818    10.1271    12.7752    91.1831     8.3388     2.4842     0.0128     0.1163     0.2365
  592.0000   -55.2660    14.5074    10.1432    12.8458    90.0355     8.3408     2.4828     0.0134     0.1174     0.2335
  592.5000   -55.1587    14.5331    10.1702    12.9167    88.2893     8.3428     2.4862     0.0141     0.1168     0.2305
  593.0000   -55.0533    14.5588    10.1972    12.9880    88.1858     8.3448     2.4943     0.0148     0.1104     0.2281
  593.5000   -54.9515    14.5846    10.2242    13.0597    89.2591     8.3467     2.5042     0.0152     0.1048     0.2274
  594.0000   -54.8463    14.6104    10.2514    13.1319    91.3840     8.3487     2.5002     0.0158     0.1081     0.2302
  594.5000   -54.7330    14.6362    10.2784    13.2059    93.4252     8.3507     2.4914     0.0098     0.1129     0.2341
  595.0000   -54.6881    14.6621    10.3058    13.2794    92.7389     8.3527     2.4833     0.0027     0.1177     0.2381
  595.5000   -54.7561    14.7015    10.3335    13.3937    91.5842     8.3547     2.4771     0.0013     0.1216     0.2419
  596.0000   -54.8139    14.6699    10.3612    13.3315    91.7301     8.3566     2.4781     0.0049     0.1196     0.2458
  596.5000   -54.8726    14.5821    10.3886    13.1673    89.0974     8.3587     2.4790     0.0080     0.1160     0.2440
  597.0000   -54.9332    14.4948    10.4157    13.0050    87.8445     8.3549     2.4862     0.0110     0.1124     0.2422
  597.5000   -54.9923    14.4082    10.4437    12.8447    89.3507     8.3504     2.4950     0.0141     0.1085     0.2404
  598.0000   -55.0519    14.3226    10.4739    12.6865    87.9600     8.3457     2.5037     0.0172     0.1044     0.2395
  598.5000   -55.1114    14.2375    10.5118    12.5300    87.0669     8.3412     2.5126     0.0202     0.1003     0.2395
  599.0000   -55.1708    14.1523    10.4350    12.3761    88.9930     8.3366     2.5155     0.0233     0.0984     0.2439
  599.5000   -55.2295    14.0690    10.2941    12.2240    91.0716     8.3320     2.5112     0.0213     0.1029     0.2456
  600.0000   -55.2894    13.9854    10.1550    12.0738    92.0456     8.3274     2.5061     0.0174     0.1068     0.2462
  600.5000   -55.3490    13.9039    10.0178    11.9254    92.1439     8.3228     2.4876     0.0133     0.1108     0.2468
  601.0000   -55.4047    13.6442     9.8825    11.7560    92.7804     8.3182     2.4873     0.0124     0.1151     0.2475
  601.5000   -55.4706    13.3942     9.7490    11.6388    94.9100     8.3137     2.4809     0.0143     0.1205     0.2491
  602.0000   -55.4960    13.1489     9.6173    11.5013    95.5024     8.3091     2.4734     0.0161     0.1240     0.2508
  602.5000   -55.7360    12.9080     9.4874    11.3675    95.1450     8.3045     2.4820     0.0179     0.1203     0.2526
  603.0000   -56.0168    12.6715     9.3993    11.2352    94.9522     8.2999     2.4877     0.0197     0.1165     0.2544
  603.5000   -56.3032    12.4395     9.1773    11.1062    94.9403     8.2953     2.4885     0.0215     0.1136     0.2563
  604.0000   -56.5847    12.2118     8.9424    10.9802    97.3493     8.2907     2.4927     0.0233     0.1136     0.2589
  604.5000   -56.8682    11.9882     8.7135    10.8557    99.7363     8.2861     2.5028     0.0251     0.1085     0.2619
  605.0000   -57.1506    11.7686     8.4904    10.7311   100.6849     8.2813     2.5122     0.0271     0.0976     0.2607
  605.5000   -57.4344    11.5525     8.1651    10.1479   101.6730     8.2804     2.5148     0.0277     0.0997     0.2594
  606.0000   -57.7195    11.3402     7.8005     9.5825   102.3886     8.2888     2.5056     0.0257     0.1048     0.2579
  606.5000   -57.9567    11.1315     7.4052     8.9604   102.4228     8.2969     2.4953     0.0239     0.1098     0.2699
  607.0000   -58.0709    10.9293     7.0437     8.3787   101.6847     8.3052     2.4843     0.0220     0.1148     0.2699
  607.5000   -58.1889    10.7096     6.6999     7.8348   101.6638     8.3135     2.4777     0.0203     0.1208     0.2699
  608.0000   -58.3035     9.6899     6.3728     7.3262   109.9598     8.3217     2.4765     0.0185     0.1216     0.2730
  608.5000   -58.4169     8.6725     6.0617     6.8506   116.3731     8.3301     2.4746     0.0164     0.1224     0.2804
  609.0000   -58.5366     7.7618     5.7659     6.4737   111.1975     8.3383     2.4791     0.0188     0.1224     0.2878
  609.5000   -58.6478     6.9468     5.4844     6.1272   106.8532     8.3466     2.4938     0.0285     0.1115     0.2906
  610.0000   -58.7284     6.1215     5.2733     6.0001   103.4412     8.3552     2.5076     0.0369     0.1017     0.2906
  610.5000   -58.5782     6.8653     5.2733     6.2029   100.9792     8.3592     2.5205     0.0473     0.0952     0.2707
  611.0000   -58.4551     9.0697     5.6791     6.7231    99.8017     8.3589     2.5194     0.0398     0.0946     0.2542
  611.5000   -58.3195    11.9821     6.1075     7.2869    99.5601     8.3589     2.5173     0.0291     0.0954     0.2395
  612.0000   -58.1879    13.5141     6.5681     7.8975   100.0863     8.3589     2.5188     0.0253     0.0954     0.2405
