~VERSION INFORMATION
 VERS.                2.0:   CWLS LOG ASCII STANDARD - VERSION 2.0
 WRAP.                 NO:   ONE LINE PER DEPTH STEP
~WELL INFORMATION
#MNEM.UNIT      DATA TYPE    INFORMATION
#----------   ------------   ------------------------------
 STRT.F           70.0000:   START DEPTH
 STOP.F          853.0000:   STOP DEPTH
 STEP.F            0.5000:   STEP LENGTH
 NULL.          -999.2500:   NO VALUE
 COMP. U S NAVY/INTEX OIL CO:   COMPANY
 WELL.     31S-2 NPR #3-2:   WELL
 FLD .             TEAPOT:   FIELD
 LOC .       S2 T38N R78W:   LOCATION
 CNTY.            NATRONA:   COUNTY
 STAT.            WYOMING:   STATE
 CTRY. UNITED STATES OF AMERICA:   COUNTRY
 SRVC.         Lane Wells:   SERVICE COMPANY
 DATE.        17-MAR-1960:   LOGDATE
 API .       490250648000:   API NUMBER
~CURVE INFORMATION
#MNEM.UNIT       API CODE    CURVE DESCRIPTION
#----------   ------------   ------------------------------
 DEPT.F                  :   
 ASN .OHMM   05 041 16 00:   AMPLIFIED SHORT NORMAL 16"
 CILD.MMHO   05 110 46 00:   CONDUCTIVITY INDUCTION LOG DEEP
 ILD .OHMM   05 120 46 00:   INDUCTION LOG DEEP
 SPR .MV     05 010 01 00:   SPONTANEOUS POTENTIAL FROM RES.
~PARAMETER INFORMATION
#MNEM.UNIT          VALUE    DESCRIPTION
#----------   ------------   ------------------------------
 PD  .                 GL:   PERMANENT DATUM
 EPD .F              5118:   ELEVATION PERMANENT DATUM
 LMF .                 KB:   LOG MEASURED FROM
 DAPD.F                 5:   FEET ABOVE PERMANENT DATUM
 DMF .                 KB:   DRILLING MEASURED FROM
 EKB .F              5123:   KELLING BUSHING
 EGL .F              5118:   GROUND LEVEL
 DATE.        17-MAR-1960:   RUN DATE
 RUN .                  1:   RUN NUMBER
 DD  .F               860:   DEPTH DRILLER
 DL  .F               855:   DEPTH LOGGER
 BLI .F               853:   BOTTOM LOG INTERVAL
 TLI .F                70:   TOP LOG INTERVAL
 CS  .IN            8.625:   CASING SIZE
 CBD .F                12:   CASING BOTTOM DRILLER
 BS  .IN            7.875:   BIT SIZE
 BSD .F               860:   BIT SIZE AT DEPTH
 DFT .  GEL- OIL EMULSION:   DRILLING FLUID TYPE
 DFD .                9.7:   DRILLING FLUID DENSITY
 DFV .                 40:   DRILLING FLUID VISCOSITY
 MSS .    CIRC.- FLOWLINE:   MUD SAMPLE SOURCE
 RMS .OHMM           1.75:   RESISTIVITY MUD SAMPLE
 MST .F                60:   MUD SAMPLE TEMPERATURE
 RMF .OHMM            1.2:   RESISTIVITY MUD FILTRATE SAMPLE
 MFST.F                60:   MUD FILTRATE SAMPLE TEMPERATURE
 RMC .OHMM            2.4:   RESISTIVITY MUD CAKE
 MCST.F                60:   MUD CAKE SAMPLE TEMPERATURE
 MFSS.                MUD:   MUD FILTRATE SAMPLE SOURCE
 MCSS.              PRESS:   MUD CAKE SAMPLE SOURCE
 RMB .OHMM            1.5:   RESISTIVITY MUD AT BHT
 BHT .F                70:   BOTTOM HOLE TEMPERATURE
 MRT .F                70:   MAXIMUM RECORDED TEMPERATURE
 LUN .            HL 4474:   LOGGING UNIT NUMBER
 LUL .             CASPER:   LOGGING UNIT LOCATION
 ENGI.             NELSON:   RECORDING ENGINEER
 WITN.   JORGENSEN-HUDSON:   WITNESSED BY
 CLNT.            A2DTECH:   CLIENT CODE
 ORIG.        2" 5" PRINT:   ORIGIN OF DATA
 UWI .       490250648000:   UNIQUE WELL ID
 DICO. A2D Technologies, Inc.:   DIGITIZING COMPANY
~OTHER INFORMATION
~A   DEPT        ASN      CILD         ILD      SPR   
# ...
  289.0000     9.4111   113.0349     8.9897   -41.4241
  289.5000     9.6879   109.2473     9.1792   -41.7763
  290.0000    10.0324   106.0363     9.4656   -41.9772
  290.5000    10.5237   102.4645     9.6658   -42.1873
  291.0000    11.0149   100.2588     9.9092   -42.0516
  291.5000    11.5062    96.6891    10.1396   -41.8209
  292.0000    11.8046    94.3367    10.3505   -41.3700
  292.5000    11.8385    93.6347    10.6261   -40.9336
  293.0000    12.0172    92.7882    10.8837   -40.4900
  293.5000    12.1438    91.6535    10.9446   -40.0064
  294.0000    12.3066    91.6672    11.1536   -40.0070
  294.5000    12.4876    91.6808    11.3561   -40.1442
  295.0000    12.7092    91.6970    11.4708   -40.1450
  295.5000    12.9104    91.2792    11.6260   -40.2822
  296.0000    13.0936    90.3601    11.7763   -40.2829
  296.5000    13.2768    89.0121    11.9124   -40.5039
  297.0000    13.4600    89.0257    12.0984   -40.7267
  297.5000    13.6364    87.6791    12.2679   -41.1044
  298.0000    13.7675    86.3298    12.4457   -41.5129
  298.5000    13.9756    86.2004    12.6388   -41.8049
  299.0000    14.0434    83.6361    12.7738   -42.0625
  299.5000    14.1361    83.1460    12.9110   -42.1996
  300.0000    14.2469    80.9380    13.0208   -42.2003
  300.5000    14.4007    80.0916    13.1509   -42.1925
  301.0000    14.5364    79.2450    13.3131   -42.1713
  301.5000    14.6700    79.5558    13.3991   -42.1501
  302.0000    14.8223    78.7232    13.4535   -42.1289
  302.5000    14.9745    78.1808    13.5078   -42.1077
  303.0000    15.1267    76.8120    13.5621   -42.0865
  303.5000    15.3310    76.0408    13.5870   -42.0637
  304.0000    15.5506    75.1468    13.6241   -42.0637
  304.5000    15.8634    72.7067    13.7363   -42.0888
  305.0000    16.3480    71.9970    13.8587   -42.2003
  305.5000    16.8634    69.7413    14.0970   -42.2663
  306.0000    17.3797    67.2398    14.6372   -42.4734
  306.5000    18.1113    66.5915    15.0815   -42.4734
  307.0000    18.5128    64.3358    15.4774   -42.6692
  307.5000    18.9522    61.7729    16.3632   -42.5986
  308.0000    19.3997    61.7670    17.2554   -42.2003
  308.5000    20.3357    61.7602    17.6790   -41.9272
  309.0000    22.0045    61.7523    18.0113   -41.7906
  309.5000    23.9445    62.2662    18.2065   -41.9272
  310.0000    25.2877    64.4631    18.2065   -42.2458
  310.5000    25.7081    65.8164    18.1361   -42.6100
  311.0000    25.5721    65.8109    17.6630   -43.0197
  311.5000    23.1594    67.1656    17.0103   -43.3316
  312.0000    20.4736    67.1588    16.4402   -43.5660
  312.5000    19.1039    67.1520    15.5571   -43.5660
  313.0000    17.6853    68.5066    14.7461   -43.5660
  313.5000    16.9552    69.8616    13.9946   -43.4294
  314.0000    16.7514    71.5522    13.6046   -43.0835
  314.5000    16.5965    72.5711    13.3674   -42.9947
  315.0000    16.4796    74.6747    13.2473   -42.7466
  315.5000    16.3718    75.5553    13.0751   -42.5440
  316.0000    16.1916    77.9964    12.9502   -42.4552
  316.5000    16.0720    77.9902    12.7717   -42.2003
  317.0000    15.9361    79.5582    12.5693   -42.0046
  317.5000    15.7866    82.0605    12.4128   -41.9158
  318.0000    15.6643    85.2949    12.0245   -41.6540
  318.5000    15.4597    89.3118    11.6695   -41.4651
  319.0000    15.0995    95.6556    11.0953   -41.2398
  319.5000    14.7817   100.8645    10.1902   -40.8346
  320.0000    13.3686   108.1697     9.6196   -40.6525
  320.5000    11.7756   116.0586     8.8749   -40.2883
  321.0000     9.9643   123.5144     7.8804   -39.9788
  321.5000     9.8248   129.7799     7.5605   -39.6646
  322.0000     9.1254   137.8232     7.3360   -39.3323
  322.5000     8.2812   141.4257     7.1116   -39.1161
  323.0000     7.7875   147.3418     6.9552   -38.8589
  323.5000     7.3088   151.2632     6.7935   -38.5129
  324.0000     6.9780   154.1373     6.7101   -38.1669
  324.5000     6.8770   155.4906     6.6396   -37.9165
  325.0000     6.8148   158.4342     6.5897   -37.5569
  325.5000     6.9226   159.5630     6.5217   -37.2883
  326.0000     6.9938   159.5547     6.5217   -36.9742
  326.5000     7.1263   159.5484     6.5217   -37.0106
  327.0000     7.2105   159.5416     6.5217   -37.2064
  327.5000     7.1892   159.5341     6.5217   -37.5569
  328.0000     7.0714   160.1997     6.5217   -37.6935
  328.5000     6.9509   162.4417     6.5217   -38.0190
  329.0000     6.8551   164.9598     6.5217   -38.1032
  329.5000     6.7180   166.9259     6.5217   -38.2398
  330.0000     6.6771   170.3938     6.5217   -38.3763
  330.5000     6.7252   167.6624     6.5954   -38.3763
  331.0000     6.7988   164.3843     6.7255   -38.3763
  331.5000     6.8458   162.1287     6.7935   -38.2398
  332.0000     6.8858   159.4723     6.7962   -38.1032
  332.5000     6.9338   159.9546     6.9293   -38.1032
  333.0000     6.9669   162.1831     6.9293   -38.0713
  333.5000     6.9262   163.0772     6.8614   -37.8300
  334.0000     6.8111   163.9576     6.7935   -37.8300
  334.5000     6.7510   164.8858     6.7935   -37.6935
  335.0000     6.7284   164.8790     6.7935   -37.5569
  335.5000     6.7019   164.8722     6.7935   -37.5569
  336.0000     6.6831   164.8650     6.7763   -37.4021
  336.5000     6.6744   162.7186     6.7255   -37.2838
  337.0000     6.6877   161.5205     6.7634   -37.4795
  337.5000     6.7057   159.3981     6.7935   -37.7162
  338.0000     6.7417   157.3132     6.7935   -38.1032
  338.5000     6.7811   156.4191     6.8282   -38.2921
  339.0000     6.8250   153.9312     6.9293   -38.3809
  339.5000     6.8903   153.9251     6.9973   -38.6495
  340.0000     6.9742   152.5567     7.0652   -38.6495
  340.5000     7.0563   151.1875     7.0733   -38.6495
  341.0000     7.2425   151.1815     7.1332   -38.6495
  341.5000     7.3058   151.1747     7.2297   -38.7860
  342.0000     7.3593   149.8053     7.3370   -38.6495
  342.5000     7.4589   148.4380     7.3370   -38.6495
  343.0000     7.5619   147.0696     7.3625   -38.6495
  343.5000     7.6762   145.7000     7.4049   -38.5129
  344.0000     7.8247   143.8608     7.4728   -38.3763
  344.5000     7.9249   142.9644     7.4503   -38.3513
  345.0000     8.0622   142.9576     7.3370   -38.1032
  345.5000     8.1226   143.3615     7.2938   -38.1032
  346.0000     8.1164   144.3056     7.2011   -38.1032
  346.5000     8.0713   145.6604     7.1332   -38.1032
  347.0000     7.8777   147.0162     7.0652   -37.9666
  347.5000     7.7554   148.3695     7.0488   -37.8300
  348.0000     7.6145   148.3631     6.9973   -37.6935
  348.5000     7.4293   148.3563     6.9293   -37.6935
  349.0000     7.3505   149.7105     6.9293   -37.6980
  349.5000     7.2383   149.7042     6.9293   -37.8300
  350.0000     7.1664   149.6974     6.9293   -37.8300
  350.5000     7.1393   149.6899     6.9973   -37.9666
  351.0000     7.1298   149.6838     6.9973   -37.9666
  351.5000     7.1381   148.3154     7.0652   -38.1032
  352.0000     7.1739   148.3077     7.0652   -38.1032
  352.5000     7.2106   148.3018     7.0652   -38.1032
  353.0000     7.2455   148.2950     7.0652   -38.1032
  353.5000     7.2710   148.2871     7.0652   -38.1032
  354.0000     7.3321   148.2814     7.0652   -38.1032
  354.5000     7.3813   148.2746     7.1332   -38.1282
  355.0000     7.4213   148.2665     7.1332   -38.2398
  355.5000     7.4808   146.8994     7.1332   -38.2398
  356.0000     7.4869   146.8925     7.1332   -38.2398
  356.5000     7.3789   148.2474     7.1332   -38.2398
  357.0000     7.3038   148.2406     7.1332   -38.2398
  357.5000     7.3027   148.2335     7.1332   -38.2398
  358.0000     7.3490   148.2269     7.1332   -38.1032
  358.5000     7.4388   148.2201     7.0939   -38.1032
  359.0000     7.5470   150.9360     7.0574   -38.1032
  359.5000     7.6713   151.6763     6.9973   -38.1032
  360.0000     7.7503   153.6468     6.9293   -38.1032
  360.5000     7.8149   155.0002     6.8488   -38.1032
  361.0000     7.8009   157.0408     6.7935   -38.2147
  361.5000     7.5597   159.0725     6.7271   -38.2398
