~VERSION INFORMATION
 VERS.                2.0:   CWLS LOG ASCII STANDARD - VERSION 2.0
 WRAP.                 NO:   ONE LINE PER DEPTH STEP
~WELL INFORMATION
#MNEM.UNIT      DATA TYPE    INFORMATION
#----------   ------------   ------------------------------
 STRT.F          534.0000:   START DEPTH
 STOP.F         1847.5000:   STOP DEPTH
 STEP.F            0.5000:   STEP LENGTH
 NULL.          -999.2500:   NO VALUE
 COMP. LAWRENCE/ALLISON INC:   COMPANY
 WELL.      18 SHX #18-27:   WELL
 FLD .             TEAPOT:   FIELD
 LOC .      S27 T39N R78W:   LOCATION
 CNTY.            NATRONA:   COUNTY
 STAT.            WYOMING:   STATE
 CTRY. UNITED STATES OF AMERICA:   COUNTRY
 SRVC.            Unknown:   SERVICE COMPANY
 DATE.        01-MAR-1985:   LOGDATE
 API .       490251102000:   API NUMBER
~CURVE INFORMATION
#MNEM.UNIT       API CODE    CURVE DESCRIPTION
#----------   ------------   ------------------------------
 DEPT.F                  :   
 ROP .MIN/FT 91 810 01 00:   RATE OF DRILLING PENETRATION
 TGAS.UNITS  91 830 01 00:   TOTAL GAS FROM HOTWIRE
~PARAMETER INFORMATION
#MNEM.UNIT          VALUE    DESCRIPTION
#----------   ------------   ------------------------------
 DATE.           3-1-1985:   RUN DATE
 DD  .F              1848:   DEPTH DRILLER
 DL  .F              1825:   DEPTH LOGGER
 TLI .F               535:   TOP LOG INTERVAL
 WITN.  ALBERT C. KRAVATZ:   WITNESSED BY
 CLNT.            A2DTECH:   CLIENT CODE
 ORIG.           5" PRINT:   ORIGIN OF DATA
 UWI .       490251102000:   UNIQUE WELL ID
 DICO. A2D Technologies, Inc.:   DIGITIZING COMPANY
~OTHER INFORMATION
~A   DEPT      ROP       TGAS   
# ...
  777.0000     1.4980     3.7544
  777.5000     1.4982     3.7250
  778.0000     1.4984     3.6955
  778.5000     1.4987     3.6660
  779.0000     1.4989     3.6365
  779.5000     1.4991     3.6070
  780.0000     1.4994     3.5775
  780.5000     1.4996     3.5480
  781.0000     1.4998     3.5186
  781.5000     1.5001     3.4891
  782.0000     1.5003     3.4596
  782.5000     1.5005     3.4301
  783.0000     1.5008     3.4006
  783.5000     1.5010     3.3711
  784.0000     1.5001     3.3417
  784.5000     1.3261     3.3122
  785.0000     1.1521     3.2827
  785.5000     0.9781     3.2532
  786.0000     0.8016     3.2237
  786.5000     0.8006     3.1942
  787.0000     0.7996     3.1648
  787.5000     0.7986     3.1353
  788.0000     0.7976     3.1058
  788.5000     0.7965     3.0763
  789.0000     0.7955     3.0468
  789.5000     0.7945     3.0173
  790.0000     0.7935     2.9879
  790.5000     0.7924     2.9584
  791.0000     0.7914     2.9289
  791.5000     0.7904     2.8994
  792.0000     0.7894     2.8699
  792.5000     0.7883     2.8404
  793.0000     0.7873     2.8110
  793.5000     0.7863     2.7815
  794.0000     0.7853     2.7520
  794.5000     0.7842     2.7225
  795.0000     0.7832     2.6930
  795.5000     0.7822     2.6635
  796.0000     0.7812     2.6341
  796.5000     0.7802     2.6046
  797.0000     0.7791     2.5751
  797.5000     0.7781     2.5456
  798.0000     0.7771     2.5161
  798.5000     0.7761     2.4866
  799.0000     0.7750     2.4572
  799.5000     0.7740     2.4277
  800.0000     0.7730     2.3982
  800.5000     0.7720     2.3687
  801.0000     0.7709     2.3392
  801.5000     0.7699     2.3131
  802.0000     0.7689     2.3352
  802.5000     0.7679     2.3550
  803.0000     0.7668     2.3748
  803.5000     0.7658     2.3947
  804.0000     0.7648     2.4145
  804.5000     0.7638     2.4343
  805.0000     0.7628     2.4542
  805.5000     0.7617     2.4740
  806.0000     0.7607     2.4938
  806.5000     0.7597     2.5136
  807.0000     0.7587     2.5335
  807.5000     0.7576     2.5533
  808.0000     0.7566     2.5731
  808.5000     0.7556     2.5929
  809.0000     0.7546     2.6128
  809.5000     0.7535     2.6326
  810.0000     0.7525     2.6524
  810.5000     0.7515     2.6722
  811.0000     0.7505     2.6921
  811.5000     0.7495     2.7119
  812.0000     0.7484     2.7317
  812.5000     0.7474     2.7516
  813.0000     0.7464     2.7714
  813.5000     0.7454     2.7912
  814.0000     0.7443     2.8110
  814.5000     0.7529     2.8309
  815.0000     0.8255     2.8507
  815.5000     0.8981     2.8705
  816.0000     0.9707     2.8903
  816.5000     1.0296     2.9102
  817.0000     1.0299     2.9300
  817.5000     1.0302     2.9498
  818.0000     1.0305     2.9696
  818.5000     1.0307     2.9895
  819.0000     1.0310     3.0093
  819.5000     1.0313     3.0291
  820.0000     1.0315     3.0489
  820.5000     1.0318     3.0688
  821.0000     1.0321     3.0886
  821.5000     1.0323     3.1084
  822.0000     1.0326     3.1283
  822.5000     1.0329     3.1481
  823.0000     1.0331     3.1679
  823.5000     1.0334     3.1877
  824.0000     1.0337     3.2076
  824.5000     1.0339     3.2274
  825.0000     1.0342     3.2472
  825.5000     1.0345     3.2670
  826.0000     1.0347     3.2869
  826.5000     1.0350     3.3067
  827.0000     1.0353     3.3265
  827.5000     1.0355     3.3463
  828.0000     1.0358     3.3662
  828.5000     1.0361     3.3860
  829.0000     1.0363     3.4058
  829.5000     1.0366     3.4257
  830.0000     1.0369     3.4455
  830.5000     1.0372     3.4653
  831.0000     1.0374     3.4851
  831.5000     1.0377     3.5050
  832.0000     1.0380     3.5248
  832.5000     1.0382     3.5446
  833.0000     1.0385     3.5644
  833.5000     1.0388     3.5843
  834.0000     1.0390     3.6041
  834.5000     1.0393     3.6239
  835.0000     1.0396     3.6437
  835.5000     1.0398     3.6636
  836.0000     1.0401     3.6834
  836.5000     1.0404     3.7032
  837.0000     1.0406     3.7231
  837.5000     1.0409     3.7429
  838.0000     1.0412     3.7627
  838.5000     1.0414     3.7825
  839.0000     1.0417     3.8024
  839.5000     1.0420     3.8222
  840.0000     1.0422     3.8420
  840.5000     1.0425     3.8618
  841.0000     1.0428     3.8817
  841.5000     1.0430     3.9015
  842.0000     1.0433     3.9213
  842.5000     1.0436     3.9411
  843.0000     1.0439     3.9610
  843.5000     1.0441     3.9808
  844.0000     1.0444     4.0006
  844.5000     1.0447     4.0205
  845.0000     1.0449     4.0403
  845.5000     1.0452     4.0601
  846.0000     1.0455     4.0799
  846.5000     1.0457     4.0998
  847.0000     1.0460     4.1196
  847.5000     1.0606     4.1394
  848.0000     1.1570     4.1592
  848.5000     1.2535     4.1791
  849.0000     1.3499     4.1989
  849.5000     1.4464     4.2187
  850.0000     1.5040     4.2385
  850.5000     1.5039     4.2584
  851.0000     1.5038     4.2782
  851.5000     1.5037     4.2980
  852.0000     1.5036     4.3179
  852.5000     1.5035     4.3377
  853.0000     1.5034     4.3575
  853.5000     1.5033     4.3773
  854.0000     1.5032     4.3972
  854.5000     1.5031     4.4170
  855.0000     1.5030     4.4368
  855.5000     1.5029     4.4566
  856.0000     1.5028     4.4765
  856.5000     1.5027     4.4963
  857.0000     1.5026     4.5161
  857.5000     1.5026     4.5359
  858.0000     1.5025     4.5558
  858.5000     1.5024     4.5756
  859.0000     1.5023     4.5954
  859.5000     1.5022     4.6152
  860.0000     1.5021     4.6351
  860.5000     1.5020     4.6549
  861.0000     1.5019     4.6747
  861.5000     1.5018     4.6946
  862.0000     1.5017     4.7144
  862.5000     1.5016     4.7342
  863.0000     1.5015     4.7540
  863.5000     1.5014     4.7739
  864.0000     1.5013     4.7937
  864.5000     1.5012     4.8135
  865.0000     1.5011     4.8333
  865.5000     1.5010     4.8532
  866.0000     1.5009     4.8730
  866.5000     1.5008     4.8928
  867.0000     1.5007     4.9126
  867.5000     1.5006     4.9325
  868.0000     1.5005     4.9523
  868.5000     1.5005     4.9721
  869.0000     1.5004     4.9920
  869.5000     1.5003     5.0118
  870.0000     1.5002     5.0316
  870.5000     1.5001     5.0514
  871.0000     1.5000     5.0713
  871.5000     1.4999     5.0911
  872.0000     1.4998     5.1109
  872.5000     1.4997     5.1307
  873.0000     1.4996     5.1506
  873.5000     1.4995     5.1704
  874.0000     1.4994     5.1902
  874.5000     1.4993     5.2100
  875.0000     1.4992     5.2299
  875.5000     1.4991     5.2497
  876.0000     1.5918     5.2695
  876.5000     1.7029     5.2894
  877.0000     1.8141     5.3092
  877.5000     1.9253     5.3290
  878.0000     2.0179     5.3488
  878.5000     2.0175     5.3687
  879.0000     2.0173     5.3885
  879.5000     2.0170     5.4083
  880.0000     2.0167     5.4281
  880.5000     2.0164     5.4480
  881.0000     2.0161     5.4678
  881.5000     2.0158     5.4876
  882.0000     2.0156     5.5074
  882.5000     2.0153     5.5273
  883.0000     2.0150     5.5471
  883.5000     2.0147     5.5669
  884.0000     2.0144     5.5868
  884.5000     2.0141     5.6066
  885.0000     2.0138     5.6264
  885.5000     2.0136     5.6462
  886.0000     2.0133     5.6661
  886.5000     2.0130     5.6859
  887.0000     2.0127     5.7057
  887.5000     2.0124     5.7255
  888.0000     2.0121     5.7454
  888.5000     2.0119     5.7652
  889.0000     2.0116     5.7850
  889.5000     2.0113     5.8048
  890.0000     2.0110     5.8247
  890.5000     2.0107     5.8445
  891.0000     2.0104     5.8643
  891.5000     2.0102     5.8841
  892.0000     2.0099     5.9040
  892.5000     2.0096     5.9238
  893.0000     2.0093     5.9436
  893.5000     2.0090     5.9635
  894.0000     2.0087     5.9833
  894.5000     2.0085     6.0031
  895.0000     2.0082     6.0229
  895.5000     2.0079     6.0428
  896.0000     2.0076     6.0626
  896.5000     2.0073     6.0824
  897.0000     2.0070     6.1022
  897.5000     2.0067     6.1221
  898.0000     2.0065     6.1419
