~VERSION INFORMATION
 VERS.                2.0:   CWLS LOG ASCII STANDARD - VERSION 2.0
 WRAP.                 NO:   ONE LINE PER DEPTH STEP
~WELL INFORMATION
#MNEM.UNIT      DATA TYPE    INFORMATION
#----------   ------------   ------------------------------
 STRT.F            9.5000:   START DEPTH
 STOP.F          640.5000:   STOP DEPTH
 STEP.F            0.5000:   STEP LENGTH
 NULL.          -999.2500:   NO VALUE
 COMP. FENIX & SCISSON INC:   COMPANY
 WELL. 27-32 SX 11 WI #27-32 SX:   WELL
 FLD .            WILDCAT:   FIELD
 LOC .      S11 T38N R78W:   LOCATION
 CNTY.            NATRONA:   COUNTY
 STAT.            WYOMING:   STATE
 CTRY. UNITED STATES OF AMERICA:   COUNTRY
 SRVC.      Dresser Atlas:   SERVICE COMPANY
 DATE.        01-AUG-1980:   LOGDATE
 API .       490251083700:   API NUMBER
~CURVE INFORMATION
#MNEM.UNIT       API CODE    CURVE DESCRIPTION
#----------   ------------   ------------------------------
 DEPT.F                  :   
 SPR .MV     07 010 01 00:   SPONTANEOUS POTENTIAL
 SFL .OHMM   07 220 01 00:   SHALLOW FOCUSED LOG RESISTIVITY
 ILD .OHMM   07 120 46 00:   INDUCTION LOG DEEP
 ILM .OHMM   07 120 44 00:   INDUCTION LOG MEDIUM
 GRD .GAPI   45 310 01 00:   GAMMA RAY FROM DENSITY LOG
 CALD.IN     45 280 60 00:   CALIPER
 RHOB.G/C3   45 350 01 00:   BULK DENSITY
 CORR.G/C3   45 356 01 00:   DENSITY CORRECTION
 DPHI.DEC    45 890 12 00:   DENSITY POROSITY SANDSTONE
 NPHI.DEC    42 890 03 00:   NEUTRON POROSITY SANDSTONE
~PARAMETER INFORMATION
#MNEM.UNIT          VALUE    DESCRIPTION
#----------   ------------   ------------------------------
 PD  .                 GL:   PERMANENT DATUM
 EPD .F              5189:   ELEVATION PERMANENT DATUM
 LMF .                 KB:   LOG MEASURED FROM
 DAPD.F                 5:   FEET ABOVE PERMANENT DATUM
 DMF .                 KB:   DRILLING MEASURED FROM
 EKB .F              5194:   KELLING BUSHING
 EGL .F              5189:   GROUND LEVEL
 DATE.             8-1-80:   RUN DATE
 RUN .                  1:   RUN NUMBER
 DD  .F               625:   DEPTH DRILLER
 DL  .F               634:   DEPTH LOGGER
 BLI .F               632:   BOTTOM LOG INTERVAL
 TLI .F                12:   TOP LOG INTERVAL
 BS  .IN            7.875:   BIT SIZE
 BSD .F               625:   BIT SIZE AT DEPTH
 DFT .           CHEM GEL:   DRILLING FLUID TYPE
 DFD .                9.1:   DRILLING FLUID DENSITY
 DFV .                 44:   DRILLING FLUID VISCOSITY
 DFPH.                9.5:   DRILLING FLUID PH
 DFL .                7.6:   DRILLING FLUID LOSS
 MSS .           FLOWLINE:   MUD SAMPLE SOURCE
 RMS .OHMM            .27:   RESISTIVITY MUD SAMPLE
 MST .F                70:   MUD SAMPLE TEMPERATURE
 RMF .OHMM            .16:   RESISTIVITY MUD FILTRATE SAMPLE
 MFST.F                65:   MUD FILTRATE SAMPLE TEMPERATURE
 MFSS.               MEAS:   MUD FILTRATE SAMPLE SOURCE
 MCSS.               MEAS:   MUD CAKE SAMPLE SOURCE
 RMB .OHMM            .21:   RESISTIVITY MUD AT BHT
 BHT .F                94:   BOTTOM HOLE TEMPERATURE
 TCS .HRS            0040:   TIME CURCULATED STOPPED
 MRT .F                94:   MAXIMUM RECORDED TEMPERATURE
 LUN .               6145:   LOGGING UNIT NUMBER
 LUL .              GLTTE:   LOGGING UNIT LOCATION
 ENGI.              HENRY:   RECORDING ENGINEER
 WITN.              AMEND:   WITNESSED BY
 CLNT.            A2DTECH:   CLIENT CODE
 ORIG.     1", 2.5" PRINT:   ORIGIN OF DATA
 UWI .       490251083700:   UNIQUE WELL ID
 DICO. A2D Technologies, Inc.:   DIGITIZING COMPANY
~OTHER INFORMATION
~A    DEPT     SPR         SFL         ILD        ILM      GRD       CALD       RHOB       CORR       DPHI       NPHI   
# ...
  244.0000   -57.9177    11.5432     8.0944     8.6325    91.2917     8.1278     2.5155     0.0074     0.0958     0.2819
  244.5000   -57.8381    11.1290     8.0529     8.5316    94.1400     8.1309     2.5093     0.0080     0.1005     0.2801
  245.0000   -57.7612    10.7296     8.0153     8.4318    96.9413     8.1340     2.5033     0.0080     0.1056     0.2827
  245.5000   -57.6756    10.3176     7.9757     8.3334    95.9023     8.1372     2.5037     0.0080     0.1053     0.2873
  246.0000   -57.5937    10.3176     7.9372     8.2493    94.7530     8.1403     2.5063     0.0080     0.1050     0.2918
  246.5000   -57.5118    10.3176     7.8985     8.2177    94.7132     8.1434     2.5091     0.0081     0.1035     0.2972
  247.0000   -57.4287    10.3176     7.8600     8.1901    95.4714     8.1466     2.5120     0.0081     0.1012     0.2980
  247.5000   -57.3462    10.3176     7.8219     8.1625    94.8671     8.1496     2.5152     0.0078     0.0988     0.2980
  248.0000   -57.2651    10.3176     7.7842     8.1350    94.3556     8.1527     2.5242     0.0110     0.0968     0.2980
  248.5000   -57.1802    10.3176     7.7464     8.1076    95.3695     8.1562     2.5347     0.0177     0.0884     0.2980
  249.0000   -57.1094    10.3176     7.7077     8.0803    94.0129     8.1547     2.5448     0.0248     0.0808     0.2980
  249.5000   -57.0187    10.3176     7.6570     8.0532    90.6444     8.1489     2.5548     0.0258     0.0730     0.2898
  250.0000   -56.9400    10.3176     7.6828     8.0263    89.5594     8.1436     2.5690     0.0182     0.0638     0.2868
  250.5000   -56.8620    10.3176     7.7290     7.9995    90.8041     8.1383     2.5582     0.0110     0.0821     0.2868
  251.0000   -56.7769    10.3176     7.7756     7.9727    90.8102     8.1328     2.5195     0.0032     0.1083     0.2856
  251.5000   -56.6947    10.3176     7.8225     7.9481    90.1550     8.1275     2.5015     0.0032     0.1027     0.2808
  252.0000   -56.4747    10.3174     7.8696     8.0233    90.3061     8.1221     2.5115     0.0095     0.0956     0.2761
  252.5000   -56.2680    10.3172     7.9170     8.0934    91.9347     8.1167     2.5208     0.0120     0.0952     0.2740
  253.0000   -56.0521    10.3177     7.9647     8.1641    91.5165     8.1113     2.5208     0.0150     0.0950     0.2808
  253.5000   -55.9374    10.3162     8.0124     8.2350    90.7206     8.1059     2.5224     0.0182     0.0917     0.2896
  254.0000   -56.1232    10.3174     8.0605     8.3071    90.8101     8.1006     2.5274     0.0212     0.0883     0.2980
  254.5000   -56.3010    10.3176     8.1089     8.3798    90.8714     8.0952     2.5329     0.0242     0.0878     0.2979
  255.0000   -56.4918    10.3176     8.1576     8.4531    90.9475     8.0898     2.5338     0.0273     0.0888     0.2978
  255.5000   -56.6754    10.4154     8.2065     8.5627    91.1254     8.0844     2.5300     0.0250     0.0914     0.2977
  256.0000   -56.8565    10.5590     8.2493     8.5332    90.3657     8.0791     2.5264     0.0204     0.0937     0.2977
  256.5000   -57.0629    10.7045     8.1381     8.4770    88.9029     8.0737     2.5229     0.0158     0.0960     0.2976
  257.0000   -56.9864    10.8521     8.0923     8.4212    87.5544     8.0683     2.5141     0.0113     0.1011     0.2975
  257.5000   -56.7260    11.0016     8.0845     8.3657    86.1625     8.0629     2.5054     0.0068     0.1062     0.2974
  258.0000   -56.4868    11.0844     8.0770     8.3106    87.6566     8.0575     2.4965     0.0023     0.1112     0.2974
  258.5000   -56.2520    10.9537     8.0687     8.2558    89.9774     8.0522     2.4890    -0.0023     0.1140     0.2973
  259.0000   -56.0101    10.8235     8.0606     8.2015    92.2122     8.0466     2.4881    -0.0066     0.1147     0.2972
  259.5000   -55.7731    10.7111     8.0527     8.1474    91.9853     8.0415     2.4870    -0.0117     0.1152     0.2972
  260.0000   -55.5316    10.8079     8.0449     8.0938    90.7208     8.0369     2.4866    -0.0120     0.1152     0.2972
  260.5000   -55.2947    10.8943     8.0371     8.0404    89.4558     8.0443     2.4906    -0.0121     0.1142     0.2972
  261.0000   -55.0876    10.8231     8.0293     7.9875    88.4115     8.0516     2.4965    -0.0121     0.1104     0.2981
  261.5000   -55.0827    10.7120     8.0214     7.9586    90.2075     8.0594     2.5023    -0.0121     0.1064     0.2991
  262.0000   -55.0781    10.6026     8.0136     8.0064    91.7564     8.0670     2.4916    -0.0121     0.1153     0.2996
  262.5000   -55.0809    10.4943     8.0057     8.0545    93.3581     8.0746     2.4802    -0.0121     0.1248     0.3076
  263.0000   -55.0807    10.3871     7.9975     8.1029    91.1882     8.0822     2.4694    -0.0112     0.1265     0.3060
  263.5000   -55.0807    10.3176     7.9894     8.1516    91.2135     8.0899     2.4696    -0.0094     0.1216     0.3028
  264.0000   -55.0813    10.4912     7.9821     8.2006    93.5579     8.0975     2.4790    -0.0078     0.1157     0.2955
  264.5000   -55.0822    10.6756     7.9721     8.2493    95.3761     8.1051     2.4882    -0.0062     0.1128     0.2886
  265.0000   -55.0822    10.8632     7.9667     8.3836    93.8210     8.1127     2.4894    -0.0046     0.1138     0.2839
  265.5000   -55.0810    11.1165     7.9589     8.5186    92.4758     8.1204     2.4875    -0.0030     0.1144     0.2800
  266.0000   -55.0863    11.0459     7.9473     8.6149    90.9858     8.1280     2.4987    -0.0014     0.1051     0.2762
  266.5000   -55.0792    10.9100     8.0872     8.7990    89.5099     8.1355     2.5159     0.0002     0.0999     0.2753
  267.0000   -55.0656    10.9900     8.3688     8.9870    87.9916     8.1434     2.5109     0.0018     0.1020     0.2773
  267.5000   -54.7925    11.2225     8.6601     9.1790    86.9841     8.1507     2.5066     0.0034     0.1032     0.2788
  268.0000   -54.5397    11.4600     8.9617     9.3751    87.6894     8.1564     2.5058     0.0051     0.1045     0.2763
  268.5000   -54.2724    11.7027     9.2737     9.5754    88.5135     8.1454     2.5047     0.0067     0.1069     0.2732
  269.0000   -54.0106    11.9507     9.5758     9.7800    87.3904     8.1360     2.5041     0.0083     0.1088     0.2712
  269.5000   -53.7485    12.2040     9.7604     9.9889    84.9156     8.1256     2.5035     0.0099     0.1037     0.2702
  270.0000   -53.4858    12.4628     9.9372    10.2023    82.4496     8.1155     2.5125     0.0115     0.0975     0.2676
  270.5000   -53.2230    12.7268    10.1168    10.4203    80.1034     8.1055     2.5218     0.0131     0.0920     0.2707
  271.0000   -52.9593    12.9964    10.2997    10.6429    78.3120     8.0954     2.5260     0.0147     0.0939     0.2731
  271.5000   -52.6995    13.2717    10.4860    10.8703    82.3141     8.0853     2.5201     0.0160     0.0970     0.2698
  272.0000   -52.3649    13.5529    10.7074    11.1025    87.0752     8.0752     2.5150     0.0154     0.1000     0.2639
  272.5000   -52.1925    13.8400    10.7583    11.3257    86.1998     8.0652     2.5099     0.0146     0.1031     0.2579
  273.0000   -52.1400    14.1655    10.8211    11.3781    84.7064     8.0550     2.5047     0.0137     0.1062     0.2539
  273.5000   -52.0830    14.1655    10.8823    11.4277    83.1032     8.0450     2.4991     0.0128     0.1096     0.2564
  274.0000   -52.0218    14.1655    10.9438    11.4776    83.1110     8.0365     2.4986     0.0119     0.1096     0.2602
  274.5000   -51.9656    14.1000    11.0056    11.5389    83.9359     8.0364     2.5015     0.0111     0.1081     0.2639
  275.0000   -51.9089    13.9830    11.0991    11.4824    84.6615     8.0362     2.5038     0.0102     0.1068     0.2683
  275.5000   -51.8414    13.8669    11.0723    11.3385    85.3401     8.0363     2.5059     0.0093     0.1055     0.2691
  276.0000   -51.8944    13.7519    10.8751    11.1965    84.1019     8.0363     2.5081     0.0085     0.1040     0.2688
  276.5000   -52.0213    13.6377    10.6815    11.0562    82.8880     8.0362     2.5104     0.0074     0.1040     0.2676
  277.0000   -52.1377    13.5246    10.4913    10.9183    81.5448     8.0362     2.5058     0.0062     0.1069     0.2663
