~VERSION INFORMATION
 VERS.                2.0:   CWLS LOG ASCII STANDARD - VERSION 2.0
 WRAP.                 NO:   ONE LINE PER DEPTH STEP
~WELL INFORMATION
#MNEM.UNIT      DATA TYPE    INFORMATION
#----------   ------------   ------------------------------
 STRT.F           30.0000:   START DEPTH
 STOP.F          580.0000:   STOP DEPTH
 STEP.F            0.5000:   STEP LENGTH
 NULL.          -999.2500:   NO VALUE
 COMP. FENIX & SCISSON INC:   COMPANY
 WELL.      87 SX 3 #87-3:   WELL
 FLD .             TEAPOT:   FIELD
 LOC .       S3 T38N R78W:   LOCATION
 CNTY.            NATRONA:   COUNTY
 STAT.            WYOMING:   STATE
 CTRY. UNITED STATES OF AMERICA:   COUNTRY
 SRVC.            Unknown:   SERVICE COMPANY
 DATE.        16-NOV-1978:   LOGDATE
 API .       490251074200:   API NUMBER
~CURVE INFORMATION
#MNEM.UNIT       API CODE    CURVE DESCRIPTION
#----------   ------------   ------------------------------
 DEPT.F                  :   
 CALD.IN     45 280 60 00:   CALIPER
 GRD .GAPI   45 310 01 00:   GAMMA RAY FROM DENSITY LOG
 RHOB.G/C3   45 350 01 00:   BULK DENSITY
 DPHI.DEC    45 890 12 00:   DENSITY POROSITY SANDSTONE
 CORR.G/C3   45 356 01 00:   DENSITY CORRECTION
 SFL .OHMM   05 221 01 00:   AMP. SHALLOW FOCUSED LOG RESISTIVITY
 ILD .OHMM   05 120 46 00:   INDUCTION LOG DEEP
 SPR .MV     05 010 01 00:   SPONTANEOUS POTENTIAL FROM RES.
~PARAMETER INFORMATION
#MNEM.UNIT          VALUE    DESCRIPTION
#----------   ------------   ------------------------------
 PD  .                 GL:   PERMANENT DATUM
 EPD .F              5120:   ELEVATION PERMANENT DATUM
 LMF .                 KB:   LOG MEASURED FROM
 DAPD.F                 4:   FEET ABOVE PERMANENT DATUM
 DMF .                 KB:   DRILLING MEASURED FROM
 EKB .F              5124:   KELLING BUSHING
 EGL .F              5120:   GROUND LEVEL
 DATE.           11-16-78:   RUN DATE
 RUN .                  1:   RUN NUMBER
 DD  .F               580:   DEPTH DRILLER
 DL  .F               574:   DEPTH LOGGER
 BLI .F               574:   BOTTOM LOG INTERVAL
 TLI .F                50:   TOP LOG INTERVAL
 CS  .IN            8.625:   CASING SIZE
 CBD .F                50:   CASING BOTTOM DRILLER
 CBL .F                50:   CASING BOTTOM LOGGER
 BS  .IN            7.875:   BIT SIZE
 BSD .F               580:   BIT SIZE AT DEPTH
 DFT .            SEA MUD:   DRILLING FLUID TYPE
 DFD .                8.7:   DRILLING FLUID DENSITY
 DFV .                 54:   DRILLING FLUID VISCOSITY
 DFPH.                9.8:   DRILLING FLUID PH
 MSS .           FLOWLINE:   MUD SAMPLE SOURCE
 RMS .OHMM            1.1:   RESISTIVITY MUD SAMPLE
 MST .F                56:   MUD SAMPLE TEMPERATURE
 RMF .OHMM             .9:   RESISTIVITY MUD FILTRATE SAMPLE
 MFST.F                60:   MUD FILTRATE SAMPLE TEMPERATURE
 RMC .OHMM            .95:   RESISTIVITY MUD CAKE
 MCST.F                60:   MUD CAKE SAMPLE TEMPERATURE
 MFSS.           MEASURED:   MUD FILTRATE SAMPLE SOURCE
 MCSS.           MEASURED:   MUD CAKE SAMPLE SOURCE
 RMB .OHMM            .93:   RESISTIVITY MUD AT BHT
 BHT .F                66:   BOTTOM HOLE TEMPERATURE
 TCS .HRS               1:   TIME CURCULATED STOPPED
 MRT .F                66:   MAXIMUM RECORDED TEMPERATURE
 LUN .               2958:   LOGGING UNIT NUMBER
 LUL .                CPR:   LOGGING UNIT LOCATION
 ENGI.             MILLER:   RECORDING ENGINEER
 WITN.           DINSMORE:   WITNESSED BY
 CLNT.            A2DTECH:   CLIENT CODE
 ORIG.       2", 5" PRINT:   ORIGIN OF DATA
 UWI .       490251074200:   UNIQUE WELL ID
 DICO. A2D Technologies, Inc.:   DIGITIZING COMPANY
~OTHER INFORMATION
~A   DEPT     CALD         GRD      RHOB       DPHI       CORR        SFL        ILD        SPR   
# ...
   70.5000     7.8491   102.5822     2.4355     0.1506     0.0044    10.5920     8.4763   -13.6421
   71.0000     7.8472   103.2676     2.4427     0.1463     0.0042     9.5286     8.4667   -13.4319
   71.5000     7.8444    98.2652     2.4382     0.1500     0.0039    10.7406     8.4572   -13.4667
   72.0000     7.8416   104.6481     2.4275     0.1555     0.0037    10.1389     8.4477   -13.5555
   72.5000     7.8389   103.1740     2.4284     0.1536     0.0044     9.8862     8.4382   -14.2292
   73.0000     7.8361   103.2810     2.4324     0.1510     0.0069     9.9461     8.4287   -15.0514
   73.5000     7.8334   101.9580     2.4363     0.1484     0.0094     9.9940     8.4192   -15.5459
   74.0000     7.8306    98.2555     2.4403     0.1460     0.0115    10.0421     8.4097   -15.4401
   74.5000     7.8278    98.7167     2.4415     0.1461     0.0109    10.0904     8.4003   -15.3442
   75.0000     7.8251   105.5599     2.4420     0.1462     0.0104    10.1390     8.3909   -15.2463
   75.5000     7.8223   109.3598     2.4426     0.1466     0.0100    10.1632     8.3814   -15.1489
   76.0000     7.8196   104.6080     2.4428     0.1477     0.0095    10.1632     8.3720   -15.0515
   76.5000     7.8167   103.4850     2.4374     0.1487     0.0095    10.1632     8.3626   -14.9538
   77.0000     7.8141   105.2647     2.4397     0.1476     0.0095    10.1632     8.3532   -14.8569
   77.5000     7.8231   104.9397     2.4425     0.1452     0.0095    10.1632     8.3438   -14.7966
   78.0000     7.8837   104.6271     2.4451     0.1453     0.0095    10.1632     8.3344   -14.8819
   78.5000     7.9328   106.6839     2.4427     0.1476     0.0095    10.1632     8.3250   -14.9538
   79.0000     7.9370   106.5219     2.4362     0.1498     0.0101    10.1632     8.3156   -15.4843
   79.5000     7.9421   106.2227     2.4344     0.1501     0.0117    10.1633     8.3063   -16.0853
   80.0000     7.9472   105.6668     2.4426     0.1448     0.0178    10.1510     8.2970   -16.6918
   80.5000     7.9523   101.6117     2.4468     0.1446     0.0234    10.1300     8.2876   -16.5531
   81.0000     7.9574    99.4629     2.4462     0.1451     0.0225    10.1089     8.2783   -16.3036
   81.5000     7.9626   102.2313     2.4457     0.1455     0.0213    10.0879     8.2690   -16.0528
   82.0000     7.9677   105.5677     2.4450     0.1460     0.0170    10.0670     8.2597   -15.8060
   82.5000     7.9728   104.6506     2.4499     0.1399     0.0129    10.0461     8.2504   -15.5477
   83.0000     7.9780   103.0673     2.4554     0.1397     0.0087    10.0252     8.2415   -14.9487
   83.5000     7.9831   101.1514     2.4572     0.1396     0.0075    10.0044     8.2257   -14.8723
   84.0000     7.9883    99.0762     2.4606     0.1364     0.0088     9.9836     8.2312   -14.9919
   84.5000     7.9876    97.5973     2.4691     0.1319     0.0136     9.9629     8.1446   -15.1184
   85.0000     7.9837   101.7621     2.4752     0.1288     0.0184     9.9422     8.1746   -15.0712
   85.5000     7.9798   105.6824     2.4708     0.1321     0.0160     9.9216     8.1891   -14.8670
   86.0000     7.9759   106.4979     2.4627     0.1365     0.0113     9.9012     8.2039   -14.6617
   86.5000     7.9721   108.2630     2.4541     0.1465     0.0065     9.8866     8.2191   -14.4559
   87.0000     7.9682   110.0232     2.4338     0.1551     0.0012     9.9762     8.2622   -14.2504
   87.5000     7.9643   111.1265     2.4324     0.1495     0.0035    10.0468     8.3211   -14.0443
   88.0000     7.9604   109.1524     2.4420     0.1434     0.0096    10.1181     8.3799   -13.8297
   88.5000     7.9565   105.0382     2.4503     0.1408     0.0095    10.1898     8.4390   -13.9363
   89.0000     7.9527   102.6068     2.4455     0.1448     0.0095    10.2620     8.4986   -14.1282
   89.5000     7.9576   101.0979     2.4374     0.1536     0.0095    10.3348     8.5583   -14.3222
   90.0000     7.9734   101.8635     2.4339     0.1507     0.0124    10.4083     8.6102   -14.5160
   90.5000     7.9889   103.0275     2.4439     0.1441     0.0158    10.4816     8.6022   -14.7078
   91.0000     8.0050   103.7213     2.4564     0.1350     0.0297    10.5441     8.5950   -14.9079
   91.5000     7.9977   103.9248     2.4633     0.1328     0.0427    10.3843     8.5878   -14.5465
   92.0000     7.9799   105.3345     2.4478     0.1489     0.0482    10.2464     8.5805   -13.8308
   92.5000     7.9621   106.6179     2.4377     0.1517     0.0538    10.1639     8.5733   -13.1070
   93.0000     7.9437   106.8855     2.4334     0.1516     0.0595    10.2563     8.5660   -12.4165
   93.5000     7.9104   107.9663     2.4331     0.1408     0.0703    10.3517     8.5588   -12.3241
   94.0000     7.8225   109.0297     2.4621     0.1324     0.1048    10.3081     8.5516   -12.2549
   94.5000     7.7374   109.8274     2.4731     0.1351     0.1187    10.2329     8.5443   -12.2014
   95.0000     7.6929   109.2900     2.4582     0.1356     0.1171    10.1588     8.5371   -12.3146
   95.5000     7.6931   108.5542     2.4603     0.1325     0.1143    10.0854     8.5201   -12.8669
   96.0000     7.6930   107.8091     2.4747     0.1280     0.1107    10.0125     8.4663   -13.4120
   96.5000     7.6931   107.0548     2.4759     0.1281     0.0921     9.9401     8.4133   -13.5288
   97.0000     7.6933   106.8340     2.4729     0.1288     0.0733     9.8862     8.3607   -13.4422
   97.5000     7.6913   106.8358     2.4698     0.1316     0.0699     9.9149     8.3084   -13.3516
   98.0000     7.6560   107.1160     2.4664     0.1402     0.0734     9.9382     8.2564   -13.2594
   98.5000     7.6213   107.6982     2.4526     0.1522     0.0771     9.9605     8.2048   -13.1212
   99.0000     7.5869   108.2144     2.4294     0.1524     0.0807     9.9766     8.1535   -12.8106
   99.5000     7.5522   108.2262     2.4338     0.1512     0.0841     9.7677     8.1476   -12.5102
  100.0000     7.5168   108.0135     2.4256     0.1580     0.0805     9.6069     8.1476   -12.2152
  100.5000     7.5349   107.3732     2.4137     0.1633     0.0661     9.5168     8.1476   -12.0330
  101.0000     7.5578   105.8717     2.4172     0.1607     0.0615     9.4934     8.1476   -12.1501
  101.5000     7.5805   104.7359     2.4233     0.1549     0.0573     9.4701     8.1475   -12.2602
  102.0000     7.6031   104.4425     2.4343     0.1462     0.0530     9.4413     8.1475   -12.3646
  102.5000     7.6258   104.1213     2.4495     0.1375     0.0485     9.6671     8.1482   -12.9487
  103.0000     7.6487   104.1387     2.4640     0.1287     0.0424     9.9777     8.1476   -13.6836
  103.5000     7.6770   104.2563     2.4739     0.1254     0.0358    10.0039     8.3186   -13.8774
  104.0000     7.6978   103.4701     2.4822     0.1236     0.0263    10.0307     8.4448   -13.6961
  104.5000     7.7063   102.4596     2.4782     0.1270     0.0169    10.0575     8.5730   -13.2375
  105.0000     7.7121   102.3302     2.4683     0.1329     0.0092    10.0843     8.7031   -12.3302
  105.5000     7.7067   102.9705     2.4585     0.1387     0.0070    10.1112     8.8352   -12.0407
  106.0000     7.7016   103.7596     2.4529     0.1418     0.0046    10.1383     8.9342   -12.0843
  106.5000     7.6965   104.5437     2.4510     0.1413     0.0022    10.1632     8.9338   -12.1355
  107.0000     7.6914   104.3380     2.4510     0.1421    -0.0002    10.3182     8.9338   -12.1834
  107.5000     7.6863   102.9006     2.4510     0.1428    -0.0005    10.4479     8.9337   -12.3825
  108.0000     7.6812   101.4930     2.4528     0.1412    -0.0005    10.4195     8.9337   -12.6440
  108.5000     7.6761   100.9869     2.4547     0.1398    -0.0005    10.3939     8.9337   -12.9107
  109.0000     7.6710   100.7137     2.4561     0.1388    -0.0005    10.3684     8.9337   -13.1820
  109.5000     7.6659   101.0218     2.4560     0.1390    -0.0005    10.3430     8.9337   -13.2045
  110.0000     7.6608   101.3195     2.4540     0.1404    -0.0005    10.3176     8.9337   -12.8261
  110.5000     7.6559   101.6222     2.4501     0.1443    -0.0005    10.2922     8.9337   -12.3105
