~VERSION INFORMATION
 VERS.                2.0:   CWLS LOG ASCII STANDARD - VERSION 2.0
 WRAP.                 NO:   ONE LINE PER DEPTH STEP
~WELL INFORMATION
#MNEM.UNIT      DATA TYPE    INFORMATION
#----------   ------------   ------------------------------
 STRT.F           80.5000:   START DEPTH
 STOP.F          768.0000:   STOP DEPTH
 STEP.F            0.5000:   STEP LENGTH
 NULL.          -999.2500:   NO VALUE
 COMP. U S NAVY/INTEX OIL CO:   COMPANY
 WELL. N.P.R. #3 #84-S-34:   WELL
 FLD .             TEAPOT:   FIELD
 LOC .      S34 T39N R78W:   LOCATION
 CNTY.            NATRONA:   COUNTY
 STAT.            WYOMING:   STATE
 CTRY. UNITED STATES OF AMERICA:   COUNTRY
 SRVC. Schlumberger Well Surveying Corp:   SERVICE COMPANY
 DATE.        17-FEB-1961:   LOGDATE
 API .       490250654000:   API NUMBER
~CURVE INFORMATION
#MNEM.UNIT       API CODE    CURVE DESCRIPTION
#----------   ------------   ------------------------------
 DEPT.F                  :   
 SPR .MV     05 010 01 00:   SPONTANEOUS POTENTIAL
 ASN .OHMM   05 041 16 00:   AMPLIFIED SHORT NORMAL 16"
 ILD .OHMM   05 120 46 00:   INDUCTION LOG DEEP
 CILD.MMHO   05 110 46 00:   CONDUCTIVITY INDUCTION LOG DEEP
 GR  .GAPI   30 310 01 00:   GAMMA RAY
~PARAMETER INFORMATION
#MNEM.UNIT          VALUE    DESCRIPTION
#----------   ------------   ------------------------------
 PD  .                 GL:   PERMANENT DATUM
 EPD .F              5083:   ELEVATION PERMANENT DATUM
 LMF .                 KB:   LOG MEASURED FROM
 DAPD.F                 4:   FEET ABOVE PERMANENT DATUM
 DMF .                 KB:   DRILLING MEASURED FROM
 EKB .F              5087:   KELLING BUSHING
 EGL .F              5083:   GROUND LEVEL
 DATE.            2-17-61:   RUN DATE
 RUN .                  1:   RUN NUMBER
 DD  .F               770:   DEPTH DRILLER
 DL  .F               769:   DEPTH LOGGER
 BLI .F               768:   BOTTOM LOG INTERVAL
 TLI .F                80:   TOP LOG INTERVAL
 CBD .F                12:   CASING BOTTOM DRILLER
 BS  .IN            7.875:   BIT SIZE
 BSD .F               770:   BIT SIZE AT DEPTH
 DFT .       GEL/OIL EMUL:   DRILLING FLUID TYPE
 DFD .                9.5:   DRILLING FLUID DENSITY
 DFV .                 50:   DRILLING FLUID VISCOSITY
 DFPH.                  8:   DRILLING FLUID PH
 DFL .                1.8:   DRILLING FLUID LOSS
 MSS .           FLOWLINE:   MUD SAMPLE SOURCE
 RMS .OHMM             .9:   RESISTIVITY MUD SAMPLE
 MST .F                69:   MUD SAMPLE TEMPERATURE
 RMF .OHMM            .54:   RESISTIVITY MUD FILTRATE SAMPLE
 MFST.F                69:   MUD FILTRATE SAMPLE TEMPERATURE
 RMC .OHMM           1.64:   RESISTIVITY MUD CAKE
 MCST.F                69:   MUD CAKE SAMPLE TEMPERATURE
 MFSS.                  M:   MUD FILTRATE SAMPLE SOURCE
 MCSS.                  M:   MUD CAKE SAMPLE SOURCE
 RMB .OHMM             .8:   RESISTIVITY MUD AT BHT
 BHT .F                78:   BOTTOM HOLE TEMPERATURE
 TCS .HRS               1:   TIME CURCULATED STOPPED
 MRT .F                78:   MAXIMUM RECORDED TEMPERATURE
 LUN .               2523:   LOGGING UNIT NUMBER
 LUL .               CSPR:   LOGGING UNIT LOCATION
 ENGI.             KNOBEL:   RECORDING ENGINEER
 WITN.          JORGENSEN:   WITNESSED BY
 CLNT.            A2DTECH:   CLIENT CODE
 ORIG.       2", 5" PRINT:   ORIGIN OF DATA
 UWI .       490250654000:   UNIQUE WELL ID
 DICO. A2D Technologies, Inc.:   DIGITIZING COMPANY
~OTHER INFORMATION
~A   DEPT      SPR        ASN        ILD       CILD         GR   
# ...
  690.5000   -20.5073    13.3785    11.2330    90.8188    42.0686
  691.0000   -20.4224    13.3228    11.2330    91.2115    45.2846
  691.5000   -20.3375    13.2900    11.2330    91.5454    42.3510
  692.0000   -20.2526    13.2586    11.2330    91.8046    51.8978
  692.5000   -20.1679    13.2273    11.2330    92.0637    48.5599
  693.0000   -20.0827    13.1959    11.2330    92.3229    47.0368
  693.5000   -19.9946    13.1644    11.2331    92.5820    51.4621
  694.0000   -20.0442    13.1330    11.2332    92.8412    53.9395
  694.5000   -20.1264    13.1011    11.2324    93.1003    49.4150
  695.0000   -20.2099    13.0682    11.2057    93.3595    45.4016
  695.5000   -20.2932    13.0365    11.1776    93.4251    44.8436
  696.0000   -20.3764    13.0389    11.1497    92.8698    43.5817
  696.5000   -20.4596    13.2317    11.1218    92.3145    44.2078
  697.0000   -20.5428    13.4234    11.0939    91.7592    42.2618
  697.5000   -20.6259    13.6124    11.0660    91.2039    48.4658
  698.0000   -20.7091    13.7170    11.0381    90.6486    42.9963
  698.5000   -20.7966    13.6220    11.0103    90.5170    38.1207
  699.0000   -20.7387    13.5332    10.9824    90.7639    35.1674
  699.5000   -20.6334    13.4444    10.9545    91.0108    40.0868
  700.0000   -20.5264    13.3553    10.9266    91.2577    37.9010
  700.5000   -20.4196    13.2663    10.8987    91.8323    41.8507
  701.0000   -20.3129    13.1779    10.8708    93.1870    41.3220
  701.5000   -20.2062    13.1108    10.8429    94.5418    44.7600
  702.0000   -20.0992    13.1065    10.8150    95.8966    42.5673
  702.5000   -19.9931    13.1007    10.7872    97.2514    53.1522
  703.0000   -19.9958    13.0949    10.7593    97.4159    53.0279
  703.5000   -20.0151    13.0892    10.7314    96.8050    53.0053
  704.0000   -20.0348    13.0834    10.7033    96.1940    59.5876
  704.5000   -20.0543    13.0776    10.6744    95.5830    57.0365
  705.0000   -20.0737    13.0719    10.6456    94.9720    52.0431
  705.5000   -20.0931    13.0661    10.6159    94.3611    48.7813
  706.0000   -20.1126    13.0603    10.6392    93.7501    56.9877
  706.5000   -20.1320    13.0546    10.6907    93.1391    47.8822
  707.0000   -20.1514    13.0488    10.7427    92.5253    50.2172
  707.5000   -20.1709    13.0430    10.7947    91.9113    49.1635
  708.0000   -20.1903    13.0372    10.8464    91.5122    47.7880
  708.5000   -20.2097    13.0315    10.8986    91.9404    54.3882
  709.0000   -20.2292    13.0257    10.8856    92.3703    50.8825
  709.5000   -20.2486    13.0200    10.8310    92.7960    44.0963
  710.0000   -20.2681    13.0142    10.7759    93.2216    46.9545
  710.5000   -20.2875    13.0034    10.7204    93.6473    50.9980
  711.0000   -20.3069    12.9688    10.6650    94.0730    54.7356
  711.5000   -20.3264    12.9341    10.6096    94.4987    51.1405
  712.0000   -20.3458    12.8995    10.5542    94.9244    53.1955
  712.5000   -20.3651    12.8649    10.4988    95.3501    56.8210
  713.0000   -20.3849    12.8302    10.4434    95.7757    60.2879
  713.5000   -20.4095    12.7956    10.3880    96.2014    58.5277
  714.0000   -20.4501    12.7610    10.3326    96.6562    57.4850
  714.5000   -20.4893    12.7264    10.2772    97.1400    60.7722
  715.0000   -20.5285    12.6917    10.2218    97.6593    59.3187
  715.5000   -20.5678    12.6571    10.1664    98.1787    63.1379
  716.0000   -20.6070    12.6224    10.1110    98.6980    68.0673
  716.5000   -20.6462    12.5916    10.0642    99.2173    76.4686
  717.0000   -20.6855    12.5913    10.0257    99.7367    69.1893
  717.5000   -20.7247    12.5913     9.9872   100.2560    61.7739
  718.0000   -20.7639    12.5910     9.9486   100.7753    54.4243
  718.5000   -20.8052    12.5920     9.9097   101.2947    47.6328
  719.0000   -20.7862    12.6246     9.8752   101.8140    51.9355
  719.5000   -20.7435    12.7621     9.9818   101.1268    48.9024
  720.0000   -20.7001    12.8962    10.1056   100.2612    45.3197
  720.5000   -20.6567    13.0301    10.2297    99.3931    42.6900
  721.0000   -20.6133    13.1633    10.3492    98.5151    43.0278
  721.5000   -20.5700    13.2936    10.7055    97.6797    45.7526
  722.0000   -20.5266    13.4464    11.1804    92.6591    47.6004
  722.5000   -20.4830    14.1205    11.7039    87.8527    41.5744
  723.0000   -20.4381    14.7937    12.3925    83.0303    37.8543
  723.5000   -20.4048    15.4620    13.0802    78.2079    34.7871
  724.0000   -20.6200    16.1316    13.7677    73.3856    33.3824
  724.5000   -20.8423    16.8054    14.4556    68.9774    38.4782
  725.0000   -21.0632    17.4828    15.1426    65.1689    39.9510
  725.5000   -21.2839    17.8691    15.8274    61.3605    42.1578
  726.0000   -21.5044    18.1092    16.2759    59.5721    48.2292
  726.5000   -21.7242    18.0329    16.3286    60.9388    50.1789
  727.0000   -21.8835    17.9633    16.2999    62.3055    45.0467
  727.5000   -21.9353    17.8208    16.1402    63.6721    50.2980
  728.0000   -21.9888    17.5452    15.7090    65.0388    50.1187
  728.5000   -22.0421    17.2725    15.2556    66.4079    53.8705
  729.0000   -22.0955    16.9985    14.7969    67.7790    54.4099
  729.5000   -22.1490    16.8560    14.5340    69.1493    55.0460
  730.0000   -22.2015    16.8183    14.2719    69.2302    59.7239
  730.5000   -22.2544    16.7808    14.2218    68.8840    59.5409
  731.0000   -22.1649    16.7439    14.1812    68.5378    57.6220
  731.5000   -21.9521    16.7069    14.1395    68.9146    60.5952
  732.0000   -21.7388    16.6698    14.0975    69.5637    57.5807
  732.5000   -21.5244    16.6329    14.0554    70.2129    58.2815
  733.0000   -21.3105    16.5965    14.0131    70.8621    52.8217
  733.5000   -21.0966    16.5580    13.9709    71.5112    50.1079
  734.0000   -20.8755    16.4515    13.8972    72.1604    44.7794
  734.5000   -20.8598    16.3490    13.7913    72.8096    50.7579
  735.0000   -20.9443    16.2473    13.6855    73.4587    46.5094
  735.5000   -21.0312    16.1457    13.5794    74.1079    44.5752
  736.0000   -21.1182    16.0441    13.4734    74.7570    43.1600
  736.5000   -21.2048    15.9425    13.3674    75.4062    45.8726
  737.0000   -21.2913    15.8408    13.2614    76.0554    43.5016
  737.5000   -21.3783    15.7390    13.1554    76.7046    44.8595
  738.0000   -21.4804    15.6386    13.0496    76.9743    46.7960
  738.5000   -21.6380    15.5840    12.9412    77.1767  -999.2500
  739.0000   -21.7948    15.5397    12.9795    77.3790  -999.2500
  739.5000   -21.9487    15.4951    13.0965    77.5813  -999.2500
  740.0000   -22.0347    15.4507    13.0555    77.7837  -999.2500
  740.5000   -21.8313    15.4061    12.9864    77.9860  -999.2500
  741.0000   -21.6340    15.3616    12.9158    78.1883  -999.2500
  741.5000   -21.4376    15.3171    12.8454    78.3907  -999.2500
  742.0000   -21.2407    15.2726    12.7752    78.5930  -999.2500
  742.5000   -21.0441    15.2281    12.7051    78.7953  -999.2500
  743.0000   -20.8470    15.1836    12.6352    78.9977  -999.2500
  743.5000   -20.6468    15.1390    12.5878    79.2000  -999.2500
  744.0000   -20.6070    15.0946    12.5803    79.4024  -999.2500
  744.5000   -20.6084    15.0500    12.5721    79.6047  -999.2500
  745.0000   -20.7682    15.0040    12.5640    79.8070  -999.2500
  745.5000   -21.2362    15.0147    12.5559    79.9867  -999.2500
  746.0000   -21.3483    15.0402    12.5478    80.1255  -999.2500
  746.5000   -21.1846    15.0664    12.5397    80.2644  -999.2500
  747.0000   -21.0193    15.0939    12.5315    80.4032  -999.2500
  747.5000   -20.8522    15.0658    12.5234    80.5420  -999.2500
  748.0000   -20.6884    15.0212    12.5153    80.6808  -999.2500
  748.5000   -20.6871    14.9750    12.5071    80.8196  -999.2500
  749.0000   -20.9751    14.9278    12.4992    80.9584  -999.2500
  749.5000   -21.2466    14.9103    12.4911    81.0972  -999.2500
  750.0000   -21.3304    14.9901    12.5059    81.2360  -999.2500
  750.5000   -20.8763    14.9936    12.5431    81.3748  -999.2500
  751.0000   -20.4358    15.0723    12.5803    81.5136  -999.2500
