~VERSION INFORMATION
 VERS.                2.0:   CWLS LOG ASCII STANDARD - VERSION 2.0
 WRAP.                 NO:   ONE LINE PER DEPTH STEP
~WELL INFORMATION
#MNEM.UNIT      DATA TYPE    INFORMATION
#----------   ------------   ------------------------------
 STRT.F            0.0000:   START DEPTH
 STOP.F         2660.0000:   STOP DEPTH
 STEP.F            0.5000:   STEP LENGTH
 NULL.          -999.2500:   NO VALUE
 COMP. FENIX & SCISSON INC:   COMPANY
 WELL.     101-20 #101-20:   WELL
 FLD .        TEAPOT DOME:   FIELD
 LOC .      S20 T39N R78W:   LOCATION
 CNTY.            NATRONA:   COUNTY
 STAT.            WYOMING:   STATE
 CTRY. UNITED STATES OF AMERICA:   COUNTRY
 SRVC.      NL McCullough:   SERVICE COMPANY
 DATE.        19-SEP-1965:   LOGDATE
 API .       490251022100:   API NUMBER
~CURVE INFORMATION
#MNEM.UNIT       API CODE    CURVE DESCRIPTION
#----------   ------------   ------------------------------
 DEPT.F                  :   
 GR  .GAPI   30 310 01 00:   GAMMA RAY
 CALI.IN     30 280 01 00:   CALIPER
~PARAMETER INFORMATION
#MNEM.UNIT          VALUE    DESCRIPTION
#----------   ------------   ------------------------------
 PD  .                 GL:   PERMANENT DATUM
 LMF .                 GL:   LOG MEASURED FROM
 DMF .                 GL:   DRILLING MEASURED FROM
 DATE.          9-19-1965:   RUN DATE
 RUN .                  1:   RUN NUMBER
 DD  .F              2661:   DEPTH DRILLER
 DL  .F              2659:   DEPTH LOGGER
 BLI .F              2657:   BOTTOM LOG INTERVAL
 TLI .F              2000:   TOP LOG INTERVAL
 CS  .IN              6.5:   CASING SIZE
 CBD .F              2619:   CASING BOTTOM DRILLER
 BSD .F              2661:   BIT SIZE AT DEPTH
 DFT .              WATER:   DRILLING FLUID TYPE
 TCS .HRS               1:   TIME CURCULATED STOPPED
 ENGI.        FITZSIMMONS:   RECORDING ENGINEER
 WITN.          JORGENSEN:   WITNESSED BY
 CLNT.            A2DTECH:   CLIENT CODE
 ORIG.           5" PRINT:   ORIGIN OF DATA
 UWI .       490251022100:   UNIQUE WELL ID
 DICO. A2D Technologies, Inc.:   DIGITIZING COMPANY
~OTHER INFORMATION
~A    DEPT      GR         CALI 
# ...
  729.0000  -999.2500     6.5763
  729.5000  -999.2500     6.5749
  730.0000  -999.2500     6.5737
  730.5000  -999.2500     6.5725
  731.0000  -999.2500     6.5713
  731.5000  -999.2500     6.5701
  732.0000  -999.2500     6.5689
  732.5000  -999.2500     6.5677
  733.0000  -999.2500     6.5665
  733.5000  -999.2500     6.5653
  734.0000  -999.2500     6.5641
  734.5000  -999.2500     6.5629
  735.0000  -999.2500     6.5617
  735.5000  -999.2500     6.5605
  736.0000  -999.2500     6.5593
  736.5000  -999.2500     6.5581
  737.0000  -999.2500     6.5570
  737.5000  -999.2500     6.5564
  738.0000  -999.2500     6.5564
  738.5000  -999.2500     6.5566
  739.0000  -999.2500     6.5553
  739.5000  -999.2500     6.5311
  740.0000  -999.2500     6.5067
  740.5000  -999.2500     6.5159
  741.0000  -999.2500     6.5506
  741.5000  -999.2500     6.5583
  742.0000  -999.2500     6.5606
  742.5000  -999.2500     6.5627
  743.0000  -999.2500     6.5652
  743.5000  -999.2500     6.5775
  744.0000  -999.2500     6.6071
  744.5000  -999.2500     6.5970
  745.0000  -999.2500     6.5763
  745.5000  -999.2500     6.5764
  746.0000  -999.2500     6.5680
  746.5000  -999.2500     6.5466
  747.0000  -999.2500     6.5422
  747.5000  -999.2500     6.5382
  748.0000  -999.2500     6.5342
  748.5000  -999.2500     6.5303
  749.0000  -999.2500     6.5259
  749.5000  -999.2500     6.5131
  750.0000  -999.2500     6.5090
  750.5000  -999.2500     6.5208
  751.0000  -999.2500     6.5321
  751.5000  -999.2500     6.5375
  752.0000  -999.2500     6.5405
  752.5000  -999.2500     6.5435
  753.0000  -999.2500     6.5463
  753.5000  -999.2500     6.5470
  754.0000  -999.2500     6.5476
  754.5000  -999.2500     6.5481
  755.0000  -999.2500     6.5487
  755.5000  -999.2500     6.5493
  756.0000  -999.2500     6.5499
  756.5000  -999.2500     6.5505
  757.0000  -999.2500     6.5511
  757.5000  -999.2500     6.5517
  758.0000  -999.2500     6.5523
  758.5000  -999.2500     6.5529
  759.0000  -999.2500     6.5535
  759.5000  -999.2500     6.5540
  760.0000  -999.2500     6.5546
  760.5000  -999.2500     6.5552
  761.0000  -999.2500     6.5557
  761.5000  -999.2500     6.5570
  762.0000  -999.2500     6.5727
  762.5000  -999.2500     6.5722
  763.0000  -999.2500     6.5663
  763.5000  -999.2500     6.5607
  764.0000  -999.2500     6.5664
  764.5000  -999.2500     6.6088
  765.0000  -999.2500     6.6033
  765.5000  -999.2500     6.5532
  766.0000  -999.2500     6.5465
  766.5000  -999.2500     6.5479
  767.0000  -999.2500     6.5491
  767.5000  -999.2500     6.5503
  768.0000  -999.2500     6.5515
  768.5000  -999.2500     6.5527
  769.0000  -999.2500     6.5539
  769.5000  -999.2500     6.5550
  770.0000  -999.2500     6.5564
  770.5000  -999.2500     6.5659
  771.0000  -999.2500     6.5765
  771.5000  -999.2500     6.5872
  772.0000  -999.2500     6.5950
  772.5000  -999.2500     6.5675
  773.0000  -999.2500     6.5562
  773.5000  -999.2500     6.5465
  774.0000  -999.2500     6.5468
  774.5000  -999.2500     6.5477
  775.0000  -999.2500     6.5487
  775.5000  -999.2500     6.5496
  776.0000  -999.2500     6.5506
  776.5000  -999.2500     6.5515
  777.0000  -999.2500     6.5525
  777.5000  -999.2500     6.5534
  778.0000  -999.2500     6.5543
  778.5000  -999.2500     6.5553
  779.0000  -999.2500     6.5561
  779.5000  -999.2500     6.5607
  780.0000  -999.2500     6.5661
  780.5000  -999.2500     6.5630
  781.0000  -999.2500     6.5590
  781.5000  -999.2500     6.5551
  782.0000  -999.2500     6.5512
  782.5000  -999.2500     6.5471
  783.0000  -999.2500     6.5500
  783.5000  -999.2500     6.5547
  784.0000  -999.2500     6.5629
  784.5000  -999.2500     6.5723
  785.0000  -999.2500     6.6023
  785.5000  -999.2500     6.5982
  786.0000  -999.2500     6.5284
  786.5000  -999.2500     6.5285
  787.0000  -999.2500     6.5315
  787.5000  -999.2500     6.5344
  788.0000  -999.2500     6.5371
  788.5000  -999.2500     6.5399
  789.0000  -999.2500     6.5427
  789.5000  -999.2500     6.5455
  790.0000  -999.2500     6.5466
  790.5000  -999.2500     6.5470
  791.0000  -999.2500     6.5475
  791.5000  -999.2500     6.5479
  792.0000  -999.2500     6.5483
  792.5000  -999.2500     6.5487
  793.0000  -999.2500     6.5491
  793.5000  -999.2500     6.5495
  794.0000  -999.2500     6.5499
  794.5000  -999.2500     6.5503
  795.0000  -999.2500     6.5507
  795.5000  -999.2500     6.5511
  796.0000  -999.2500     6.5515
  796.5000  -999.2500     6.5519
  797.0000  -999.2500     6.5523
  797.5000  -999.2500     6.5527
  798.0000  -999.2500     6.5531
  798.5000  -999.2500     6.5535
  799.0000  -999.2500     6.5539
  799.5000  -999.2500     6.5543
  800.0000  -999.2500     6.5548
  800.5000  -999.2500     6.5552
  801.0000  -999.2500     6.5556
  801.5000  -999.2500     6.5560
  802.0000  -999.2500     6.5564
  802.5000  -999.2500     6.5592
  803.0000  -999.2500     6.5622
  803.5000  -999.2500     6.5651
  804.0000  -999.2500     6.5680
  804.5000  -999.2500     6.5709
  805.0000  -999.2500     6.5738
  805.5000  -999.2500     6.5806
  806.0000  -999.2500     6.6140
  806.5000  -999.2500     6.6236
  807.0000  -999.2500     6.5837
  807.5000  -999.2500     6.5764
  808.0000  -999.2500     6.5753
  808.5000  -999.2500     6.5745
  809.0000  -999.2500     6.5735
  809.5000  -999.2500     6.5725
  810.0000  -999.2500     6.5715
  810.5000  -999.2500     6.5705
  811.0000  -999.2500     6.5695
  811.5000  -999.2500     6.5685
  812.0000  -999.2500     6.5675
  812.5000  -999.2500     6.5665
  813.0000  -999.2500     6.5655
  813.5000  -999.2500     6.5645
  814.0000  -999.2500     6.5635
  814.5000  -999.2500     6.5625
  815.0000  -999.2500     6.5616
  815.5000  -999.2500     6.5606
  816.0000  -999.2500     6.5596
  816.5000  -999.2500     6.5586
  817.0000  -999.2500     6.5576
  817.5000  -999.2500     6.5566
  818.0000  -999.2500     6.5557
  818.5000  -999.2500     6.5547
  819.0000  -999.2500     6.5538
  819.5000  -999.2500     6.5529
  820.0000  -999.2500     6.5520
  820.5000  -999.2500     6.5511
  821.0000  -999.2500     6.5502
  821.5000  -999.2500     6.5493
  822.0000  -999.2500     6.5483
  822.5000  -999.2500     6.5474
  823.0000  -999.2500     6.5463
  823.5000  -999.2500     6.5557
  824.0000  -999.2500     6.5662
  824.5000  -999.2500     6.5667
  825.0000  -999.2500     6.5757
  825.5000  -999.2500     6.5938
  826.0000  -999.2500     6.5735
  826.5000  -999.2500     6.5278
  827.0000  -999.2500     6.5289
  827.5000  -999.2500     6.5308
  828.0000  -999.2500     6.5329
  828.5000  -999.2500     6.5349
  829.0000  -999.2500     6.5365
  829.5000  -999.2500     6.5371
  830.0000  -999.2500     6.5377
  830.5000  -999.2500     6.5383
  831.0000  -999.2500     6.5389
  831.5000  -999.2500     6.5396
  832.0000  -999.2500     6.5402
  832.5000  -999.2500     6.5408
  833.0000  -999.2500     6.5414
  833.5000  -999.2500     6.5420
  834.0000  -999.2500     6.5426
  834.5000  -999.2500     6.5432
  835.0000  -999.2500     6.5438
  835.5000  -999.2500     6.5445
  836.0000  -999.2500     6.5451
  836.5000  -999.2500     6.5457
  837.0000  -999.2500     6.5463
  837.5000  -999.2500     6.5469
  838.0000  -999.2500     6.5475
  838.5000  -999.2500     6.5481
  839.0000  -999.2500     6.5487
  839.5000  -999.2500     6.5494
  840.0000  -999.2500     6.5500
  840.5000  -999.2500     6.5506
  841.0000  -999.2500     6.5512
  841.5000  -999.2500     6.5518
  842.0000  -999.2500     6.5524
  842.5000  -999.2500     6.5530
  843.0000  -999.2500     6.5536
  843.5000  -999.2500     6.5542
  844.0000  -999.2500     6.5549
  844.5000  -999.2500     6.5554
  845.0000  -999.2500     6.5560
  845.5000  -999.2500     6.5636
  846.0000  -999.2500     6.5792
  846.5000  -999.2500     6.6198
  847.0000  -999.2500     6.6072
  847.5000  -999.2500     6.5662
  848.0000  -999.2500     6.5566
  848.5000  -999.2500     6.5563
  849.0000  -999.2500     6.5564
  849.5000  -999.2500     6.5564
  850.0000  -999.2500     6.5564
