~VERSION INFORMATION
 VERS.                2.0:   CWLS LOG ASCII STANDARD - VERSION 2.0
 WRAP.                 NO:   ONE LINE PER DEPTH STEP
~WELL INFORMATION
#MNEM.UNIT      DATA TYPE    INFORMATION
#----------   ------------   ------------------------------
 STRT.F           44.0000:   START DEPTH
 STOP.F          666.0000:   STOP DEPTH
 STEP.F            0.5000:   STEP LENGTH
 NULL.          -999.2500:   NO VALUE
 COMP. FENIX & SCISSON INC:   COMPANY
 WELL.     NPR-3 #22SX-10:   WELL
 FLD .             TEAPOT:   FIELD
 LOC .      S10 T38N R78W:   LOCATION
 CNTY.            NATRONA:   COUNTY
 STAT.            WYOMING:   STATE
 CTRY. UNITED STATES OF AMERICA:   COUNTRY
 SRVC.            Unknown:   SERVICE COMPANY
 DATE.        11-JUL-1978:   LOGDATE
 API .       490251065600:   API NUMBER
~CURVE INFORMATION
#MNEM.UNIT       API CODE    CURVE DESCRIPTION
#----------   ------------   ------------------------------
 DEPT.F                  :   
 CALD.IN     45 280 60 00:   CALIPER FROM DENSITY LOG
 GRD .GAPI   45 310 01 00:   GAMMA RAY FROM DENSITY LOG
 CORR.G/C3   45 356 01 00:   DENSITY CORRECTION
 DPHI.DEC    45 890 12 00:   DENSITY POROSITY SANDSTONE
 RHOB.G/C3   45 350 01 00:   BULK DENSITY
 SPR .MV     05 010 01 00:   SPONTANEOUS POTENTIAL FROM RES.
 SN  .OHMM   05 040 16 00:   SHORT NORMAL 16"
 ILD .OHMM   05 120 46 00:   INDUCTION LOG DEEP
~PARAMETER INFORMATION
#MNEM.UNIT          VALUE    DESCRIPTION
#----------   ------------   ------------------------------
 PD  .                 GL:   PERMANENT DATUM
 EPD .F              5263:   ELEVATION PERMANENT DATUM
 LMF .                 KB:   LOG MEASURED FROM
 DAPD.F                 4:   FEET ABOVE PERMANENT DATUM
 DMF .                 KB:   DRILLING MEASURED FROM
 EKB .F              5267:   KELLING BUSHING
 EGL .F              5263:   GROUND LEVEL
 DATE.        11-JUL-1978:   RUN DATE
 RUN .                  1:   RUN NUMBER
 DD  .F               657:   DEPTH DRILLER
 DL  .F               666:   DEPTH LOGGER
 BLI .F               660:   BOTTOM LOG INTERVAL
 TLI .F                50:   TOP LOG INTERVAL
 CS  .IN            8.625:   CASING SIZE
 CBD .F                40:   CASING BOTTOM DRILLER
 BS  .IN            7.875:   BIT SIZE
 BSD .F               657:   BIT SIZE AT DEPTH
 DFT .                KCL:   DRILLING FLUID TYPE
 DFD .                8.6:   DRILLING FLUID DENSITY
 DFV .                 33:   DRILLING FLUID VISCOSITY
 DFPH.                9.0:   DRILLING FLUID PH
 DFL .                 14:   DRILLING FLUID LOSS
 MSS .           FLOWLINE:   MUD SAMPLE SOURCE
 RMS .OHMM            .16:   RESISTIVITY MUD SAMPLE
 MST .F                89:   MUD SAMPLE TEMPERATURE
 RMF .OHMM            .15:   RESISTIVITY MUD FILTRATE SAMPLE
 MFST.F                89:   MUD FILTRATE SAMPLE TEMPERATURE
 RMC .OHMM            .32:   RESISTIVITY MUD CAKE
 MCST.F                88:   MUD CAKE SAMPLE TEMPERATURE
 MFSS.               MEAS:   MUD FILTRATE SAMPLE SOURCE
 BHT .F                76:   BOTTOM HOLE TEMPERATURE
 TCS .HRS            0200:   TIME CURCULATED STOPPED
 MRT .F                76:   MAXIMUM RECORDED TEMPERATURE
 LUN .               2958:   LOGGING UNIT NUMBER
 LUL .               CASP:   LOGGING UNIT LOCATION
 ENGI.             MILLER:   RECORDING ENGINEER
 WITN.           MCGINLEY:   WITNESSED BY
 CLNT.            A2DTECH:   CLIENT CODE
 ORIG.           5" PRINT:   ORIGIN OF DATA
 UWI .       490251065600:   UNIQUE WELL ID
 DICO. A2D Technologies, Inc.:   DIGITIZING COMPANY
~OTHER INFORMATION
~A   DEPT     CALD         GRD      CORR       DPHI       RHOB        SPR         SN        ILD   
# ...
  368.0000     7.7098    85.4940    -0.0099     0.1606     2.4184   -73.6909     6.0737     6.1576
  368.5000     7.7102    86.6997    -0.0069     0.1630     2.4124   -73.6734     5.9119     6.0766
  369.0000     7.7106    87.3003    -0.0070     0.1660     2.4042   -73.6558     5.7962     5.9985
  369.5000     7.7109    87.4482    -0.0040     0.1639     2.4006   -73.6380     5.8001     5.9208
  370.0000     7.7113    87.1399    -0.0026     0.1501     2.4089   -73.6167     5.8040     5.8842
  370.5000     7.7117    87.2867    -0.0041     0.1285     2.4333   -73.4509     5.8079     5.8882
  371.0000     7.7121    87.2821    -0.0042     0.1183     2.4606   -73.1367     5.8530     5.9329
  371.5000     7.7124    87.2775    -0.0042     0.1171     2.4796   -72.9708     5.9414     5.9787
  372.0000     7.7128    86.3653    -0.0042     0.1273     2.4870   -72.9534     6.1497     6.1074
  372.5000     7.7132    82.5786    -0.0073     0.1351     2.4814   -73.0887     6.4129     6.2819
  373.0000     7.7135    81.0612    -0.0073     0.1357     2.4679   -73.0668     6.6416     6.5059
  373.5000     7.7139    80.7540    -0.0074     0.1324     2.4552   -73.0494     6.8784     6.7379
  374.0000     7.7143    81.5370    -0.0074     0.1285     2.4456   -73.0319     7.0265     6.9782
  374.5000     7.7147    85.6424    -0.0075     0.1264     2.4607   -73.1632     7.1285     7.2270
  375.0000     7.7150    86.1878    -0.0075     0.1282     2.4711   -73.1454     7.1333     7.4335
  375.5000     7.7154    86.2284    -0.0091     0.1318     2.4643   -73.1276     7.1382     7.5414
  376.0000     7.7158    87.7319    -0.0090     0.1351     2.4568   -73.1090     7.1430     7.7037
  376.5000     7.7161    88.2921    -0.0090     0.1382     2.4537   -73.2414     7.1478     7.7667
  377.0000     7.7306    87.9697    -0.0090     0.1394     2.4522   -73.2225     7.2019     7.8751
  377.5000     7.7598    87.3752    -0.0090     0.1325     2.4537   -73.3549     7.2573     7.9358
  378.0000     7.7739    87.6934    -0.0090     0.1304     2.4605   -73.3330     7.2616     7.9412
  378.5000     7.7880    89.0378    -0.0090     0.1364     2.4672   -73.4640     7.2671     7.9465
  379.0000     7.8172    89.3283    -0.0089     0.1373     2.4574   -73.4465     7.3226     7.9519
  379.5000     7.8314    87.6545    -0.0089     0.1367     2.4507   -73.4290     7.3275     8.0121
  380.0000     7.8455    86.8986    -0.0089     0.1328     2.4476   -73.4116     7.3324     8.0175
  380.5000     7.8595    89.0121    -0.0089     0.1286     2.4574   -73.2458     7.3880     8.0229
  381.0000     7.8736    89.4614    -0.0089     0.1262     2.4664   -73.2283     7.3930     8.0283
  381.5000     7.8877    87.0363    -0.0088     0.1259     2.4731   -73.2107     7.3979     8.0337
  382.0000     7.9018    86.8704    -0.0088     0.1262     2.4769   -73.1929     7.4029     7.9841
  382.5000     7.9007    87.1784    -0.0088     0.1259     2.4724   -73.1716     7.3572     7.9896
  383.0000     7.8996    87.3252    -0.0088     0.1193     2.4701   -73.1541     7.3621     7.9401
  383.5000     7.8986    87.3206    -0.0088     0.1166     2.4858   -73.1367     7.3671     7.8910
  384.0000     7.8975    83.3826    -0.0088     0.1191     2.4903   -73.1192     7.3216     7.7885
  384.5000     7.8964    80.5036    -0.0087     0.1196     2.4858   -73.1018     7.2775     7.6360
  385.0000     7.8802    80.3228    -0.0087     0.1193     2.4813   -73.2370     7.2815     7.5355
  385.5000     7.8640    82.9151    -0.0087     0.1187     2.4813   -73.2152     7.2874     7.3867
  386.0000     7.8630    88.6594    -0.0087     0.1178     2.4835   -73.1978     7.1915     7.2408
  386.5000     7.8467    91.5293    -0.0087     0.1167     2.4737   -73.1803     7.1976     7.1480
  387.0000     7.8305    91.5247    -0.0086     0.1155     2.4805   -73.1629     7.1519     7.1036
  387.5000     7.8295    91.5201    -0.0086     0.1139     2.4880   -73.1454     7.1077     7.0598
  388.0000     7.8284    91.5156    -0.0133     0.1106     2.4932   -73.2763     7.0165     7.0162
  388.5000     7.8122    91.5110    -0.0285     0.1074     2.4970   -73.2582     6.9730     6.9729
  389.0000     7.7960    89.9936    -0.0343     0.1291     2.4977   -73.2370     6.8825     6.9221
  389.5000     7.7949    84.5428    -0.0223     0.1347     2.4849   -73.2196     6.7932     6.8398
  390.0000     7.7787    83.7818    -0.0133     0.1371     2.4586   -73.3549     6.7482     6.7058
  390.5000     7.7625    84.6849    -0.0104     0.1398     2.4496   -73.3330     6.6179     6.5734
  391.0000     7.7614    87.4035    -0.0120     0.1428     2.4465   -73.3156     6.4439     6.4436
  391.5000     7.7603    87.0964    -0.0135     0.1449     2.4443   -73.5992     6.2733     6.3163
  392.0000     7.7593    87.3944    -0.0136     0.1486     2.4398   -74.0225     6.0655     6.1492
  392.5000     7.7582    88.4488    -0.0151     0.1561     2.4322   -74.1578     5.8645     5.9454
  393.0000     7.7571    89.5044    -0.0152     0.1681     2.4097   -74.2849     5.6314     5.7484
  393.5000     7.7409    87.9859    -0.0167     0.1756     2.3931   -74.2669     5.4448     5.5199
  394.0000     7.7399    87.6787    -0.0168     0.1885     2.3676   -74.2493     5.1570     5.2281
  394.5000     7.7388    87.3716    -0.0183     0.2080     2.3473   -74.2320     4.8509     4.4541
  395.0000     7.7532    87.8209    -0.0168     0.2235     2.3382   -74.3629     4.5007     3.7905
  395.5000     7.7518    89.3292    -0.0154     0.2465     2.3119   -74.3411     3.9523     3.1076
  396.0000     7.7662    89.1734    -0.0124     0.2645     2.2605   -74.3236     3.5657     2.7478
  396.5000     8.1285    85.3867    -0.0064     0.2735     2.2306   -74.3062     3.3232     2.6568
  397.0000     8.1731    83.8693     0.0026     0.2681     2.2262   -74.2887     2.8873     2.6399
  397.5000     7.9900    79.3492     0.0085     0.2648     2.2362   -74.2713     2.7721     2.6421
  398.0000     7.8374    71.5864     0.0160     0.2390     2.2558   -74.1054     2.7360     2.6439
  398.5000     7.7151    70.6944     0.0144     0.2087     2.2859   -73.9396     2.7384     2.7008
  399.0000     7.6840    76.0153     0.0114     0.1796     2.3407   -73.6254     2.7781     2.8359
  399.5000     8.0160    78.1161     0.0143     0.1667     2.3931   -73.0145     2.9170     3.2115
  400.0000     7.9395    87.7761     0.0203     0.1486     2.4388   -72.2552     3.2019     3.7641
  400.5000     7.9559    91.9987    -0.0008     0.1505     2.4508   -71.9411     3.6654     4.2496
  401.0000     8.0306    93.3737    -0.0069     0.1523     2.4251   -71.7766     4.0937     4.7184
  401.5000     7.8629    93.2224    -0.0054     0.1478     2.4207   -71.7606     4.6042     5.4303
  402.0000     7.8339    81.5734    -0.0040     0.1391     2.4372   -71.7445     4.9351     5.7018
  402.5000     7.8342    81.5734    -0.0025     0.1354     2.4399   -71.7285     5.1818     5.9051
  403.0000     7.8382    82.3298    -0.0011     0.1346     2.4560   -71.5638     5.4036     5.9489
  403.5000     7.8421    85.9607    -0.0010     0.1342     2.4570   -71.5475     5.4821     5.8324
  404.0000     7.8461    90.8018    -0.0008     0.1379     2.4612   -71.5279     5.5237     5.7172
  404.5000     7.8500    91.1044    -0.0006     0.1393     2.4499   -71.5119     5.5274     5.5659
  405.0000     7.8539    90.8018    -0.0004     0.1337     2.4575   -71.4958     5.4932     5.4186
  405.5000     7.8579    90.8018    -0.0002     0.1379     2.4581   -71.6322     5.4971     5.3107
  406.0000     7.8618    91.7095     0.0000     0.1493     2.4431   -71.6121     5.4630     5.1711
  406.5000     7.8658    92.1634     0.0060     0.1538     2.4341   -71.7484     5.3929     5.0689
  407.0000     7.8697    92.9198     0.0074     0.1670     2.4250   -71.7284     5.2143     4.9348
  407.5000     7.8737    94.2891     0.0089     0.1742     2.4070   -71.7123     5.0070     4.8043
  408.0000     7.8776    96.5629     0.0103     0.1523     2.3942   -71.6963     4.8745     4.6751
