~VERSION INFORMATION
 VERS.                2.0:   CWLS LOG ASCII STANDARD - VERSION 2.0
 WRAP.                 NO:   ONE LINE PER DEPTH STEP
~WELL INFORMATION
#MNEM.UNIT      DATA TYPE    INFORMATION
#----------   ------------   ------------------------------
 STRT.F            4.0000:   START DEPTH
 STOP.F          530.0000:   STOP DEPTH
 STEP.F            0.5000:   STEP LENGTH
 NULL.          -999.2500:   NO VALUE
 COMP. LAWRENCE-ALLISON &ASSOC:   COMPANY
 WELL.  NPR 3 #77-22STX10:   WELL
 FLD .             TEAPOT:   FIELD
 LOC .      S10 T38N R78W:   LOCATION
 CNTY.            NATRONA:   COUNTY
 STAT.            WYOMING:   STATE
 CTRY. UNITED STATES OF AMERICA:   COUNTRY
 SRVC.           Gearhart:   SERVICE COMPANY
 DATE.        27-JUN-1986:   LOGDATE
 API .       490251108100:   API NUMBER
~CURVE INFORMATION
#MNEM.UNIT       API CODE    CURVE DESCRIPTION
#----------   ------------   ------------------------------
 DEPT.F                  :   
 GRR .GAPI   07 310 01 00:   GAMMA RAY FROM RES. LOG.
 SPR .MV     07 010 01 00:   SPONTANEOUS POTENTIAL
 ILM .OHMM   07 120 44 00:   INDUCTION LOG MEDIUM
 ILD .OHMM   07 120 46 00:   INDUCTION LOG DEEP
 RLLA.OHMM   07 220 00 00:   LATEROLOG RESISTIVITY
~PARAMETER INFORMATION
#MNEM.UNIT          VALUE    DESCRIPTION
#----------   ------------   ------------------------------
 PD  .                 GL:   PERMANENT DATUM
 EPD .F              5188:   ELEVATION PERMANENT DATUM
 LMF .                 KB:   LOG MEASURED FROM
 DAPD.F                 5:   FEET ABOVE PERMANENT DATUM
 DMF .                 KB:   DRILLING MEASURED FROM
 EKB .F              5193:   KELLING BUSHING
 EGL .F              5188:   GROUND LEVEL
 DATE.            6-27-86:   RUN DATE
 RUN .                  1:   RUN NUMBER
 DD  .F               555:   DEPTH DRILLER
 DL  .F               534:   DEPTH LOGGER
 BLI .F               530:   BOTTOM LOG INTERVAL
 TLI .F                44:   TOP LOG INTERVAL
 CS  .IN            8.625:   CASING SIZE
 CBD .F                42:   CASING BOTTOM DRILLER
 CBL .F                44:   CASING BOTTOM LOGGER
 BS  .IN            7.875:   BIT SIZE
 BSD .F               555:   BIT SIZE AT DEPTH
 DFT .                AIR:   DRILLING FLUID TYPE
 MSS .           FLOWLINE:   MUD SAMPLE SOURCE
 RMS .OHMM            1.5:   RESISTIVITY MUD SAMPLE
 MST .F                68:   MUD SAMPLE TEMPERATURE
 RMF .OHMM            1.2:   RESISTIVITY MUD FILTRATE SAMPLE
 MFST.F                66:   MUD FILTRATE SAMPLE TEMPERATURE
 RMC .OHMM            1.7:   RESISTIVITY MUD CAKE
 MCST.F                66:   MUD CAKE SAMPLE TEMPERATURE
 MFSS.                  M:   MUD FILTRATE SAMPLE SOURCE
 MCSS.                  M:   MUD CAKE SAMPLE SOURCE
 RMB .OHMM            1.5:   RESISTIVITY MUD AT BHT
 BHT .F                65:   BOTTOM HOLE TEMPERATURE
 TCS .HRS            0600:   TIME CURCULATED STOPPED
 TLAB.HRS            0055:   TIME LOGGER AT BOTTOM
 MRT .F                61:   MAXIMUM RECORDED TEMPERATURE
 LUN .               7609:   LOGGING UNIT NUMBER
 LUL .           GILLETTE:   LOGGING UNIT LOCATION
 ENGI.            WANGLER:   RECORDING ENGINEER
 WITN.              FIVAS:   WITNESSED BY
 CLNT.            A2DTECH:   CLIENT CODE
 ORIG.       2", 5" PRINT:   ORIGIN OF DATA
 UWI .       490251108100:   UNIQUE WELL ID
 DICO. A2D Technologies, Inc.:   DIGITIZING COMPANY
~OTHER INFORMATION
~A    DEPT      GRR       SPR        ILM        ILD       RLLA   
# ...
  309.0000    66.5614   -82.6784    26.2144    28.4307    25.0204
  309.5000    65.6598   -82.6360    26.2893    28.2475    25.2636
  310.0000    64.7678   -82.5296    26.4613    28.2475    25.4918
  310.5000    64.0637   -82.6308    26.0943    28.2475    25.1128
  311.0000    64.3428   -83.2626    25.4918    28.2475    24.7880
  311.5000    65.3038   -83.4682    25.6439    27.8831    24.9955
  312.0000    66.4963   -82.2905    25.9720    27.5005    25.2764
  312.5000    66.0555   -82.4744    25.3990    27.1202    25.4918
  313.0000    65.5889   -83.0258    24.7164    26.7571    24.2736
  313.5000    65.3090   -83.5466    24.0522    26.0259    23.3350
  314.0000    67.1560   -83.6388    23.3843    25.2805    22.4312
  314.5000    69.0279   -83.3744    22.7275    24.5564    21.5664
  315.0000    70.9176   -82.2841    22.0892    23.8798    20.7509
  315.5000    72.4666   -82.7887    21.6718    23.2868    20.1875
  316.0000    72.9477   -83.3378    21.3740    22.7296    20.1875
  316.5000    71.0173   -83.5652    21.0802    22.5795    20.2765
  317.0000    69.6807   -83.7866    20.9562    22.5795    20.3996
  317.5000    69.6925   -83.3561    20.9551    22.5795    20.5235
  318.0000    69.1308   -83.5421    20.9552    22.5795    20.6481
  318.5000    67.6708   -83.6752    20.9553    22.7392    20.7483
  319.0000    66.2440   -82.9941    20.9554    22.9235    20.3388
  319.5000    65.4535   -81.8374    20.9569    23.0277    19.8142
  320.0000    66.4406   -80.9213    20.8925    23.0897    19.8818
  320.5000    68.8405   -82.4728    20.8133    23.1519    19.9954
  321.0000    71.2900   -81.9520    20.7344    23.2143    20.1096
  321.5000    73.4386   -81.1907    20.6558    23.0468    20.1872
  322.0000    75.2876   -82.0341    20.5774    22.8551    19.8389
  322.5000    75.6746   -82.8050    20.4994    22.6651    19.5781
  323.0000    73.7636   -82.4536    20.4217    22.4766    19.3209
  323.5000    70.5423   -81.9486    20.3443    22.2897    19.0674
  324.0000    67.5613   -81.7740    20.2672    22.1063    18.8172
  324.5000    69.0211   -81.5704    20.1875    21.9285    18.5703
  325.0000    70.8820   -82.3879    20.0535    21.7523    18.3266
  325.5000    72.7410   -82.6322    19.9152    21.5774    18.0861
  326.0000    73.8807   -82.7654    19.7778    21.2948    17.8794
  326.5000    74.1778   -82.9085    19.6415    20.9961    17.6807
  327.0000    74.4753   -82.5062    19.5060    20.7016    17.5506
  327.5000    75.0981   -81.9298    19.3955    20.4113    17.5962
  328.0000    75.7795   -81.7228    19.2568    20.1875    17.6303
  328.5000    74.7368   -81.6992    19.1192    20.1875    17.6645
  329.0000    72.8847   -81.2800    18.9825    20.1878    17.6988
  329.5000    70.4164   -81.4748    18.8468    20.1875    17.7152
  330.0000    68.4357   -81.7074    18.7353    20.1875    17.5506
  330.5000    68.6221   -81.4685    19.0613    20.1875    17.6352
  331.0000    69.2943   -81.9756    19.2158    20.1875    17.7781
  331.5000    69.9581   -82.6021    19.3715    20.1876    17.9222
  332.0000    70.3310   -81.5359    19.5285    20.1877    18.0767
  332.5000    70.6431   -81.2258    19.6302    20.1891    18.2962
  333.0000    70.8458   -80.9359    19.4063    20.0224    18.4641
  333.5000    69.4717   -81.1404    19.1784    19.8130    18.5637
  334.0000    68.1152   -81.5816    18.9532    19.6055    18.4160
  334.5000    67.2227   -81.6781    18.7306    19.4002    18.2470
  335.0000    68.7086   -80.3163    18.5107    19.1900    18.0794
  335.5000    70.4111   -79.4993    18.2933    18.9690    17.9134
  336.0000    70.7880   -79.7268    18.0785    18.7506    17.6216
  336.5000    70.5608   -80.3076    17.8813    18.5347    17.3044
  337.0000    70.3212   -80.2951    17.7285    18.3213    16.9930
  337.5000    70.1158   -80.6767    17.5589    18.1103    16.7227
  338.0000    70.3959   -80.7623    17.3896    17.9018    16.3791
  338.5000    70.6804   -80.5448    17.2219    17.6957    15.9869
  339.0000    70.6905   -81.0110    17.0559    17.4919    16.0366
  339.5000    69.2191   -81.4480    16.9076    17.3278    16.0965
  340.0000    67.7631   -81.5173    16.8283    17.2048    16.1368
  340.5000    66.4604   -81.5016    16.7412    17.0827    15.8572
  341.0000    66.4837   -81.3514    16.6546    16.9615    15.6921
  341.5000    68.1324   -80.8283    16.5684    16.8411    15.7680
  342.0000    69.9167   -79.6320    16.4833    16.7216    15.8318
  342.5000    71.6853   -82.1434    16.3823    16.5950    15.8958
  343.0000    72.9246   -81.2692    16.2700    16.5941    15.9865
  343.5000    72.6398   -80.1149    16.1577    16.5960    15.8917
  344.0000    72.3762   -79.4236    16.0463    16.5963    15.7265
  344.5000    72.1204   -80.3375    15.9357    16.3976    15.5639
  345.0000    71.9072   -81.7420    15.8258    16.2395    15.4033
  345.5000    71.5586   -81.1450    15.7167    16.0830    15.2442
  346.0000    70.2497   -80.5050    15.6083    15.9280    15.0662
  346.5000    68.9259   -80.0391    15.4516    15.7744    14.8032
  347.0000    67.6928   -79.7140    15.0414    15.6224    14.5626
  347.5000    67.9854   -79.3844    14.8369    15.4718    14.4834
  348.0000    68.4326   -79.3318    14.8369    15.3228    14.4098
  348.5000    69.8281   -79.4052    14.8369    15.1756    14.3365
  349.0000    71.6155   -79.4755    14.6031    15.0287    14.2933
  349.5000    73.4235   -79.7852    14.3698    14.7642    14.3951
  350.0000    76.3684   -80.0968    14.1403    14.4381    14.4793
  350.5000    77.5192   -79.8380    13.8987    14.1192    14.5640
  351.0000    75.6436   -79.8942    13.5710    13.8074    14.6492
  351.5000    73.7006   -80.4780    13.2282    13.5024    14.7349
  352.0000    73.7404   -80.6344    12.8976    13.2651    14.8211
  352.5000    74.8086   -80.2865    13.1136    13.5071    14.8367
  353.0000    73.7096   -79.3160    13.3811    13.7092    14.8376
  353.5000    71.8386   -79.2591    13.6541    13.9018    14.8352
  354.0000    71.0821   -78.3734    13.8987    14.2680    15.0046
  354.5000    72.3227   -78.2446    14.0114    14.5724    15.1596
  355.0000    73.2812   -78.4888    14.1342    14.6391    15.2582
  355.5000    70.0148   -78.6279    14.2200    14.7062    15.1806
  356.0000    66.5640   -76.8904    14.2967    14.7735    15.1143
  356.5000    65.9670   -76.4236    14.3711    14.8369    15.0484
  357.0000    68.6086   -77.1202    14.4250    14.6865    14.9829
  357.5000    70.1930   -77.2607    13.9284    14.5083    14.9177
  358.0000    70.7321   -76.4916    13.3895    14.0518    14.8528
  358.5000    72.5384   -75.7522    13.5150    13.7455    14.5532
  359.0000    77.0931   -76.5374    13.1788    13.6797    14.1856
  359.5000    80.7944   -76.7733    12.9379    13.6074    13.8273
  360.0000    80.2152   -75.7804    12.8989    13.5150    13.6417
  360.5000    79.0513   -76.9536    12.8989    13.6221    13.7968
  361.0000    78.7765   -77.0873    12.8989    13.7471    13.9784
  361.5000    80.2782   -76.3225    12.8989    13.8733    14.1625
  362.0000    81.7716   -76.1902    12.8989    14.0006    14.3488
  362.5000    80.9740   -77.0616    12.9660    14.3230    14.5509
  363.0000    79.5228   -76.4430    13.3161    14.6991    14.7602
  363.5000    78.0547   -75.6503    13.8959    16.0380    14.9760
  364.0000    76.6370   -77.2344    14.9651    17.4584    16.8428
  364.5000    73.1133   -77.3045    16.1664    19.3063    18.8276
  365.0000    68.7984   -79.0092    17.9109    21.6914    21.0463
  365.5000    65.4086   -79.6070    19.8435    24.3712    23.5265
  366.0000    63.9437   -77.0680    21.9847    27.3821    26.2990
  366.5000    64.8524   -77.3819    24.3761    29.9076    29.3218
  367.0000    65.5571   -77.4137    25.6080    31.3771    30.2275
  367.5000    66.1095   -77.2966    26.9892    32.9188    30.7961
  368.0000    64.8446   -76.5318    28.2570    34.6847    31.5497
  368.5000    63.4522   -76.3873    29.1812    34.9247    33.4189
  369.0000    62.0814   -76.3176    30.1344    35.1902    34.6847
  369.5000    61.1934   -76.3334    30.6231    35.4578    34.5664
