~VERSION INFORMATION
 VERS.                2.0:   CWLS LOG ASCII STANDARD - VERSION 2.0
 WRAP.                 NO:   ONE LINE PER DEPTH STEP
~WELL INFORMATION
#MNEM.UNIT      DATA TYPE    INFORMATION
#----------   ------------   ------------------------------
 STRT.F            0.0000:   START DEPTH
 STOP.F         3030.0000:   STOP DEPTH
 STEP.F            0.5000:   STEP LENGTH
 NULL.          -999.2500:   NO VALUE
 COMP. LAWRENCE/ALLISON INC:   COMPANY
 WELL. NAVAL PETROLEUM RESERVE 3 AX-3 #36  X 34-34:   WELL
 FLD .         N. P. R #3:   FIELD
 LOC .      S34 T39N R78W:   LOCATION
 CNTY.            NATRONA:   COUNTY
 STAT.            WYOMING:   STATE
 CTRY. UNITED STATES OF AMERICA:   COUNTRY
 SRVC.      Dresser Atlas:   SERVICE COMPANY
 DATE.        29-JUN-1985:   LOGDATE
 API .       490251103200:   API NUMBER
~CURVE INFORMATION
#MNEM.UNIT       API CODE    CURVE DESCRIPTION
#----------   ------------   ------------------------------
 DEPT.F                  :   
 RFOC.OHMM   07 220 01 00:   RESISTIVITY FOCUSED LOG
 RILM.OHMM   07 120 44 00:   RESITIVITY LONG MEDIUM
 SPR .MV     07 010 01 00:   SPONTANEOUS POTENTIAL
 RILD.OHMM   07 120 46 00:   INDUCTION LOG DEEP RESITIVITY
 GRR .GAPI   07 310 01 00:   GAMMA RAY
 DT  .US/F   60 520 00 00:   INTERVAL TRANSIT TIME
 CALD.IN     45 280 60 00:   CALIPER FROM DENSITY LOG
 CORR.G/C3   45 356 01 00:   DENSITY CORRECTION
 CNC .DEC    42 890 03 00:   NEUTRON POROSITY SANDSTONE
 DEN .G/C3   45 350 01 00:   COMPENSATED BULK DENSTIY
 PORD.DEC    45 890 12 00:   POROSITY DENSITY SANDSTONE
~PARAMETER INFORMATION
#MNEM.UNIT          VALUE    DESCRIPTION
#----------   ------------   ------------------------------
 PD  .                 GL:   PERMANENT DATUM
 EPD .F              5108:   ELEVATION PERMANENT DATUM
 LMF .                 KB:   LOG MEASURED FROM
 DAPD.F                12:   FEET ABOVE PERMANENT DATUM
 DMF .                 KB:   DRILLING MEASURED FROM
 EKB .F              5120:   KELLING BUSHING
 EGL .F              5108:   GROUND LEVEL
 DATE.       29-JUNE-1985:   RUN DATE
 RUN .                  1:   RUN NUMBER
 DD  .F              3033:   DEPTH DRILLER
 DL  .F              3033:   DEPTH LOGGER
 BLI .F              3030:   BOTTOM LOG INTERVAL
 CS  .IN            8.625:   CASING SIZE
 CBD .F               601:   CASING BOTTOM DRILLER
 CBL .F               601:   CASING BOTTOM LOGGER
 BS  .IN            7.875:   BIT SIZE
 BSD .F              3033:   BIT SIZE AT DEPTH
 DFT .   FOAM & KCL WATER:   DRILLING FLUID TYPE
 MSS .           FLOWLINE:   MUD SAMPLE SOURCE
 RMS .OHMM           0.44:   RESISTIVITY MUD SAMPLE
 MST .F                82:   MUD SAMPLE TEMPERATURE
 RMF .OHMM           0.44:   RESISTIVITY MUD FILTRATE SAMPLE
 MFST.F                82:   MUD FILTRATE SAMPLE TEMPERATURE
 MFSS.               MEAS:   MUD FILTRATE SAMPLE SOURCE
 RMB .OHMM           0.31:   RESISTIVITY MUD AT BHT
 BHT .F               116:   BOTTOM HOLE TEMPERATURE
 TCS .HRS               3:   TIME CURCULATED STOPPED
 MRT .F               116:   MAXIMUM RECORDED TEMPERATURE
 LUN .               6274:   LOGGING UNIT NUMBER
 LUL .               GLTE:   LOGGING UNIT LOCATION
 ENGI.             RAUTIO:   RECORDING ENGINEER
 WITN.       MR. JENNINGS:   WITNESSED BY
 CLNT.            A2DTECH:   CLIENT CODE
 ORIG.        2" 5" PRINT:   ORIGIN OF DATA
 UWI .       490251103200:   UNIQUE WELL ID
 DICO. A2D Technologies, Inc.:   DIGITIZING COMPANY
~OTHER INFORMATION
~A    DEPT    RFOC       RILM        SPR       RILD         GRR        DT       CALD       CORR        CNC        DEN       PORD   
# ...
 2806.0000     4.3871     3.7013    44.2793     3.7038   131.6609    94.3878     7.4910     0.0125     0.3464     2.4617     0.1137
 2806.5000     4.1554     3.6518    44.1299     3.7062   133.1902    97.5462     7.5060     0.0036     0.3274     2.4632     0.1119
 2807.0000     4.0992     3.6535    43.9813     3.6825   131.5188    98.6715     7.5211    -0.0008     0.3062     2.4662     0.1085
 2807.5000     4.2465     3.6552    43.6818     3.6849   126.8039    98.9685     7.5060    -0.0098     0.2998     2.4723     0.1005
 2808.0000     4.7487     3.7380    43.5333     3.7647   122.5701    98.4361     7.4759    -0.0187     0.3086     2.4853     0.0898
 2808.5000     4.9189     3.8958    43.3846     3.8732   121.6697    96.2481     7.4307    -0.0231     0.3104     2.5009     0.0904
 2809.0000     4.9557     4.0077    42.9337     3.9571   122.5896    94.0602     7.4759    -0.0261     0.2874     2.4993     0.0984
 2809.5000     4.9577     4.0943    42.4821     4.0711   123.5074    91.9464     7.5361    -0.0260     0.2786     2.4925     0.1094
 2810.0000     4.9943     4.1827    42.3333     4.1598   122.0009    90.8127     7.5361    -0.0109     0.2753     2.4768     0.1212
 2810.5000     5.0663     4.2140    42.3364     4.1911   119.5853    89.9048     7.4910     0.0222     0.2795     2.4475     0.1242
 2811.0000     5.1394     4.2458    42.3399     4.2227   117.4727    88.6939     7.4759     0.0403     0.2867     2.4438     0.1227
 2811.5000     5.1058     4.2775    42.4943     4.2249   115.0572    88.2387     7.4759     0.0389     0.2888     2.4483     0.1165
 2812.0000     5.0372     4.3094    42.8003     4.2568   115.9771    88.3108     7.4910     0.0330     0.2840     2.4558     0.1070
 2812.5000     5.0042     4.3416    43.2577     4.3193   119.6221    88.3819     7.5060     0.0255     0.2785     2.4679     0.1003
 2813.0000     5.0067     4.3774    43.7232     4.3216   122.0550    88.3006     7.5361     0.0134     0.2752     2.4777     0.0933
 2813.5000     5.0813     4.4379    44.3248     4.3541   122.9728    88.0705     7.5512    -0.0104     0.2755     2.4890     0.0900
 2814.0000     5.2250     4.3780    44.6307     4.3261   118.7412    87.3885     7.5663    -0.0223     0.2752     2.4958     0.0903
 2814.5000     5.3374     4.2899    44.6336     4.2379   117.8408    86.7055     7.5663    -0.0267     0.2727     2.4980     0.0900
 2815.0000     5.4143     4.1450    44.7880     4.1252   117.5442    86.5511     7.5512    -0.0327     0.2712     2.4988     0.0909
 2815.5000     5.2312     3.9997    45.0939     3.9584   117.8581    86.6325     7.5361    -0.0371     0.2748     2.4988     0.0945
 2816.0000     4.9452     3.7901    45.2491     3.7458   117.5637    87.2946     7.5060    -0.0401     0.2815     2.4981     0.1017
 2816.5000     4.6840     3.5366    45.4035     3.4956   117.5727    88.3445     7.4759    -0.0369     0.2917     2.4929     0.1079
 2817.0000     4.5255     3.2095    45.4064     3.1928   119.4014    89.2439     7.4458     0.0172     0.2995     2.4824     0.1105
 2817.5000     4.3725     2.7933    45.4093     2.8004   122.7434    90.3682     7.4458     0.0443     0.3082     2.4681     0.1108
 2818.0000     4.1662     2.4970    44.9576     2.5415   135.7824    91.1170     7.4458     0.0491     0.3735     2.4681     0.1126
 2818.5000     3.8502     2.3822    44.8090     2.3883   153.9729    92.9952     7.4608    -0.0171     0.3912     2.4682     0.1222
 2819.0000     3.1127     2.3665    44.8126     2.3398   170.8596    97.3934     7.4759    -0.0336     0.3733     2.4569     0.1491
 2819.5000     2.4576     2.3679    45.2700     2.3414   173.3841   108.2719     7.5060    -0.0110     0.3298     2.4246     0.1690
 2820.0000     2.3743     2.4190    45.5760     2.3593   159.1525   110.9028     7.5211     0.0312     0.3054     2.3848     0.1778
 2820.5000     2.5290     2.5623    45.8819     2.4273   137.0400   109.6185     7.5361     0.0748     0.2841     2.3555     0.1645
 2821.0000     2.8576     2.9845    45.8665     2.5678   126.7456   105.7739     7.5361     0.0674     0.2747     2.3721     0.1381
 2821.5000     3.7906     3.3148    45.4338     2.8721   120.1263    98.2740     7.5361     0.0209     0.2680     2.4225     0.1170
 2822.0000     4.9062     3.5804    45.1337     3.2349   116.1590    85.9605     7.5512    -0.0031     0.2674     2.4608     0.1085
 2822.5000     4.9081     3.8674    44.8335     3.6952   115.5595    85.0527     7.5663     0.0045     0.2696     2.4706     0.1025
 2823.0000     4.8760     4.0371    44.5334     3.9640   114.0552    85.1990     7.5663    -0.0074     0.2710     2.4789     0.0967
 2823.5000     4.8780     4.1798    44.3848     4.1354   111.0335    84.8926     7.5663    -0.0239     0.2704     2.4895     0.0909
 2824.0000     4.9834     4.2110    44.3884     4.2250   111.0747    84.4365     7.5663    -0.0343     0.2589     2.5000     0.0895
 2824.5000     5.0906     4.1832    44.3913     4.1687   114.0833    84.2816     7.5663    -0.0282     0.2553     2.4985     0.0940
 2825.0000     5.1282     4.1277    44.2427     4.1138   116.8193    84.3517     7.5813    -0.0177     0.2607     2.4895     0.0973
 2825.5000     5.0242     4.0717    44.2456     4.0868   118.6461    85.4017     7.5813    -0.0161     0.2770     2.4834     0.0997
 2826.0000     4.7827     3.9906    44.0969     4.0606   119.2608    86.8282     7.5813    -0.0280     0.2806     2.4813     0.1015
 2826.5000     4.3751     3.9372    44.2521     4.0071   120.5086    88.4042     7.5813    -0.0445     0.2737     2.4805     0.1027
 2827.0000     4.3163     3.8845    44.2549     3.9537   121.7046    89.3789     7.5758    -0.0369     0.2652     2.4806     0.1027
 2827.5000     4.2876     3.8589    44.4094     3.9284   120.5011    89.9771     7.5663    -0.0143     0.2634     2.4813     0.1014
 2828.0000     4.3499     3.8612    44.4122     3.9310   118.6916    90.0482     7.5813    -0.0067     0.2636     2.4836     0.1002
 2828.5000     4.4147     3.8633    44.5698     3.9331   117.4881    89.7417     7.5813    -0.0051     0.2636     2.4866     0.0993
 2829.0000     4.6032     3.8650    44.7218     3.9078   117.8000    89.2103     7.5813    -0.0035     0.2642     2.4897     0.0972
 2829.5000     4.7681     3.8668    44.7247     3.8025   118.1137    88.6037     7.5813    -0.0019     0.2683     2.4957     0.0948
 2830.0000     4.8033     3.7192    44.5753     3.6168   119.3345    88.2933     7.5813    -0.0004     0.2745     2.5040     0.0917
 2830.5000     4.7388     3.4626    44.4267     3.4054   123.5856    88.1424     7.5926     0.0012     0.2781     2.5093     0.0875
 2831.0000     4.6427     3.3456    44.5818     3.2451   126.3215    88.4394     7.5974     0.0013     0.2808     2.5070     0.0841
 2831.5000     4.5175     3.2101    44.4339     2.9451   130.6399    89.1881     7.6114    -0.0107     0.2884     2.4920     0.0899
 2832.0000     4.2744     2.8529    44.5883     2.7292   140.2804    90.9901     7.6156    -0.0181     0.3050     2.4733     0.0965
 2832.5000     4.0445     2.5308    44.5912     2.4935   147.2588    93.2449     7.6265    -0.0227     0.3424     2.4553     0.1074
 2833.0000     3.6704     2.3662    44.5941     2.3276   165.4492    96.7798     7.6265    -0.0240     0.3576     2.4369     0.1194
 2833.5000     3.2111     2.3342    44.7485     2.3292   180.9124    97.9809     7.6265    -0.0059     0.3542     2.3884     0.1460
 2834.0000     2.8792     2.3519    44.9251     2.3467   196.7531   102.2673     7.6265     0.0799     0.3406     2.3539     0.1762
 2834.5000     2.5060     2.4027    45.2096     2.4143   193.3562   106.2540     7.6265     0.1881     0.3061     2.3697     0.1705
 2835.0000     2.3876     2.4564    45.3640     2.4666   175.4861   107.3037     7.6265     0.1852     0.2819     2.3803     0.1692
 2835.5000     2.5610     2.7648    45.3669     2.6097   152.4644   106.8476     7.6265     0.1417     0.2683     2.4389     0.1529
 2836.0000     3.9449     3.0073    45.3698     2.8388   119.1398   102.9887     7.6265     0.1132     0.2665     2.4877     0.1067
