~VERSION INFORMATION
 VERS.                2.0:   CWLS LOG ASCII STANDARD - VERSION 2.0
 WRAP.                 NO:   ONE LINE PER DEPTH STEP
~WELL INFORMATION
#MNEM.UNIT      DATA TYPE    INFORMATION
#----------   ------------   ------------------------------
 STRT.F           24.0000:   START DEPTH
 STOP.F          609.0000:   STOP DEPTH
 STEP.F            0.5000:   STEP LENGTH
 NULL.          -999.2500:   NO VALUE
 COMP. FENIX & SCISSON INC:   COMPANY
 WELL.        S 34 #48-34:   WELL
 FLD .            NPR - 3:   FIELD
 LOC .      S34 T39N R78W:   LOCATION
 CNTY.            NATRONA:   COUNTY
 STAT.            WYOMING:   STATE
 CTRY. UNITED STATES OF AMERICA:   COUNTRY
 SRVC.              Welex:   SERVICE COMPANY
 DATE.        03-MAY-1977:   LOGDATE
 API .       490251035700:   API NUMBER
~CURVE INFORMATION
#MNEM.UNIT       API CODE    CURVE DESCRIPTION
#----------   ------------   ------------------------------
 DEPT.F                  :   
 CALD.IN     45 280 60 00:   CALIPER FROM DENSITY LOG
 CORR.G/C3   45 356 01 00:   DENSITY CORRECTION
 DPHI.DEC    45 890 12 00:   DENSITY POROSITY SANDSTONE
 GRD .GAPI   45 310 01 00:   GAMMA RAY FROM DENSITY LOG
 RHOB.G/C3   45 350 01 00:   BULK DENSITY
 GURD.OHMM   07 220 05 00:   SHALLOW GUARD RESISTIVITY
 ILD .OHMM   07 120 46 00:   INDUCTION LOG DEEP
 ILM .OHMM   07 120 44 00:   INDUCTION LOG MEDIUM
 SPR .MV     07 010 01 00:   SPONTANEOUS POTENTIAL FROM RES.
~PARAMETER INFORMATION
#MNEM.UNIT          VALUE    DESCRIPTION
#----------   ------------   ------------------------------
 PD  .                 GL:   PERMANENT DATUM
 EPD .F              5160:   ELEVATION PERMANENT DATUM
 LMF .                 GL:   LOG MEASURED FROM
 DMF .                 GL:   DRILLING MEASURED FROM
 EGL .F              5160:   GROUND LEVEL
 DATE.        03-MAY-1977:   RUN DATE
 RUN .                  1:   RUN NUMBER
 DD  .F               610:   DEPTH DRILLER
 DL  .F               611:   DEPTH LOGGER
 BLI .F               609:   BOTTOM LOG INTERVAL
 TLI .F                30:   TOP LOG INTERVAL
 CS  .IN            8.625:   CASING SIZE
 CBD .F                40:   CASING BOTTOM DRILLER
 CBL .F                32:   CASING BOTTOM LOGGER
 BS  .IN            7.875:   BIT SIZE
 BSD .F               610:   BIT SIZE AT DEPTH
 DFT .            KCL GEL:   DRILLING FLUID TYPE
 DFD .                8.9:   DRILLING FLUID DENSITY
 DFV .                 33:   DRILLING FLUID VISCOSITY
 DFPH.                8.0:   DRILLING FLUID PH
 DFL .                7.2:   DRILLING FLUID LOSS
 MSS .            MUD PIT:   MUD SAMPLE SOURCE
 RMS .OHMM           0.19:   RESISTIVITY MUD SAMPLE
 MST .F                65:   MUD SAMPLE TEMPERATURE
 RMF .OHMM           0.16:   RESISTIVITY MUD FILTRATE SAMPLE
 MFST.F                65:   MUD FILTRATE SAMPLE TEMPERATURE
 RMC .OHMM           0.24:   RESISTIVITY MUD CAKE
 MCST.F                65:   MUD CAKE SAMPLE TEMPERATURE
 MFSS.               MEAS:   MUD FILTRATE SAMPLE SOURCE
 MCSS.               MEAS:   MUD CAKE SAMPLE SOURCE
 RMB .OHMM           0.17:   RESISTIVITY MUD AT BHT
 BHT .F                72:   BOTTOM HOLE TEMPERATURE
 TCS .HRS               2:   TIME CURCULATED STOPPED
 MRT .F                72:   MAXIMUM RECORDED TEMPERATURE
 LUN .               8766:   LOGGING UNIT NUMBER
 LUL .             CASPER:   LOGGING UNIT LOCATION
 ENGI.          T. JOYNER:   RECORDING ENGINEER
 WITN.           ROB LYON:   WITNESSED BY
 CLNT.            A2DTECH:   CLIENT CODE
 ORIG.           5" PRINT:   ORIGIN OF DATA
 UWI .       490251035700:   UNIQUE WELL ID
 DICO. A2D Technologies, Inc.:   DIGITIZING COMPANY
~OTHER INFORMATION
~A   DEPT       CALD      CORR        DPHI      GRD         RHOB     GURD        ILD        ILM        SPR   
# ...
  535.0000     7.6880     0.0004     0.1301   102.2875     2.4634    17.8899    11.3789    15.4808   -23.3606
  535.5000     7.6893     0.0065     0.1265   102.3049     2.4702    17.8988    11.2277    14.2562   -23.6435
  536.0000     7.6905     0.0127     0.1234   100.2452     2.4755    17.7837    11.0785    14.4649   -24.0752
  536.5000     7.6915     0.0173     0.1210    95.6632     2.4794    17.6695    11.0146    15.1938   -24.2129
  537.0000     7.6927     0.0189     0.1186    96.7192     2.4839    17.6782    11.0224    14.7889   -24.4921
  537.5000     7.6941     0.0190     0.1179   100.0007     2.4818    17.5646    11.0301    14.4923   -24.4773
  538.0000     7.6952     0.0131     0.1210    97.0508     2.4751    17.4518    11.0392    15.3310   -24.4626
  538.5000     7.6963     0.0102     0.1242    91.1335     2.4729    17.4602    11.1235    15.9897   -24.6003
  539.0000     7.6977     0.0074     0.1232    94.2295     2.4767    17.2284    11.0525    13.2742   -24.7344
  539.5000     7.6837     0.0060     0.1226   100.8628     2.4746    16.9873    10.9838    13.7514   -24.7159
  540.0000     7.6850     0.0031     0.1274    99.9438     2.4701    16.7738    10.9155    14.7475   -24.8536
  540.5000     7.6862     0.0032     0.1291    97.7358     2.4665    17.0352    10.8477    15.0675   -24.9877
  541.0000     7.6876     0.0049     0.1306    96.5619     2.4635    17.2844    10.8570    14.9738   -24.9693
  541.5000     7.6887     0.0080     0.1315    94.8032     2.4621    17.5129    10.8645    14.5747   -24.9545
  542.0000     7.7046     0.0081     0.1309    92.8919     2.4614    17.5213    10.8719    14.1863   -24.9397
  542.5000     7.7060     0.0142     0.1287    93.5028     2.4646    17.2865    10.8794    13.9039   -25.2232
  543.0000     7.6923     0.0203     0.1278    94.5588     2.4677    17.0590    10.8869    14.6048   -25.2078
  543.5000     7.6934     0.0204     0.1272    94.9288     2.4684    16.9474    10.8943    15.3407   -25.1931
  544.0000     7.6945     0.0236     0.1283    93.7034     2.4676    16.8386    10.9775    15.2453   -25.1783
  544.5000     7.7107     0.0192     0.1307    93.1274     2.4626    16.7304    11.1381    14.0383   -25.1636
  545.0000     7.7119     0.0148     0.1331    96.9237     2.4566    16.5102    11.0233    13.2918   -25.4464
  545.5000     7.7278     0.0116     0.1342   103.8491     2.4537    16.4022    10.8970    13.9741   -25.7293
  546.0000     7.7736     0.0090     0.1321   107.4274     2.4583    16.1863    10.7708    14.5736   -26.0121
  546.5000     7.7749     0.0061     0.1333   109.3736     2.4591    16.1941    10.6329    13.7538   -26.2950
  547.0000     7.8206     0.0033     0.1354   110.4252     2.4554    16.2019    10.7315    13.1451   -26.5779
  547.5000     7.8366     0.0034     0.1377   108.6666     2.4510    16.5500    10.8785    13.9039   -26.7361
  548.0000     7.8380     0.0035     0.1392   105.1232     2.4481    16.9056    10.8124    13.5352   -26.9911
  548.5000     7.8239     0.0036     0.1389   103.3558     2.4497    17.0313    10.3798    11.2347   -27.1288
  549.0000     7.8102     0.0038     0.1376   104.2678     2.4512    16.6891    10.2424    11.8008   -27.2592
  549.5000     7.7967     0.0039     0.1379   107.5493     2.4513    16.1289    10.1103    12.8322   -27.3969
  550.0000     7.7830     0.0040     0.1385   106.9733     2.4499    15.3731     9.9782    13.1994   -27.6798
  550.5000     7.7844     0.0073     0.1387   105.8038     2.4485    15.1944     9.7799    11.5001   -28.1078
  551.0000     7.7855     0.0102     0.1377   108.2986     2.4508    15.0797     9.7866    12.4210   -28.3906
  551.5000     7.7869     0.0164     0.1341   111.3326     2.4591    14.8834     9.6587    12.9569   -28.8260
  552.0000     7.7880     0.0225     0.1284   113.8723     2.4652    14.5803     9.4668    12.0148   -29.4028
  552.5000     7.7891     0.0286     0.1266   117.1538     2.4683    14.2028     9.0880    11.2187   -29.6893
  553.0000     7.7902     0.0347     0.1290   121.3255     2.4653    13.8250     8.6642    10.7695   -29.9722
  553.5000     7.7764     0.0349     0.1343   125.4854     2.4602    13.5508     8.3175    10.3383   -30.1026
  554.0000     7.7627     0.0350     0.1388   128.8249     2.4536    13.2796     7.8750     9.7203   -30.2403
  554.5000     7.7490     0.0276     0.1421   130.8622     2.4468    13.0187     7.3535     9.7945   -30.2219
  555.0000     7.7504     0.0217     0.1441   131.9166     2.4416    12.8491     6.8666    10.1466   -30.3596
  555.5000     7.7517     0.0143     0.1362   129.7068     2.4582    12.5943     6.4119     9.5401   -30.4937
  556.0000     7.7528     0.0114     0.1249   119.0402     2.4808    12.0907     5.8239     8.3696   -30.4752
  556.5000     7.7540     0.0116     0.1210   107.1865     2.4816    11.8509     5.2898     7.8150   -30.6129
  557.0000     7.7766     0.0117     0.1203   103.8982     2.4772    11.7689     4.9738     7.4503   -30.7470
  557.5000     7.7772     0.0163     0.1218   106.0312     2.4780    10.4795     4.6767     6.4912   -30.7285
  558.0000     7.7926     0.0179     0.1221   106.4921     2.4811     5.0684     4.5207     5.5010   -30.4162
  558.5000     7.7932     0.0165     0.1208   105.7700     2.4811     4.5394     4.4926     4.6619   -30.1038
  559.0000     7.7938     0.0122     0.1202   104.8955     2.4789     7.9068     4.5900     6.1116   -29.6426
  559.5000     7.7795     0.0123     0.1238   104.3139     2.4729    13.2093     4.7549     7.6860   -29.3302
  560.0000     7.7802     0.0094     0.1276   105.3722     2.4664    14.9740     4.8917     8.7728   -29.0279
  560.5000     7.7658     0.0065     0.1303   106.7233     2.4680    14.4751     5.1038     9.3434   -28.7333
  561.0000     7.7665     0.0082     0.1237   105.9973     2.4755    14.1879     5.3645     9.8143   -28.4386
  561.5000     7.7671     0.0098     0.1188   103.1548     2.4831    14.4010     5.8037    10.1703   -28.1440
  562.0000     7.7676     0.0129     0.1149   101.4295     2.4892    14.9305     6.4490    10.7873   -27.9167
  562.5000     7.7682     0.0145     0.1121   104.8617     2.4953    15.1369     7.1575    11.7748   -27.8991
  563.0000     7.7837     0.0191     0.1115   107.3997     2.4991    14.9398     7.8647    11.2283   -27.7357
  563.5000     7.7842     0.0252     0.1166   110.3829     2.4954    14.6408     8.6707    12.2156   -27.4235
  564.0000     7.7874     0.0193     0.1187   110.9921     2.4880    14.6544     9.0444    12.5706   -27.2602
  564.5000     7.8003     0.0135     0.1189   109.8210     2.4828    15.0772     9.2405    12.0704   -27.2456
  565.0000     7.7860     0.0121     0.1174   107.4629     2.4836    15.7285     9.4408    11.7489   -27.0822
  565.5000     7.7867     0.0077     0.1171   103.5031     2.4852    16.0706     9.5789    13.1411   -26.9189
  566.0000     7.7872     0.0048     0.1173   100.3768     2.4868    16.4202     9.7866    13.6137   -26.9043
  566.5000     7.7879     0.0020     0.1176   100.3926     2.4854    16.4326     9.9987    12.6301   -26.5922
  567.0000     7.7736     0.0006     0.1185   101.5953     2.4839    16.4476    10.3578    12.7299   -26.5774
  567.5000     7.7444     0.0007     0.1190   103.3915     2.4825    16.4599    10.7299    13.3812   -26.5625
  568.0000     7.7450     0.0023     0.1184   102.6655     2.4848    16.9347    11.0386    13.7640   -26.5449
  568.5000     7.7457     0.0040     0.1154   101.0492     2.4894    17.4233    11.2779    14.0690   -26.5303
  569.0000     7.7462     0.0086     0.1135    99.2846     2.4955    17.6795    11.3640    14.3779   -26.3669
  569.5000     7.7319     0.0147     0.1126    99.8978     2.4986    17.4460    11.5302    15.1063   -26.3524
  570.0000     7.7176     0.0208     0.1135   101.6940     2.4964    17.9527    11.5382    14.8062   -26.1890
  570.5000     7.7183     0.0269     0.1146   102.3033     2.4934    18.8584    11.5461    15.2400   -26.0257
  571.0000     7.7338     0.0271     0.1152   101.7217     2.4913    19.0035    11.5540    15.3604   -25.8623
