~VERSION INFORMATION
 VERS.                2.0:   CWLS LOG ASCII STANDARD - VERSION 2.0
 WRAP.                 NO:   ONE LINE PER DEPTH STEP
~WELL INFORMATION
#MNEM.UNIT      DATA TYPE    INFORMATION
#----------   ------------   ------------------------------
 STRT.F           84.0000:   START DEPTH
 STOP.F          849.5000:   STOP DEPTH
 STEP.F            0.5000:   STEP LENGTH
 NULL.          -999.2500:   NO VALUE
 COMP. U S NAVY/INTEX OIL CO:   COMPANY
 WELL.     NPR 3 #81-S-34:   WELL
 FLD .        TEAPOT DOME:   FIELD
 LOC .      S34 T39N R78W:   LOCATION
 CNTY.            NATRONA:   COUNTY
 STAT.            WYOMING:   STATE
 CTRY. UNITED STATES OF AMERICA:   COUNTRY
 SRVC.       Schlumberger:   SERVICE COMPANY
 DATE.        29-JUL-1963:   LOGDATE
 API .       490250656700:   API NUMBER
~CURVE INFORMATION
#MNEM.UNIT       API CODE    CURVE DESCRIPTION
#----------   ------------   ------------------------------
 DEPT.F                  :   
 CALS.IN     60 280 50 00:   CALIPER FROM SONIC LOG
 DT  .US/F   60 520 33 00:   INTERVAL TRANSIT TIME
 SPR .MV     05 010 01 00:   SPONTANEOUS POTENTIAL FROM RES.
 ILD .OHMM   05 120 46 00:   INDUCTION LOG DEEP
 ASN .OHMM   05 041 16 00:   AMPLIFIED SHORT NORMAL 16"
 CILD.MMHO   05 110 46 00:   CONDUCTIVITY INDUCTION LOG DEEP
 GR  .GAPI   30 310 01 00:   GAMMA RAY FROM RES.
~PARAMETER INFORMATION
#MNEM.UNIT          VALUE    DESCRIPTION
#----------   ------------   ------------------------------
 PD  .                 GL:   PERMANENT DATUM
 EPD .F              5067:   ELEVATION PERMANENT DATUM
 LMF .                 KB:   LOG MEASURED FROM
 DAPD.F                 5:   FEET ABOVE PERMANENT DATUM
 DMF .                 KB:   DRILLING MEASURED FROM
 EKB .F              5072:   KELLING BUSHING
 EGL .F              5067:   GROUND LEVEL
 DATE.          7-29-1963:   RUN DATE
 RUN .                  1:   RUN NUMBER
 DD  .F               850:   DEPTH DRILLER
 DL  .F               850:   DEPTH LOGGER
 BLI .F               849:   BOTTOM LOG INTERVAL
 TLI .F                90:   TOP LOG INTERVAL
 CS  .IN            8.625:   CASING SIZE
 CBD .F                10:   CASING BOTTOM DRILLER
 BS  .IN            7.875:   BIT SIZE
 BSD .F               850:   BIT SIZE AT DEPTH
 DFT .            GEL-OIL:   DRILLING FLUID TYPE
 DFD .                9.4:   DRILLING FLUID DENSITY
 DFV .                 40:   DRILLING FLUID VISCOSITY
 DFPH.                  9:   DRILLING FLUID PH
 DFL .                8.4:   DRILLING FLUID LOSS
 MSS .           FLOWLINE:   MUD SAMPLE SOURCE
 RMS .OHMM           3.08:   RESISTIVITY MUD SAMPLE
 MST .F                79:   MUD SAMPLE TEMPERATURE
 RMF .OHMM           2.39:   RESISTIVITY MUD FILTRATE SAMPLE
 MFST.F                79:   MUD FILTRATE SAMPLE TEMPERATURE
 RMC .OHMM           3.29:   RESISTIVITY MUD CAKE
 MCST.F                79:   MUD CAKE SAMPLE TEMPERATURE
 MFSS.                 MP:   MUD FILTRATE SAMPLE SOURCE
 MCSS.                 MP:   MUD CAKE SAMPLE SOURCE
 TCS .HRS               1:   TIME CURCULATED STOPPED
 LUN .               4507:   LOGGING UNIT NUMBER
 LUL .              CSPR.:   LOGGING UNIT LOCATION
 ENGI.             KNOBEL:   RECORDING ENGINEER
 WITN.          JORGENSON:   WITNESSED BY
 CLNT.            A2DTECH:   CLIENT CODE
 ORIG.           5" PRINT:   ORIGIN OF DATA
 UWI .       490250656700:   UNIQUE WELL ID
 DICO. A2D Technologies, Inc.:   DIGITIZING COMPANY
~OTHER INFORMATION
~A   DEPT     CALS         DT        SPR        ILD        ASN       CILD         GR   
# ...
  766.5000     7.7092    96.2873   -34.5280    15.3329    19.5194    63.6042    46.6149
  767.0000     7.6331    92.6403   -33.4751    15.1048    19.1918    65.3376    52.2311
  767.5000     7.5950    93.6493   -32.6357    15.0313    18.8636    65.3999    49.8282
  768.0000     7.5819    95.1571   -31.4988    15.0634    18.5299    65.2688    50.0302
  768.5000     7.6330    91.8478   -30.3773    15.0971    18.4689    65.0717    50.7411
  769.0000     7.6850    92.3895   -29.3804    15.1310    18.3586    64.8776    50.3388
  769.5000     7.7387    93.4764   -30.0560    15.1648    18.3850    64.6835    48.4269
  770.0000     7.7568    94.3622   -30.7643    15.1995    18.5596    64.4894    46.5032
  770.5000     7.7082    94.9701   -31.4281    15.2898    18.5173    64.3305    48.7214
  771.0000     7.6585    94.7180   -31.7982    15.4783    18.4508    63.1684    49.5331
  771.5000     7.6090    94.4263   -31.6566    15.6653    18.3850    61.9851    50.2654
  772.0000     7.5563    94.4902   -31.4467    15.8525    18.3937    60.8017    51.6087
  772.5000     7.6031    94.9485   -31.2353    16.0391    18.4876    59.6184    50.5342
  773.0000     7.6944    95.3685   -31.0257    16.2226    18.5811    58.4350    49.1562
  773.5000     7.7861    95.6673   -31.0433    16.5989    18.6748    57.2517    48.7617
  774.0000     7.8112    94.5178   -31.1025    17.0429    18.7690    57.0084    48.9565
  774.5000     7.8263    93.3359   -31.1628    16.5805    18.8675    57.0110    49.5427
  775.0000     7.8332    91.8327   -31.2228    16.7023    18.7248    58.6931    48.8797
  775.5000     7.8171    94.4721   -31.2828    16.7198    18.5589    60.3944    47.9228
  776.0000     7.8016    93.4950   -31.3433    15.0623    18.4100    62.0914    49.1977
  776.5000     7.7979    93.7749   -31.4067    15.5677    18.2524    63.7869    53.1807
  777.0000     7.8188    93.0777   -31.3659    15.1439    18.0950    65.4824    53.6412
  777.5000     7.8581    94.5717   -30.9347    14.4206    17.9378    67.1779    53.1213
  778.0000     7.8976    93.4761   -30.4175    14.9464    17.7805    68.5146    55.6783
  778.5000     7.8968    95.0246   -29.8993    14.8650    17.6233    68.0727    57.2551
  779.0000     7.8642    95.1912   -29.7013    14.3722    17.4661    67.6360    55.7374
  779.5000     7.8316    95.1685   -30.2401    14.2895    17.3089    67.4686    54.2425
  780.0000     7.7985    94.8692   -30.8322    14.4273    17.1517    69.2469    53.0564
  780.5000     7.8066    94.6986   -30.5322    13.9729    16.9941    70.9937    50.5185
  781.0000     7.8461    94.7814   -29.8985    13.3180    16.8358    72.6987    49.7765
  781.5000     7.8868    94.8710   -29.3570    14.1488    16.6910    71.0617    51.0716
  782.0000     7.9284    94.5985   -28.8151    14.1174    16.7721    68.4414    52.1345
  782.5000     7.9227    94.9369   -28.8322    14.0494    16.8621    67.9080    51.9352
  783.0000     7.9077    95.7702   -29.0533    13.9865    16.8535    68.6067    51.7729
  783.5000     7.8915    96.3625   -29.2761    13.9645    16.7929    69.3054    50.9489
  784.0000     7.8726    95.7554   -29.7705    13.9660    16.7312    70.0042    51.0145
  784.5000     7.8537    95.1483   -30.3489    14.0059    16.6702    70.7029    49.4743
  785.0000     7.8348    94.4634   -30.2448    14.0455    16.6077    71.4017    46.7150
  785.5000     7.8169    93.6509   -29.6756    14.0312    16.5461    71.3241    48.0339
  786.0000     7.8469    93.3453   -29.0999    13.9672    16.4829    70.7933    47.7655
  786.5000     7.8908    93.3260   -28.5190    13.9904    16.5433    70.2681    50.0692
  787.0000     7.9348    93.4094   -28.1243    14.0115    16.6471    69.7448    46.7008
  787.5000     7.9745    93.6554   -28.2758    14.0328    16.7520    69.5607    45.2068
  788.0000     7.9819    94.5554   -28.5211    14.0532    16.8582    69.6339    46.4435
  788.5000     7.9886    95.4243   -28.7680    14.0428    16.9067    69.9245    48.7765
  789.0000     7.9943    96.1653   -28.9464    13.9177    16.9384    70.2132    49.8123
  789.5000     7.9804    95.3088   -29.0192    13.7965    16.9696    70.5128    51.2185
  790.0000     7.8762    94.4858   -29.0993    13.6760    16.9947    71.3464    49.4275
  790.5000     7.7709    94.5483   -28.8452    13.5560    16.9331    72.4694    50.1111
  791.0000     7.6666    93.6335   -28.4079    13.4165    16.8719    73.5923    49.5302
  791.5000     7.6151    92.4801   -27.9662    13.3365    16.8042    73.7448    49.9982
  792.0000     7.7161    93.8745   -27.5263    13.3935    17.0454    73.7448    51.1839
  792.5000     7.8153    91.8825   -27.2337    13.5656    17.3543    71.0600    52.9104
  793.0000     7.9135    92.6793   -26.9690    14.0997    17.6570    67.5663    54.2318
  793.5000     7.9223    90.6969   -26.6257    15.0331    18.6166    64.0725    54.3915
  794.0000     7.7805    87.0630   -26.1722    16.1047    20.2062    60.5788    51.8054
  794.5000     7.8385    81.7505   -25.7209    17.1363    21.7991    57.0851    53.4227
  795.0000     7.9353    76.4380   -25.2687    18.0978    24.2922    53.5914    55.5841
  795.5000     7.9934    71.4641   -24.8167    19.4739    28.2800    50.0976    53.3769
  796.0000     7.9812    67.4509   -24.3646    20.8599    33.5708    46.6039    54.4563
  796.5000     7.9522    63.6782   -23.9125    22.2550    38.4414    43.1102    46.1339
  797.0000     7.9228    61.8028   -23.4602    23.0895    40.9614    41.3180    43.2705
  797.5000     7.8935    62.5199   -23.0079    22.3891    41.7887    41.8998    38.6367
  798.0000     7.8638    64.1932   -22.5569    20.5417    39.2474    44.0367    38.1488
  798.5000     7.8352    67.1346   -22.2005    18.3022    34.9239    49.7763    39.6743
  799.0000     7.8602    70.6202   -22.0998    16.7265    30.6004    55.5160    42.3814
  799.5000     7.8679    74.4567   -22.1028    15.4807    26.1780    61.2557    47.2266
  800.0000     7.8762    78.2857   -22.4347    14.5844    21.5218    66.4226    50.9783
  800.5000     7.8840    82.1173   -22.7517    13.7626    19.1960    71.3903    55.5899
  801.0000     7.8918    85.1761   -23.0653    12.9077    17.8577    74.4726    57.2166
  801.5000     7.8785    87.4777   -23.3305    12.6045    16.6133    76.9698    58.1763
  802.0000     7.8442    89.3665   -23.4794    12.3952    16.0382    79.4671    58.0534
  802.5000     7.8100    90.1494   -23.6315    12.1912    15.4435    82.1130    60.5951
  803.0000     7.7755    90.6494   -23.7824    11.9841    15.1608    82.1130    62.8329
  803.5000     7.7587    90.8862   -23.9067    11.8846    14.8670    83.1590    65.8123
  804.0000     7.7697    90.5807   -23.9067    11.7844    14.6871    82.1130    63.2505
  804.5000     7.8131    90.2751   -23.7237    11.8909    14.5350    81.2657    64.4561
  805.0000     7.8553    89.9696   -23.4372    12.0507    14.3878    79.7921    64.5615
  805.5000     7.8975    89.5714   -23.1484    12.2128    14.3966    78.1446    63.1254
  806.0000     7.9344    88.7986   -22.8602    12.3721    14.4224    76.4971    62.0132
  806.5000     7.9228    88.2968   -22.6241    12.4324    14.4477    78.9958    60.4681
  807.0000     7.9109    88.4809   -22.5282    12.0114    14.4729    82.1130    58.0397
  807.5000     7.8994    88.7253   -22.4318    12.8845    14.4885    77.9637    55.2502
  808.0000     7.8878    88.9698   -22.3342    13.1189    14.4826    75.5063    56.1573
  808.5000     7.8762    89.2142   -22.2409    12.6132    14.3529    77.9289    52.7373
  809.0000     7.8647    89.4586   -22.4138    12.8457    14.2203    76.4854    56.9956
  809.5000     7.8565    89.7031   -22.6142    12.6374    14.0884    74.7908    59.8328
  810.0000     7.8648    89.9481   -22.6408    13.4865    13.9566    88.6506    59.0037
  810.5000     7.8811    90.1944   -22.2547    11.2543    13.8247    88.5188    59.0005
  811.0000     7.8962    90.4364   -21.8473    11.8269    13.6924    83.1590    58.4424
  811.5000     7.9078    90.5876   -21.6085    11.2458    13.5616    90.4483    59.8065
