~VERSION INFORMATION
 VERS.                2.0:   CWLS LOG ASCII STANDARD - VERSION 2.0
 WRAP.                 NO:   ONE LINE PER DEPTH STEP
~WELL INFORMATION
#MNEM.UNIT      DATA TYPE    INFORMATION
#----------   ------------   ------------------------------
 STRT.F         1400.0000:   START DEPTH
 STOP.F         3422.0000:   STOP DEPTH
 STEP.F            0.5000:   STEP LENGTH
 NULL.          -999.2500:   NO VALUE
 COMP. LAWRENCE/ALLISON INC:   COMPANY
 WELL.   NPR 3 #36-STX-23:   WELL
 FLD .             TEAPOT:   FIELD
 LOC .      S23 T38N R78W:   LOCATION
 CNTY.            NATRONA:   COUNTY
 STAT.            WYOMING:   STATE
 CTRY. UNITED STATES OF AMERICA:   COUNTRY
 SRVC.            Unknown:   SERVICE COMPANY
 DATE.        04-JAN-1985:   LOGDATE
 API .       490251137700:   API NUMBER
~CURVE INFORMATION
#MNEM.UNIT       API CODE    CURVE DESCRIPTION
#----------   ------------   ------------------------------
 DEPT.F                  :   
 ROP .MIN/FT 91 810 01 00:   RAT OF DRILLING PENETRATION
 TGAS.UNITS  91 830 01 00:   TOTAL GAS UNIT
~PARAMETER INFORMATION
#MNEM.UNIT          VALUE    DESCRIPTION
#----------   ------------   ------------------------------
 DATE.           1-4-1985:   RUN DATE
 RUN .                  1:   RUN NUMBER
 DD  .F              3427:   DEPTH DRILLER
 TLI .F              1400:   TOP LOG INTERVAL
 BSD .F              3427:   BIT SIZE AT DEPTH
 WITN. RAY ANDERSON/JACK HARBISON:   WITNESSED BY
 CLNT.            A2DTECH:   CLIENT CODE
 ORIG.           5" PRINT:   ORIGIN OF DATA
 UWI .       490251137700:   UNIQUE WELL ID
 DICO. A2D Technologies, Inc.:   DIGITIZING COMPANY
~OTHER INFORMATION
~A  DEPT       ROP       TGAS   
# ...
 3222.5000     1.0354   105.9216
 3223.0000     1.0353   105.9025
 3223.5000     1.0352   105.8835
 3224.0000     1.0351   105.8644
 3224.5000     1.0349   105.8453
 3225.0000     1.0348   105.8263
 3225.5000     1.0347   105.8071
 3226.0000     1.0345   105.7879
 3226.5000     1.0344   105.7688
 3227.0000     1.0343   105.7464
 3227.5000     1.0342   107.6388
 3228.0000     1.0340   107.6149
 3228.5000     1.0339   109.5064
 3229.0000     1.0338   113.3009
 3229.5000     1.0336   113.2809
 3230.0000     1.0433   113.2618
 3230.5000     1.1012   113.2426
 3231.0000     1.1976   113.2234
 3231.5000     1.2556   113.2043
 3232.0000     1.2846   115.0967
 3232.5000     1.1791   115.0727
 3233.0000     1.0832   115.0536
 3233.5000     1.0450   124.5731
 3234.0000     1.0067   126.4559
 3234.5000     0.9973   128.3483
 3235.0000     0.9976   200.7804
 3235.5000     1.0075   236.9948
 3236.0000     1.0654   160.6997
 3236.5000     1.1618   128.2653
 3237.0000     1.2390   125.9871
 3237.5000     1.2969   118.0651
 3238.0000     1.3068   111.0508
 3238.5000     1.3070   111.0318
 3239.0000     1.3072   111.2163
 3239.5000     1.3075   112.9008
 3240.0000     1.3077   112.8785
 3240.5000     1.1887   105.2322
 3241.0000     0.9938   105.2130
 3241.5000     0.7700   105.1939
 3242.0000     0.7317   105.1747
 3242.5000     0.7320   105.1555
 3243.0000     0.7418   105.1364
 3243.5000     0.7517   105.1172
 3244.0000     0.7616   105.0981
 3244.5000     0.7618   105.0789
 3245.0000     0.7620   105.4449
 3245.5000     0.7623   105.0445
 3246.0000     0.7625   105.0254
 3246.5000     0.7628   105.0063
 3247.0000     0.7630   106.8946
 3247.5000     0.7536   106.8750
 3248.0000     0.7539   106.8559
 3248.5000     0.7444   106.8369
 3249.0000     0.7447   106.8178
 3249.5000     0.7450   108.7056
 3250.0000     0.7760   110.5932
 3250.5000     0.8403   110.0968
 3251.0000     0.9046   109.6005
 3251.5000     0.9678   109.1041
 3252.0000     1.0347   108.6077
 3252.5000     1.0338   108.1114
 3253.0000     1.0329   107.9824
 3253.5000     1.0319   107.9789
 3254.0000     1.0309   107.9753
 3254.5000     1.0300   107.9717
 3255.0000     1.0290   107.9682
 3255.5000     1.0280   107.9646
 3256.0000     1.0271   107.9610
 3256.5000     1.0261   107.9575
 3257.0000     1.0251   107.9539
 3257.5000     1.0242   107.9503
 3258.0000     1.0232   107.9467
 3258.5000     1.0222   107.9432
 3259.0000     1.0213   107.9396
 3259.5000     1.0203   107.9360
 3260.0000     1.0193   107.8993
 3260.5000     0.9042   109.7058
 3261.0000     0.8224   109.5388
 3261.5000     0.7319   109.4052
 3262.0000     0.7942   109.2717
 3262.5000     0.8572   109.1381
 3263.0000     0.9202   110.9447
 3263.5000     0.9831   110.7777
 3264.0000     1.0461   108.7374
 3264.5000     1.1091   108.6037
 3265.0000     1.1769   110.4103
 3265.5000     1.2525   114.0569
 3266.0000     1.2927   155.8725
 3266.5000     1.2027   180.5605
 3267.0000     1.1127   123.1901
 3267.5000     1.0227   107.8245
 3268.0000     0.9865   107.6909
 3268.5000     0.9869   107.5573
 3269.0000     0.9873   109.3347
 3269.5000     0.9876   111.1081
 3270.0000     0.9880   112.8769
 3270.5000     0.9883   112.7433
 3271.0000     0.9887   112.6098
 3271.5000     0.9891   112.4761
 3272.0000     1.0471   112.3425
 3272.5000     1.1148   114.1208
 3273.0000     1.2402   113.9822
 3273.5000     1.4136   119.5689
 3274.0000     1.4717   121.3475
 3274.5000     1.0490   123.1208
 3275.0000     0.7416   124.8941
 3275.5000     0.5497   128.5685
 3276.0000     0.5020   128.4349
 3276.5000     0.5119   128.3013
 3277.0000     0.5123   128.1677
 3277.5000     0.5127   129.9409
 3278.0000     0.5130   129.8073
 3278.5000     0.5134   127.7670
 3279.0000     0.5137   127.6334
 3279.5000     0.5141   127.2425
 3280.0000     0.5145   125.2128
 3280.5000     0.5148   121.2733
 3281.0000     0.5151   111.8517
 3281.5000     0.5155   111.7183
 3282.0000     0.5266   109.6780
 3282.5000     0.5961   105.7309
 3283.0000     0.6914   103.6906
 3283.5000     0.7692   103.5572
 3284.0000     0.8455   103.2193
 3284.5000     0.9028   101.3835
 3285.0000     0.9612   101.2501
 3285.5000     1.0283    99.2097
 3286.0000     1.0476   100.9862
 3286.5000     1.0480   102.7593
 3287.0000     1.0387   102.6229
 3287.5000     1.0391   102.4699
 3288.0000     1.0394    98.5228
 3288.5000     1.0302    94.5757
 3289.0000     1.0305    94.4420
 3289.5000     1.0405    96.2486
 3290.0000     1.1178    96.0816
 3290.5000     1.2239    97.8883
 3291.0000     1.4070   101.5682
 3291.5000     1.5612   107.1216
 3292.0000     1.5423   108.9282
 3292.5000     1.3696   110.7014
 3293.0000     1.0623   112.4746
 3293.5000     0.8223   114.2478
 3294.0000     0.7745   116.0210
 3294.5000     0.7749   121.5743
 3295.0000     0.7753   123.3809
 3295.5000     0.7756   123.2139
 3296.0000     0.7760   123.0803
 3296.5000     0.7763   117.2264
 3297.0000     0.7670   107.5589
 3297.5000     0.7675   107.4253
 3298.0000     0.7678   114.9522
 3298.5000     0.7682   118.6100
 3299.0000     0.7685   749.6093
 3299.5000     0.7689   614.1277
 3300.0000     0.7693   377.5424
 3300.5000     0.7696   137.1848
 3301.0000     0.7700   135.1827
 3301.5000     0.7703   133.1806
 3302.0000     0.8189   125.4582
 3302.5000     0.8874   119.6425
 3303.0000     0.9559   119.5471
 3303.5000     1.0244   117.5450
 3304.0000     1.0929   119.3565
 3304.5000     1.1090   117.3543
 3305.0000     1.1094   117.2590
 3305.5000     1.1097   119.0943
 3306.0000     1.1101   118.9751
 3306.5000     1.1105   118.8798
 3307.0000     1.1108   116.8776
 3307.5000     1.1112   116.7823
 3308.0000     1.1115   112.8734
 3308.5000     1.1119   107.0577
 3309.0000     1.1123   105.0556
 3309.5000     1.1127   104.9603
 3310.0000     1.1834   110.5853
 3310.5000     1.2693   118.1171
 3311.0000     1.3552   118.0217
 3311.5000     1.4411   116.0196
 3312.0000     1.4920   112.1107
 3312.5000     1.1533   108.2018
 3313.0000     0.7978   106.1997
 3313.5000     0.5766   104.1976
 3314.0000     0.5201   104.1022
 3314.5000     0.5221   102.1001
 3315.0000     0.5241    98.1912
 3315.5000     0.5260    96.1891
 3316.0000     0.5280    96.0937
 3316.5000     0.5299    95.9984
 3317.0000     0.5319    95.9031
 3317.5000     0.5339    97.7383
 3318.0000     0.5358    99.5498
 3318.5000     0.5378    99.4306
 3319.0000     0.5397   101.2659
 3319.5000     0.5417   103.0535
 3320.0000     0.5529   106.7956
 3320.5000     0.6018   110.5138
 3321.0000     0.6315   110.3946
 3321.5000     0.6708   108.3925
 3322.0000     0.7275   102.5768
 3322.5000     0.7374   102.4814
 3323.0000     0.7281   102.3861
 3323.5000     0.7382   102.2908
 3324.0000     0.7577   102.1954
 3324.5000     0.8254   102.1001
 3325.0000     0.9027   102.0048
 3325.5000     0.9704   101.9094
 3326.0000     1.0092   101.8141
 3326.5000     1.0288   101.7187
 3327.0000     1.0291   101.6234
 3327.5000     1.0295   101.5281
 3328.0000     1.0298   101.4327
 3328.5000     1.0398   101.3374
 3329.0000     1.0402   103.1488
 3329.5000     1.0501   104.9841
 3330.0000     1.0505   104.8649
 3330.5000     1.1365   102.8628
 3331.0000     1.2871   102.7675
 3331.5000     1.4376   104.6028
 3332.0000     1.5135   108.3210
 3332.5000     1.5139   113.9380
 3333.0000     1.5142   104.2850
 3333.5000     1.5146   100.3761
 3334.0000     1.5149   100.2807
 3334.5000     1.3711    98.2786
 3335.0000     1.2079    96.2765
 3335.5000     1.1218    92.3676
 3336.0000     1.0548    86.5519
 3336.5000     1.0263    84.5498
 3337.0000     1.0267    84.4544
 3337.5000     1.0270    84.3591
 3338.0000     1.0274    80.4502
 3338.5000     1.0278    76.5413
 3339.0000     1.0281    74.5392
 3339.5000     1.0285    72.5371
 3340.0000     1.0289    70.5350
 3340.5000     1.1075    72.3702
 3341.0000     1.1855    77.9714
 3341.5000     1.2383    81.7135
 3342.0000     1.2885    81.5943
 3342.5000     1.1394    83.4296
 3343.0000     1.0468    85.2172
 3343.5000     1.0183    85.1218
