~VERSION INFORMATION
 VERS.                2.0:   CWLS LOG ASCII STANDARD - VERSION 2.0
 WRAP.                 NO:   ONE LINE PER DEPTH STEP
~WELL INFORMATION
#MNEM.UNIT      DATA TYPE    INFORMATION
#----------   ------------   ------------------------------
 STRT.F          600.0000:   START DEPTH
 STOP.F         2218.0000:   STOP DEPTH
 STEP.F            0.5000:   STEP LENGTH
 NULL.          -999.2500:   NO VALUE
 COMP. US DEPTMNT OF ENRGY:   COMPANY
 WELL.   37 STX 10 #37-10:   WELL
 FLD .             TEAPOT:   FIELD
 LOC .      S10 T38N R78W:   LOCATION
 CNTY.            NATRONA:   COUNTY
 STAT.            WYOMING:   STATE
 CTRY. UNITED STATES OF AMERICA:   COUNTRY
 SRVC.            Unknown:   SERVICE COMPANY
 DATE.        15-MAY-1991:   LOGDATE
 API .       490251094200:   API NUMBER
~CURVE INFORMATION
#MNEM.UNIT       API CODE    CURVE DESCRIPTION
#----------   ------------   ------------------------------
 DEPT.F                  :   
 TGAS.UNITS  91 830 01 00:   TOTAL GAS FROM HOTWIRE
 ROP .MIN/FT 91 810 01 00:   RATE OF DRILLING PENETRATION
~PARAMETER INFORMATION
#MNEM.UNIT          VALUE    DESCRIPTION
#----------   ------------   ------------------------------
 EKB .F              5231:   KELLING BUSHING
 EGL .F              5221:   GROUND LEVEL
 DATE.            5-15-91:   RUN DATE
 DD  .F              2218:   DEPTH DRILLER
 BLI .F              2218:   BOTTOM LOG INTERVAL
 TLI .F               960:   TOP LOG INTERVAL
 ENGI.              TOWER:   RECORDING ENGINEER
 WITN.               HUSK:   WITNESSED BY
 CLNT.            A2DTECH:   CLIENT CODE
 ORIG.           5" PRINT:   ORIGIN OF DATA
 UWI .       490251094200:   UNIQUE WELL ID
 DICO. A2D Technologies, Inc.:   DIGITIZING COMPANY
~OTHER INFORMATION
~A   DEPT     TGAS          ROP 
# ...
 1693.5000    33.2025     0.4796
 1694.0000    33.3107     0.5010
 1694.5000    33.4189     0.5335
 1695.0000    33.5271     0.6098
 1695.5000    33.6352     0.6643
 1696.0000    33.7434     0.6637
 1696.5000    33.8516     0.5958
 1697.0000    33.9598     0.5055
 1697.5000    34.0679     0.4405
 1698.0000    34.1761     0.4185
 1698.5000    34.2843     0.4083
 1699.0000    34.3925     0.4357
 1699.5000    34.5006     0.4692
 1700.0000    34.6176     0.4937
 1700.5000    34.6924     0.4896
 1701.0000    34.7738     0.4856
 1701.5000    34.8552     0.4819
 1702.0000    34.9366     0.4938
 1702.5000    35.0180     0.5028
 1703.0000    35.0994     0.5044
 1703.5000    35.1808     0.5126
 1704.0000    35.2622     0.5121
 1704.5000    35.3436     0.5148
 1705.0000    35.4250     0.5220
 1705.5000    35.5064     0.5174
 1706.0000    35.5878     0.5099
 1706.5000    35.6692     0.5093
 1707.0000    35.7506     0.5088
 1707.5000    35.8320     0.5082
 1708.0000    35.9134     0.5018
 1708.5000    35.9948     0.4837
 1709.0000    36.0762     0.4604
 1709.5000    36.1576     0.4372
 1710.0000    36.2390     0.4359
 1710.5000    36.3204     0.4467
 1711.0000    36.4019     0.4656
 1711.5000    36.4833     0.4962
 1712.0000    36.5647     0.5142
 1712.5000    36.6461     0.5136
 1713.0000    36.7275     0.5131
 1713.5000    36.8089     0.5126
 1714.0000    36.8903     0.5011
 1714.5000    36.9717     0.5005
 1715.0000    37.0531     0.4890
 1715.5000    37.1345     0.4551
 1716.0000    37.2159     0.4440
 1716.5000    37.2973     0.4434
 1717.0000    37.3787     0.4414
 1717.5000    37.4601     0.4313
 1718.0000    37.5415     0.4308
 1718.5000    37.6229     0.4302
 1719.0000    37.7043     0.4297
 1719.5000    37.7857     0.4324
 1720.0000    37.8606     0.4453
 1720.5000    37.7729     0.4623
 1721.0000    37.6917     0.4794
 1721.5000    37.6105     0.4965
 1722.0000    37.5293     0.4901
 1722.5000    37.4481     0.4670
 1723.0000    37.3669     0.4440
 1723.5000    37.2858     0.4283
 1724.0000    37.2046     0.4242
 1724.5000    37.1234     0.4236
 1725.0000    37.0422     0.4231
 1725.5000    36.9610     0.4225
 1726.0000    36.8798     0.4219
 1726.5000    36.7986     0.4213
 1727.0000    36.7175     0.4318
 1727.5000    36.6363     0.4532
 1728.0000    36.5551     0.4747
 1728.5000    36.4739     0.4851
 1729.0000    36.3927     0.4846
 1729.5000    36.3115     0.4841
 1730.0000    36.2304     0.4835
 1730.5000    36.1492     0.4830
 1731.0000    36.0680     0.4819
 1731.5000    35.9868     0.4709
 1732.0000    35.9056     0.4703
 1732.5000    35.8244     0.4698
 1733.0000    35.7432     0.4692
 1733.5000    35.6621     0.4668
 1734.0000    35.5809     0.4571
 1734.5000    35.4997     0.4566
 1735.0000    35.4185     0.4588
 1735.5000    35.3373     0.4665
 1736.0000    35.2561     0.4659
 1736.5000    35.1749     0.4654
 1737.0000    35.0938     0.4687
 1737.5000    35.0126     0.4753
 1738.0000    34.9314     0.4835
 1738.5000    34.8502     0.5008
 1739.0000    34.7690     0.5066
 1739.5000    34.6878     0.5113
 1740.0000    34.6198     0.5178
 1740.5000    34.6509     0.5200
 1741.0000    34.6777     0.5222
 1741.5000    34.7046     0.5244
 1742.0000    34.7314     0.5308
 1742.5000    34.7582     0.5414
 1743.0000    34.7850     0.5462
 1743.5000    34.8119     0.5456
 1744.0000    34.8387     0.5451
 1744.5000    34.8655     0.5246
 1745.0000    34.8923     0.4835
 1745.5000    34.9192     0.4452
 1746.0000    34.9460     0.4183
 1746.5000    34.9728     0.4104
 1747.0000    34.9996     0.4099
 1747.5000    35.0265     0.4013
 1748.0000    35.0533     0.4060
 1748.5000    35.0801     0.4082
 1749.0000    35.1069     0.4164
 1749.5000    35.1338     0.4620
 1750.0000    35.1606     0.4724
 1750.5000    35.1874     0.4609
 1751.0000    35.2142     0.4494
 1751.5000    35.2411     0.4488
 1752.0000    35.2679     0.4483
 1752.5000    35.2947     0.4588
 1753.0000    35.3216     0.5132
 1753.5000    35.3484     0.5786
 1754.0000    35.3752     0.6330
 1754.5000    35.4020     0.6546
 1755.0000    35.4289     0.6658
 1755.5000    35.4557     0.6883
 1756.0000    35.4825     0.7205
 1756.5000    35.5093     0.7424
 1757.0000    35.5362     0.7629
 1757.5000    35.5630     0.7784
 1758.0000    35.5898     0.8155
 1758.5000    35.6166     0.8107
 1759.0000    35.6435     0.7809
 1759.5000    35.6703     0.7242
 1760.0000    35.6971     0.6780
 1760.5000    35.8323     0.6637
 1761.0000    35.9675     0.6494
 1761.5000    36.1028     0.6351
 1762.0000    36.2380     0.6092
 1762.5000    36.3732     0.5601
 1763.0000    36.5084     0.5043
 1763.5000    36.6436     0.4582
 1764.0000    36.7788     0.4396
 1764.5000    36.9141     0.4396
 1765.0000    37.0493     0.4396
 1765.5000    37.1845     0.4396
 1766.0000    37.3197     0.4396
 1766.5000    37.4549     0.4396
 1767.0000    37.5901     0.4396
 1767.5000    37.7254     0.4396
 1768.0000    37.8606     0.4458
 1768.5000    37.9958     0.4505
 1769.0000    38.1310     0.4505
 1769.5000    38.2662     0.4505
 1770.0000    38.4014     0.4505
 1770.5000    38.5367     0.4646
 1771.0000    38.6719     0.4869
 1771.5000    38.8071     0.5239
 1772.0000    38.9423     0.5610
 1772.5000    39.0775     0.5484
 1773.0000    39.2127     0.5071
 1773.5000    39.3480     0.4625
 1774.0000    39.4832     0.4424
 1774.5000    39.6184     0.4396
 1775.0000    39.7536     0.4396
 1775.5000    39.8888     0.4396
 1776.0000    40.0240     0.4396
 1776.5000    40.1593     0.4396
 1777.0000    40.2945     0.4396
 1777.5000    40.4297     0.4396
 1778.0000    40.5649     0.4396
 1778.5000    40.7001     0.4396
 1779.0000    40.8353     0.4396
 1779.5000    40.9706     0.4396
 1780.0000    41.1058     0.4396
 1780.5000    41.0121     0.4425
 1781.0000    40.9185     0.4456
 1781.5000    40.8249     0.4606
 1782.0000    40.7312     0.5379
 1782.5000    40.6376     0.6366
 1783.0000    40.5440     0.6991
 1783.5000    40.4503     0.7634
 1784.0000    40.3567     0.7927
 1784.5000    40.2631     0.8058
 1785.0000    40.1694     0.7905
 1785.5000    40.0758     0.7556
 1786.0000    39.9822     0.7206
 1786.5000    39.8885     0.6856
 1787.0000    39.7949     0.6571
 1787.5000    39.7013     0.6402
 1788.0000    39.6076     0.6280
 1788.5000    39.5140     0.6234
 1789.0000    39.4204     0.6225
 1789.5000    39.3267     0.6134
 1790.0000    39.2331     0.6099
 1790.5000    39.1395     0.6199
 1791.0000    39.0458     0.6301
 1791.5000    38.9522     0.6623
 1792.0000    38.8586     0.6835
 1792.5000    38.7649     0.6937
 1793.0000    38.6713     0.6929
 1793.5000    38.5777     0.6920
 1794.0000    38.4840     0.6912
 1794.5000    38.3904     0.6904
 1795.0000    38.2968     0.6896
 1795.5000    38.2031     0.6867
 1796.0000    38.1095     0.6745
 1796.5000    38.0159     0.6596
 1797.0000    37.9222     0.6391
 1797.5000    37.8286     0.6269
 1798.0000    37.7350     0.6147
 1798.5000    37.6413     0.6069
 1799.0000    37.5477     0.6013
 1799.5000    37.4541     0.5942
 1800.0000    37.4171     0.5957
 1800.5000    37.4995     0.5997
 1801.0000    37.5818     0.6036
 1801.5000    37.6642     0.6075
 1802.0000    37.7465     0.6115
 1802.5000    37.8289     0.6154
 1803.0000    37.9112     0.6194
 1803.5000    37.9936     0.6233
 1804.0000    38.0759     0.6273
 1804.5000    38.1583     0.6312
 1805.0000    38.2407     0.6566
 1805.5000    38.3230     0.6984
 1806.0000    38.4054     0.7296
 1806.5000    38.4877     0.7400
 1807.0000    38.5701     0.7395
 1807.5000    38.6524     0.7499
 1808.0000    38.7348     0.7494
 1808.5000    38.8171     0.7379
 1809.0000    38.8995     0.7263
 1809.5000    38.9818     0.6928
 1810.0000    39.0642     0.6374
 1810.5000    39.1465     0.6162
 1811.0000    39.2289     0.6180
 1811.5000    39.3112     0.6197
 1812.0000    39.3936     0.6215
 1812.5000    39.4760     0.6233
 1813.0000    39.5583     0.6250
 1813.5000    39.6407     0.6268
 1814.0000    39.7230     0.6286
 1814.5000    39.8054     0.6304
