~VERSION INFORMATION
 VERS.                2.0:   CWLS LOG ASCII STANDARD - VERSION 2.0
 WRAP.                 NO:   ONE LINE PER DEPTH STEP
~WELL INFORMATION
#MNEM.UNIT      DATA TYPE    INFORMATION
#----------   ------------   ------------------------------
 STRT.F           60.0000:   START DEPTH
 STOP.F          894.0000:   STOP DEPTH
 STEP.F            0.5000:   STEP LENGTH
 NULL.          -999.2500:   NO VALUE
 COMP.           U S NAVY:   COMPANY
 WELL. RES 3 TEAPOT DOM #27S-35:   WELL
 FLD .        TEAPOT DOME:   FIELD
 LOC .      S35 T39N R78W:   LOCATION
 CNTY.            NATRONA:   COUNTY
 STAT.            WYOMING:   STATE
 CTRY. UNITED STATES OF AMERICA:   COUNTRY
 SRVC. Schlumberger Well Surveying Corp:   SERVICE COMPANY
 DATE.        30-JUL-1959:   LOGDATE
 API .       490250650600:   API NUMBER
~CURVE INFORMATION
#MNEM.UNIT       API CODE    CURVE DESCRIPTION
#----------   ------------   ------------------------------
 DEPT.F                  :   
 SPS .MV     60 010 01 00:   SPONTANEOUS POTENTIAL FROM SONIC
 DT  .US/F   60 520 32 00:   INTERVAL TRANSIT TIME
~PARAMETER INFORMATION
#MNEM.UNIT          VALUE    DESCRIPTION
#----------   ------------   ------------------------------
 PD  .                 GL:   PERMANENT DATUM
 EPD .F              5101:   ELEVATION PERMANENT DATUM
 LMF .                 KB:   LOG MEASURED FROM
 DAPD.F                 4:   FEET ABOVE PERMANENT DATUM
 DMF .                 KB:   DRILLING MEASURED FROM
 EKB .F              5105:   KELLING BUSHING
 EGL .F              5101:   GROUND LEVEL
 DATE.        30-JUL-1959:   RUN DATE
 RUN .                  1:   RUN NUMBER
 DD  .F               897:   DEPTH DRILLER
 DL  .F               897:   DEPTH LOGGER
 BLI .F               894:   BOTTOM LOG INTERVAL
 TLI .F                73:   TOP LOG INTERVAL
 CBD .F                17:   CASING BOTTOM DRILLER
 BS  .IN             6.75:   BIT SIZE
 BSD .F               897:   BIT SIZE AT DEPTH
 DFT .       OIL EMULSION:   DRILLING FLUID TYPE
 DFD .                9.0:   DRILLING FLUID DENSITY
 DFV .                 55:   DRILLING FLUID VISCOSITY
 DFPH.                  9:   DRILLING FLUID PH
 DFL .                3.8:   DRILLING FLUID LOSS
 RMS .OHMM            4.0:   RESISTIVITY MUD SAMPLE
 MST .F                79:   MUD SAMPLE TEMPERATURE
 RMF .OHMM            3.6:   RESISTIVITY MUD FILTRATE SAMPLE
 MFST.F                79:   MUD FILTRATE SAMPLE TEMPERATURE
 RMB .OHMM            4.0:   RESISTIVITY MUD AT BHT
 BHT .F                79:   BOTTOM HOLE TEMPERATURE
 TCS .HRS            0100:   TIME CURCULATED STOPPED
 LUN .               2545:   LOGGING UNIT NUMBER
 LUL .                RIV:   LOGGING UNIT LOCATION
 ENGI.           STAFFORD:   RECORDING ENGINEER
 WITN.             MARTIN:   WITNESSED BY
 CLNT.            A2DTECH:   CLIENT CODE
 ORIG.       2", 5" PRINT:   ORIGIN OF DATA
 UWI .       490250650600:   UNIQUE WELL ID
 DICO. A2D Technologies, Inc.:   DIGITIZING COMPANY
~OTHER INFORMATION
~A   DEPT      SPS         DT   
# ...
  424.5000   -44.0056    92.8916
  425.0000   -44.2642    94.0291
  425.5000   -44.4295    94.8830
  426.0000   -44.6535    95.3260
  426.5000   -44.8775    95.6591
  427.0000   -44.9929    95.6591
  427.5000   -45.0435    95.5174
  428.0000   -45.1340    94.6622
  428.5000   -45.1996    93.1455
  429.0000   -44.9408    92.3813
  429.5000   -44.2877    92.1521
  430.0000   -43.7800    92.0446
  430.5000   -43.3004    91.6407
  431.0000   -43.1594    91.2615
  431.5000   -43.1686    91.0093
  432.0000   -43.3926    90.8965
  432.5000   -43.7576    90.8398
  433.0000   -44.2877    90.8670
  433.5000   -44.4288    91.1233
  434.0000   -44.4288    91.6879
  434.5000   -44.4288    92.4663
  435.0000   -44.4288    93.3203
  435.5000   -44.5698    93.6038
  436.0000   -44.4288    93.6038
  436.5000   -44.4288    93.5330
  437.0000   -42.9873    93.4538
  437.5000   -41.6961    93.3203
  438.0000   -41.0437    93.2991
  438.5000   -41.0012    93.1786
  439.0000   -40.9027    93.0735
  439.5000   -40.7616    92.9554
  440.0000   -40.7616    92.5880
  440.5000   -40.7616    91.5892
  441.0000   -40.9370    88.8554
  441.5000   -41.1848    87.8254
  442.0000   -41.4443    87.2892
  442.5000   -41.6091    87.0393
  443.0000   -41.8331    87.0128
  443.5000   -41.9161    87.0128
  444.0000   -42.0310    87.0836
  444.5000   -42.0310    87.3671
  445.0000   -42.0310    89.3220
  445.5000   -41.8141    90.5510
  446.0000   -41.7489    91.9029
  446.5000   -41.7489    92.5969
  447.0000   -41.9328    93.0368
  447.5000   -42.1721    93.3262
  448.0000   -42.5162    93.3912
  448.5000   -42.8869    93.3912
  449.0000   -43.0183    93.3688
  449.5000   -43.0183    93.2495
  450.0000   -42.8773    92.8597
  450.5000   -42.0752    91.0128
  451.0000   -41.0395    89.7768
  451.5000   -40.6206    89.8157
  452.0000   -41.1227    90.1311
  452.5000   -41.6079    91.1765
  453.0000   -41.6079    91.9206
  453.5000   -41.6079    92.4392
  454.0000   -41.6079    92.6825
  454.5000   -41.6079    92.4699
  455.0000   -41.6079    92.1096
  455.5000   -41.6079    91.4741
  456.0000   -41.6079    90.8823
  456.5000   -41.6079    90.4583
  457.0000   -41.6079    90.2020
  457.5000   -41.8865    89.9628
  458.0000   -42.4175    89.8476
  458.5000   -42.7362    89.7372
  459.0000   -42.7362    89.7059
  459.5000   -42.3065    90.2020
  460.0000   -41.3258    91.0289
  460.5000   -39.9502    91.9738
  461.0000   -38.9281    92.5455
  461.5000   -38.5430    92.9813
  462.0000   -38.3639    93.3203
  462.5000   -38.2992    93.9966
  463.0000   -38.3639    95.0921
  463.5000   -38.5049    95.1293
  464.0000   -38.6892    95.0306
  464.5000   -38.7870    93.0977
  465.0000   -38.7870    92.3104
  465.5000   -38.7870    92.3990
  466.0000   -38.8801    92.3778
  466.5000   -38.9281    90.9072
  467.0000   -39.0691    90.6815
  467.5000   -39.0691    90.5563
  468.0000   -39.2102    90.9816
  468.5000   -39.2950    91.8876
  469.0000   -39.3512    91.9738
  469.5000   -39.3512    92.0145
  470.0000   -39.4922    92.1155
  470.5000   -39.6333    92.1864
  471.0000   -39.7743    92.1864
  471.5000   -39.9154    89.8476
  472.0000   -40.0564    87.9672
  472.5000   -40.1434    87.8632
  473.0000   -40.4795    87.6506
  473.5000   -40.5480    86.3088
  474.0000   -40.7720    84.7449
  474.5000   -40.9960    84.7088
  475.0000   -40.9027    86.8829
  475.5000   -39.7743    90.3703
  476.0000   -38.5463    90.4855
  476.5000   -37.6587    90.0602
  477.0000   -37.6587    87.1368
  477.5000   -37.6587    86.8001
  478.0000   -37.6587    89.9681
  478.5000   -37.8517    90.4465
  479.0000   -38.2229    90.6981
  479.5000   -38.6587    90.8688
  480.0000   -39.2290    86.1623
  480.5000   -39.6333    82.5845
  481.0000   -39.9591    74.0432
  481.5000   -40.1975    76.9490
  482.0000   -40.2012    81.5792
  482.5000   -39.9048    87.3671
  483.0000   -39.5872    87.3671
  483.5000   -39.4567    87.1668
  484.0000   -39.3512    84.0361
  484.5000   -39.1497    83.6127
  485.0000   -38.9281    83.3274
  485.5000   -38.8427    83.2205
  486.0000   -38.7870    83.1148
  486.5000   -38.6460    82.9731
  487.0000   -38.5049    82.7912
  487.5000   -38.5049    82.5478
  488.0000   -38.3639    82.4439
  488.5000   -38.3639    82.4894
  489.0000   -38.3639    82.8278
  489.5000   -38.5049    83.2542
  490.0000   -38.7870    83.6818
  490.5000   -39.0658    83.8838
  491.0000   -39.3620    83.1549
  491.5000   -39.5860    80.1789
  492.0000   -39.6333    78.7066
  492.5000   -39.6333    78.7208
  493.0000   -39.4922    84.1602
  493.5000   -39.4922    84.8157
  494.0000   -39.4067    84.8157
  494.5000   -39.3512    84.8157
  495.0000   -39.3512    84.8157
  495.5000   -39.0167    84.9126
  496.0000   -38.7870    86.0206
  496.5000   -38.6460    86.9862
  497.0000   -38.5049    87.6128
  497.5000   -38.7870    88.0050
  498.0000   -38.8312    88.1184
  498.5000   -39.0691    88.2176
  499.0000   -39.2793    88.2884
  499.5000   -39.4922    88.2938
  500.0000   -39.5394    88.4069
  500.5000   -39.6519    89.0800
  501.0000   -39.7644    89.3508
  501.5000   -39.8768    89.4601
  502.0000   -39.9893    89.6336
  502.5000   -40.1017    89.7041
  503.0000   -40.2142    89.6130
  503.5000   -40.3435    89.1884
  504.0000   -40.6582    88.6399
  504.5000   -40.1986    88.7757
  505.0000   -39.8307    90.4819
  505.5000   -39.6013    92.8061
  506.0000   -39.3597    95.2334
  506.5000   -39.1425    96.4341
  507.0000   -38.9130    95.4642
  507.5000   -38.7976    93.3859
  508.0000   -38.7983    93.4563
  508.5000   -38.7990    93.5270
  509.0000   -38.7998    93.5266
  509.5000   -38.8004    91.4691
  510.0000   -38.9422    90.2658
  510.5000   -39.0273    89.3440
  511.0000   -39.1171    88.6549
  511.5000   -39.3675    87.9798
  512.0000   -39.4377    87.6420
  512.5000   -39.6686    87.5236
  513.0000   -39.7928    87.6414
  513.5000   -39.9344    88.0200
  514.0000   -39.9351    88.5667
  514.5000   -39.9358    89.0577
  515.0000   -40.0776    88.7314
  515.5000   -40.0783    87.4648
  516.0000   -40.1561    87.0722
  516.5000   -40.2459    87.0256
  517.0000   -40.3626    87.2133
  517.5000   -40.3632    87.7091
  518.0000   -40.3639    88.2530
  518.5000   -40.5058    88.6297
  519.0000   -40.5063    88.2155
  519.5000   -40.5071    87.6066
  520.0000   -40.5078    87.3529
  520.5000   -40.5085    87.5000
  521.0000   -40.5092    88.1318
  521.5000   -40.5099    88.3072
  522.0000   -40.5106    87.4763
  522.5000   -40.5114    87.4220
  523.0000   -40.5120    87.6683
  523.5000   -40.5127    88.0932
  524.0000   -40.6056    88.6257
  524.5000   -40.8364    88.7322
  525.0000   -41.0790    88.2707
  525.5000   -41.2207    87.9689
  526.0000   -41.5035    87.8268
  526.5000   -41.5043    87.7735
  527.0000   -41.5049    87.8800
  527.5000   -41.5056    88.0138
  528.0000   -41.5065    88.4812
  528.5000   -41.4593    88.9014
  529.0000   -41.2257    89.5483
  529.5000   -41.0005    89.6254
  530.0000   -40.6300    88.8625
  530.5000   -40.3816    88.4794
  531.0000   -40.2421    88.6974
  531.5000   -40.1008    89.4625
  532.0000   -40.1017    89.6057
  532.5000   -40.4396    89.0308
  533.0000   -40.6705    88.7612
  533.5000   -40.9013    88.8780
  534.0000   -41.1321    89.1233
  534.5000   -41.2335    90.1775
  535.0000   -41.3752    90.4843
  535.5000   -41.4015    90.0719
  536.0000   -41.5177    89.6803
  536.5000   -41.7849    89.5213
  537.0000   -42.4086    89.3253
  537.5000   -43.3534    89.3250
  538.0000   -43.8251    89.5495
  538.5000   -43.9189    91.0251
  539.0000   -43.9196    91.4888
  539.5000   -43.6799    91.5915
  540.0000   -42.2285    91.2367
  540.5000   -40.7494    90.6297
  541.0000   -39.9549    89.7921
  541.5000   -39.8329    88.9677
  542.0000   -39.8890    88.4335
  542.5000   -39.9753    87.9748
  543.0000   -39.9760    87.6428
  543.5000   -39.8954    87.4072
  544.0000   -39.4133    87.4776
  544.5000   -39.1173    88.1577
  545.0000   -38.8504    88.7527
  545.5000   -38.8513    88.4688
