~VERSION INFORMATION
 VERS.                2.0:   CWLS LOG ASCII STANDARD - VERSION 2.0
 WRAP.                 NO:   ONE LINE PER DEPTH STEP
~WELL INFORMATION
#MNEM.UNIT      DATA TYPE    INFORMATION
#----------   ------------   ------------------------------
 STRT.F           95.0000:   START DEPTH
 STOP.F          914.0000:   STOP DEPTH
 STEP.F            0.5000:   STEP LENGTH
 NULL.          -999.2500:   NO VALUE
 COMP. LAWRENCE/ALLISON INC:   COMPANY
 WELL. NPR ##3 31-61 SX 2:   WELL
 FLD .             TEAPOT:   FIELD
 LOC .       S2 T38N R78W:   LOCATION
 CNTY.            NATRONA:   COUNTY
 STAT.            WYOMING:   STATE
 CTRY. UNITED STATES OF AMERICA:   COUNTRY
 SRVC.      Dresser Atlas:   SERVICE COMPANY
 DATE.        30-JAN-1986:   LOGDATE
 API .       490251106800:   API NUMBER
~CURVE INFORMATION
#MNEM.UNIT       API CODE    CURVE DESCRIPTION
#----------   ------------   ------------------------------
 DEPT.F                  :   
 RILD.OHMM   07 120 46 00:   INDUCTION LOG DEEP RESISTIVITY
 RILM.OHMM   07 120 44 00:   INDUCTION LOG MEDIUM RESISTIVITY
 CALD.IN     45 280 60 00:   CALIPER FROM DENSITY
 GRD .GAPI   45 310 01 00:   GAMMA RAY FROM DENSITY LOG
 CORR.G/C3   45 356 01 00:   DENSITY CORRECTION
 PORD.DEC    45 890 10 00:   POROSITY DENSITY LIMESTONE
 DEN .G/C3   45 350 01 00:   COMPENSATED BULK DENSITY
~PARAMETER INFORMATION
#MNEM.UNIT          VALUE    DESCRIPTION
#----------   ------------   ------------------------------
 PD  .                 GL:   PERMANENT DATUM
 EPD .F              5126:   ELEVATION PERMANENT DATUM
 LMF .                 GL:   LOG MEASURED FROM
 DMF .                 GL:   DRILLING MEASURED FROM
 EGL .F              5126:   GROUND LEVEL
 DATE.        30-JAN-1986:   RUN DATE
 RUN .                  1:   RUN NUMBER
 DD  .F               925:   DEPTH DRILLER
 DL  .F               918:   DEPTH LOGGER
 BLI .F               910:   BOTTOM LOG INTERVAL
 CS  .IN            8.625:   CASING SIZE
 CBD .F               127:   CASING BOTTOM DRILLER
 CBL .F               127:   CASING BOTTOM LOGGER
 BS  .IN             6.25:   BIT SIZE
 BSD .F               925:   BIT SIZE AT DEPTH
 DFT .                AIR:   DRILLING FLUID TYPE
 LUN .            HL-6264:   LOGGING UNIT NUMBER
 LUL .           GILLETTE:   LOGGING UNIT LOCATION
 ENGI.     P. M. FAHLSING:   RECORDING ENGINEER
 WITN.        LINOA FIVAS:   WITNESSED BY
 CLNT.            A2DTECH:   CLIENT CODE
 ORIG.           5" PRINT:   ORIGIN OF DATA
 UWI .       490251106800:   UNIQUE WELL ID
 DICO. A2D Technologies, Inc.:   DIGITIZING COMPANY
~OTHER INFORMATION
~A   DEPT     RILD       RILM       CALD         GRD      CORR       PORD        DEN   
# ...
  140.5000     6.0780     6.0093     6.6184   117.9579     0.2088     0.1240     2.4812
  141.0000     6.0762     6.0079     6.5585   115.4035     0.2449     0.1131     2.4947
  141.5000     6.0748     5.9650     6.5137   113.9035     0.2780     0.1080     2.5008
  142.0000     5.9898     5.9224     6.4839   112.4035     0.3230     0.1177     2.4880
  142.5000     5.9060     5.7991     6.4391   111.3560     0.3651     0.1171     2.4789
  143.0000     5.8233     5.7179     6.4387   111.0608     0.3576     0.1092     2.4955
  143.5000     5.7022     5.5602     6.4999   111.3680     0.2733     0.1059     2.4970
  144.0000     5.5836     5.4068     6.5753   112.8800     0.2101     0.1174     2.4699
  144.5000     5.4674     5.2576     6.6208   115.5968     0.1755     0.1309     2.4503
  145.0000     5.3537     5.1482     6.6812   118.0124     0.1439     0.1418     2.4450
  145.5000     5.3157     5.1046     6.7116   118.6208     0.1063     0.1427     2.4405
  146.0000     5.2413     5.0751     6.7420   118.0244     0.1002     0.1482     2.4322
  146.5000     5.2039     5.0740     6.7423   117.7292     0.1077     0.1518     2.4262
  147.0000     5.2075     5.1437     6.7275   117.1328     0.1137     0.1542     2.4209
  147.5000     5.3518     5.2546     6.7128   116.5363     0.1137     0.1551     2.4194
  148.0000     5.4622     5.3630     6.7432   115.6387     0.1152     0.1560     2.4164
  148.5000     5.5722     5.5092     6.7585   115.6447     0.1073     0.1584     2.4111
  149.0000     5.6487     5.5849     6.7588   114.4459     0.0933     0.1599     2.4127
  149.5000     5.7262     5.6616     6.7591   112.3434     0.0740     0.1536     2.4262
  150.0000     5.7647     5.6997     6.7594   111.1446     0.0684     0.1469     2.4367
  150.5000     5.8038     5.7380     6.7597   111.4518     0.0720     0.1454     2.4329
  151.0000     5.7622     5.7766     6.7450   111.8013     0.0849     0.1527     2.4231
  151.5000     5.7610     5.8155     6.7302   113.0189     0.0924     0.1560     2.4163
  152.0000     5.7598     5.8141     6.7305   115.1427     0.0818     0.1575     2.4148
  152.5000     5.7586     5.8007     6.7155   118.1729     0.0668     0.1581     2.4148
  153.0000     5.7574     5.7999     6.6860   120.2968     0.0743     0.1575     2.4155
  153.5000     5.6770     5.7193     6.7318   120.3058     0.0817     0.1560     2.4177
  154.0000     5.6758     5.6790     6.7468   118.2001     0.0817     0.1554     2.4207
  154.5000     5.6355     5.6390     6.7471   119.7197     0.0757     0.1524     2.4244
  155.0000     5.6343     5.6382     6.7474   121.8436     0.0711     0.1491     2.4312
  155.5000     5.6332     5.6374     6.7326   122.4569     0.0696     0.1500     2.4281
  156.0000     5.6320     5.6367     6.7329   121.2575     0.0726     0.1530     2.4198
  156.5000     5.5533     5.5969     6.7483   116.4327     0.0861     0.1515     2.4251
  157.0000     5.5521     5.5575     6.7486   116.7439     0.1041     0.1421     2.4408
  157.5000     5.5510     5.5568     6.7639   118.8677     0.1131     0.1349     2.4529
  158.0000     5.5498     5.5560     6.7642   124.0127     0.1100     0.1373     2.4506
  158.5000     5.5487     5.5552     6.7645   127.3450     0.0935     0.1451     2.4302
  159.0000     5.5859     5.5931     6.7657   128.2604     0.0619     0.1542     2.4151
  159.5000     5.6239     5.6312     6.7802   127.3631     0.0513     0.1611     2.4098
  160.0000     5.6224     5.6330     6.7654   125.2574     0.0498     0.1629     2.4075
  160.5000     5.6606     5.6722     6.7657   125.2665     0.0527     0.1617     2.4090
  161.0000     5.6988     5.7471     6.7660   126.1819     0.0798     0.1608     2.4097
  161.5000     5.7772     5.7914     6.7663   127.7015     0.1023     0.1611     2.4089
  162.0000     5.8566     5.8722     6.7817   129.2211     0.0963     0.1611     2.4089
  162.5000     5.9371     5.9956     6.7820   130.1365     0.0827     0.1614     2.4104
  163.0000     6.0603     6.1215     6.7973   129.8435     0.0737     0.1608     2.4126
  163.5000     6.2727     6.3281     6.7976   126.8314     0.0706     0.1576     2.4164
  164.0000     6.5376     6.5051     6.7979   123.5172     0.0691     0.1539     2.4223
  164.5000     6.7204     6.6870     6.8132   120.2029     0.0706     0.1512     2.4306
  165.0000     7.0039     6.8740     6.8135   117.4930     0.0795     0.1454     2.4426
  165.5000     7.1005     7.0177     6.8138   114.7830     0.1066     0.1388     2.4554
  166.0000     7.0987     6.9681     6.8141   112.6772     0.1336     0.1297     2.4667
  166.5000     7.0482     6.8237     6.7994   112.6863     0.1381     0.1225     2.4764
  167.0000     6.9018     6.6363     6.7847   116.9250     0.1169     0.1165     2.4839
  167.5000     6.7584     6.4539     6.7699   122.9763     0.0790     0.1192     2.4756
  168.0000     6.5722     6.3642     6.7702   128.7256     0.0583     0.1385     2.4477
  168.5000     6.4357     6.3194     6.7705   132.9642     0.0813     0.1439     2.4409
  169.0000     6.3458     6.2749     6.7727   135.0881     0.0996     0.1430     2.4394
  169.5000     6.1710     6.2307     6.8012   133.2844     0.1173     0.1406     2.4439
  170.0000     6.0848     6.1441     6.8015   129.9702     0.1244     0.1397     2.4461
  170.5000     5.9998     6.1008     6.8168   131.1877     0.1012     0.1460     2.4310
  171.0000     5.9986     6.0578     6.8171   134.8222     0.0837     0.1563     2.4189
  171.5000     6.0811     6.0570     6.8174   142.0820     0.0746     0.1590     2.4098
  172.0000     6.1647     6.1407     6.8177   149.9460     0.0746     0.1602     2.4083
  172.5000     6.3374     6.2688     6.8180   156.2995     0.0761     0.1623     2.4068
  173.0000     6.5155     6.4441     6.8183   160.5382     0.0791     0.1629     2.4060
  173.5000     6.6986     6.6244     6.8186   156.9218     0.0805     0.1626     2.4058
  174.0000     6.9348     6.8096     6.8189   152.3992     0.0625     0.1590     2.4112
  174.5000     7.1298     7.0488     6.8192   146.6681     0.0429     0.1545     2.4187
  175.0000     7.3302     7.2963     6.8195   143.3539     0.0504     0.1503     2.4270
  175.5000     7.5780     7.5006     6.8198   140.9460     0.0639     0.1472     2.4330
  176.0000     7.7356     7.7101     6.8201   138.8402     0.0789     0.1466     2.4314
  176.5000     7.8419     7.8166     6.8205   135.5260     0.0864     0.1515     2.4246
  177.0000     7.7861     7.8156     6.8057   132.5139     0.0803     0.1542     2.4216
  177.5000     7.7845     7.6537     6.8060   131.0124     0.0668     0.1536     2.4245
  178.0000     7.6228     7.4434     6.7885   134.6469     0.0532     0.1497     2.4336
  178.5000     7.3617     7.2389     6.7765   136.1665     0.0622     0.1427     2.4441
  179.0000     7.0604     6.9914     6.7618   134.9671     0.0907     0.1349     2.4531
  179.5000     6.4508     6.7993     6.7621   132.2571     0.1057     0.1312     2.4606
  180.0000     6.1440     6.7048     6.7625   128.9429     0.1177     0.1305     2.4598
  180.5000     6.0582     6.6116     6.7628   128.9520     0.1297     0.1361     2.4507
  181.0000     6.1415     6.6107     6.7480   131.0758     0.1469     0.1394     2.4432
  181.5000     6.2262     6.6098     6.7483   133.5018     0.1673     0.1415     2.4409
  182.0000     6.3996     6.6089     6.7486   130.7918     0.1312     0.1418     2.4454
  182.5000     6.5781     6.6079     6.7489   128.9882     0.1041     0.1367     2.4544
  183.0000     6.7153     6.5614     6.7643   131.4142     0.1070     0.1309     2.4619
  183.5000     6.7606     6.4702     6.7646   137.1634     0.1281     0.1258     2.4694
  184.0000     6.6658     6.3802     6.7649   141.4021     0.1340     0.1213     2.4746
  184.5000     6.5727     6.3353     6.7652   139.9005     0.1355     0.1180     2.4814
  185.0000     6.5260     6.2472     6.7805   140.2117     0.1370     0.1149     2.4858
  185.5000     6.3904     6.1567     6.7658   142.6377     0.1415     0.1158     2.4783
