~VERSION INFORMATION
 VERS.                2.0:   CWLS LOG ASCII STANDARD - VERSION 2.0
 WRAP.                 NO:   ONE LINE PER DEPTH STEP
~WELL INFORMATION
#MNEM.UNIT      DATA TYPE    INFORMATION
#----------   ------------   ------------------------------
 STRT.F           90.0000:   START DEPTH
 STOP.F          784.0000:   STOP DEPTH
 STEP.F            0.5000:   STEP LENGTH
 NULL.          -999.2500:   NO VALUE
 COMP.               NAVY:   COMPANY
 WELL. RES 3 TEAPOT DOM #41S-11:   WELL
 FLD .             TEAPOT:   FIELD
 LOC .      S11 T38N R78W:   LOCATION
 CNTY.            NATRONA:   COUNTY
 STAT.            WYOMING:   STATE
 CTRY. UNITED STATES OF AMERICA:   COUNTRY
 SRVC.       Schlumberger:   SERVICE COMPANY
 DATE.        14-JUL-1962:   LOGDATE
 API .       490250638000:   API NUMBER
~CURVE INFORMATION
#MNEM.UNIT       API CODE    CURVE DESCRIPTION
#----------   ------------   ------------------------------
 DEPT.F                  :   
 GR  .GAPI   30 310 01 00:   GAMMA RAY
 SPR .MV     05 010 01 00:   SPONTANEOUS POTENTIAL FROM RES.
 ASN .OHMM   05 041 16 00:   AMPLIFIED SHORT NORMAL 16"
 ILD .OHMM   05 120 46 00:   INDUCTION LOG DEEP
 CILD.MMHO   05 110 46 00:   CONDUCTIVITY INDUCTION LOG DEEP
~PARAMETER INFORMATION
#MNEM.UNIT          VALUE    DESCRIPTION
#----------   ------------   ------------------------------
 LMF .                 KB:   LOG MEASURED FROM
 DMF .                 KB:   DRILLING MEASURED FROM
 EKB .F              5162:   KELLING BUSHING
 EGL .F              5157:   GROUND LEVEL
 DATE.        14-JUL-1962:   RUN DATE
 RUN .                  1:   RUN NUMBER
 DD  .F               785:   DEPTH DRILLER
 DL  .F               785:   DEPTH LOGGER
 BLI .F               784:   BOTTOM LOG INTERVAL
 TLI .F               100:   TOP LOG INTERVAL
 CBD .F                10:   CASING BOTTOM DRILLER
 BS  .IN             6.75:   BIT SIZE
 BSD .F               785:   BIT SIZE AT DEPTH
 DFT .           OIL EMUL:   DRILLING FLUID TYPE
 DFD .               10.2:   DRILLING FLUID DENSITY
 DFV .                 43:   DRILLING FLUID VISCOSITY
 DFL .                4.6:   DRILLING FLUID LOSS
 RMS .OHMM            5.2:   RESISTIVITY MUD SAMPLE
 MST .F                78:   MUD SAMPLE TEMPERATURE
 RMF .OHMM            5.2:   RESISTIVITY MUD FILTRATE SAMPLE
 MFST.F                78:   MUD FILTRATE SAMPLE TEMPERATURE
 RMC .OHMM              6:   RESISTIVITY MUD CAKE
 MCST.F                78:   MUD CAKE SAMPLE TEMPERATURE
 TCS .HRS              .5:   TIME CURCULATED STOPPED
 LUN .               2503:   LOGGING UNIT NUMBER
 LUL .               CSPR:   LOGGING UNIT LOCATION
 ENGI.           ELLERMAN:   RECORDING ENGINEER
 WITN.          JORGENSON:   WITNESSED BY
 CLNT.            A2DTECH:   CLIENT CODE
 ORIG.           5" PRINT:   ORIGIN OF DATA
 UWI .       490250638000:   UNIQUE WELL ID
 DICO. A2D Technologies, Inc.:   DIGITIZING COMPANY
~OTHER INFORMATION
~A   DEPT       GR        SPR          ASN        ILD       CILD 
# ...
  456.0000  -999.2500   -37.2376     8.2812     7.9488   121.1206
  456.5000  -999.2500   -36.9297     8.4035     8.0257   120.3558
  457.0000  -999.2500   -36.7729     8.5560     8.1057   118.0757
  457.5000  -999.2500   -36.7671     8.7387     8.3311   115.7941
  458.0000  -999.2500   -36.6103     8.8761     8.5591   113.5141
  458.5000  -999.2500   -36.6030     9.0513     8.7116   110.4766
  459.0000  -999.2500   -36.4462     9.2721     8.8641   106.6815
  459.5000  -999.2500   -36.5929     9.4247     9.0921   103.6389
  460.0000  -999.2500   -36.8878     9.6225     9.3205    99.8470
  460.5000  -999.2500   -37.3352     9.7599     9.4730    99.8398
  461.0000  -999.2500   -37.9496     9.8973     9.6255    99.0750
  461.5000  -999.2500   -38.8328    10.0393     9.7780    97.5526
  462.0000  -999.2500   -39.7334    10.1886     9.9305    96.0303
  462.5000  -999.2500   -39.7276    10.4133    10.2344    93.7485
  463.0000  -999.2500   -39.7218    10.5630    10.5380    91.4685
  463.5000  -999.2500   -40.0242    10.7873    10.8415    88.4310
  464.0000  -999.2500   -40.7663    11.0120    11.1451    86.1511
  464.5000  -999.2500   -41.0626    11.1612    11.3731    83.1135
  465.0000  -999.2500   -40.9058    11.3860    11.5357    81.4898
  465.5000  -999.2500   -40.4468    11.4597    11.4519    80.0670
  466.0000  -999.2500   -39.6858    11.3063    11.2268    79.3022
  466.5000  -999.2500   -39.0514    11.4555    11.3793    80.0525
  467.0000  -999.2500   -38.4643    11.8313    11.6828    80.8031
  467.5000  -999.2500   -38.1564    11.7540    11.6768    83.0684
  468.0000  -999.2500   -37.9996    11.4500    11.3084    84.5745
  468.5000  -999.2500   -38.2960    11.2971    11.0833    84.5673
  469.0000  -999.2500   -38.4552    11.2198    11.0847    85.3194
  469.5000  -999.2500   -39.3403    11.2935    11.1617    85.3104
  470.0000  -999.2500   -40.0899    11.2915    11.2386    85.3533
  470.5000  -999.2500   -40.6883    11.2138    11.2404    86.0535
  471.0000  -999.2500   -40.0783    11.0609    11.0153    86.8039
  471.5000  -999.2500   -38.8560    10.9080    10.6391    87.5542
  472.0000  -999.2500   -37.9505    10.6040    10.4895    89.0603
  472.5000  -999.2500   -38.0958    10.7533    10.6420    89.8107
  473.0000  -999.2500   -38.6943    10.9785    10.7948    91.3186
  473.5000  -999.2500   -39.1417    11.0517    10.7204    92.0689
  474.0000  -999.2500   -39.2870    10.7451    10.4956    92.0599
  474.5000  -999.2500   -39.2810    10.5192    10.2705    92.8121
  475.0000  -999.2500   -39.1229    10.5170    10.1964    92.8030
  475.5000  -999.2500   -39.2682    10.5912    10.1982    93.5534
  476.0000  -999.2500   -39.7156    10.5889    10.1996    93.5443
  476.5000  -999.2500   -40.0121    10.4360    10.2011    93.5371
  477.0000  -999.2500   -39.3896    10.3586    10.2025    93.5299
  477.5000  -999.2500   -38.7905    10.4328    10.2039    93.5227
  478.0000  -999.2500   -39.5400    10.5061    10.2054    93.5151
  478.5000  -999.2500   -40.4406    10.5042    10.1313    94.2640
  479.0000  -999.2500   -41.1901    10.5023    10.0576    95.0161
  479.5000  -999.2500   -41.3354    10.3490     9.9079    96.5223
  480.0000  -999.2500   -41.0260    10.0928     9.7583    98.0302
  480.5000  -999.2500   -40.5671     9.7889     9.6087    98.8762
  481.0000  -999.2500   -40.1081     9.4116     9.5346   101.0442
  481.5000  -999.2500   -39.8003     9.6840     9.4605   102.5522
  482.0000  -999.2500   -40.7008     9.8203     9.3865   104.0619
  482.5000  -999.2500   -41.4702     9.6658     9.3883   104.8106
  483.0000  -999.2500   -41.7467     9.5340     9.3897   107.0759
  483.5000  -999.2500   -40.5310     9.4135     9.4670   108.5820
  484.0000  -999.2500   -39.9210     9.3082     9.5440   108.5748
  484.5000  -999.2500   -39.4621     9.3539     9.5454   108.5676
  485.0000  -999.2500   -39.9195     9.3996     9.6224   108.5604
  485.5000  -999.2500   -40.6575     9.4150     9.7794   107.7955
  486.0000  -999.2500   -41.1064     9.2493     9.8522   107.0290
  486.5000  -999.2500   -41.4013     9.2194     9.7778   106.2642
  487.0000  -999.2500   -41.3955     9.2953     9.6285   104.7418
  487.5000  -999.2500   -41.0876     9.4020     9.4034   103.9770
  488.0000  -999.2500   -40.4762     9.5378     9.1782   103.2122
  488.5000  -999.2500   -39.8662     9.4626     9.1041   102.4456
  489.0000  -999.2500   -39.2562     8.8135     9.2570   102.4383
  489.5000  -999.2500   -38.7972     8.9952     9.5606   102.4311
  490.0000  -999.2500   -39.0936     9.4638     9.6375   103.1833
  490.5000  -999.2500   -39.8610     9.3584     9.3369   103.9318
  491.0000  -999.2500   -40.5911     9.0679     8.8855   106.9531
  491.5000  -999.2500   -41.1910     8.8758     8.7355   110.7337
  492.0000  -999.2500   -41.6384     8.7704     8.6614   114.5144
  492.5000  -999.2500   -42.0844     8.6952     8.5122   119.0526
  493.0000  -999.2500   -42.5318     8.4540     8.3626   122.8333
  493.5000  -999.2500   -42.5246     8.0465     8.1259   127.4875
  494.0000  -999.2500   -42.2167     7.8354     7.9123   130.3928
  494.5000  -999.2500   -41.6067     7.7092     7.7626   131.1431
  495.0000  -999.2500   -40.9967     7.5037     7.6130   132.6510
  495.5000  -999.2500   -40.3867     7.5192     7.5393   134.9165
  496.0000  -999.2500   -39.7752     7.3837     7.5317   138.7879
  496.5000  -999.2500   -39.3163     7.4748     7.4667   140.9627
  497.0000  -999.2500   -39.1595     7.5960     7.4685   138.6809
  497.5000  -999.2500   -39.4573     7.5812     7.4699   135.6434
  498.0000  -999.2500   -39.4500     7.5513     7.4713   131.8483
  498.5000  -999.2500   -38.5054     7.5669     7.4728   130.2602
  499.0000   106.5283   -37.3222     7.6126     7.5501   130.3187
  499.5000   108.1133   -36.8633     7.6431     7.6271   131.0690
  500.0000   109.6983   -36.8575     7.6678     7.7796   130.3024
  500.5000   111.0885   -37.0028     7.6978     7.7518   128.6815
  501.0000   104.7390   -36.9970     7.7194     7.7216   127.2727
  501.5000   111.9925   -37.2941     7.7799     7.7795   126.5152
  502.0000   113.9639   -37.4264     7.7801     7.9305   125.7576
  502.5000   121.5160   -37.5687     7.7651     8.0060   125.7450
  503.0000   129.3697   -37.5577     7.7955     8.0816   124.8841
  503.5000   139.6367   -37.3979     7.9467     8.1571   122.7273
  504.0000   136.6307   -37.3891     8.0983     8.1571   121.2121
  504.5000   136.0379   -37.2293     8.1887     8.3082   118.9394
  505.0000   132.5794   -37.2205     8.2040     8.3837   118.1818
  505.5000   125.0486   -37.2115     8.2192     8.3837   117.4242
  506.0000   117.0652   -37.3519     8.2949     8.4592   115.9091
  506.5000   116.7345   -37.4963     8.3706     8.4592   115.9091
  507.0000   121.9129   -37.6386     8.4311     8.4592   115.9091
  507.5000   121.3202   -37.9320     8.4464     8.4592   115.9091
  508.0000   118.6158   -37.9210     8.3853     8.3837   117.4242
  508.5000   112.5932   -37.1570     8.2062     8.1571   118.9394
  509.0000   104.4590   -36.5338     7.9333     8.0060   121.2121
  509.5000   107.6370   -36.2309     7.9032     7.9305   121.9697
  510.0000   108.7330   -36.2221     7.8882     7.9305   122.7273
  510.5000   118.9704   -36.3644     7.8128     7.9305   123.4848
  511.0000   119.2826   -36.5089     7.9036     7.9305   123.4848
  511.5000   117.1816   -36.8022     8.0095     8.0060   124.2424
  512.0000   116.1364   -37.2444     8.0852     8.0816   124.2424
  512.5000   114.4852   -37.8399     8.1307     8.0816   124.2424
  513.0000   118.8698   -38.4754     8.0855     8.0816   123.4848
  513.5000   115.8665   -39.4818     8.0404     8.1571   122.7273
  514.0000   113.7628   -38.7177     8.0254     8.1571   121.9697
  514.5000   121.6192   -37.6515     8.0104     8.0816   121.9697
  515.0000   121.9288   -36.7364     7.9954     8.0060   122.7273
  515.5000   111.2331   -36.2745     7.9201     7.9305   122.7273
  516.0000   107.3221   -35.9636     7.7676     7.9305   123.4848
  516.5000   103.5620   -36.1059     7.6787     7.8550   124.2424
