~VERSION INFORMATION
 VERS.                2.0:   CWLS LOG ASCII STANDARD - VERSION 2.0
 WRAP.                 NO:   ONE LINE PER DEPTH STEP
~WELL INFORMATION
#MNEM.UNIT      DATA TYPE    INFORMATION
#----------   ------------   ------------------------------
 STRT.F           38.5000:   START DEPTH
 STOP.F          606.0000:   STOP DEPTH
 STEP.F            0.5000:   STEP LENGTH
 NULL.          -999.2500:   NO VALUE
 COMP. FENIX & SCISSON INC:   COMPANY
 WELL.      NPR-X3 #185-2:   WELL
 FLD .             TEAPOT:   FIELD
 LOC .       S2 T38N R78W:   LOCATION
 CNTY.            NATRONA:   COUNTY
 STAT.            WYOMING:   STATE
 CTRY. UNITED STATES OF AMERICA:   COUNTRY
 SRVC.            Unknown:   SERVICE COMPANY
 DATE.        30-JAN-1978:   LOGDATE
 API .       490251056200:   API NUMBER
~CURVE INFORMATION
#MNEM.UNIT       API CODE    CURVE DESCRIPTION
#----------   ------------   ------------------------------
 DEPT.F                  :   
 CALD.IN     45 280 60 00:   CALIPER
 GRD .GAPI   45 310 01 00:   GAMMA RAY FROM DENSITY LOG
 CORR.G/C3   45 356 01 00:   DENSITY CORRECTION
 RHOB.G/C3   45 350 01 00:   BULK DENSITY
 DPHI.DEC    45 890 12 00:   DENSITY POROSITY SANDSTONE
 SPR .MV     05 010 01 00:   SPONTANEOUS POTENTIAL FROM RES.
 SN  .OHMM   05 040 16 00:   SHORT NORMAL 16"
 ILD .OHMM   05 120 46 00:   INDUCTION LOG DEEP
~PARAMETER INFORMATION
#MNEM.UNIT          VALUE    DESCRIPTION
#----------   ------------   ------------------------------
 PD  .                 GL:   PERMANENT DATUM
 EPD .F              5134:   ELEVATION PERMANENT DATUM
 LMF .                 KB:   LOG MEASURED FROM
 DAPD.F                 4:   FEET ABOVE PERMANENT DATUM
 DMF .                 KB:   DRILLING MEASURED FROM
 EKB .F              5138:   KELLING BUSHING
 EGL .F              5134:   GROUND LEVEL
 DATE.            1-30-78:   RUN DATE
 RUN .                  1:   RUN NUMBER
 DD  .F               600:   DEPTH DRILLER
 DL  .F               604:   DEPTH LOGGER
 BLI .F               598:   BOTTOM LOG INTERVAL
 TLI .F                40:   TOP LOG INTERVAL
 CS  .IN            8.625:   CASING SIZE
 CBD .F                40:   CASING BOTTOM DRILLER
 CBL .F                41:   CASING BOTTOM LOGGER
 BS  .IN            7.875:   BIT SIZE
 BSD .F               600:   BIT SIZE AT DEPTH
 DFT .                KCL:   DRILLING FLUID TYPE
 DFD .                8.6:   DRILLING FLUID DENSITY
 DFV .                 34:   DRILLING FLUID VISCOSITY
 DFPH.                 10:   DRILLING FLUID PH
 DFL .                  7:   DRILLING FLUID LOSS
 MSS .                PIT:   MUD SAMPLE SOURCE
 RMS .OHMM            .65:   RESISTIVITY MUD SAMPLE
 MST .F                70:   MUD SAMPLE TEMPERATURE
 RMF .OHMM            1.2:   RESISTIVITY MUD FILTRATE SAMPLE
 MFST.F                64:   MUD FILTRATE SAMPLE TEMPERATURE
 MFSS.               MEAS:   MUD FILTRATE SAMPLE SOURCE
 RMB .OHMM            .64:   RESISTIVITY MUD AT BHT
 BHT .F                71:   BOTTOM HOLE TEMPERATURE
 TCS .HRS               3:   TIME CURCULATED STOPPED
 MRT .F                71:   MAXIMUM RECORDED TEMPERATURE
 LUN .               2958:   LOGGING UNIT NUMBER
 LUL .                CAS:   LOGGING UNIT LOCATION
 ENGI.           REYNOLDS:   RECORDING ENGINEER
 WITN.         HARRINGTON:   WITNESSED BY
 CLNT.            A2DTECH:   CLIENT CODE
 ORIG.        2" 5" PRINT:   ORIGIN OF DATA
 UWI .       490251056200:   UNIQUE WELL ID
 DICO. A2D Technologies, Inc.:   DIGITIZING COMPANY
~OTHER INFORMATION
~A   DEPT     CALD        GRD        CORR      RHOB       DPHI        SPR         SN        ILD   
# ...
  565.0000     7.9977    97.4521     0.1053     2.4982     0.1022   -58.1613     9.7605     8.5696
  565.5000     7.9921    98.6531     0.1072     2.4956     0.1029   -58.1302     9.7715     8.3558
  566.0000     7.9864    97.2186     0.1067     2.4970     0.1034   -58.0992     9.3926     8.1321
  566.5000     7.9808    95.3842     0.1062     2.4971     0.1026   -58.0681     9.1444     8.0291
  567.0000     7.9752    97.4152     0.1057     2.4963     0.1032   -58.0369     8.9028     7.9194
  567.5000     7.9695    98.4172     0.1059     2.4954     0.1053   -58.0056     8.6720     7.8112
  568.0000     7.9639    95.9528     0.1102     2.4946     0.1060   -57.9749     8.6474     7.7045
  568.5000     7.9583    97.4498     0.1145     2.4976     0.1050   -57.9645     8.6234     7.5992
  569.0000     7.9526    98.9255     0.1139     2.5008     0.1050   -58.0211     8.5998     7.4870
  569.5000     7.9470   100.3739     0.1103     2.5041     0.1033   -58.0750     8.4467     7.5074
  570.0000     7.9415   100.8850     0.1067     2.5011     0.1026   -58.1297     8.2484     7.5295
  570.5000     7.9326   100.4430     0.1032     2.4961     0.1042   -58.1267     8.0559     7.5552
  571.0000     7.9225   101.5062     0.1023     2.4908     0.1061   -58.0872     7.9831     7.3418
  571.5000     7.9519   100.9016     0.1053     2.4936     0.1083   -58.0468     7.9836     7.0894
  572.0000     7.9351   102.8236     0.1074     2.4974     0.1109   -58.0065     7.9278     6.8445
  572.5000     7.9242   100.6582     0.1063     2.4894     0.1096   -57.9663     7.7422     6.6079
  573.0000     7.9425    98.1154     0.1053     2.4857     0.1077   -57.9261     7.5610     6.3812
  573.5000     7.9600    97.6676     0.1071     2.4885     0.1145   -57.8859     7.3839     6.2884
  574.0000     7.9599    97.5872     0.1096     2.4617     0.1324   -57.8457     7.0003     6.2884
  574.5000     7.9588    98.7584     0.1186     2.4384     0.1324   -57.8055     6.5906     6.2884
  575.0000     7.9577   100.1737     0.1267     2.4413     0.1279   -57.7654     6.4633     6.2884
  575.5000     7.9567    99.5721     0.1348     2.4543     0.1233   -57.6594     6.4607     6.2884
  576.0000     7.9557    97.9501     0.1428     2.4717     0.1147   -57.5274     7.0154     6.4533
  576.5000     7.9547    97.6667     0.1415     2.4815     0.0996   -57.3949     7.7510     6.9289
  577.0000     7.9537    98.7418     0.1337     2.4869     0.0944   -57.2624     8.6323     7.5696
  577.5000     7.9527    97.6521     0.1261     2.5017     0.0895   -57.1300     9.2931     8.2697
  578.0000     7.9517    96.4346     0.1186     2.5124     0.0888   -56.9959     9.5914     8.6964
  578.5000     7.9507    97.8977     0.1132     2.5140     0.0868   -56.9585     9.8992     8.9964
  579.0000     7.9497    99.6417     0.1137     2.5160     0.0851   -56.9580    10.0601     9.0794
  579.5000     7.9487    98.7796     0.1153     2.5185     0.0859   -56.9582    10.1056     9.0256
  580.0000     7.9477    98.5292     0.1169     2.5170     0.0860   -56.9582    10.1513     8.9540
  580.5000     7.9467   103.0394     0.1170     2.5155     0.0870   -56.9582    10.1973     8.8834
  581.0000     7.9457   108.5772     0.1162     2.5154     0.0879   -56.9582    10.2306     8.8135
  581.5000     7.9447   110.7638     0.1148     2.5123     0.0922   -56.9582    10.1950     8.7442
  582.0000     7.9437   113.5386     0.1166     2.5074     0.0915   -56.9582    10.1621     8.6754
  582.5000     7.9427   116.8534     0.1214     2.5004     0.0959   -56.9582    10.1293     8.6072
  583.0000     7.9417   117.4358     0.1133     2.4953     0.0945   -56.9582    10.0966     8.5927
  583.5000     7.9409   115.1992     0.1037     2.4993     0.0936   -56.9582    10.0641     8.5927
  584.0000     7.9303   111.5665     0.1043     2.4998     0.0990   -56.9582    10.0316     8.6368
  584.5000     7.9135   108.4195     0.1098     2.4843     0.1045   -56.9582     9.9993     8.7061
  585.0000     7.8920   107.8934     0.1149     2.4766     0.1062   -56.9582     9.9674     8.7745
  585.5000     7.8707   101.3672     0.1152     2.4825     0.1046   -56.9583     9.9522     8.8323
  586.0000     7.8491    98.6446     0.1116     2.4832     0.1025   -56.9584     9.9526     8.6184
  586.5000     7.8417    97.6727     0.1096     2.4875     0.1010   -56.9593     9.9527     8.4388
  587.0000     7.8416    97.3928     0.1054     2.4886     0.1031   -56.9209     9.9528     8.2081
  587.5000     7.8415    98.6971     0.1056     2.4849     0.1040   -56.8766     9.9530     8.3440
  588.0000     7.8391    97.9633     0.1065     2.4867     0.1018   -56.8324     9.8194     8.5565
  588.5000     7.8309    95.9923     0.1074     2.4860     0.1028   -56.7858     9.6736     8.7724
  589.0000     7.8228    96.0556     0.1082     2.4842     0.1038   -56.5589     9.5292     9.0794
  589.5000     7.8147    94.2824     0.1091     2.4884     0.1054   -56.1538     9.3667     8.8327
  590.0000     7.8066    96.2170     0.1100     2.4836     0.1100   -55.6372     9.1279     8.7714
  590.5000     7.8019    93.4601     0.1108     2.4742     0.1140   -55.4491     8.9142     8.5323
  591.0000     7.8020    92.8226     0.1107     2.4650     0.1188   -55.6213     8.5979     8.2828
  591.5000     7.8020    98.2149     0.1094     2.4612     0.1213   -55.7432     8.2699     7.7126
  592.0000     7.8021    99.0099     0.1080     2.4572     0.1165   -55.5690     7.7025     7.1410
  592.5000     7.7989    95.4575     0.1074     2.4409     0.1426   -55.7135     7.1741     6.6118
  593.0000     7.7947  -999.2500     0.1052     2.4142     0.1593   -55.9008     6.6819     6.2428
  593.5000     7.7905  -999.2500     0.1037     2.3973     0.1719   -56.0877     6.2235     5.8519
  594.0000     7.7863  -999.2500     0.1060     2.3775     0.1846   -56.2752     5.5413     5.3020
  594.5000     7.7820  -999.2500     0.1073     2.3428     0.2056   -56.3589     4.7168     4.8092
  595.0000     7.7760  -999.2500     0.1074     2.3084     0.2164   -56.2470     3.8365     4.2679
  595.5000     7.7701  -999.2500     0.1071     2.2741     0.2268   -55.9250     3.0123     3.4083
  596.0000     7.7644  -999.2500     0.1265     2.2400     0.2372   -55.6036     2.3639     2.7222
  596.5000     7.7351  -999.2500     0.1440     2.2216     0.2414   -55.1920     1.8569     2.1755
  597.0000     7.6971  -999.2500     0.1334     2.2357     0.2418   -54.3613     1.7022     1.8312
  597.5000     7.6601  -999.2500     0.1401     2.3003     0.2100   -54.1728     1.6567     1.7386
  598.0000     7.6229  -999.2500     0.1488     2.3843     0.1648   -54.1585     1.6454     1.9775
  598.5000     7.6152  -999.2500     0.1492     2.4548     0.1264   -54.7134     2.2178     2.7518
  599.0000     7.6025  -999.2500     0.1491     2.4687     0.1141   -54.8522     2.7518     2.8555
  599.5000     7.6249  -999.2500     0.1491     2.4657     0.1144   -54.6785     2.8547     2.9345
  600.0000     7.6235  -999.2500     0.1491     2.4698     0.1134   -54.4992     2.8028     2.9186
  600.5000  -999.2500  -999.2500     0.1566     2.4757     0.1112  -999.2500  -999.2500  -999.2500
  601.0000  -999.2500  -999.2500     0.1649     2.4755     0.1112  -999.2500  -999.2500  -999.2500
  601.5000  -999.2500  -999.2500     0.1733     2.4701     0.1126  -999.2500  -999.2500  -999.2500
  602.0000  -999.2500  -999.2500     0.1766     2.4755     0.1118  -999.2500  -999.2500  -999.2500
  602.5000  -999.2500  -999.2500     0.1761     2.4766     0.1121  -999.2500  -999.2500  -999.2500
  603.0000  -999.2500  -999.2500     0.1755     2.4843     0.1070  -999.2500  -999.2500  -999.2500
  603.5000  -999.2500  -999.2500     0.1748     2.4856     0.1062  -999.2500  -999.2500  -999.2500
  604.0000  -999.2500  -999.2500     0.1691     2.4857     0.1066  -999.2500  -999.2500  -999.2500
  604.5000  -999.2500  -999.2500     0.1670     2.4860     0.1066  -999.2500  -999.2500  -999.2500
  605.0000  -999.2500  -999.2500     0.1670     2.4816     0.1066  -999.2500  -999.2500  -999.2500
