~VERSION INFORMATION
 VERS.                2.0:   CWLS LOG ASCII STANDARD - VERSION 2.0
 WRAP.                 NO:   ONE LINE PER DEPTH STEP
~WELL INFORMATION
#MNEM.UNIT      DATA TYPE    INFORMATION
#----------   ------------   ------------------------------
 STRT.F           68.0000:   START DEPTH
 STOP.F          560.0000:   STOP DEPTH
 STEP.F            0.5000:   STEP LENGTH
 NULL.          -999.2500:   NO VALUE
 COMP.               NAVY:   COMPANY
 WELL. RES 3 TEAPOT DOM #24S-11:   WELL
 FLD .             TEAPOT:   FIELD
 LOC .      S11 T38N R78W:   LOCATION
 CNTY.            NATRONA:   COUNTY
 STAT.            WYOMING:   STATE
 CTRY. UNITED STATES OF AMERICA:   COUNTRY
 SRVC.       Schlumberger:   SERVICE COMPANY
 DATE.        16-JUL-1963:   LOGDATE
 API .       490250634300:   API NUMBER
~CURVE INFORMATION
#MNEM.UNIT       API CODE    CURVE DESCRIPTION
#----------   ------------   ------------------------------
 DEPT.F                  :   
 GR  .GAPI   30 310 01 00:   GAMMA RAY
 CALS.IN     60 280 50 00:   CALIPER FROM SONIC LOG
 DT  .US/F   60 520 00 00:   INTERVAL TRANSIT TIME
 SPR .MV     05 010 01 00:   SPONTANEOUS POTENTIAL FROM RES.
 CILD.MMHO   05 110 00 00:   CONDUCTIVITY INDUCTION LOG
 ASN .OHMM   05 041 16 00:   AMPLIFIED SHORT NORMAL 16"
 ILD .OHMM   05 120 46 00:   INDUCTION LOG DEEP
~PARAMETER INFORMATION
#MNEM.UNIT          VALUE    DESCRIPTION
#----------   ------------   ------------------------------
 PD  .                 GL:   PERMANENT DATUM
 EPD .F              5168:   ELEVATION PERMANENT DATUM
 LMF .                 KB:   LOG MEASURED FROM
 DAPD.F                 5:   FEET ABOVE PERMANENT DATUM
 DMF .                 KB:   DRILLING MEASURED FROM
 EKB .F              5173:   KELLING BUSHING
 EGL .F              5168:   GROUND LEVEL
 DATE.            7-16-63:   RUN DATE
 RUN .                  1:   RUN NUMBER
 DD  .F               562:   DEPTH DRILLER
 DL  .F               561:   DEPTH LOGGER
 BLI .F               560:   BOTTOM LOG INTERVAL
 TLI .F                94:   TOP LOG INTERVAL
 CS  .IN            8.625:   CASING SIZE
 CBD .F                10:   CASING BOTTOM DRILLER
 BS  .IN            6.875:   BIT SIZE
 BSD .F               562:   BIT SIZE AT DEPTH
 DFT .            NATURAL:   DRILLING FLUID TYPE
 DFD .                 10:   DRILLING FLUID DENSITY
 DFV .                 65:   DRILLING FLUID VISCOSITY
 MSS .           FLOWLINE:   MUD SAMPLE SOURCE
 RMS .OHMM            3.4:   RESISTIVITY MUD SAMPLE
 MST .F                76:   MUD SAMPLE TEMPERATURE
 RMF .OHMM            1.8:   RESISTIVITY MUD FILTRATE SAMPLE
 MFST.F                75:   MUD FILTRATE SAMPLE TEMPERATURE
 RMC .OHMM            3.4:   RESISTIVITY MUD CAKE
 MCST.F                75:   MUD CAKE SAMPLE TEMPERATURE
 MFSS.                 FP:   MUD FILTRATE SAMPLE SOURCE
 MCSS.                 FP:   MUD CAKE SAMPLE SOURCE
 TCS .HRS               1:   TIME CURCULATED STOPPED
 MRT .F                80:   MAXIMUM RECORDED TEMPERATURE
 LUN .               4507:   LOGGING UNIT NUMBER
 LUL .               CSPR:   LOGGING UNIT LOCATION
 ENGI.            GIFFORD:   RECORDING ENGINEER
 WITN.          JORGENSON:   WITNESSED BY
 CLNT.            A2DTECH:   CLIENT CODE
 ORIG.       2", 5" PRINT:   ORIGIN OF DATA
 UWI .       490250634300:   UNIQUE WELL ID
 DICO. A2D Technologies, Inc.:   DIGITIZING COMPANY
~OTHER INFORMATION
~A   DEPT       GR         CALS       DT        SPR       CILD        ASN        ILD   
# ...
  250.0000  -999.2500     6.9581   104.8474   -34.9079   122.9057     9.2679     8.4462
  250.5000  -999.2500     7.0423   104.9892   -35.1083   123.4891     9.2842     8.3954
  251.0000  -999.2500     6.8387   104.8417   -34.9194   124.0725     9.2990     8.3448
  251.5000  -999.2500     6.4980   104.6974   -34.7329   124.6558     9.3048     8.2943
  252.0000  -999.2500     6.3748   104.8135   -34.5477   125.2392     9.2172     8.2437
  252.5000  -999.2500     6.8987   105.1376   -34.3562   125.8226     9.1689     8.1931
  253.0000  -999.2500     7.0173   104.7757   -34.3421   126.4060     9.1192     8.1426
  253.5000  -999.2500     7.0283   104.3266   -34.4391   126.9893     9.0915     8.0949
  254.0000  -999.2500     7.0356   104.6680   -34.5362   127.4643     9.1165     8.0766
  254.5000  -999.2500     7.0443   105.0348   -34.6330   127.8431     9.1406     8.0573
  255.0000  -999.2500     7.0529   105.0362   -34.7506   128.2218     9.1647     8.0378
  255.5000  -999.2500     7.0451   105.0774   -34.9828   128.6006     9.1783     8.0184
  256.0000  -999.2500     6.8955   105.1240   -35.2193   128.9794     9.1238     7.9990
  256.5000  -999.2500     6.7256   104.9446   -35.2847   129.3582     9.0697     7.9796
  257.0000  -999.2500     6.5571   104.7331   -35.2196   129.7369     9.0158     7.9601
  257.5000  -999.2500     6.4303   105.0688   -35.1514   130.1157     8.9617     7.9407
  258.0000  -999.2500     6.5007   105.5116   -35.0999   130.1089     8.9078     7.9211
  258.5000  -999.2500     6.6128   106.1793   -34.9530   129.7901     8.8607     7.8999
  259.0000  -999.2500     6.6755   106.4673   -34.8072   129.4778     8.9146     7.9556
  259.5000  -999.2500     6.6743   106.1430   -34.6607   128.7776     9.0022     8.0312
  260.0000  -999.2500     6.7279   106.1430   -34.5210   127.4509     9.1025     8.1071
  260.5000  -999.2500     6.8552   106.0423   -34.5897   126.1206     9.2039     8.1829
  261.0000  -999.2500     6.9777   105.7268   -34.6681   124.7908     9.2746     8.2586
  261.5000  -999.2500     7.0667   105.1442   -34.6955   123.4618     9.3254     8.3344
  262.0000  -999.2500     7.0862   104.4796   -34.5634   122.1328     9.3743     8.4102
  262.5000  -999.2500     7.1075   103.8149   -34.6265   120.8038     9.4942     8.4861
  263.0000  -999.2500     7.1273   103.4240   -34.8091   119.4747     9.5737     8.5538
  263.5000  -999.2500     7.1023   103.4240   -34.9943   119.4000     9.6200     8.6197
  264.0000  -999.2500     6.9189   103.0346   -35.1789   119.6296     9.6460     8.6857
  264.5000  -999.2500     6.7590   103.0655   -35.3275   119.8592     9.6041     8.7514
  265.0000  -999.2500     6.7347   103.3736   -35.3243   120.0887     9.6040     8.8041
  265.5000  -999.2500     6.8300   103.6321   -35.3242   120.3183     9.6260     8.8030
  266.0000  -999.2500     6.9149   103.9745   -35.3241   120.5478     9.5937     8.8032
  266.5000  -999.2500     6.8895   104.3706   -35.3219   120.7774     9.5526     8.8044
  267.0000  -999.2500     6.8374   104.7331   -35.1987   121.0070     9.5274     8.7946
  267.5000  -999.2500     6.8335   104.2296   -34.9078   121.2274     9.5279     8.5798
  268.0000  -999.2500     6.9288   104.8489   -34.6089   122.2777     9.4611     8.3625
  268.5000  -999.2500     7.0182   105.6193   -34.8799   123.2877     9.3681     8.1958
  269.0000  -999.2500     6.9506   105.6395   -35.4312   124.2455     9.3651     8.1731
  269.5000  -999.2500     6.8692   104.8626   -35.9531   126.7243     9.3116     8.1363
  270.0000  -999.2500     6.7971   104.9345   -35.7008   129.0811     9.2147     8.1084
  270.5000  -999.2500     6.8378   105.9617   -35.4241   131.4380     9.0763     7.8498
  271.0000  -999.2500     6.7900   106.1497   -35.1493   133.7948     8.9413     7.6266
  271.5000  -999.2500     6.8669   105.7402   -34.8758   136.1516     8.8127     7.5512
  272.0000  -999.2500     7.0260   106.4187   -34.6020   138.3380     8.6963     7.5008
  272.5000  -999.2500     6.9178   106.8479   -34.6777   138.8857     8.5941     7.4506
  273.0000  -999.2500     6.8145   106.7472   -35.0193   139.3293     8.5480     7.3990
  273.5000  -999.2500     6.7348   107.1702   -35.3017   137.7724     8.5322     7.4608
  274.0000  -999.2500     6.7818   107.4522   -34.9930   136.3294     8.5866     7.5551
  274.5000  -999.2500     6.8866   106.9084   -34.7184   134.7940     8.6904     7.6508
  275.0000  -999.2500     6.9177   106.3948   -34.4469   133.0374     8.8296     7.7465
  275.5000  -999.2500     6.8716   105.9272   -34.3048   131.2807     8.9860     7.8421
  276.0000  -999.2500     6.8165   105.5603   -34.2145   129.5241     9.0530     7.9376
  276.5000  -999.2500     6.7935   105.1935   -34.1253   127.7534     9.1150     8.0323
  277.0000  -999.2500     6.8187   104.5972   -34.0369   125.8644     9.1888     8.1216
  277.5000  -999.2500     6.8450   104.5989   -33.9505   123.8768     9.2245     8.1932
  278.0000  -999.2500     6.8746   104.9345   -34.0478   121.8987     9.2233     8.2656
  278.5000  -999.2500     6.8981   104.5962   -34.5040   119.9332     9.3253     8.3377
  279.0000  -999.2500     6.8719   104.5333   -34.9562   118.1880     9.4625     8.4100
  279.5000  -999.2500     6.8336   104.5296   -35.4240   118.2093     9.5911     8.4822
  280.0000  -999.2500     6.7963   104.4037   -35.5263   118.2093     9.6743     8.5534
  280.5000  -999.2500     6.7553   103.9453   -35.5322   118.6409     9.7260     8.5821
  281.0000  -999.2500     6.7652   103.4921   -35.3270   119.1001     9.7413     8.5292
  281.5000  -999.2500     6.8007   103.0211   -35.0600   119.5592     9.6734     8.2866
  282.0000  -999.2500     6.7087   103.2957   -34.7905   120.0183     9.5986     8.2799
  282.5000  -999.2500     6.6220   103.5870   -34.5261   120.7847     9.5441     8.2606
  283.0000  -999.2500     6.8506   103.8775   -34.4459   121.7948     9.4901     8.2401
  283.5000  -999.2500     6.9756   104.0044   -34.3606   122.8048     9.4385     8.2198
  284.0000  -999.2500     6.9898   104.0978   -34.2737   123.8159     9.3875     8.1999
  284.5000  -999.2500     6.9715   104.1912   -34.1866   124.8226     9.3665     8.1990
  285.0000  -999.2500     6.9530   104.2845   -34.0994   125.7051     9.3663     8.1992
  285.5000  -999.2500     6.9346   104.3303   -34.0118   126.4773     9.3669     8.1992
  286.0000  -999.2500     6.9161   104.3303   -33.9199   127.2636     9.3330     8.1990
  286.5000  -999.2500     6.8978   104.3303   -34.0397   126.0161     9.2914     8.1981
  287.0000  -999.2500     6.9004   104.4310   -34.2079   124.7535     9.2740     8.2037
  287.5000  -999.2500     6.9213   104.7907   -34.3706   122.8252     9.3553     8.3591
  288.0000  -999.2500     6.9420   104.9350   -34.6985   120.4486     9.5339     8.5216
  288.5000  -999.2500     6.9627   104.6127   -35.0229   118.0720     9.7043     8.6833
  289.0000  -999.2500     6.9796   104.1039   -35.3462   115.6954     9.7373     8.8442
  289.5000  -999.2500     6.9288   103.7261   -35.6669   113.3187     9.7641     9.0083
  290.0000  -999.2500     6.8714   103.4240   -36.0364   110.9421     9.7958     9.2598
  290.5000  -999.2500     6.8143   103.0060   -36.3630   108.5655     9.8784     9.5130
  291.0000  -999.2500     6.7520   102.0217   -36.6802   106.4023    10.0670     9.7657
  291.5000  -999.2500     6.6881   101.0373   -36.9214   104.2844    10.3067    10.0181
  292.0000  -999.2500     6.6497   100.8752   -36.6996   102.1666    10.5451    10.2479
  292.5000  -999.2500     6.6350   101.0620   -36.5808   100.0485    10.7833    10.4034
  293.0000  -999.2500     6.6385   101.0070   -36.4657    97.9316    10.9862    10.5587
  293.5000  -999.2500     6.6675   101.0070   -36.3529    95.8129    11.1449    10.7140
  294.0000  -999.2500     6.8716   100.5400   -36.2394    94.0209    11.3038    10.8691
  294.5000  -999.2500     6.8960   100.0389   -36.1334    92.4048    11.4628    11.0198
  295.0000  -999.2500     6.9144    99.0802   -36.1997    90.7887    11.6218    11.1657
