~VERSION INFORMATION
 VERS.                2.0:   CWLS LOG ASCII STANDARD - VERSION 2.0
 WRAP.                 NO:   ONE LINE PER DEPTH STEP
~WELL INFORMATION
#MNEM.UNIT      DATA TYPE    INFORMATION
#----------   ------------   ------------------------------
 STRT.F          672.0000:   START DEPTH
 STOP.F         2343.5000:   STOP DEPTH
 STEP.F            0.5000:   STEP LENGTH
 NULL.          -999.2500:   NO VALUE
 COMP. FENIX & SCISSON INC:   COMPANY
 WELL.   23 SHX-33 #23-33:   WELL
 FLD .             TEAPOT:   FIELD
 LOC .      S33 T39N R78W:   LOCATION
 CNTY.            NATRONA:   COUNTY
 STAT.            WYOMING:   STATE
 CTRY. UNITED STATES OF AMERICA:   COUNTRY
 SRVC.            Unknown:   SERVICE COMPANY
 DATE.        01-MAY-1978:   LOGDATE
 API .       490251062700:   API NUMBER
~CURVE INFORMATION
#MNEM.UNIT       API CODE    CURVE DESCRIPTION
#----------   ------------   ------------------------------
 DEPT.F                  :   
 IL  .OHMM   05 120 00 00:   INDUCTION LOG
 CIL .MMHO   05 110 00 00:   CONDUCTIVITY INDUCTION LOG
 CALD.IN     45 280 60 00:   CALIPER FROM DENSITY LOG
 GRD .GAPI   45 310 01 00:   GAMMA RAY FROM DENSITY LOG
 DPHI.DEC    45 890 12 00:   DENSITY POROSITY SANDSTONE
 RHOB.G/C3   45 350 01 00:   BULK DENSITY
 CORR.G/C3   45 356 01 00:   DENSITY CORRECTION
~PARAMETER INFORMATION
#MNEM.UNIT          VALUE    DESCRIPTION
#----------   ------------   ------------------------------
 PD  .                 GL:   PERMANENT DATUM
 EPD .F              5163:   ELEVATION PERMANENT DATUM
 LMF .                 KB:   LOG MEASURED FROM
 DAPD.F                10:   FEET ABOVE PERMANENT DATUM
 DMF .                 KB:   DRILLING MEASURED FROM
 EKB .F              5173:   KELLING BUSHING
 EGL .F              5163:   GROUND LEVEL
 DATE.           5-1-1978:   RUN DATE
 RUN .                  1:   RUN NUMBER
 DD  .F              2331:   DEPTH DRILLER
 DL  .F              2260:   DEPTH LOGGER
 BLI .F              2250:   BOTTOM LOG INTERVAL
 TLI .F               690:   TOP LOG INTERVAL
 CS  .IN            9.625:   CASING SIZE
 CBD .F               683:   CASING BOTTOM DRILLER
 CBL .F               690:   CASING BOTTOM LOGGER
 BS  .IN             8.75:   BIT SIZE
 BSD .F              2331:   BIT SIZE AT DEPTH
 DFT .                OIL:   DRILLING FLUID TYPE
 BHT .F               104:   BOTTOM HOLE TEMPERATURE
 TCS .HRS               5:   TIME CURCULATED STOPPED
 MRT .F               104:   MAXIMUM RECORDED TEMPERATURE
 LUN .               2958:   LOGGING UNIT NUMBER
 LUL .               CASP:   LOGGING UNIT LOCATION
 ENGI.             MILLER:   RECORDING ENGINEER
 WITN.           MCGINLEY:   WITNESSED BY
 CLNT.            A2DTECH:   CLIENT CODE
 ORIG.       2", 5" PRINT:   ORIGIN OF DATA
 UWI .       490251062700:   UNIQUE WELL ID
 DICO. A2D Technologies, Inc.:   DIGITIZING COMPANY
~OTHER INFORMATION
~A   DEPT       IL        CIL       CALD         GRD      DPHI       RHOB       CORR   
# ...
 1309.0000     7.8883   115.4739    10.0913    98.5499    -0.0110     2.5637     0.0540
 1309.5000     7.8487   115.7444    10.0892   103.9960    -0.0135     2.5589     0.0533
 1310.0000     7.8090   116.0148    10.0871   102.6289    -0.0184     2.5676     0.0525
 1310.5000     7.7695   116.2865    10.0850    96.1249    -0.0202     2.5793     0.0518
 1311.0000     7.7365   116.5546    10.0827    93.3079    -0.0176     2.5867     0.0508
 1311.5000     7.7373   116.5450    10.0807    92.5707    -0.0143     2.5803     0.0486
 1312.0000     7.7374   116.3308    10.0883    93.5741    -0.0110     2.5736     0.0464
 1312.5000     7.7372   116.1195    10.1341    94.8480    -0.0091     2.5669     0.0441
 1313.0000     7.7366   115.9082    10.1789    97.1318    -0.0095     2.5642     0.0419
 1313.5000     7.7473   115.6970    10.2237    98.9264    -0.0098     2.5645     0.0397
 1314.0000     7.7778   115.0490    10.2678    99.6033    -0.0087     2.5659     0.0373
 1314.5000     7.7775   114.2978    10.2989    99.9267    -0.0077     2.5662     0.0358
 1315.0000     7.7792   113.5466    10.2674    99.2831    -0.0071     2.5559     0.0356
 1315.5000     7.8177   112.7954    10.2118    97.5808    -0.0105     2.5503     0.0383
 1316.0000     7.8616   112.0442    10.1559    95.4127    -0.0126     2.5613     0.0409
 1316.5000     7.8925   111.2929    10.0993    93.7047    -0.0070     2.5695     0.0435
 1317.0000     7.9763   110.5417    10.0879    92.0151    -0.0072     2.5656     0.0461
 1317.5000     8.0510   109.7905    10.1001    91.5818    -0.0081     2.5616     0.0487
 1318.0000     8.1256   109.0393    10.1129    92.2592    -0.0084     2.5597     0.0513
 1318.5000     8.2003   108.2881    10.1189    94.2712    -0.0116     2.5592     0.0539
 1319.0000     8.2751   107.5368    10.1164    96.0260    -0.0138     2.5636     0.0566
 1319.5000     8.3498   106.7856    10.1137    96.2413    -0.0138     2.5687     0.0572
 1320.0000     8.4241   106.0344    10.1111    96.1080    -0.0114     2.5719     0.0572
 1320.5000     8.4639   105.2832    10.1084    95.7216    -0.0081     2.5720     0.0567
 1321.0000     8.4747   104.5328    10.1058    94.5757    -0.0049     2.5668     0.0561
 1321.5000     8.5155   103.7808    10.1032    92.8278    -0.0019     2.5605     0.0556
 1322.0000     8.5686   103.1181    10.1005    91.0744     0.0013     2.5542     0.0552
 1322.5000     8.6182   102.4983    10.0979    88.3846    -0.0036     2.5480     0.0551
 1323.0000     8.6680   101.8786    10.0952    84.9959    -0.0092     2.5468     0.0563
 1323.5000     8.7178   101.2588    10.0926    87.6422    -0.0118     2.5529     0.0575
 1324.0000     8.7676   100.6391    10.0900    92.5665    -0.0113     2.5590     0.0587
 1324.5000     8.8174   100.0193    10.0873    92.3037    -0.0109     2.5658     0.0599
 1325.0000     8.8673    99.3996    10.0847    91.4214    -0.0105     2.5664     0.0611
 1325.5000     8.9171    98.7798    10.0821    89.1595    -0.0100     2.5654     0.0614
 1326.0000     8.9669    98.1600    10.0800    85.1732    -0.0096     2.5645     0.0630
 1326.5000     9.0167    97.5403    10.0652    83.8662    -0.0092     2.5635     0.0645
 1327.0000     9.0665    96.9205    10.0483    87.7728    -0.0113     2.5626     0.0661
 1327.5000     9.1164    96.3008    10.0313    89.9960    -0.0202     2.5609     0.0668
 1328.0000     9.1662    95.6810    10.0144    87.9563    -0.0206     2.5725     0.0565
 1328.5000     9.2160    95.0613     9.9974    87.9873    -0.0200     2.5786     0.0444
 1329.0000     9.2658    94.4415     9.9805    87.8981    -0.0162     2.5662     0.0323
 1329.5000     9.3156    93.8218     9.9636    85.4567    -0.0158     2.5755     0.0273
 1330.0000     9.3654    93.2020     9.9466    82.4793    -0.0096     2.5786     0.0226
 1330.5000     9.4153    92.5823     9.9297    80.5258    -0.0055     2.5716     0.0178
 1331.0000     9.4651    92.6266     9.9128    85.5321    -0.0107     2.5643     0.0134
 1331.5000     9.5149    92.8983     9.8957    90.5054    -0.0150     2.5571     0.0168
 1332.0000     9.5646    93.1699     9.8795    92.5735    -0.0192     2.5519     0.0207
 1332.5000     9.6147    93.4416     9.8594    85.9204    -0.0238     2.5850     0.0234
 1333.0000     9.6360    93.7132     9.8605    80.9558    -0.0249     2.5812     0.0237
 1333.5000     9.6366    93.9848     9.8624    86.7014    -0.0152     2.5895     0.0242
 1334.0000     9.6372    94.2565     9.8669    92.0825    -0.0120     2.5902     0.0246
 1334.5000     9.6259    94.5281     9.8713    92.0843    -0.0154     2.5630     0.0251
 1335.0000     9.5993    94.7998     9.8757    91.3451    -0.0174     2.5659     0.0253
 1335.5000     9.5557    95.0714     9.8801    91.2455    -0.0184     2.5737     0.0282
 1336.0000     9.5149    95.3431     9.8807    92.1808    -0.0194     2.5763     0.0324
 1336.5000     9.4355    95.9982     9.8807    92.8179    -0.0196     2.5769     0.0367
 1337.0000     9.3444    96.9166     9.8806    91.4522    -0.0191     2.5777     0.0411
 1337.5000     9.2473    98.0250     9.9032    90.4017    -0.0186     2.5761     0.0419
 1338.0000     9.1145    99.4098     9.9446    91.5707    -0.0181     2.5728     0.0435
 1338.5000     8.9818   101.0028     9.9862    92.6385    -0.0176     2.5730     0.0452
 1339.0000     8.8495   103.4608    10.0278    92.8182    -0.0174     2.5760     0.0469
 1339.5000     8.7173   105.9074    10.0693    93.1407    -0.0174     2.5786     0.0486
 1340.0000     8.5850   108.3569    10.1109    94.0110    -0.0191     2.5736     0.0513
 1340.5000     8.4527   110.8063    10.1525    94.8424    -0.0221     2.5740     0.0544
 1341.0000     8.3205   113.2643    10.1944    94.8282    -0.0222     2.5816     0.0576
 1341.5000     8.1877   114.5963    10.2375    92.1432    -0.0211     2.5895     0.0591
 1342.0000     8.0540   114.4797    10.2015    92.1850    -0.0215     2.5856     0.0600
 1342.5000     7.9075   114.3632    10.1833    93.9585    -0.0281     2.5819     0.0611
 1343.0000     7.8612   114.2466    10.2082    95.8784    -0.0242     2.5853     0.0571
 1343.5000     7.8196   114.1300    10.2178    97.6880    -0.0176     2.5920     0.0515
 1344.0000     7.8187   114.0135    10.2704    97.3183    -0.0150     2.5726     0.0562
 1344.5000     7.8193   113.8969    10.3537    95.1480    -0.0170     2.5696     0.0625
 1345.0000     7.8621   113.7803    10.2174    93.0382    -0.0201     2.5743     0.0687
 1345.5000     7.8780   113.6638    10.2583    91.9197    -0.0238     2.5699     0.0732
 1346.0000     7.8952   113.5472    10.2864    91.8318    -0.0301     2.5750     0.0714
 1346.5000     7.9131   113.4306    10.1777    91.8821    -0.0326     2.5867     0.0691
 1347.0000     7.9309   113.3141    10.0688    92.2402    -0.0303     2.5983     0.0666
 1347.5000     7.9487   113.1975     9.9627    92.5917    -0.0277     2.6041     0.0619
 1348.0000     7.9665   113.0809     9.9261    92.9447    -0.0194     2.5904     0.0577
 1348.5000     7.9843   112.9645     9.8927    93.2950    -0.0094     2.5794     0.0535
 1349.0000     8.0021   112.8490     9.8638    93.5347    -0.0035     2.5683     0.0492
 1349.5000     8.0199   112.7312     9.8116    93.3943    -0.0055     2.5575     0.0450
 1350.0000     8.0378   112.5039     9.7938    92.8454    -0.0112     2.5527     0.0413
 1350.5000     8.0561   111.2750     9.7747    92.2599    -0.0170     2.5509     0.0444
 1351.0000     8.1107   110.0462     9.7559    90.9946    -0.0195     2.5514     0.0505
 1351.5000     8.2066   108.8173     9.7371    87.5293    -0.0198     2.5604     0.0565
 1352.0000     8.3026   107.5885     9.7213    80.8592    -0.0206     2.5745     0.0627
 1352.5000     8.3987   106.5657     9.7215    79.5949    -0.0309     2.5885     0.0652
 1353.0000     8.4949   106.5657     9.7322    84.4833    -0.0285     2.5968     0.0617
 1353.5000     8.5908   106.5657     9.7493    89.3101    -0.0246     2.5945     0.0581
 1354.0000     8.6688   106.5657     9.7665    90.3367    -0.0210     2.5840     0.0545
