~VERSION INFORMATION
 VERS.                2.0:   CWLS LOG ASCII STANDARD - VERSION 2.0
 WRAP.                 NO:   ONE LINE PER DEPTH STEP
~WELL INFORMATION
#MNEM.UNIT      DATA TYPE    INFORMATION
#----------   ------------   ------------------------------
 STRT.F           16.0000:   START DEPTH
 STOP.F          306.0000:   STOP DEPTH
 STEP.F            0.5000:   STEP LENGTH
 NULL.          -999.2500:   NO VALUE
 COMP. LAWRENCE-ALLISON &AS:   COMPANY
 WELL. NPR ##3 51-66SX10UI2:   WELL
 FLD .             TEAPOT:   FIELD
 LOC .      S10 T38N R78W:   LOCATION
 CNTY.            NATRONA:   COUNTY
 STAT.            WYOMING:   STATE
 CTRY. UNITED STATES OF AMERICA:   COUNTRY
 SRVC.      Dresser Atlas:   SERVICE COMPANY
 DATE.        16-JAN-1985:   LOGDATE
 API .       490251100300:   API NUMBER
~CURVE INFORMATION
#MNEM.UNIT       API CODE    CURVE DESCRIPTION
#----------   ------------   ------------------------------
 DEPT.F                  :   
 AC  .US/F   60 520 00 00:   ACOUSTIC SONIC
 CALD.IN     45 280 60 00:   CALIPER FROM DENSITY LOG
 CNC .DEC    42 890 03 00:   COMPENSATED NEUTRON POROSITY SANDSTONE
 CORR.G/C3   45 356 01 00:   DENSITY CORRECTION
 GRD .GAPI   45 310 01 00:   GAMMA RAY FROM DENSITY LOG
 PORD.DEC    45 890 12 00:   POROSITY DENSITY SANDSTONE
 RHOB.G/C3   45 350 01 00:   BULK DENSITY
~PARAMETER INFORMATION
#MNEM.UNIT          VALUE    DESCRIPTION
#----------   ------------   ------------------------------
 PD  .                 GL:   PERMANENT DATUM
 EPD .F              5156:   ELEVATION PERMANENT DATUM
 LMF .                 GL:   LOG MEASURED FROM
 DMF .                 GL:   DRILLING MEASURED FROM
 EGL .F              5156:   GROUND LEVEL
 DATE.        16-JAN-1985:   RUN DATE
 RUN .                  1:   RUN NUMBER
 DD  .F               308:   DEPTH DRILLER
 DL  .F               308:   DEPTH LOGGER
 BLI .F               306:   BOTTOM LOG INTERVAL
 TLI .F                20:   TOP LOG INTERVAL
 CS  .IN            8.625:   CASING SIZE
 CBD .F                20:   CASING BOTTOM DRILLER
 CBL .F                20:   CASING BOTTOM LOGGER
 BS  .IN            7.875:   BIT SIZE
 BSD .F               308:   BIT SIZE AT DEPTH
 DFT .          KCL-WATER:   DRILLING FLUID TYPE
 MSS .               TANK:   MUD SAMPLE SOURCE
 RMS .OHMM           0.11:   RESISTIVITY MUD SAMPLE
 MST .F                88:   MUD SAMPLE TEMPERATURE
 RMF .OHMM           0.08:   RESISTIVITY MUD FILTRATE SAMPLE
 MFST.F                88:   MUD FILTRATE SAMPLE TEMPERATURE
 RMC .OHMM           0.13:   RESISTIVITY MUD CAKE
 MCST.F                88:   MUD CAKE SAMPLE TEMPERATURE
 MFSS.               CALC:   MUD FILTRATE SAMPLE SOURCE
 MCSS.               CALC:   MUD CAKE SAMPLE SOURCE
 BHT .F               100:   BOTTOM HOLE TEMPERATURE
 TCS .HRS               2:   TIME CURCULATED STOPPED
 MRT .F               100:   MAXIMUM RECORDED TEMPERATURE
 LUN .               6270:   LOGGING UNIT NUMBER
 LUL .                 FM:   LOGGING UNIT LOCATION
 ENGI.          E. GOVETT:   RECORDING ENGINEER
 WITN.             GROOMS:   WITNESSED BY
 CLNT.            A2DTECH:   CLIENT CODE
 ORIG.           5" PRINT:   ORIGIN OF DATA
 UWI .       490251100300:   UNIQUE WELL ID
 DICO. A2D Technologies, Inc.:   DIGITIZING COMPANY
~OTHER INFORMATION
~A   DEPT        AC      CALD          CNC     CORR         GRD      PORD       RHOB   
# ...
  243.5000   108.0152     7.9398     0.2686     0.0182    76.1097     0.1986     2.3526
  244.0000   110.5623     7.9549     0.2753     0.0075    69.3214     0.2203     2.3096
  244.5000   115.9644     7.9549     0.2789     0.0002    65.3745     0.2357     2.2915
  245.0000   116.7835     7.9699     0.2608     0.0017    67.5336     0.2272     2.2885
  245.5000   117.0034     7.9850     0.2511     0.0077    75.2013     0.2128     2.3224
  246.0000   115.4164     8.0000     0.2541     0.0137    77.7562     0.2019     2.3397
  246.5000   113.9816     8.0000     0.2586     0.0197    76.4013     0.2018     2.3407
  247.0000   113.4483     7.9850     0.2605     0.0258    75.6480     0.2076     2.3329
  247.5000   113.5162     7.9850     0.2620     0.0197    75.4962     0.2079     2.3322
  248.0000   112.6772     8.0000     0.2656     0.0137    75.1939     0.2085     2.3306
  248.5000   110.8435     7.9850     0.2728     0.0106    74.8917     0.2097     2.3283
  249.0000   109.7240     7.9850     0.2757     0.0231    76.9303     0.2103     2.3298
  249.5000   110.3292     7.9850     0.2740     0.0363    79.8508     0.2055     2.3366
  250.0000   110.9229     7.9850     0.2698     0.0206    81.2928     0.2028     2.3361
  250.5000   109.1124     7.9845     0.2671     0.0060    81.6529     0.2071     2.3336
  251.0000   105.5738     7.9840     0.2707     0.0015    78.9443     0.2043     2.3379
  251.5000   103.9887     7.9835     0.2704    -0.0016    78.1910     0.1922     2.3554
  252.0000   104.0583     7.9831     0.2677    -0.0031    78.0391     0.1835     2.3773
  252.5000   103.9740     7.9826     0.2626     0.0120    75.6566     0.1822     2.3675
  253.0000   104.8682     7.9822     0.2547     0.0347    72.4719     0.1898     2.3614
  253.5000   105.3867     7.9818     0.2511     0.0422    71.2674     0.1880     2.3720
  254.0000   105.0037     7.9813     0.2510     0.0210    72.7697     0.1780     2.3984
  254.5000   102.5680     7.9809     0.2520     0.0135    76.6780     0.1647     2.4067
  255.0000   101.3524     7.9805     0.2523     0.0059    79.9848     0.1668     2.3931
  255.5000   100.8494     7.9800     0.2560    -0.0002    82.9909     0.1768     2.3825
  256.0000   103.2444     7.9795     0.2689     0.0104    85.0947     0.1840     2.3725
  256.5000   105.7163     7.9790     0.2743     0.0225    84.6421     0.1877     2.3663
  257.0000   107.2116     7.9786     0.2758     0.0285    82.9564     0.1874     2.3651
  257.5000   107.6550     7.9782     0.2695     0.0224    81.7318     0.1867     2.3666
  258.0000   106.2953     7.9627     0.2658     0.0072    80.8783     0.1864     2.3681
  258.5000   104.6350     7.9472     0.2782    -0.0048    81.6283     0.1858     2.3711
  259.0000   103.8012     7.9167     0.2821    -0.0108    81.7776     0.1846     2.3756
  259.5000   103.4182     7.9012     0.2836    -0.0109    81.7758     0.1821     2.3793
  260.0000   104.4627     7.8857     0.2800     0.0193    83.1277     0.1780     2.3869
  260.5000   105.8838     7.8853     0.2607     0.0526    85.2315     0.1734     2.3967
  261.0000   106.1760     7.9619     0.2504     0.0676    89.1398     0.1665     2.4072
  261.5000   104.7769     8.0497     0.2480     0.0419    92.2962     0.1532     2.4282
  262.0000   100.2240     8.0342     0.2462     0.0178    95.3623     0.1269     2.4632
  262.5000    96.5352     7.9887     0.2414     0.0344    99.2105     0.1202     2.4804
  263.0000    95.4760     7.9581     0.2471     0.0297   104.7727     0.1312     2.4539
  263.5000    95.2451     7.9276     0.2537     0.0238   105.8242     0.1474     2.4313
  264.0000    96.5131     7.8821     0.2567     0.0313   101.4615     0.1579     2.4177
  264.5000    97.7830     7.8816     0.2558     0.0434    93.0389     0.1616     2.4094
  265.0000    98.3034     7.8812     0.2537     0.0403    88.6766     0.1622     2.4078
  265.5000    98.2190     7.8808     0.2489     0.0313    87.6228     0.1619     2.4078
  266.0000    98.3619     7.8953     0.2456     0.0131    89.4255     0.1619     2.4071
  266.5000    98.5800     7.9099     0.2477    -0.0050    87.4692     0.1644     2.4040
  267.0000    98.6477     7.9245     0.2558    -0.0126    85.4928     0.1677     2.3994
  267.5000    98.6401     7.9240     0.2582    -0.0080    84.8847     0.1737     2.3901
  268.0000    98.7081     7.9236     0.2498    -0.0015    84.0057     0.1789     2.3813
  268.5000    99.2248     7.9231     0.2404     0.0040    83.8539     0.1822     2.3753
  269.0000    99.6683     7.9227     0.2505     0.0055    84.3036     0.1821     2.3730
  269.5000   100.0366     7.9222     0.2569     0.0073    85.6555     0.1818     2.3738
  270.0000   100.3297     7.9218     0.2552     0.0085    87.3082     0.1827     2.3737
  270.5000   100.6229     7.9213     0.2567     0.0084    88.9608     0.1843     2.3715
  271.0000   100.9160     7.9209     0.2621     0.0084    89.8817     0.1858     2.3684
  271.5000   101.1359     7.9205     0.2667     0.0084    88.3564     0.1882     2.3646
  272.0000   101.4272     7.9199     0.2642     0.0084    86.6807     0.1900     2.3616
  272.5000   101.1945     7.9195     0.2606     0.0116    86.3986     0.1896     2.3593
  273.0000   100.8094     7.8890     0.2624     0.0220    87.1490     0.1879     2.3624
  273.5000   100.3461     7.8735     0.2661     0.0250    86.2449     0.1888     2.3638
  274.0000   100.0321     7.8881     0.2682     0.0159    85.0404     0.1894     2.3615
  274.5000    99.8108     7.9028     0.2630    -0.0128    84.2871     0.1879     2.3638
  275.0000    99.8034     7.9173     0.2606    -0.0249    83.8348     0.1869     2.3660
  275.5000    99.7209     7.9168     0.2624    -0.0340    85.3368     0.1888     2.3615
  276.0000    99.6384     7.9014     0.2636    -0.0234    88.1924     0.1909     2.3585
  276.5000    99.4808     7.9009     0.2642    -0.0204    91.9504     0.1918     2.3577
  277.0000    99.3232     7.9005     0.2603    -0.0250    89.6632     0.1887     2.3652
  277.5000    99.1656     7.8849     0.2599    -0.0280    88.6140     0.1866     2.3675
  278.0000    99.1582     7.8996     0.2633    -0.0250    88.1866     0.1860     2.3675
  278.5000    99.1508     7.9141     0.2602    -0.0129    92.0945     0.1839     2.3698
  279.0000    99.1435     7.9137     0.2539     0.0021    94.6494     0.1809     2.3742
  279.5000    99.0609     7.9132     0.2627     0.0127    96.0017     0.1797     2.3765
  280.0000    98.8179     7.9128     0.2660     0.0112    92.6916     0.1800     2.3772
  280.5000    98.5185     7.9123     0.2624     0.0051    89.8330     0.1809     2.3772
  281.0000    98.2106     7.9119     0.2563    -0.0009    88.1774     0.1809     2.3726
  281.5000    98.8794     7.9114     0.2527    -0.0071    89.6797     0.1884     2.3673
  282.0000    99.3979     7.9259     0.2606    -0.0103    90.2797     0.1947     2.3598
  282.5000   100.4424     7.9255     0.2639    -0.0116    90.1278     0.1972     2.3522
  283.0000   101.0361     7.9250     0.2632     0.0020    89.9760     0.1920     2.3522
  283.5000   101.1808     7.9246     0.2577     0.0096    90.1249     0.1893     2.3583
  284.0000   101.0965     7.9242     0.2605     0.0080    90.4239     0.1896     2.3635
  284.5000   101.0140     7.9237     0.2621     0.0050    91.1743     0.1899     2.3605
  285.0000   100.9315     7.9233     0.2424     0.0065    92.3758     0.1899     2.3582
  285.5000   100.6216     7.9379     0.2343     0.0080    93.7277     0.1868     2.3604
  286.0000   100.0761     7.9374     0.2352     0.0110    92.0721     0.1825     2.3680
  286.5000    99.6188     7.9370     0.2373     0.0000    91.7699     0.1796     2.3763
  287.0000    98.8717     7.9342     0.2346    -0.0177    91.6080     0.1784     2.3785
  287.5000    98.2632     7.9210     0.2306    -0.0223    90.9900     0.1775     2.3800
  288.0000    97.8802     7.9205     0.2311    -0.0072    90.2614     0.1769     2.3815
  288.5000    98.0231     7.9201     0.2382     0.0064    90.4107     0.1796     2.3792
