~VERSION INFORMATION
 VERS.                2.0:   CWLS LOG ASCII STANDARD - VERSION 2.0
 WRAP.                 NO:   ONE LINE PER DEPTH STEP
~WELL INFORMATION
#MNEM.UNIT      DATA TYPE    INFORMATION
#----------   ------------   ------------------------------
 STRT.F           28.5000:   START DEPTH
 STOP.F          625.0000:   STOP DEPTH
 STEP.F            0.5000:   STEP LENGTH
 NULL.          -999.2500:   NO VALUE
 COMP. FENIX & SCISSON INC:   COMPANY
 WELL.    NPR ##3 13-SX-3:   WELL
 FLD .             TEAPOT:   FIELD
 LOC .       S3 T38N R78W:   LOCATION
 CNTY.            NATRONA:   COUNTY
 STAT.            WYOMING:   STATE
 CTRY. UNITED STATES OF AMERICA:   COUNTRY
 SRVC.       Schlumberger:   SERVICE COMPANY
 DATE.        25-FEB-1977:   LOGDATE
 API .       490251028400:   API NUMBER
~CURVE INFORMATION
#MNEM.UNIT       API CODE    CURVE DESCRIPTION
#----------   ------------   ------------------------------
 DEPT.F                  :   
 SPR .MV     07 010 01 00:   SPONTANEOUS POTENTIAL
 ILD .OHMM   07 120 46 00:   INDUCTION LOG DEEP
 LL8 .OHMM   07 220 08 00:   LATEROLOG-8 RES.
 ILM .OHMM   07 120 44 00:   INDUCTION LOG MEDIUM
 GRD .GAPI   45 310 01 00:   GAMMA RAY FROM DENSITY LOG
 CALD.IN     45 280 60 00:   CALIPER
 RHOB.G/C3   45 350 01 00:   BULK DENSITY
 CORR.G/C3   45 356 01 00:   DENSITY CORRECTION
 DPOR.DEC    45 890 12 00:   DENSITY POROSITY SANDSTONE
~PARAMETER INFORMATION
#MNEM.UNIT          VALUE    DESCRIPTION
#----------   ------------   ------------------------------
 PD  .                 GL:   PERMANENT DATUM
 EPD .F              5227:   ELEVATION PERMANENT DATUM
 LMF .                 GL:   LOG MEASURED FROM
 DMF .                 GL:   DRILLING MEASURED FROM
 EKB .F              5232:   KELLING BUSHING
 EGL .F              5227:   GROUND LEVEL
 DATE.          2-25-1977:   RUN DATE
 RUN .                  1:   RUN NUMBER
 DD  .F               629:   DEPTH DRILLER
 DL  .F               626:   DEPTH LOGGER
 BLI .F               620:   BOTTOM LOG INTERVAL
 TLI .F                40:   TOP LOG INTERVAL
 CS  .IN            8.625:   CASING SIZE
 CBD .F                40:   CASING BOTTOM DRILLER
 CBL .F                40:   CASING BOTTOM LOGGER
 BS  .IN            7.875:   BIT SIZE
 BSD .F               629:   BIT SIZE AT DEPTH
 DFT .                KCL:   DRILLING FLUID TYPE
 DFD .                8.8:   DRILLING FLUID DENSITY
 DFV .                 45:   DRILLING FLUID VISCOSITY
 DFPH.                  8:   DRILLING FLUID PH
 DFL .                8.2:   DRILLING FLUID LOSS
 MSS .                PIT:   MUD SAMPLE SOURCE
 RMS .OHMM           .508:   RESISTIVITY MUD SAMPLE
 MST .F                60:   MUD SAMPLE TEMPERATURE
 RMF .OHMM           .419:   RESISTIVITY MUD FILTRATE SAMPLE
 MFST.F                58:   MUD FILTRATE SAMPLE TEMPERATURE
 MFSS.                  M:   MUD FILTRATE SAMPLE SOURCE
 RMB .OHMM            .41:   RESISTIVITY MUD AT BHT
 BHT .F                75:   BOTTOM HOLE TEMPERATURE
 TCS .HRS            1700:   TIME CURCULATED STOPPED
 TLAB.HRS            2130:   TIME LOGGER AT BOTTOM
 MRT .F                75:   MAXIMUM RECORDED TEMPERATURE
 LUN .               5642:   LOGGING UNIT NUMBER
 LUL .               CSPR:   LOGGING UNIT LOCATION
 ENGI.             MARTIN:   RECORDING ENGINEER
 CLNT.            A2DTECH:   CLIENT CODE
 ORIG.       2", 5" PRINT:   ORIGIN OF DATA
 UWI .       490251028400:   UNIQUE WELL ID
 DICO. A2D Technologies, Inc.:   DIGITIZING COMPANY
~OTHER INFORMATION
~A   DEPT      SPR        ILD        LL8        ILM         GRD      CALD         RHOB     CORR       DPOR   
# ...
  393.5000   -46.0270     7.1922     8.0193     7.6769   117.3998     8.2186     2.4816     0.0171     0.1111
  394.0000   -45.7710     7.1734     7.8957     7.7633   116.5118     8.2182     2.4706     0.0068     0.1170
  394.5000   -46.2288     7.1545     7.7740     7.8506   115.6265     8.2178     2.4603    -0.0012     0.1214
  395.0000   -46.0709     7.1366     7.6541     7.9389   115.5716     8.2174     2.4553     0.0002     0.1174
  395.5000   -45.2196     7.0306     7.5361     8.0434   116.3595     8.2170     2.4576     0.0053     0.1194
  396.0000   -44.3618     6.9373     7.4200     7.9379   115.8689     8.2165     2.4532     0.0102     0.1230
  396.5000   -43.9030     6.9206     7.3056     7.7705   114.1058     8.2162     2.4482     0.0115     0.1266
  397.0000   -44.9444     6.9045     7.1929     7.6073   112.3424     8.2157     2.4450     0.0063     0.1285
  397.5000   -45.3870     6.8884     7.0664     7.4480   110.5666     8.2153     2.4578     0.0143     0.1251
  398.0000   -45.1309     6.8734     7.1617     7.3331   108.7885     8.2149     2.4629     0.0177     0.1220
  398.5000   -44.9001     7.0601     7.3272     7.4201   107.0376     8.2145     2.4483    -0.0030     0.1224
  399.0000   -44.8216     7.2430     7.5995     7.4896   106.2599     8.2141     2.4573     0.0007     0.1234
  399.5000   -44.7528     7.3399     8.2535     7.5598   108.5614     8.2137     2.4698     0.0062     0.1223
  400.0000   -44.7896     6.7723     9.3858     7.6094   112.5025     8.2133     2.4422     0.0099     0.1306
  400.5000   -45.1596     6.2903    10.6735     6.4444   116.4256     8.2129     2.4158     0.0056     0.1477
  401.0000   -45.5159     5.8406    11.9489     5.6781   120.3697     8.2125     2.3880     0.0022     0.1647
  401.5000   -45.8786     5.5528     7.8550     5.0581   125.1750     8.2121     2.3584     0.0172     0.1817
  402.0000   -45.2956     5.5440     4.0968     5.0409   121.9529     8.2117     2.3284     0.0288     0.2074
  402.5000   -44.4876     5.5054     3.2499     4.9723   117.1040     8.2113     2.3107     0.0024     0.1916
  403.0000   -43.9207     5.5566     4.8369     5.2511   112.0189     8.2109     2.3958    -0.0080     0.1589
  403.5000   -44.6739     5.6592     6.2777     5.8342   110.0548     8.2105     2.4664     0.0017     0.1260
  404.0000   -44.9127     5.8736     7.5398     6.4798   109.5086     8.2101     2.4757     0.0087     0.1130
  404.5000   -45.0389     6.5650     8.1380     7.1969   109.3947     8.2097     2.4544     0.0139     0.1193
  405.0000   -44.5340     7.3973     8.4911     8.0435   109.8134     8.2093     2.4474     0.0080     0.1236
  405.5000   -44.0851     8.1937     8.8513     8.3415   110.3055     8.2089     2.4470     0.0022     0.1272
  406.0000   -44.0424     8.1937     9.3262     8.8228   109.7860     8.2085     2.4518    -0.0020     0.1254
  406.5000   -43.9916     8.1937     9.1549     8.7110   109.1715     8.2081     2.4569     0.0015     0.1212
  407.0000   -43.9371     8.1937     8.9310     8.5111   106.9469     8.2077     2.4622     0.0054     0.1236
  407.5000   -43.7595     8.1937     8.7126     8.3158   104.4636     8.2073     2.4507     0.0053     0.1283
  408.0000   -43.3403     8.4240     8.4995     8.1250    98.8830     8.2069     2.4369     0.0023     0.1330
  408.5000   -42.9072     9.0934     8.2917     7.9708    93.3967     8.2064     2.4229     0.0001     0.1395
  409.0000   -42.1650     9.8159     8.0889     8.8076    87.8934     8.2062     2.4116     0.0044     0.1481
  409.5000   -41.4108    10.6152     7.9695     9.5942    81.8551     8.2094     2.4000     0.0201     0.1567
  410.0000   -41.2822    11.6498     8.1937    10.5988    73.9911     8.1015     2.3631     0.0378     0.1653
  410.5000   -42.1059    13.0429    10.5403    11.8222    66.0256     7.9764     2.3353     0.0543     0.1819
  411.0000   -41.9026    14.6027    14.3805    13.1883    63.2006     7.8510     2.3033     0.0443     0.2002
  411.5000   -41.7054    16.3490    18.4881    14.7119    66.8951     7.7659     2.3125     0.0613     0.2148
  412.0000   -41.1749    18.3041    17.5681    16.4113    70.1074     7.6920     2.3320     0.0494     0.1946
  412.5000   -40.6214    20.4930    16.8312    18.3071    72.3220     7.6111     2.3203     0.0395     0.2104
  413.0000   -40.3865    22.0434    16.5463    19.9077    74.2246     7.5196     2.3133     0.0493     0.2070
  413.5000   -40.2190    23.0823    16.5463    20.0927    75.6353     7.4287     2.3175     0.0596     0.2012
  414.0000   -40.0545    22.7580    17.3561    19.7214    75.3522     7.3378     2.2937     0.0505     0.2150
  414.5000   -39.8929    22.2359    18.4125    19.4615    74.2169     7.2450     2.2690     0.0421     0.2289
  415.0000   -39.6890    21.8365    19.1848    19.2051    73.0667     7.2537     2.2398     0.0472     0.2428
  415.5000   -38.6312    21.8365    18.5062    18.9521    71.8594     7.2860     2.2489     0.0543     0.2479
  416.0000   -37.5606    22.0423    17.9675    18.7024    72.8439     7.3196     2.2746     0.0476     0.2292
  416.5000   -37.2615    21.8344    17.4445    18.4559    74.3472     7.3752     2.3005     0.0404     0.2133
  417.0000   -38.0553    21.3111    16.8552    18.3180    75.8702     7.5405     2.3263     0.0467     0.1974
  417.5000   -38.2488    20.9890    17.2526    18.3180    76.8667     7.7067     2.3519     0.0560     0.1814
  418.0000   -37.9683    20.6854    17.8198    18.3671    77.4497     7.8724     2.3672     0.0378     0.1720
  418.5000   -38.6747    20.3735    17.5101    18.4786    78.5031     8.0374     2.3602     0.0246     0.1771
  419.0000   -39.0872    20.0927    17.0349    18.5909    79.5272     8.1507     2.3645     0.0170     0.1746
  419.5000   -39.3396    19.9077    16.6842    18.7038    79.6138     8.1592     2.3688     0.0148     0.1721
  420.0000   -39.5904    19.9658    17.1553    18.8174    77.4379     8.1693     2.3732     0.0312     0.1695
  420.5000   -39.8353    20.0118    18.0374    18.9317    75.5483     8.1787     2.3765     0.0283     0.1670
  421.0000   -40.3514    20.0564    18.8926    19.0466    74.8270     8.1665     2.3564     0.0435     0.1704
  421.5000   -40.9764    20.4724    19.0082    19.1623    74.0518     8.0971     2.3342     0.0423     0.1858
  422.0000   -41.1016    20.4617    17.7497    19.2787    71.9837     8.0338     2.3084     0.0727     0.2012
  422.5000   -40.6476    21.2247    16.4791    19.3958    69.7430     7.8191     2.2833     0.0895     0.2166
  423.0000   -40.3683    21.4952    15.7025    19.5136    68.5448     7.4707     2.2534     0.0577     0.2394
  423.5000   -40.5997    21.7690    15.1457    19.6324    68.2705     7.2451     2.2619     0.0617     0.2348
  424.0000   -40.4317    22.0461    15.0848    19.7522    69.5308     7.3344     2.2723     0.0683     0.2282
  424.5000   -39.8402    22.3269    15.7355    19.9064    72.0763     7.4215     2.2778     0.0627     0.2262
  425.0000   -39.2525    22.6113    16.5463    19.7243    74.5131     7.5534     2.2886     0.0527     0.2205
  425.5000   -38.6452    23.0850    16.2352    19.5429    76.0240     7.6857     2.3242     0.0431     0.2149
  426.0000   -38.2141    23.4988    15.7218    19.8230    74.9575     7.8175     2.3628     0.0810     0.1741
  426.5000   -38.8963    23.7942    15.2245    20.0407    73.9565     7.8504     2.3526     0.0595     0.1803
  427.0000   -38.5566    24.0901    14.9460    20.2794    72.9469     7.7869     2.3518     0.0523     0.1820
  427.5000   -38.1005    24.1746    15.6991    20.8498    72.1597     7.7893     2.3482     0.0452     0.1795
  428.0000   -37.3592    23.8375    18.6596    20.8498    74.4879     7.7922     2.3212     0.0276     0.1981
  428.5000   -36.6216    23.4860    22.2524    20.2521    76.7920     7.7949     2.2957     0.0136     0.2180
  429.0000   -35.8776    23.1397    23.5132    19.8117    79.5622     7.7977     2.3176     0.0263     0.2050
  429.5000   -35.3335    22.7985    22.2359    19.3808    78.3243     7.8005     2.3326     0.0346     0.1888
