~VERSION INFORMATION
 VERS.                2.0:   CWLS LOG ASCII STANDARD - VERSION 2.0
 WRAP.                 NO:   ONE LINE PER DEPTH STEP
~WELL INFORMATION
#MNEM.UNIT      DATA TYPE    INFORMATION
#----------   ------------   ------------------------------
 STRT.F           14.0000:   START DEPTH
 STOP.F          500.0000:   STOP DEPTH
 STEP.F            0.1000:   STEP LENGTH
 NULL.          -999.2500:   NO VALUE
 COMP. LAWRENCE/ALLISON INC:   COMPANY
 WELL.    72-46 SX #10-10:   WELL
 FLD .             TEAPOT:   FIELD
 LOC .      S10 T38N R78W:   LOCATION
 CNTY.            NATRONA:   COUNTY
 STAT.            WYOMING:   STATE
 CTRY. UNITED STATES OF AMERICA:   COUNTRY
 SRVC.           Gearhart:   SERVICE COMPANY
 DATE.        22-MAY-1988:   LOGDATE
 API .       490251122600:   API NUMBER
~CURVE INFORMATION
#MNEM.UNIT       API CODE    CURVE DESCRIPTION
#----------   ------------   ------------------------------
 DEPT.F                  :   
 GRR .GAPI   07 310 01 00:   GAMMA RAY
 RILD.OHMM   07 120 46 00:   INDUCTION LOG DEEP RESISTIVITY
 RILM.OHMM   07 120 44 00:   INDUCTION LOG MEDIUM RESISTIVITY
~PARAMETER INFORMATION
#MNEM.UNIT          VALUE    DESCRIPTION
#----------   ------------   ------------------------------
 PD  .                 GL:   PERMANENT DATUM
 EPD .F              5173:   ELEVATION PERMANENT DATUM
 LMF .                 KB:   LOG MEASURED FROM
 DAPD.F              10.2:   FEET ABOVE PERMANENT DATUM
 DMF .                 KB:   DRILLING MEASURED FROM
 EKB .F            5183.2:   KELLING BUSHING
 EGL .F              5173:   GROUND LEVEL
 DATE.        22-MAY-1988:   RUN DATE
 RUN .                  1:   RUN NUMBER
 DD  .F               505:   DEPTH DRILLER
 DL  .F               504:   DEPTH LOGGER
 BLI .F               500:   BOTTOM LOG INTERVAL
 TLI .F                50:   TOP LOG INTERVAL
 CS  .IN            9.625:   CASING SIZE
 CBD .F                52:   CASING BOTTOM DRILLER
 CBL .F                50:   CASING BOTTOM LOGGER
 BS  .IN             8.75:   BIT SIZE
 BSD .F               505:   BIT SIZE AT DEPTH
 DFT .                AIR:   DRILLING FLUID TYPE
 TLAB.HRS            1339:   TIME LOGGER AT BOTTOM
 LUN .               7597:   LOGGING UNIT NUMBER
 LUL .           GILLETTE:   LOGGING UNIT LOCATION
 ENGI.          HUCKFELDT:   RECORDING ENGINEER
 WITN.             STRONG:   WITNESSED BY
 CLNT.            A2DTECH:   CLIENT CODE
 ORIG.           5" PRINT:   ORIGIN OF DATA
 UWI .       490251122600:   UNIQUE WELL ID
 DICO. A2D Technologies, Inc.:   DIGITIZING COMPANY
~OTHER INFORMATION
~A   DEPT       GRR      RILD       RILM   
# ...
  305.2000    74.5985    27.0792    27.0987
  305.3000    74.8073    26.9981    27.0252
  305.4000    74.8118    26.9981    26.9101
  305.5000    75.0503    26.9930    26.9101
  305.6000    75.3023    26.8104    26.9101
  305.7000    75.5543    26.8104    26.7858
  305.8000    75.8063    26.8104    26.7229
  305.9000    76.0585    26.7542    26.7229
  306.0000    76.3600    26.6239    26.7229
  306.1000    76.7616    26.6239    26.7229
  306.2000    77.1190    26.6239    26.7229
  306.3000    77.3710    26.6239    26.7229
  306.4000    77.6524    26.6239    26.7229
  306.5000    78.2075    26.6239    26.7229
  306.6000    78.4317    26.6239    26.7229
  306.7000    78.8476    26.6239    26.7229
  306.8000    79.3475    26.6239    26.7229
  306.9000    79.8472    26.6239    26.7229
  307.0000    80.3593    26.6239    26.7229
  307.1000    80.6052    26.6239    26.7229
  307.2000    80.8573    26.6239    26.7229
  307.3000    81.1094    26.6239    26.7229
  307.4000    81.2177    26.6239    26.7229
  307.5000    80.9742    26.6239    26.7229
  307.6000    80.6899    26.6239    26.7229
  307.7000    80.6934    26.6239    26.7229
  307.8000    80.5480    26.6239    26.7229
  307.9000    80.2112    26.6239    26.7229
  308.0000    79.7564    26.6239    26.7229
  308.1000    79.4932    26.6239    26.7229
  308.2000    79.2694    26.6239    26.7229
  308.3000    79.0259    26.6239    26.7229
  308.4000    78.8968    26.6239    26.5800
  308.5000    78.8434    26.6239    26.5369
  308.6000    78.6009    26.6239    26.5369
  308.7000    78.6052    26.6239    26.5369
  308.8000    78.4171    26.6239    26.5369
  308.9000    78.3093    26.6239    26.5369
  309.0000    78.3136    26.6239    26.5369
  309.1000    78.3178    26.5316    26.4449
  309.2000    78.3227    26.4388    26.3523
  309.3000    78.5401    26.4388    26.3523
  309.4000    78.6350    26.4388    26.3523
  309.5000    78.7396    26.2967    26.2105
  309.6000    78.9479    26.2550    26.1689
  309.7000    78.9524    26.2550    26.0941
  309.8000    79.4266    26.2131    25.9868
  309.9000    79.5695    26.0637    25.9868
  310.0000    79.8172    25.8911    25.9868
  310.1000    80.2521    25.8911    25.8629
  310.2000    80.5040    25.8911    25.8060
  310.3000    80.8051    25.8331    25.8060
  310.4000    81.2079    25.6859    25.7807
  310.5000    81.5647    25.5323    25.6264
  310.6000    81.9032    25.5323    25.4875
  310.7000    82.3732    25.4263    25.4481
  310.8000    82.6525    25.3548    25.3744
  310.9000    83.0983    25.3134    25.2297
  311.0000    83.4338    25.1785    25.0951
  311.1000    83.6858    25.1785    25.0951
  311.2000    83.9889    25.1785    25.0951
  311.3000    84.4999    25.0893    25.0061
  311.4000    84.5041    25.0034    24.8636
  311.5000    84.5084    24.9779    24.7471
  311.6000    84.5126    24.8296    24.7471
  311.7000    84.5169    24.8296    24.6121
  311.8000    84.5053    24.8296    24.5749
  311.9000    84.2217    24.7568    24.5028
  312.0000    84.2252    24.6569    24.4039
  312.1000    84.0792    24.6569    24.4039
  312.2000    83.8357    24.6569    24.4039
  312.3000    83.6286    24.6569    24.2857
  312.4000    83.6338    24.6569    24.2341
  312.5000    83.4094    24.5998    24.2341
  312.6000    83.3376    24.4855    24.2084
  312.7000    83.2268    24.4855    24.0654
  312.8000    83.0417    24.4855    24.0654
  312.9000    83.0459    24.4855    24.0654
  313.0000    82.8006    24.4855    24.0654
  313.1000    82.7501    24.4855    24.0654
  313.2000    82.6180    24.4746    24.0547
  313.3000    82.4542    24.3152    23.8980
  313.4000    82.4353    24.3152    23.8980
  313.5000    82.1589    24.2273    23.8980
  313.6000    82.1626    24.1462    23.8980
  313.7000    82.1668    24.1462    23.8980
  313.8000    82.1711    24.1462    23.8980
  313.9000    82.1308    24.0128    23.8980
  314.0000    81.8754    23.9783    23.8980
  314.1000    81.8794    23.9783    23.8980
  314.2000    81.8837    23.9783    23.8980
  314.3000    81.7657    23.9783    23.8980
  314.4000    81.5878    23.9783    23.8980
  314.5000    81.5921    23.9783    23.8980
  314.6000    81.5972    23.9783    23.8980
  314.7000    81.6006    23.9783    23.8980
  314.8000    81.6049    23.9783    23.9253
  314.9000    81.5221    23.9783    24.0654
  315.0000    81.3085    23.9783    24.0654
  315.1000    81.3137    24.0822    24.0654
  315.2000    81.3175    24.1462    24.0654
  315.3000    81.3218    24.1462    24.0654
  315.4000    81.3260    24.1462    24.0654
  315.5000    81.3303    24.1462    24.0654
  315.6000    81.3346    24.1462    24.0654
  315.7000    81.3388    24.1462    24.0654
  315.8000    81.3431    24.1462    24.0654
  315.9000    81.3473    24.1746    24.0937
  316.0000    81.3516    24.3152    24.2341
  316.1000    81.3559    24.3152    24.2341
  316.2000    81.3608    24.3152    24.2341
  316.3000    81.3643    24.3152    24.3093
  316.4000    81.3686    24.3597    24.4039
  316.5000    81.3729    24.4855    24.4039
  316.6000    81.3772    24.4855    24.4039
  316.7000    81.3818    24.4855    24.4039
  316.8000    81.3857    24.4855    24.4039
  316.9000    81.3899    24.4855    24.4039
  317.0000    81.3942    24.4855    24.4334
  317.1000    81.3985    24.4855    24.5749
  317.2000    81.4027    24.4855    24.5749
  317.3000    81.4070    24.5933    24.5749
  317.4000    81.4113    24.6569    24.5749
  317.5000    81.4155    24.6569    24.5749
  317.6000    81.5001    24.6569    24.5896
  317.7000    81.7523    24.6569    24.7471
  317.8000    82.0377    24.6569    24.7471
  317.9000    82.2564    24.7504    24.7471
  318.0000    82.5084    24.8296    24.7471
  318.1000    82.9637    24.8296    24.7471
  318.2000    83.6665    24.8296    24.7471
  318.3000    84.1895    24.8296    24.7471
  318.4000    84.6661    24.9399    24.8571
  318.5000    85.1658    25.0034    24.9205
  318.6000    85.6657    25.0034    24.9205
  318.7000    86.2320    25.0034    24.9205
  318.8000    86.9696    25.0034    24.9205
  318.9000    87.5643    25.0034    24.9205
  319.0000    88.1709    25.0034    24.9205
  319.1000    88.6297    25.0034    24.9843
  319.2000    88.7939    25.0034    25.0951
  319.3000    88.7672    25.0034    25.0951
  319.4000    88.4985    25.0034    25.0951
  319.5000    88.2801    25.0034    25.0951
  319.6000    87.8710    25.0034    25.0150
  319.7000    87.4886    25.0034    24.9205
  319.8000    87.2451    24.9867    24.9205
  319.9000    86.9973    24.8296    24.9205
  320.0000    86.7581    24.8296    24.9205
  320.1000    86.5145    24.8296    24.9205
  320.2000    86.2709    24.8296    24.9205
  320.3000    86.1011    24.7969    24.9205
  320.4000    86.0882    24.6569    24.9191
  320.5000    85.8059    24.6569    24.7770
  320.6000    85.8095    24.6569    24.7471
  320.7000    85.6621    24.6569    24.7471
  320.8000    85.5135    24.6085    24.7471
  320.9000    85.5178    24.4855    24.7471
  321.0000    85.5224    24.4855    24.7471
  321.1000    85.5263    24.4855    24.7471
  321.2000    85.5306    24.4855    24.6511
  321.3000    85.5349    24.4855    24.5749
  321.4000    85.5391    24.4523    24.5749
  321.5000    85.5466    24.3152    24.5727
  321.6000    85.7985    24.3152    24.4326
  321.7000    85.8563    24.3152    24.4039
  321.8000    85.8605    24.2359    24.4039
  321.9000    85.8648    24.1462    24.4039
  322.0000    85.8934    24.1462    24.3858
  322.1000    86.1783    24.1462    24.2341
  322.2000    86.1821    24.0213    24.1086
  322.3000    86.1863    23.9783    24.0654
  322.4000    86.1905    23.9783    24.0016
  322.5000    86.1948    23.9449    23.8980
  322.6000    86.1993    23.8115    23.8949
  322.7000    86.2033    23.8115    23.7317
  322.8000    86.2076    23.7029    23.7317
  322.9000    86.2119    23.6460    23.6533
  323.0000    86.1492    23.5978    23.5185
  323.1000    85.9056    23.4816    23.4026
  323.2000    85.6166    23.4816    23.4026
  323.3000    85.6201    23.3592    23.2805
