~VERSION INFORMATION
 VERS.                2.0:   CWLS LOG ASCII STANDARD - VERSION 2.0
 WRAP.                 NO:   ONE LINE PER DEPTH STEP
~WELL INFORMATION
#MNEM.UNIT      DATA TYPE    INFORMATION
#----------   ------------   ------------------------------
 STRT.F           30.0000:   START DEPTH
 STOP.F          750.0000:   STOP DEPTH
 STEP.F            0.5000:   STEP LENGTH
 NULL.          -999.2500:   NO VALUE
 COMP. FENIX & SCISSON INC:   COMPANY
 WELL. TEAPOT DOME SX #38-11:   WELL
 FLD .             TEAPOT:   FIELD
 LOC .      S11 T38N R78W:   LOCATION
 CNTY.            NATRONA:   COUNTY
 STAT.            WYOMING:   STATE
 CTRY. UNITED STATES OF AMERICA:   COUNTRY
 SRVC.            Unknown:   SERVICE COMPANY
 DATE.        23-FEB-1978:   LOGDATE
 API .       490251058200:   API NUMBER
~CURVE INFORMATION
#MNEM.UNIT       API CODE    CURVE DESCRIPTION
#----------   ------------   ------------------------------
 DEPT.F                  :   
 CALD.IN     45 280 60 00:   CALIPER FROM DENSITY LOG
 GRD .GAPI   45 310 01 00:   GAMMA RAY FROM DENSITY LOG
 RHOB.G/C3   45 350 01 00:   BULK DENSITY
 DPHI.DEC    45 890 12 00:   DENSITY POROSITY SANDSTONE
 CORR.G/C3   45 356 01 00:   DENSITY CORRECTION
 SPR .MV     07 010 01 00:   SPONTANEOUS POTENTIAL FROM RES. LOG
 SN  .OHMM   07 040 16 00:   SHORT NORMAL 16'
 ILD .OHMM   07 120 46 00:   INDUCTION LOG DEEP
~PARAMETER INFORMATION
#MNEM.UNIT          VALUE    DESCRIPTION
#----------   ------------   ------------------------------
 PD  .                 GL:   PERMANENT DATUM
 EPD .F              5204:   ELEVATION PERMANENT DATUM
 LMF .                 KB:   LOG MEASURED FROM
 DAPD.F                 4:   FEET ABOVE PERMANENT DATUM
 DMF .                 KB:   DRILLING MEASURED FROM
 EKB .F              5208:   KELLING BUSHING
 EGL .F              5204:   GROUND LEVEL
 DATE.            2-23-78:   RUN DATE
 RUN .                  1:   RUN NUMBER
 DD  .F               755:   DEPTH DRILLER
 DL  .F               751:   DEPTH LOGGER
 BLI .F               745:   BOTTOM LOG INTERVAL
 TLI .F                45:   TOP LOG INTERVAL
 CS  .IN            8.625:   CASING SIZE
 CBD .F                40:   CASING BOTTOM DRILLER
 CBL .F                40:   CASING BOTTOM LOGGER
 BS  .IN            7.875:   BIT SIZE
 BSD .F               755:   BIT SIZE AT DEPTH
 DFT .         LIGNO SULF:   DRILLING FLUID TYPE
 DFD .                8.7:   DRILLING FLUID DENSITY
 DFV .                 33:   DRILLING FLUID VISCOSITY
 DFPH.                 10:   DRILLING FLUID PH
 DFL .                  4:   DRILLING FLUID LOSS
 MSS .          FLOW LINE:   MUD SAMPLE SOURCE
 RMS .OHMM              2:   RESISTIVITY MUD SAMPLE
 MST .F                60:   MUD SAMPLE TEMPERATURE
 RMF .OHMM            1.9:   RESISTIVITY MUD FILTRATE SAMPLE
 MFST.F                62:   MUD FILTRATE SAMPLE TEMPERATURE
 RMC .OHMM            3.5:   RESISTIVITY MUD CAKE
 MCST.F                60:   MUD CAKE SAMPLE TEMPERATURE
 MFSS.               MEAS:   MUD FILTRATE SAMPLE SOURCE
 MCSS.               MEAS:   MUD CAKE SAMPLE SOURCE
 RMB .OHMM           1.69:   RESISTIVITY MUD AT BHT
 BHT .F                71:   BOTTOM HOLE TEMPERATURE
 TCS .HRS               3:   TIME CURCULATED STOPPED
 MRT .F                71:   MAXIMUM RECORDED TEMPERATURE
 LUN .               2958:   LOGGING UNIT NUMBER
 LUL .               CASP:   LOGGING UNIT LOCATION
 ENGI.            POINTER:   RECORDING ENGINEER
 WITN.           MCGINLEY:   WITNESSED BY
 CLNT.            A2DTECH:   CLIENT CODE
 ORIG.       2", 5" PRINT:   ORIGIN OF DATA
 UWI .       490251058200:   UNIQUE WELL ID
 DICO. A2D Technologies, Inc.:   DIGITIZING COMPANY
~OTHER INFORMATION
~A   DEPT     CALD         GRD      RHOB       DPHI       CORR        SPR         SN        ILD   
# ...
  516.0000     8.2643   138.6809     2.4348     0.1392     0.0229   -37.8068     7.2135     5.7524
  516.5000     8.2593   139.6584     2.4178     0.1277     0.0363   -36.9650     6.7273     5.7272
  517.0000     8.2530   136.9009     2.4324     0.1183     0.0497   -36.1834     6.3392     5.7272
  517.5000     8.2616   135.5962     2.4506     0.1089     0.0625   -37.0248     6.2636     5.7272
  518.0000     8.5676   135.2158     2.4693     0.1046     0.0548   -38.0079     6.2232     5.6196
  518.5000     8.4004   132.3471     2.4774     0.1161     0.0420   -37.4570     6.3208     5.4204
  519.0000     8.3224   131.6566     2.4516     0.1255     0.0322   -37.4654     6.4271     5.2283
  519.5000     8.3489   133.0190     2.4546     0.1330     0.0275   -38.7667     6.5171     5.0430
  520.0000     8.3764   134.4012     2.4443     0.1424     0.0228   -38.1359     6.0923     4.8956
  520.5000     8.3915   134.5771     2.4187     0.1518     0.0245   -37.0233     5.7500     4.8998
  521.0000     8.3992   135.5152     2.3979     0.1540     0.0429   -37.1566     5.4270     4.9069
  521.5000     8.4062   137.5408     2.4036     0.1080     0.0811   -38.1043     5.1268     4.9141
  522.0000     8.4629   133.2811     2.4693     0.0771     0.0972   -39.0008     5.5708     4.9213
  522.5000     8.5794   130.6466     2.5194     0.0855     0.0572   -38.1526     5.3137     4.9287
  523.0000     8.4786   130.9147     2.5091     0.0905     0.0444   -37.5711     5.5886     4.9355
  523.5000     8.3737   127.4769     2.5000     0.0956     0.0358   -38.4676     6.2305     4.9332
  524.0000     8.3408   123.4334     2.4909     0.1007     0.0284   -39.4929     6.5951     5.3319
  524.5000     8.1895   121.3498     2.4818     0.1059     0.0272   -40.4063     6.6976     5.7276
  525.0000     8.3104   124.1815     2.4735     0.1057     0.0281   -39.9210     6.7875     6.1094
  525.5000     8.4072   127.8230     2.4739     0.1034     0.0289   -38.8915     6.8550     6.1668
  526.0000     8.3967   128.8506     2.4789     0.1090     0.0289   -37.9864     6.8882     6.2232
  526.5000     8.3878   126.1892     2.4788     0.1152     0.0264   -38.6400     6.8384     5.9841
  527.0000     8.3787   122.8158     2.4675     0.1235     0.0211   -38.7765     6.8009     5.6726
  527.5000     8.3695   122.0972     2.4551     0.1339     0.0159   -37.1232     6.7622     5.4155
  528.0000     8.3604   129.3106     2.4418     0.1444     0.0110   -37.2961     6.4550     5.0807
  528.5000     8.3513   133.4789     2.4142     0.1540     0.0180   -37.9371     6.0430     4.7989
  529.0000     8.3422   130.1483     2.3996     0.1270     0.0625   -36.7884     5.6592     4.7595
  529.5000     8.3323   126.7413     2.4096     0.0950     0.0997   -35.9657     5.3640     4.7204
  530.0000     8.3639   125.8291     2.4721     0.0866     0.0711   -35.8903     5.3196     4.6748
  530.5000     8.4058   126.2856     2.5126     0.0975     0.0286   -37.3335     5.3196     4.7109
  531.0000     8.3272   126.5794     2.4890     0.1133     0.0388   -38.8876     5.4988     4.7182
  531.5000     8.2463   125.0762     2.4707     0.0993     0.0464   -39.2179     5.8453     4.7619
  532.0000     8.1647   123.8505     2.4945     0.0851     0.0439   -38.4214     6.3363     5.1147
  532.5000     8.1134   123.9716     2.5088     0.0921     0.0311   -38.4539     6.8249     5.4730
  533.0000     8.0887   123.5489     2.4974     0.0971     0.0184   -38.6757     6.9800     5.8554
  533.5000     8.1163   120.7919     2.4889     0.1006     0.0130   -38.8878     7.2132     6.4016
  534.0000     8.1608   121.8615     2.4803     0.1007     0.0138   -39.0992     7.4542     6.3958
  534.5000     8.1400   123.7120     2.4743     0.0998     0.0150   -39.3094     7.7032     6.5747
  535.0000     8.0846   123.6469     2.4804     0.0989     0.0145   -39.5229     7.9605     6.7053
  535.5000     8.0275   123.4684     2.4866     0.0980     0.0138   -39.4155     8.1797     6.8384
  536.0000     7.9919   123.2952     2.4848     0.0974     0.0132   -39.0536     8.3164     6.9520
  536.5000     7.9627   123.4315     2.4904     0.1011     0.0126   -38.6789     8.4546     7.0279
  537.0000     7.9342   125.0059     2.4841     0.1046     0.0120   -38.7762     8.5969     7.0939
  537.5000     7.9111   125.1430     2.4767     0.1031     0.0113   -39.0593     8.5202     7.1604
  538.0000     7.9439   125.0336     2.4783     0.1039     0.0107   -39.3462     8.4252     7.2276
  538.5000     7.9973   123.5258     2.4816     0.1066     0.0100   -39.6319     8.3313     7.2954
  539.0000     7.9693   120.0496     2.4789     0.1058     0.0094   -39.9179     8.2385     7.3478
  539.5000     8.0821   117.1438     2.4747     0.1025     0.0094   -39.8810     8.1467     7.3358
  540.0000     8.2255   119.1892     2.4781     0.1005     0.0111   -39.5657     8.1330     7.3260
  540.5000     8.1582   121.4122     2.4847     0.1022     0.0127   -39.2519     8.2796     7.3162
  541.0000     8.1328   120.9148     2.4822     0.1002     0.0143   -39.2196     8.3820     7.3065
  541.5000     8.1356   120.4272     2.4861     0.0928     0.0160   -39.3593     8.4857     7.2969
  542.0000     8.1381   119.7409     2.4964     0.0908     0.0160   -39.4969     8.5906     7.2868
  542.5000     8.1409   117.8477     2.5006     0.0922     0.0119   -39.6350     8.6969     7.2804
  543.0000     8.1436   114.8388     2.4962     0.0930     0.0078   -39.7539     8.8051     7.4476
  543.5000     8.1463   111.8350     2.4951     0.0994     0.0037   -39.8765     8.9187     7.6003
  544.0000     8.1491   109.8823     2.4929     0.1057    -0.0004   -40.0008     8.8786     7.7571
  544.5000     8.1518   109.5784     2.4862     0.1104    -0.0045   -40.1197     8.8359     7.9121
  545.0000     8.1545   109.8861     2.4806     0.1147    -0.0086   -40.0885     8.7933     8.0658
  545.5000     8.1572   113.9539     2.4756     0.1190    -0.0127   -39.4110     8.7509     7.7691
  546.0000     8.1600   119.9612     2.4616     0.1267    -0.0168   -39.7911     8.7087     7.4160
  546.5000     8.1627   126.0006     2.4409     0.1403    -0.0209   -40.1745     8.6757     6.6251
  547.0000     8.1654   132.0544     2.4244     0.1538    -0.0250   -40.5525     8.1941     5.8267
  547.5000     8.1681   137.8743     2.4012     0.1674    -0.0280   -40.8264     7.6362     5.4187
  548.0000     8.1711   141.5136     2.3700     0.1847     0.0155   -40.7934     6.8144     5.4187
  548.5000     8.1853   132.9406     2.3502     0.1290     0.0722   -40.0304     5.9977     5.4183
  549.0000     8.2005   121.7425     2.4192     0.0612     0.1220   -39.2397     6.0943     5.4185
  549.5000     8.2170   109.9386     2.5972     0.0596     0.0629   -39.6079     6.1825     5.4206
  550.0000     8.2384   109.2772     2.5559     0.0692     0.0192   -39.9654     6.2692     5.4187
  550.5000     8.2594   109.3878     2.5180     0.0828     0.0191   -39.0394     7.2424     5.9670
  551.0000     8.2626   109.0996     2.5210     0.0893     0.0190   -40.0791     8.9097     6.6402
  551.5000     8.2469   108.3590     2.5179     0.0871     0.0111   -40.5807     9.7613     7.7115
  552.0000     8.2313   107.6028     2.4947     0.0922     0.0125   -39.8035    10.2708     8.4344
  552.5000     8.2156   107.5360     2.4934     0.0923     0.0144   -39.8917    10.7355     8.7561
  553.0000     8.1999   110.8620     2.4956     0.0925     0.0162   -40.7863    10.7388     8.7561
  553.5000     8.1909   114.8338     2.4914     0.0957     0.0160   -41.6674    10.7552     8.7561
  554.0000     8.1909   117.0255     2.4902     0.0980     0.0138   -42.3083    10.7683     8.7561
  554.5000     8.1909   114.5969     2.4916     0.1004     0.0116   -41.9290    10.7815     8.7561
  555.0000     8.1907   113.4569     2.4891     0.1036     0.0094   -41.8396    10.7948     8.7561
  555.5000     8.1841   117.1486     2.4851     0.1068     0.0073   -42.4171    10.8165     8.7561
  556.0000     8.1773   116.7895     2.4826     0.1099     0.0051   -42.2836    10.8170     8.9569
