~VERSION INFORMATION
 VERS.                2.0:   CWLS LOG ASCII STANDARD - VERSION 2.0
 WRAP.                 NO:   ONE LINE PER DEPTH STEP
~WELL INFORMATION
#MNEM.UNIT      DATA TYPE    INFORMATION
#----------   ------------   ------------------------------
 STRT.F          672.0000:   START DEPTH
 STOP.F         2343.5000:   STOP DEPTH
 STEP.F            0.5000:   STEP LENGTH
 NULL.          -999.2500:   NO VALUE
 COMP. FENIX & SCISSON INC:   COMPANY
 WELL.   23 SHX-33 #23-33:   WELL
 FLD .             TEAPOT:   FIELD
 LOC .      S33 T39N R78W:   LOCATION
 CNTY.            NATRONA:   COUNTY
 STAT.            WYOMING:   STATE
 CTRY. UNITED STATES OF AMERICA:   COUNTRY
 SRVC.            Unknown:   SERVICE COMPANY
 DATE.        01-MAY-1978:   LOGDATE
 API .       490251062700:   API NUMBER
~CURVE INFORMATION
#MNEM.UNIT       API CODE    CURVE DESCRIPTION
#----------   ------------   ------------------------------
 DEPT.F                  :   
 IL  .OHMM   05 120 00 00:   INDUCTION LOG
 CIL .MMHO   05 110 00 00:   CONDUCTIVITY INDUCTION LOG
 CALD.IN     45 280 60 00:   CALIPER FROM DENSITY LOG
 GRD .GAPI   45 310 01 00:   GAMMA RAY FROM DENSITY LOG
 DPHI.DEC    45 890 12 00:   DENSITY POROSITY SANDSTONE
 RHOB.G/C3   45 350 01 00:   BULK DENSITY
 CORR.G/C3   45 356 01 00:   DENSITY CORRECTION
~PARAMETER INFORMATION
#MNEM.UNIT          VALUE    DESCRIPTION
#----------   ------------   ------------------------------
 PD  .                 GL:   PERMANENT DATUM
 EPD .F              5163:   ELEVATION PERMANENT DATUM
 LMF .                 KB:   LOG MEASURED FROM
 DAPD.F                10:   FEET ABOVE PERMANENT DATUM
 DMF .                 KB:   DRILLING MEASURED FROM
 EKB .F              5173:   KELLING BUSHING
 EGL .F              5163:   GROUND LEVEL
 DATE.           5-1-1978:   RUN DATE
 RUN .                  1:   RUN NUMBER
 DD  .F              2331:   DEPTH DRILLER
 DL  .F              2260:   DEPTH LOGGER
 BLI .F              2250:   BOTTOM LOG INTERVAL
 TLI .F               690:   TOP LOG INTERVAL
 CS  .IN            9.625:   CASING SIZE
 CBD .F               683:   CASING BOTTOM DRILLER
 CBL .F               690:   CASING BOTTOM LOGGER
 BS  .IN             8.75:   BIT SIZE
 BSD .F              2331:   BIT SIZE AT DEPTH
 DFT .                OIL:   DRILLING FLUID TYPE
 BHT .F               104:   BOTTOM HOLE TEMPERATURE
 TCS .HRS               5:   TIME CURCULATED STOPPED
 MRT .F               104:   MAXIMUM RECORDED TEMPERATURE
 LUN .               2958:   LOGGING UNIT NUMBER
 LUL .               CASP:   LOGGING UNIT LOCATION
 ENGI.             MILLER:   RECORDING ENGINEER
 WITN.           MCGINLEY:   WITNESSED BY
 CLNT.            A2DTECH:   CLIENT CODE
 ORIG.       2", 5" PRINT:   ORIGIN OF DATA
 UWI .       490251062700:   UNIQUE WELL ID
 DICO. A2D Technologies, Inc.:   DIGITIZING COMPANY
~OTHER INFORMATION
~A   DEPT       IL        CIL       CALD         GRD      DPHI       RHOB       CORR   
# ...
  763.0000     9.1496   100.6022    10.1556   127.6602     0.0109     2.5285     0.0553
  763.5000     9.0696   101.3195    10.0732   130.2727     0.0125     2.5347     0.0586
  764.0000     9.0700   102.0369     9.9832   129.4035     0.0136     2.5294     0.0619
  764.5000     9.0733   102.7542     9.8933   127.8493     0.0138     2.5244     0.0651
  765.0000     9.0277   103.4717     9.8877   127.2638     0.0135     2.5251     0.0673
  765.5000     9.0319   104.1888    10.0181   129.3250     0.0133     2.5277     0.0639
  766.0000     8.9555   104.9019    10.0353   128.3508     0.0148     2.5278     0.0616
  766.5000     8.9074   105.5556     9.9291   127.6030     0.0227     2.5200     0.0593
  767.0000     8.8361   106.5204     9.9226   128.4899     0.0191     2.5122     0.0570
  767.5000     8.7662   107.4016    10.0413   127.7533     0.0189     2.5189     0.0628
  768.0000     8.6802   108.2829     9.8714   127.3360     0.0170     2.5199     0.0696
  768.5000     8.5938   109.1637     9.6773   128.7677     0.0049     2.5149     0.0764
  769.0000     8.5073   110.0481     9.6784   129.6893     0.0111     2.5193     0.0831
  769.5000     8.4207   110.8995     9.6750   127.0792     0.0283     2.5350     0.0874
  770.0000     8.3432   111.7065     9.6711   123.0241     0.0244     2.5185     0.0731
  770.5000     8.2715   112.5136     9.6675   128.1819     0.0163     2.5016     0.0608
  771.0000     8.2001   113.3206     9.6622   128.1069     0.0302     2.5001     0.0610
  771.5000     8.1287   114.1276     9.7098   128.1456     0.0248     2.5100     0.0653
  772.0000     8.0574   114.9346     9.7306   126.4244     0.0152     2.4978     0.0786
  772.5000     7.9859   115.7416     9.7294   125.2291     0.0057     2.5122     0.1029
  773.0000     7.9146   116.5486     9.6197   130.2902    -0.0049     2.5308     0.1047
  773.5000     7.8432   119.1602     9.5089   128.4164    -0.0150     2.5493     0.1051
  774.0000     7.7718   120.7071     9.3985   127.3866    -0.0056     2.5730     0.1029
  774.5000     7.7004   120.7071     9.2868   132.3487     0.0045     2.5632     0.0810
  775.0000     7.6288   120.7071     9.2213   135.3760     0.0049     2.5480     0.0691
  775.5000     7.5576   120.7071     9.1860   131.6653     0.0020     2.5381     0.0695
  776.0000     7.4939   120.7071     9.3798   130.7628     0.0009     2.5408     0.0704
  776.5000     7.4846   120.7071     9.5797   133.3288     0.0028     2.5443     0.0712
  777.0000     7.4559   120.7071     9.6174   135.4432     0.0048     2.5471     0.0692
  777.5000     7.4660   120.7071     9.6847   135.9557     0.0068     2.5439     0.0629
  778.0000     7.4786   120.7071     9.5979   133.1175     0.0080     2.5385     0.0522
  778.5000     7.4911   120.7071    11.0223   129.7279     0.0076     2.5330     0.0416
  779.0000     7.5034   120.7071    10.9640   126.3155     0.0072     2.5336     0.0353
  779.5000     7.5158   120.7071    10.6588   125.9269     0.0068     2.5354     0.0338
  780.0000     7.5286   120.7071    10.4075   127.1549     0.0076     2.5371     0.0321
  780.5000     7.5576   120.7004    10.3744   129.8896     0.0089     2.5379     0.0303
  781.0000     7.6104   120.1132    10.3700   131.1771     0.0080     2.5318     0.0286
  781.5000     7.6629   117.5272    10.3623   131.5942     0.0061     2.5237     0.0279
  782.0000     7.7155   115.4141    10.3573   131.9929     0.0043     2.5298     0.0329
  782.5000     7.7681   114.4987    10.3243   131.7281     0.0025     2.5355     0.0380
  783.0000     7.8205   113.5833    10.2508   130.0168     0.0017     2.5413     0.0431
  783.5000     7.8732   112.6679    10.1775   130.2354     0.0051     2.5470     0.0446
  784.0000     7.9439   111.7524    10.1032   130.5919     0.0106     2.5464     0.0405
  784.5000     8.0332   110.8370    10.0940   127.4725     0.0136     2.5337     0.0371
  785.0000     8.1221   109.9216    10.0783   125.7906     0.0071     2.5288     0.0407
  785.5000     8.2110   109.0062    10.0667   124.9592     0.0041     2.5372     0.0444
  786.0000     8.2999   108.0908    10.0559   123.7763     0.0041     2.5456     0.0471
  786.5000     8.3888   107.1753    10.0450   122.2160     0.0079     2.5503     0.0492
  787.0000     8.4776   106.2599    10.0340   120.6203     0.0132     2.5413     0.0513
  787.5000     8.5667   105.3431    10.0230   118.4315     0.0178     2.5311     0.0606
  788.0000     8.6559   104.4233    10.0123   120.5723     0.0146     2.5230     0.0696
  788.5000     8.7581   103.5353    10.0001   123.1537     0.0092     2.5287     0.0786
  789.0000     8.8306   104.0903    10.0632   124.9955     0.0057     2.5341     0.0751
  789.5000     8.8123   104.6324    10.1523   124.8689     0.0092     2.5306     0.0616
  790.0000     8.7883   105.1745    10.2424   124.7537     0.0156     2.5402     0.0481
  790.5000     8.7639   105.7166    10.3105   125.1743     0.0092     2.5323     0.0347
  791.0000     8.7394   106.2587    10.2406   127.3636     0.0098     2.5226     0.0253
  791.5000     8.7150   106.8007    10.1837   131.8735     0.0104     2.5378     0.0234
  792.0000     8.6906   107.3428    10.1669   137.5069     0.0088     2.5335     0.0236
  792.5000     8.6662   107.8849    10.1425   136.7156     0.0022     2.5276     0.0242
  793.0000     8.6418   108.4270    10.1030   136.1132     0.0026     2.5386     0.0247
  793.5000     8.6174   108.9691    10.0636   136.1526     0.0026     2.5478     0.0252
  794.0000     8.5929   109.5112    10.0244   135.2064    -0.0011     2.5406     0.0258
  794.5000     8.5685   110.0533    10.0198   129.2185    -0.0051     2.5424     0.0263
  795.0000     8.5441   110.6061    10.0198   126.2114    -0.0048     2.5591     0.0268
  795.5000     8.5195   110.7918    10.0200   125.7737    -0.0028     2.5642     0.0274
  796.0000     8.5076   110.9814     9.9961   129.3783    -0.0034     2.5644     0.0279
  796.5000     8.4615   111.1709     9.9530   128.3294    -0.0043     2.5463     0.0285
  797.0000     8.4471   111.3605     9.9072   127.5321    -0.0034     2.5549     0.0290
  797.5000     8.4289   111.5500     9.9221   127.4215    -0.0051     2.5636     0.0295
  798.0000     8.4111   111.7395     9.9339   128.4148    -0.0057     2.5494     0.0301
  798.5000     8.3934   111.9291     9.9479   130.9757    -0.0035     2.5617     0.0306
  799.0000     8.3756   112.1186     9.9616   131.3368    -0.0015     2.5656     0.0312
  799.5000     8.3579   112.3081     9.9753   131.1415    -0.0015     2.5501     0.0313
  800.0000     8.3401   112.4977     9.9890   130.3980    -0.0015     2.5502     0.0313
  800.5000     8.3224   112.6872    10.0027   128.6758    -0.0003     2.5508     0.0331
  801.0000     8.3046   112.8767    10.0175   126.9831     0.0024     2.5496     0.0356
  801.5000     8.2869   113.0663     9.9917   125.5569     0.0050     2.5447     0.0382
  802.0000     8.2691   113.2558     9.9540   127.7381     0.0044     2.5386     0.0407
  802.5000     8.2514   113.4453     9.9159   133.8308     0.0029     2.5370     0.0457
  803.0000     8.2336   113.6349     9.8781   137.4366     0.0029     2.5421     0.0514
  803.5000     8.2159   113.8244     9.8369   131.1996    -0.0006     2.5460     0.0572
  804.0000     8.1981   114.0139     9.8214   121.6952    -0.0062     2.5427     0.0629
  804.5000     8.1804   114.2035     9.8209   113.2129    -0.0114     2.5463     0.0672
  805.0000     8.1627   114.3930     9.8211   118.4721    -0.0027     2.5606     0.0637
  805.5000     8.1449   114.5825     9.8210   125.7179     0.0057     2.5643     0.0487
  806.0000     8.1272   114.7721     9.8001   131.0123     0.0084     2.5425     0.0339
  806.5000     8.1094   114.9616     9.7770   130.9381    -0.0023     2.5319     0.0368
  807.0000     8.0859   115.1511     9.7612   127.1337    -0.0106     2.5398     0.0425
  807.5000     8.0569   115.3407     9.7629   126.7913    -0.0162     2.5539     0.0482
  808.0000     8.0279   115.5302     9.7670   126.1629    -0.0068     2.5691     0.0454
