~VERSION INFORMATION
 VERS.                2.0:   CWLS LOG ASCII STANDARD - VERSION 2.0
 WRAP.                 NO:   ONE LINE PER DEPTH STEP
~WELL INFORMATION
#MNEM.UNIT      DATA TYPE    INFORMATION
#----------   ------------   ------------------------------
 STRT.F            0.0000:   START DEPTH
 STOP.F         1283.5000:   STOP DEPTH
 STEP.F            0.5000:   STEP LENGTH
 NULL.          -999.2500:   NO VALUE
 COMP.      U.S. NAVY NPR:   COMPANY
 WELL. NAVAL PETROLEUM RESERVE 3 ST-11 #88-11:   WELL
 FLD .             TEAPOT:   FIELD
 LOC .      S11 T38N R78W:   LOCATION
 CNTY.            NATRONA:   COUNTY
 STAT.            WYOMING:   STATE
 CTRY. UNITED STATES OF AMERICA:   COUNTRY
 SRVC.       Schlumberger:   SERVICE COMPANY
 DATE.        01-NOV-1958:   LOGDATE
 API .       490250632600:   API NUMBER
~CURVE INFORMATION
#MNEM.UNIT       API CODE    CURVE DESCRIPTION
#----------   ------------   ------------------------------
 DEPT.F                  :   
 GRN .GAPI   35 310 01 00:   GAMMA RAY
 NEUT.NAPI   35 330 01 00:   NEUTRON
 ASN .OHMM   01 041 16 00:   AMPLIFIED SHORT NORMAL
 LAT .OHMM   01 070 18 00:   LATERAL 18"
 LN  .OHMM   01 060 64 00:   LONG NORMAL 64"
 SPR .MV     01 010 01 00:   SPONTANEOUS POTENTIAL
 CALM.IN     15 280 01 00:   CALIPER FROM MICRO LOG
~PARAMETER INFORMATION
#MNEM.UNIT          VALUE    DESCRIPTION
#----------   ------------   ------------------------------
 LMF .                 KB:   LOG MEASURED FROM
 DMF .                 KB:   DRILLING MEASURED FROM
 EKB .F              5289:   KELLING BUSHING
 EGL .F              5279:   GROUND LEVEL
 DATE.        01-NOV-1958:   RUN DATE
 RUN .                  1:   RUN NUMBER
 DD  .F              1280:   DEPTH DRILLER
 DL  .F              1283:   DEPTH LOGGER
 BLI .F              1282:   BOTTOM LOG INTERVAL
 TLI .F               150:   TOP LOG INTERVAL
 CBD .F                45:   CASING BOTTOM DRILLER
 BS  .IN            7.875:   BIT SIZE
 BSD .F              1280:   BIT SIZE AT DEPTH
 DFT .                GEL:   DRILLING FLUID TYPE
 DFD .                9.1:   DRILLING FLUID DENSITY
 DFV .                 63:   DRILLING FLUID VISCOSITY
 DFL .                2.1:   DRILLING FLUID LOSS
 RMS .OHMM            2.4:   RESISTIVITY MUD SAMPLE
 MST .F                56:   MUD SAMPLE TEMPERATURE
 RMF .OHMM           1.45:   RESISTIVITY MUD FILTRATE SAMPLE
 MFST.F                79:   MUD FILTRATE SAMPLE TEMPERATURE
 RMC .OHMM            1.7:   RESISTIVITY MUD CAKE
 MCST.F                79:   MUD CAKE SAMPLE TEMPERATURE
 MFSS.               MEAS:   MUD FILTRATE SAMPLE SOURCE
 MCSS.               MEAS:   MUD CAKE SAMPLE SOURCE
 RMB .OHMM            1.6:   RESISTIVITY MUD AT BHT
 BHT .F                79:   BOTTOM HOLE TEMPERATURE
 TCS .HRS               1:   TIME CURCULATED STOPPED
 MRT .F                79:   MAXIMUM RECORDED TEMPERATURE
 LUN .               2544:   LOGGING UNIT NUMBER
 LUL .                 NC:   LOGGING UNIT LOCATION
 ENGI.            EARNEST:   RECORDING ENGINEER
 WITN.             MARTIN:   WITNESSED BY
 CLNT.            A2DTECH:   CLIENT CODE
 ORIG.         2.5" PRINT:   ORIGIN OF DATA
 UWI .       490250632600:   UNIQUE WELL ID
 DICO. A2D Technologies, Inc.:   DIGITIZING COMPANY
~OTHER INFORMATION
~A    DEPT       GRN     NEUT        ASN        LAT         LN        SPR       CALM   
# ...
 1001.0000     4.9870   266.9294     8.3699     8.8344     6.8019   -13.9404     8.1431
 1001.5000     4.9823   273.3053     8.2069     8.9716     6.6680   -13.6614     8.1481
 1002.0000     4.8399   269.5839     7.9897     8.9729     6.6700   -13.6559     8.1714
 1002.5000     5.0938   272.5188     7.7724     8.9743     6.5360   -13.6049     8.1446
 1003.0000     5.2527   280.6781     7.5552     8.9756     6.5380   -13.3167     8.1453
 1003.5000     5.3715   282.3707     7.3651     8.7052     6.5400   -13.0286     8.1458
 1004.0000     5.2504   272.3675     7.2294     8.5707     6.5420   -12.8134     8.1463
 1004.5000     4.8892   273.8098     7.2023     8.2967     6.5440   -12.8079     8.1469
 1005.0000     4.9727   292.4178     7.2024     8.0208     6.5461   -12.8024     8.1474
 1005.5000     4.8912   286.3228     7.2569     7.7450     6.5481   -12.8972     8.1481
 1006.0000     4.8258   278.1365     7.3121     7.6249     6.5502   -13.0661     8.1486
 1006.5000     4.9385   287.5209     7.3946     7.4904     6.5522   -13.1781     8.1219
 1007.0000     4.8860   296.1906     7.4771     7.4918     6.5542   -13.3277     8.0953
 1007.5000     4.8922   281.1216     7.5020     7.4932     6.5563   -13.3222     8.0952
 1008.0000     4.9806   272.1257     7.4982     7.4946     6.5583   -13.3167     8.0945
 1008.5000     5.0881   271.3397     7.4751     7.4959     6.5603   -13.5848     8.0945
 1009.0000     5.2318   273.5390     7.4809     7.4973     6.4261   -13.5783     8.0950
 1009.5000     5.4402   293.6505     7.5090     7.4986     6.4285   -13.5729     8.0954
 1010.0000     5.5421   301.8205     7.5371     7.5000     6.4305   -13.8419     8.0958
 1010.5000     5.4811   318.5470     7.5924     7.6372     6.3684   -14.1100     8.0962
 1011.0000     5.6175   333.6813     7.6749     7.6386     6.2986   -14.3781     8.0966
 1011.5000     5.5966   338.2720     7.7399     7.6399     6.3380   -14.3130     8.0970
 1012.0000     5.3982   310.1646     7.8127     7.7774     6.4387   -14.1259     8.0974
 1012.5000     5.4174   315.5457     7.9065     7.7788     6.4407   -14.1218     8.1250
 1013.0000     5.7165   329.7859     7.9626     7.7801     6.4431   -14.1178     8.1254
 1013.5000     5.8156   323.2761     8.0057     7.7814     6.4451   -13.8402     8.1258
 1014.0000     5.7547   299.7500     8.0473     7.7826     6.4471   -13.8362     8.1262
 1014.5000     5.8739   295.6299     8.0600     7.7841     6.4489   -13.8322     8.1538
 1015.0000     5.7530   314.0912     8.0050     7.7853     6.4509   -13.8282     8.1814
 1015.5000     5.5721   308.8271     7.9390     7.7867     6.4531   -13.5506     8.2090
 1016.0000     5.6526   313.2654     7.8848     7.7881     6.4550   -13.5319     8.2366
 1016.5000     5.8343   324.4208     7.8306     7.7798     6.4571   -13.2688     8.2370
 1017.0000     5.8747   319.9030     7.7492     7.7713     6.4591   -13.2647     8.2374
 1017.5000     5.9218   292.2487     7.7221     7.7628     6.4611   -13.2606     8.2378
 1018.0000     6.0876   278.0284     7.6680     7.7543     6.4631   -13.2565     8.2382
 1018.5000     6.0294   311.7213     7.6681     7.7458     6.4652   -13.5265     8.2387
 1019.0000     5.5951   323.6214     7.7465     7.7372     6.4672   -13.7961     8.2391
 1019.5000     5.5247   344.8755     7.8499     7.7287     6.4693   -13.8889     8.2395
 1020.0000     5.4039   357.2239     7.9330     7.7202     6.4713   -14.0616     8.2400
 1020.5000     5.1630   354.6953     7.9889     7.7117     6.4733   -14.3302     8.2404
 1021.0000     5.0421   331.8666     8.0221     7.7032     6.4754   -14.5997     8.2408
 1021.5000     5.0866   323.2169     7.9399     7.6960     6.4346   -14.8691     8.2139
 1022.0000     5.3804   311.2762     7.8848     7.5621     6.3432   -14.8650     8.1872
 1022.5000     5.5195   303.0267     7.8569     7.5113     6.3455   -15.1337     8.1876
 1023.0000     5.6213   297.0162     7.8720     7.4015     6.3476   -15.1297     8.1608
 1023.5000     5.5390   284.2887     7.8997     7.2969     6.2859   -14.8521     8.1340
 1024.0000     5.4569   284.9953     7.9272     7.2989     6.1468   -14.8481     8.0800
 1024.5000     5.6479   287.9409     7.9276     7.3010     6.0818   -14.8441     8.0532
 1025.0000     5.9551   277.4525     7.9280     7.2237     6.0838   -14.8401     8.0808
 1025.5000     5.9061   257.2615     7.9284     7.1692     5.9499   -14.5625     8.1120
 1026.0000     5.5092   267.9673     7.8745     7.1715     5.8164   -14.5585     8.1632
 1026.5000     5.2096   273.5968     7.7934     7.1735     5.8184   -14.5545     8.1908
 1027.0000     5.0512   281.0252     7.6851     7.1755     5.8204   -14.5485     8.2184
 1027.5000     5.2304   275.7611     7.5768     7.0414     5.6862   -14.2728     8.2460
 1028.0000     4.5495   279.8924     7.4957     6.9078     5.6884   -14.2687     8.2565
 1028.5000     4.4286   284.1808     7.3579     6.7739     5.6826   -14.2646     8.2855
 1029.0000     4.4025   282.9456     7.2179     6.6401     5.6662   -14.2605     8.2888
 1029.5000     4.5669   269.6116     7.0791     6.2344     5.6499   -14.2564     8.2748
 1030.0000     4.8460   272.5573     6.9085     6.1006     5.6335   -14.2523     8.2480
 1030.5000     4.8651   272.7218     6.6927     5.8308     5.6155   -14.2482     8.2485
 1031.0000     4.7643   269.4925     6.4723     5.6970     5.4802   -14.2441     8.2489
 1031.5000     4.8034   267.2137     6.2904     5.6880     5.4809   -14.2400     8.2493
 1032.0000     4.8344   264.9350     6.0677     5.4292     5.4816   -14.2359     8.2225
 1032.5000     5.1482   261.9099     5.8655     5.4529     5.4823   -14.7789     8.2229
 1033.0000     5.4166   264.9536     5.6994     5.5960     5.4829   -14.6308     8.2233
 1033.5000     5.3224   267.8980     5.6127     5.7391     5.4836   -14.3412     8.2237
 1034.0000     5.3401   265.6668     5.6527     5.8822     5.4843   -13.9451     8.2241
 1034.5000     5.3777   256.1756     5.9441     6.1189     5.4850   -13.6675     8.2245
 1035.0000     5.4970   241.0548     6.2649     6.2568     5.4856   -13.6635     8.2521
 1035.5000     5.3560   233.4517     6.5236     6.2588     5.4863   -13.6595     8.2797
 1036.0000     5.2951   234.5037     6.6055     6.2609     5.3510   -13.6555     8.2841
 1036.5000     4.9742   243.3707     6.6602     6.2629     5.3517   -13.6515     8.3077
 1037.0000     5.1347   244.3746     6.7150     6.2649     5.3524   -13.9213     8.3081
 1037.5000     4.8925   250.2976     6.7697     6.3717     5.3531   -13.9170     8.3085
 1038.0000     5.1996   265.1848     6.8245     6.4049     5.3538   -14.1866     8.2997
 1038.5000     5.3334   274.1011     6.8521     6.4073     5.3545   -14.4561     8.2821
 1039.0000     5.3699   277.7931     6.9068     6.2734     5.3551   -14.4520     8.2554
 1039.5000     5.2529   276.2607     6.9887     6.2754     5.3558   -14.4479     8.2154
 1040.0000     5.0880   274.7283     7.0435     6.2774     5.3565   -14.4438     8.2018
 1040.5000     4.8873   271.5016     7.0711     6.4153     5.3572   -14.4397     8.1750
 1041.0000     5.4342   265.0936     7.0149     6.4173     5.3579   -14.7096     8.2027
 1041.5000     5.3426   263.4140     6.9326     6.5552     5.3585   -14.7050     8.2031
 1042.0000     5.1642   274.5694     6.8730     6.5572     5.2233   -14.9751     8.2307
 1042.5000     5.1168   272.0357     6.7953     6.5592     5.2241   -14.9704     8.2311
 1043.0000     5.0625   262.8388     6.7062     6.5612     5.2247   -14.9663     8.2043
 1043.5000     4.9016   264.5894     6.6229     6.5632     5.2254   -14.9622     8.2047
 1044.0000     5.3407   270.6682     6.5214     6.5652     5.2261   -15.0894     8.2051
 1044.5000     5.4599   259.4241     6.4289     6.5673     5.0907   -15.2275     8.2055
 1045.0000     5.5190   264.6087     6.2686     6.4333     4.9555   -15.2234     8.2059
 1045.5000     5.4701   274.2715     6.1263     6.4144     4.9562   -15.2185     8.1791
 1046.0000     5.1932   269.7537     6.0293     6.2754     4.8208   -15.2145     8.1795
