~VERSION INFORMATION
 VERS.                2.0:   CWLS LOG ASCII STANDARD - VERSION 2.0
 WRAP.                 NO:   ONE LINE PER DEPTH STEP
~WELL INFORMATION
#MNEM.UNIT      DATA TYPE    INFORMATION
#----------   ------------   ------------------------------
 STRT.F         1208.5000:   START DEPTH
 STOP.F         3816.0000:   STOP DEPTH
 STEP.F            0.5000:   STEP LENGTH
 NULL.          -999.2500:   NO VALUE
 COMP. BROWN JOHN E&C INC:   COMPANY
 WELL. NPR 3 STX-11 #13-11:   WELL
 FLD .             TEAPOT:   FIELD
 LOC .      S11 T38N R78W:   LOCATION
 CNTY.            NATRONA:   COUNTY
 STAT.            WYOMING:   STATE
 CTRY. UNITED STATES OF AMERICA:   COUNTRY
 SRVC.            Unknown:   SERVICE COMPANY
 DATE.        08-APR-1986:   LOGDATE
 API .       490251105000:   API NUMBER
~CURVE INFORMATION
#MNEM.UNIT       API CODE    CURVE DESCRIPTION
#----------   ------------   ------------------------------
 DEPT.F                  :   
 ROP .MIN/FT 91 810 01 00:   RATE OF DRILLING PENETRATION
 TGAS.UNITS  91 830 01 00:   TOTAL GAS FROM HOTWIRE
 GR  .GAPI   81 310 01 00:   GAMMA RAY
 TT  .US/F   81 520 00 00:   TRANSIT TIME
~PARAMETER INFORMATION
#MNEM.UNIT          VALUE    DESCRIPTION
#----------   ------------   ------------------------------
 PD  .                 GL:   PERMANENT DATUM
 EPD .F              5176:   ELEVATION PERMANENT DATUM
 LMF .                 KB:   LOG MEASURED FROM
 DAPD.F              11.8:   FEET ABOVE PERMANENT DATUM
 DMF .                 KB:   DRILLING MEASURED FROM
 EKB .F            5187.8:   KELLING BUSHING
 EGL .F              5176:   GROUND LEVEL
 DATE.             4-8-86:   RUN DATE
 RUN .                  1:   RUN NUMBER
 DD  .F              4051:   DEPTH DRILLER
 DL  .F              3815:   DEPTH LOGGER
 BLI .F              3815:   BOTTOM LOG INTERVAL
 TLI .F              2200:   TOP LOG INTERVAL
 CS  .IN              5.5:   CASING SIZE
 CBD .F              3861:   CASING BOTTOM DRILLER
 DFT .              WATER:   DRILLING FLUID TYPE
 BHT .F               167:   BOTTOM HOLE TEMPERATURE
 MRT .F               167:   MAXIMUM RECORDED TEMPERATURE
 LUN .            558/374:   LOGGING UNIT NUMBER
 LUL .             CASPER:   LOGGING UNIT LOCATION
 ENGI.             BAILEY:   RECORDING ENGINEER
 WITN.             BARRON:   WITNESSED BY
 CLNT.            A2DTECH:   CLIENT CODE
 ORIG.     2.5", 5" PRINT:   ORIGIN OF DATA
 UWI .       490251105000:   UNIQUE WELL ID
 DICO. A2D Technologies, Inc.:   DIGITIZING COMPANY
~OTHER INFORMATION
~A  DEPT         ROP     TGAS         GR         TT   
# ...
 1938.5000     0.5822    21.3362  -999.2500  -999.2500
 1939.0000     0.5769    21.7241  -999.2500  -999.2500
 1939.5000     0.6154    22.5214  -999.2500  -999.2500
 1940.0000     0.6750    23.3793  -999.2500  -999.2500
 1940.5000     0.7360    24.1445  -999.2500  -999.2500
 1941.0000     0.7784    24.7074  -999.2500  -999.2500
 1941.5000     0.8077    25.3904  -999.2500  -999.2500
 1942.0000     0.8247    25.6034  -999.2500  -999.2500
 1942.5000     0.8567    25.8605  -999.2500  -999.2500
 1943.0000     0.8779    26.2894  -999.2500  -999.2500
 1943.5000     0.9424    26.7672  -999.2500  -999.2500
 1944.0000     0.9808    27.1552  -999.2500  -999.2500
 1944.5000     1.0000    27.5763  -999.2500  -999.2500
 1945.0000     1.0407    28.0054  -999.2500  -999.2500
 1945.5000     1.0831    28.4344  -999.2500  -999.2500
 1946.0000     1.1103    28.8634  -999.2500  -999.2500
 1946.5000     1.0751    29.2924  -999.2500  -999.2500
 1947.0000     1.0205    29.9599  -999.2500  -999.2500
 1947.5000     0.9780    30.2586  -999.2500  -999.2500
 1948.0000     0.9356    30.2586  -999.2500  -999.2500
 1948.5000     0.9082    30.2586  -999.2500  -999.2500
 1949.0000     0.8846    30.2586  -999.2500  -999.2500
 1949.5000     0.8462    30.2586  -999.2500  -999.2500
 1950.0000     0.8045    30.2586  -999.2500  -999.2500
 1950.5000     0.7692    30.2586  -999.2500  -999.2500
 1951.0000     0.7637    30.2586  -999.2500  -999.2500
 1951.5000     0.7575    30.2586  -999.2500  -999.2500
 1952.0000     0.7787    30.2586  -999.2500  -999.2500
 1952.5000     0.8228    30.2586  -999.2500  -999.2500
 1953.0000     0.8730    30.2586  -999.2500  -999.2500
 1953.5000     0.9231    30.2586  -999.2500  -999.2500
 1954.0000     0.9423    30.2586  -999.2500  -999.2500
 1954.5000     0.8844    30.2586  -999.2500  -999.2500
 1955.0000     0.8399    30.2586  -999.2500  -999.2500
 1955.5000     0.7844    30.2586  -999.2500  -999.2500
 1956.0000     0.7572    30.2586  -999.2500  -999.2500
 1956.5000     0.7308    30.2586  -999.2500  -999.2500
 1957.0000     0.7208    29.9748  -999.2500  -999.2500
 1957.5000     0.7115    29.4828  -999.2500  -999.2500
 1958.0000     0.7458    29.4828  -999.2500  -999.2500
 1958.5000     0.8071    28.6688  -999.2500  -999.2500
 1959.0000     0.8919    27.8709  -999.2500  -999.2500
 1959.5000     0.9231    27.4419  -999.2500  -999.2500
 1960.0000     0.9038    27.0129  -999.2500  -999.2500
 1960.5000     0.8846    26.5840  -999.2500  -999.2500
 1961.0000     0.8652    26.3793  -999.2500  -999.2500
 1961.5000     0.8249    26.1139  -999.2500  -999.2500
 1962.0000     0.7996    25.6034  -999.2500  -999.2500
 1962.5000     0.7632    25.6034  -999.2500  -999.2500
 1963.0000     0.7420    25.2149  -999.2500  -999.2500
 1963.5000     0.7308    24.7442  -999.2500  -999.2500
 1964.0000     0.7785    23.9690  -999.2500  -999.2500
 1964.5000     0.9605    23.5400  -999.2500  -999.2500
 1965.0000     1.1923    22.9460  -999.2500  -999.2500
 1965.5000     1.2692    22.2940  -999.2500  -999.2500
 1966.0000     1.2646    21.8650  -999.2500  -999.2500
 1966.5000     1.1001    21.4360  -999.2500  -999.2500
 1967.0000     0.9819    20.9483  -999.2500  -999.2500
 1967.5000     0.9101    20.9483  -999.2500  -999.2500
 1968.0000     0.8592    20.9483  -999.2500  -999.2500
 1968.5000     0.7852    20.9483  -999.2500  -999.2500
 1969.0000     0.6880    20.9483  -999.2500  -999.2500
 1969.5000     0.5963    20.9483  -999.2500  -999.2500
 1970.0000     0.5000    20.9483  -999.2500  -999.2500
 1970.5000     0.4615    20.9483  -999.2500  -999.2500
 1971.0000     0.4818    20.9483  -999.2500  -999.2500
 1971.5000     0.5091    20.9483  -999.2500  -999.2500
 1972.0000     0.5627    20.9483  -999.2500  -999.2500
 1972.5000     0.5769    20.9483  -999.2500  -999.2500
 1973.0000     0.5769    20.9483  -999.2500  -999.2500
 1973.5000     0.5660    20.9483  -999.2500  -999.2500
 1974.0000     0.5577    20.9483  -999.2500  -999.2500
 1974.5000     0.5725    20.9483  -999.2500  -999.2500
 1975.0000     0.5769    20.9483  -999.2500  -999.2500
 1975.5000     0.5769    20.9483  -999.2500  -999.2500
 1976.0000     0.5769    20.9483  -999.2500  -999.2500
 1976.5000     0.5804    20.9483  -999.2500  -999.2500
 1977.0000     0.5962    20.9483  -999.2500  -999.2500
 1977.5000     0.6036    20.9483  -999.2500  -999.2500
 1978.0000     0.6154    20.9483  -999.2500  -999.2500
 1978.5000     0.6268    20.9483  -999.2500  -999.2500
 1979.0000     0.6480    20.9483  -999.2500  -999.2500
 1979.5000     0.6731    20.9483  -999.2500  -999.2500
 1980.0000     0.7115    20.9483  -999.2500  -999.2500
 1980.5000     0.7886    20.9483  -999.2500  -999.2500
 1981.0000     0.8522    20.9483  -999.2500  -999.2500
 1981.5000     0.9078    20.9483  -999.2500  -999.2500
 1982.0000     0.9231    20.9483  -999.2500  -999.2500
 1982.5000     0.9231    20.9483  -999.2500  -999.2500
 1983.0000     0.9132    20.9483  -999.2500  -999.2500
 1983.5000     0.8920    20.9483  -999.2500  -999.2500
 1984.0000     0.8846    20.9483  -999.2500  -999.2500
 1984.5000     0.8654    20.9483  -999.2500  -999.2500
 1985.0000     0.8462    20.9483  -999.2500  -999.2500
 1985.5000     0.8456    20.9483  -999.2500  -999.2500
 1986.0000     0.8269    20.9483  -999.2500  -999.2500
 1986.5000     0.8314    20.9483  -999.2500  -999.2500
 1987.0000     0.8590    20.9483  -999.2500  -999.2500
 1987.5000     0.9014    20.9483  -999.2500  -999.2500
 1988.0000     0.9438    20.9483  -999.2500  -999.2500
 1988.5000     0.9121    20.9483  -999.2500  -999.2500
 1989.0000     0.8273    20.9483  -999.2500  -999.2500
 1989.5000     0.7885    20.9483  -999.2500  -999.2500
 1990.0000     0.7692    20.9483  -999.2500  -999.2500
 1990.5000     0.7692    20.9483  -999.2500  -999.2500
 1991.0000     0.7692    20.9483  -999.2500  -999.2500
 1991.5000     0.7692    20.9483  -999.2500  -999.2500
 1992.0000     0.7692    20.9483  -999.2500  -999.2500
 1992.5000     0.7692    20.9483  -999.2500  -999.2500
 1993.0000     0.7692    20.9483  -999.2500  -999.2500
 1993.5000     0.7692    20.9483  -999.2500  -999.2500
 1994.0000     0.7692    20.9483  -999.2500  -999.2500
 1994.5000     0.7500    20.9483  -999.2500  -999.2500
 1995.0000     0.7500    20.9483  -999.2500  -999.2500
 1995.5000     0.7515    20.9483  -999.2500  -999.2500
 1996.0000     0.7692    20.9483  -999.2500  -999.2500
 1996.5000     0.7692    20.9483  -999.2500  -999.2500
 1997.0000     0.7692    20.9483  -999.2500  -999.2500
 1997.5000     0.7692    20.9483  -999.2500  -999.2500
 1998.0000     0.7692    20.9483  -999.2500  -999.2500
 1998.5000     0.7692    20.9483  -999.2500  -999.2500
 1999.0000     0.7692    20.9483  -999.2500  -999.2500
 1999.5000     0.7692    20.9483  -999.2500  -999.2500
 2000.0000     0.8077    20.9483  -999.2500  -999.2500
 2000.5000     0.8752    20.9483  -999.2500  -999.2500
 2001.0000     0.9773    20.9483  -999.2500  -999.2500
 2001.5000     1.0621    20.9483  -999.2500  -999.2500
 2002.0000     1.1075    20.9483  -999.2500  -999.2500
 2002.5000     1.0666    20.9483  -999.2500  -999.2500
 2003.0000     0.9912    20.9483  -999.2500  -999.2500
 2003.5000     0.9063    20.9483  -999.2500  -999.2500
 2004.0000     0.8269    20.9483  -999.2500  -999.2500
 2004.5000     0.7692    20.9483  -999.2500  -999.2500
 2005.0000     0.7298    20.9483  -999.2500  -999.2500
 2005.5000     0.6849    20.9483  -999.2500  -999.2500
 2006.0000     0.6346    20.9483  -999.2500  -999.2500
 2006.5000     0.5999    20.9483  -999.2500  -999.2500
 2007.0000     0.5904    20.9483  -999.2500  -999.2500
 2007.5000     0.5962    20.9483  -999.2500  -999.2500
 2008.0000     0.5962    20.9483  -999.2500  -999.2500
 2008.5000     0.5962    20.9483  -999.2500  -999.2500
 2009.0000     0.5962    20.9483  -999.2500  -999.2500
 2009.5000     0.5962    20.9483  -999.2500  -999.2500
 2010.0000     0.5962    20.9483  -999.2500  -999.2500
 2010.5000     0.5962    20.9500  -999.2500  -999.2500
 2011.0000     0.5962    20.9833  -999.2500  -999.2500
