~VERSION INFORMATION
 VERS.                2.0:   CWLS LOG ASCII STANDARD - VERSION 2.0
 WRAP.                 NO:   ONE LINE PER DEPTH STEP
~WELL INFORMATION
#MNEM.UNIT      DATA TYPE    INFORMATION
#----------   ------------   ------------------------------
 STRT.F          283.5000:   START DEPTH
 STOP.F         3026.0000:   STOP DEPTH
 STEP.F            0.5000:   STEP LENGTH
 NULL.          -999.2500:   NO VALUE
 COMP. DEPARTMENT OF ENERGY:   COMPANY
 WELL. RES 3 TEAPOT DOM "AX" #62-29:   WELL
 FLD .        TEAPOT DOME:   FIELD
 LOC .      S29 T39N R78W:   LOCATION
 CNTY.            NATRONA:   COUNTY
 STAT.            WYOMING:   STATE
 CTRY. UNITED STATES OF AMERICA:   COUNTRY
 SRVC.       Schlumberger:   SERVICE COMPANY
 DATE.        27-JUL-1971:   LOGDATE
 API .       490250659800:   API NUMBER
~CURVE INFORMATION
#MNEM.UNIT       API CODE    CURVE DESCRIPTION
#----------   ------------   ------------------------------
 DEPT.F                  :   
 GRD .GAPI   45 310 01 00:   GAMMA RAY FROM DENSITY LOG
 CALD.IN     45 280 60 00:   CALIPER FROM DENSITY LOG
 RHOB.G/C3   45 350 01 00:   BULK DENSITY
 DPHI.DEC    45 890 12 00:   DENSITY POROSITY SANDSTONE
 CORR.G/C3   45 356 01 00:   DENSITY CORRECTION
 SPR .MV     05 010 01 00:   SPONTANEOUS POTENTIAL FROM RES.
 ASN .OHMM   05 041 16 00:   AMPLIFIED SHORT NORMAL 16"
 ILD .OHMM   05 120 46 00:   INDUCTION LOG DEEP
 CILD.MMHO   05 110 46 00:   CONDUCTIVITY INDUCTION LOG DEEP
~PARAMETER INFORMATION
#MNEM.UNIT          VALUE    DESCRIPTION
#----------   ------------   ------------------------------
 PD  .                 GL:   PERMANENT DATUM
 EPD .F              4998:   ELEVATION PERMANENT DATUM
 LMF .                 KB:   LOG MEASURED FROM
 DAPD.F                11:   FEET ABOVE PERMANENT DATUM
 DMF .                 KB:   DRILLING MEASURED FROM
 EKB .F              5009:   KELLING BUSHING
 EGL .F              4998:   GROUND LEVEL
 DATE.            7-27-71:   RUN DATE
 RUN .                  1:   RUN NUMBER
 DD  .F              3023:   DEPTH DRILLER
 DL  .F              3024:   DEPTH LOGGER
 BLI .F              3023:   BOTTOM LOG INTERVAL
 TLI .F               286:   TOP LOG INTERVAL
 CS  .IN            10.75:   CASING SIZE
 CBD .F               287:   CASING BOTTOM DRILLER
 CBL .F               286:   CASING BOTTOM LOGGER
 BS  .IN                9:   BIT SIZE
 BSD .F              3023:   BIT SIZE AT DEPTH
 DFT .      FRESH GEL MUD:   DRILLING FLUID TYPE
 DFD .                 10:   DRILLING FLUID DENSITY
 DFV .                 90:   DRILLING FLUID VISCOSITY
 DFPH.                7.6:   DRILLING FLUID PH
 DFL .                5.8:   DRILLING FLUID LOSS
 MSS .          FLOW LINE:   MUD SAMPLE SOURCE
 RMS .OHMM           1.74:   RESISTIVITY MUD SAMPLE
 MST .F                75:   MUD SAMPLE TEMPERATURE
 RMF .OHMM            1.5:   RESISTIVITY MUD FILTRATE SAMPLE
 MFST.F                75:   MUD FILTRATE SAMPLE TEMPERATURE
 MFSS.                  C:   MUD FILTRATE SAMPLE SOURCE
 RMB .OHMM           1.12:   RESISTIVITY MUD AT BHT
 BHT .F               116:   BOTTOM HOLE TEMPERATURE
 TCS .HRS               5:   TIME CURCULATED STOPPED
 MRT .F               116:   MAXIMUM RECORDED TEMPERATURE
 LUN .               7041:   LOGGING UNIT NUMBER
 LUL .               CSPR:   LOGGING UNIT LOCATION
 ENGI.             KNOBEL:   RECORDING ENGINEER
 WITN.                MAY:   WITNESSED BY
 CLNT.            A2DTECH:   CLIENT CODE
 ORIG.     1", 2.5" PRINT:   ORIGIN OF DATA
 UWI .       490250659800:   UNIQUE WELL ID
 DICO. A2D Technologies, Inc.:   DIGITIZING COMPANY
~OTHER INFORMATION
~A   DEPT      GRD       CALD       RHOB       DPHI       CORR        SPR        ASN        ILD       CILD   
# ...
 1451.5000  -999.2500  -999.2500  -999.2500  -999.2500  -999.2500   -47.2332     8.4057     6.7453   145.5446
 1452.0000  -999.2500  -999.2500  -999.2500  -999.2500  -999.2500   -47.2347     8.4499     6.7732   143.4795
 1452.5000  -999.2500  -999.2500  -999.2500  -999.2500  -999.2500   -47.2357     8.4895     6.8015   142.0792
 1453.0000  -999.2500  -999.2500  -999.2500  -999.2500  -999.2500   -47.2330     8.5316     6.8341   140.6789
 1453.5000  -999.2500  -999.2500  -999.2500  -999.2500  -999.2500   -47.2313     8.5763     6.8666   139.2786
 1454.0000  -999.2500  -999.2500  -999.2500  -999.2500  -999.2500   -47.2361     8.6215     6.8968   137.8784
 1454.5000  -999.2500  -999.2500  -999.2500  -999.2500  -999.2500   -47.2388     8.6653     6.9273   136.4781
 1455.0000  -999.2500  -999.2500  -999.2500  -999.2500  -999.2500   -47.2295     8.7032     6.9589   135.6492
 1455.5000  -999.2500  -999.2500  -999.2500  -999.2500  -999.2500   -47.2237     8.7298     6.9902   135.6483
 1456.0000  -999.2500  -999.2500  -999.2500  -999.2500  -999.2500   -47.2419     8.7453     7.0206   135.6231
 1456.5000  -999.2500  -999.2500  -999.2500  -999.2500  -999.2500   -47.2539     8.7579     7.0519   134.9746
 1457.0000  -999.2500  -999.2500  -999.2500  -999.2500  -999.2500   -47.1898     8.7791     7.0837   134.4480
 1457.5000  -999.2500  -999.2500  -999.2500  -999.2500  -999.2500   -47.0301     8.8169     7.1142   133.9869
 1458.0000  -999.2500  -999.2500  -999.2500  -999.2500  -999.2500   -46.8372     8.8705     7.1438   133.4688
 1458.5000  -999.2500  -999.2500  -999.2500  -999.2500  -999.2500   -46.6654     8.9300     7.1760   133.0002
 1459.0000  -999.2500  -999.2500  -999.2500  -999.2500  -999.2500   -46.4992     8.9805     7.2087   132.4913
 1459.5000  -999.2500  -999.2500  -999.2500  -999.2500  -999.2500   -46.3214     9.0080     7.2289   132.0200
 1460.0000  -999.2500  -999.2500  -999.2500  -999.2500  -999.2500   -46.1700     9.0075     7.2230   131.6595
 1460.5000  -999.2500  -999.2500  -999.2500  -999.2500  -999.2500   -46.0748     8.9867     7.1939   131.6864
 1461.0000  -999.2500  -999.2500  -999.2500  -999.2500  -999.2500   -46.0169     8.9604     7.1579   131.6562
 1461.5000  -999.2500  -999.2500  -999.2500  -999.2500  -999.2500   -46.0093     8.9377     7.1265   131.6961
 1462.0000  -999.2500  -999.2500  -999.2500  -999.2500  -999.2500   -46.1289     8.9183     7.0982   131.6548
 1462.5000  -999.2500  -999.2500  -999.2500  -999.2500  -999.2500   -46.3980     8.8980     7.0686   131.7008
 1463.0000  -999.2500  -999.2500  -999.2500  -999.2500  -999.2500   -46.7176     8.8753     7.0379   132.6040
 1463.5000  -999.2500  -999.2500  -999.2500  -999.2500  -999.2500   -46.9888     8.8520     7.0072   133.3391
 1464.0000  -999.2500  -999.2500  -999.2500  -999.2500  -999.2500   -47.2189     8.8313     6.9761   134.0743
 1464.5000  -999.2500  -999.2500  -999.2500  -999.2500  -999.2500   -47.4378     8.8132     6.9463   134.8094
 1465.0000  -999.2500  -999.2500  -999.2500  -999.2500  -999.2500   -47.6004     8.7916     6.9183   135.5446
 1465.5000  -999.2500  -999.2500  -999.2500  -999.2500  -999.2500   -47.6534     8.7637     6.8875   136.2797
 1466.0000  -999.2500  -999.2500  -999.2500  -999.2500  -999.2500   -47.6332     8.7392     6.8528   137.0148
 1466.5000  -999.2500  -999.2500  -999.2500  -999.2500  -999.2500   -47.6174     8.7304     6.8294   137.6238
 1467.0000  -999.2500  -999.2500  -999.2500  -999.2500  -999.2500   -47.6272     8.7330     6.8395   136.9170
 1467.5000  -999.2500  -999.2500  -999.2500  -999.2500  -999.2500   -47.6353     8.7314     6.8860   136.3138
 1468.0000  -999.2500  -999.2500  -999.2500  -999.2500  -999.2500   -47.6304     8.7273     6.9473   135.7106
 1468.5000  -999.2500  -999.2500  -999.2500  -999.2500  -999.2500   -47.6263     8.7438     7.0030   135.1074
 1469.0000  -999.2500  -999.2500  -999.2500  -999.2500  -999.2500   -47.6286     8.7955     7.0531   134.5042
 1469.5000  -999.2500  -999.2500  -999.2500  -999.2500  -999.2500   -47.6307     8.8680     7.1063   133.9010
 1470.0000   122.5394     9.7598  -999.2500  -999.2500  -999.2500   -47.6297     8.9368     7.1622   133.2978
 1470.5000   122.5394     9.7598  -999.2500  -999.2500  -999.2500   -47.6288     8.9952     7.2147   132.6946
 1471.0000   120.2141     9.7598  -999.2500  -999.2500  -999.2500   -47.6283     9.0555     7.2661   132.0914
 1471.5000   119.5866     9.7565  -999.2500  -999.2500  -999.2500   -47.6280     9.1255     7.3228   131.4882
 1472.0000   119.5768     9.7487  -999.2500  -999.2500  -999.2500   -47.6289     9.1930     7.3793   130.8850
 1472.5000   118.6122     9.7410  -999.2500  -999.2500  -999.2500   -47.6300     9.2379     7.4182   130.2818
 1473.0000   117.8150     9.7333  -999.2500  -999.2500  -999.2500   -47.6277     9.2532     7.4307   129.7030
 1473.5000   118.4417     9.7429  -999.2500  -999.2500  -999.2500   -47.6252     9.2505     7.4272   129.9296
 1474.0000   119.2044     9.7217  -999.2500  -999.2500  -999.2500   -47.6342     9.2431     7.4240   130.1474
 1474.5000   120.0900     9.7141  -999.2500  -999.2500  -999.2500   -47.6623     9.2338     7.4256   130.3652
 1475.0000   120.0801     9.7062  -999.2500  -999.2500  -999.2500   -47.7013     9.2197     7.4272   130.5831
 1475.5000   119.0876     9.6985  -999.2500  -999.2500  -999.2500   -47.7374     9.2028     7.4263   130.8009
 1476.0000   117.7074     9.6914  -999.2500  -999.2500  -999.2500   -47.7703     9.1878     7.4254   131.0187
 1476.5000   119.5648     9.6818     2.5840     0.0414  -999.2500   -47.8084     9.1744     7.4257   131.2365
 1477.0000   123.0273     9.6827     2.5952     0.0299     0.0527   -47.8473     9.1593     7.4260   131.4543
 1477.5000   125.9242     9.6845     2.6247     0.0168     0.0649   -47.8767     9.1431     7.4260   131.6832
 1478.0000   124.3063     9.7565     2.6153     0.0222     0.0593   -47.9063     9.1308     7.4259   131.6832
 1478.5000   124.6815     9.7580     2.5957     0.0331     0.0479   -47.9550     9.1264     7.4255   131.6832
 1479.0000   125.5382     9.7620     2.5852     0.0398     0.0391   -48.0024     9.1285     7.4251   131.6832
 1479.5000   125.8333     9.7618     2.5901     0.0363     0.0491   -47.9893     9.1306     7.4258   131.6832
 1480.0000   125.0787     9.7638     2.5990     0.0309     0.0646   -47.8812     9.1278     7.4266   131.6832
 1480.5000   124.3549     9.7653     2.6102     0.0208     0.0722   -47.7036     9.1247     7.4250   131.6832
 1481.0000   126.0261     9.7666     2.6112     0.0224     0.0722   -47.5074     9.1336     7.4232   131.1470
 1481.5000   128.1442     9.7682     2.6097     0.0208     0.0651   -47.3287     9.1612     7.4292   130.5438
 1482.0000   128.9370     9.7696     2.6169     0.0184     0.0633   -47.1752     9.2009     7.4484   129.9406
 1482.5000   126.4727     9.7710     2.6141     0.0238     0.0663   -47.0160     9.2420     7.4771   129.3374
 1483.0000   125.6321     9.7725     2.5942     0.0298     0.0472   -46.8109     9.2813     7.5069   128.7342
 1483.5000   127.1557     9.7739     2.5841     0.0359     0.0406   -46.5978     9.3206     7.5344   128.1310
 1484.0000   124.0698     9.7754     2.5866     0.0398     0.0501   -46.5173     9.3591     7.5619   127.5278
 1484.5000   118.9705     9.7769     2.6078     0.0333     0.0583   -46.6831     9.3967     7.5903   126.9246
 1485.0000   119.1149     9.7783     2.6036     0.0302     0.0629   -47.0441     9.4379     7.6182   126.3214
 1485.5000   119.3754     9.7798     2.5924     0.0349     0.0547   -47.4343     9.4826     7.6458   125.7182
 1486.0000   120.0452     9.7813     2.5816     0.0408     0.0466   -47.7567     9.5174     7.6745   125.1150
 1486.5000   119.8764     9.7827     2.5695     0.0466     0.0382   -48.0621     9.5292     7.7034   124.5118
 1487.0000   120.0763     9.7842     2.5668     0.0516     0.0310   -48.4329     9.5249     7.7298   123.7624
 1487.5000   121.7234     9.7856     2.5527     0.0519     0.0264   -48.8359     9.5234     7.7565   123.7624
