~VERSION INFORMATION
 VERS.                2.0:   CWLS LOG ASCII STANDARD - VERSION 2.0
 WRAP.                 NO:   ONE LINE PER DEPTH STEP
~WELL INFORMATION
#MNEM.UNIT      DATA TYPE    INFORMATION
#----------   ------------   ------------------------------
 STRT.F           35.0000:   START DEPTH
 STOP.F          474.0000:   STOP DEPTH
 STEP.F            0.5000:   STEP LENGTH
 NULL.          -999.2500:   NO VALUE
 COMP.    FENIX & SCISSON:   COMPANY
 WELL.        NPR #53-S-3:   WELL
 FLD .             TEAPOT:   FIELD
 LOC .       S3 T38N R78W:   LOCATION
 CNTY.            NATRONA:   COUNTY
 STAT.            WYOMING:   STATE
 CTRY. UNITED STATES OF AMERICA:   COUNTRY
 SRVC.       Schlumberger:   SERVICE COMPANY
 DATE.        21-FEB-1977:   LOGDATE
 API .       490251027800:   API NUMBER
~CURVE INFORMATION
#MNEM.UNIT       API CODE    CURVE DESCRIPTION
#----------   ------------   ------------------------------
 DEPT.F                  :   
 SPR .MV     07 010 01 00:   SPONTANEOUS POTENTIAL
 ILD .OHMM   07 120 46 00:   INDUCTION LOG DEEP
 ILM .OHMM   07 120 44 00:   INDUCTION LOG MEDIUM
 LL8 .OHMM   07 220 08 00:   LATEROLOG-8 RES.
 CALD.IN     45 280 60 00:   CALIPER FROM DENSITY LOG
 CORR.G/C3   45 356 01 00:   DENSITY CORRECTION
 RHOB.G/C3   45 350 01 00:   BULK DENSITY
 DPHI.DEC    45 890 12 00:   DENSITY POROSITY SANDSTONE
 GRD .GAPI   45 310 01 00:   GAMMA RAY FROM DENSITY LOG
~PARAMETER INFORMATION
#MNEM.UNIT          VALUE    DESCRIPTION
#----------   ------------   ------------------------------
 PD  .                 GL:   PERMANENT DATUM
 EPD .F              5163:   ELEVATION PERMANENT DATUM
 LMF .                 GL:   LOG MEASURED FROM
 DMF .                 KB:   DRILLING MEASURED FROM
 EKB .F              5167:   KELLING BUSHING
 EGL .F              5163:   GROUND LEVEL
 DATE.        21-FEB-1977:   RUN DATE
 RUN .                  1:   RUN NUMBER
 DD  .F               480:   DEPTH DRILLER
 DL  .F               475:   DEPTH LOGGER
 BLI .F               474:   BOTTOM LOG INTERVAL
 TLI .F                39:   TOP LOG INTERVAL
 CS  .IN            8.625:   CASING SIZE
 CBD .F                40:   CASING BOTTOM DRILLER
 CBL .F                39:   CASING BOTTOM LOGGER
 BS  .IN            7.875:   BIT SIZE
 BSD .F               480:   BIT SIZE AT DEPTH
 DFT .            KCL MUD:   DRILLING FLUID TYPE
 DFD .                8.6:   DRILLING FLUID DENSITY
 DFV .                 35:   DRILLING FLUID VISCOSITY
 DFPH.                8.0:   DRILLING FLUID PH
 DFL .                6.8:   DRILLING FLUID LOSS
 MSS .           FLOWLINE:   MUD SAMPLE SOURCE
 RMS .OHMM            .41:   RESISTIVITY MUD SAMPLE
 MST .F                70:   MUD SAMPLE TEMPERATURE
 RMF .OHMM            .46:   RESISTIVITY MUD FILTRATE SAMPLE
 MFST.F                70:   MUD FILTRATE SAMPLE TEMPERATURE
 MFSS.               MEAS:   MUD FILTRATE SAMPLE SOURCE
 TCS .HRS               1:   TIME CURCULATED STOPPED
 LUN .               7680:   LOGGING UNIT NUMBER
 LUL .               CSPR:   LOGGING UNIT LOCATION
 ENGI.             TAYLOR:   RECORDING ENGINEER
 WITN.               JAPP:   WITNESSED BY
 CLNT.            A2DTECH:   CLIENT CODE
 ORIG.           5" PRINT:   ORIGIN OF DATA
 UWI .       490251027800:   UNIQUE WELL ID
 DICO. A2D Technologies, Inc.:   DIGITIZING COMPANY
~OTHER INFORMATION
~A   DEPT      SPR        ILD        ILM        LL8       CALD       CORR       RHOB       DPHI         GRD  
# ...
   71.5000  -115.3936     8.0356     9.7535   494.7415     8.3933     0.0139     2.4475     0.1221   123.8823
   72.0000  -114.9267     8.0378     9.8239   505.4200     8.3949     0.0124     2.4362     0.1269   124.5820
   72.5000  -114.3102     8.0400     9.9635   527.1667     8.3812     0.0163     2.4454     0.1217   126.4010
   73.0000  -113.5440     8.0422    10.1051   495.1104     8.3826     0.0216     2.4469     0.1220   126.6409
   73.5000  -113.0771     8.1003    10.2487   464.5801     8.3839     0.0066     2.4355     0.1304   124.4170
   74.0000  -112.7600     8.2154    10.3227   414.3576     8.3852     0.0089     2.4282     0.1295   123.3125
   74.5000  -112.1435     8.3321    10.3255   381.5002     8.3866     0.0165     2.4448     0.1208   122.8777
   75.0000  -111.2275     8.3923    10.1863   371.2722     8.3879     0.0233     2.4553     0.1174   123.3525
   75.5000  -109.3892     8.4529    10.1138   368.9093     8.3892     0.0241     2.4531     0.1207   124.7218
   76.0000  -106.7704     8.4552    10.0518   371.6774     8.3906     0.0129     2.4367     0.1267   125.6413
   76.5000  -101.8098     8.3411     9.9859   369.2615     8.4069     0.0189     2.4600     0.1177   125.2115
   77.0000   -97.9800     8.2288     9.9886   387.8810     8.3929     0.0227     2.4608     0.1161   125.0060
   77.5000   -95.1180     8.1743     9.9913   407.3839     8.3945     0.0273     2.4473     0.1188   123.9021
   78.0000   -91.8068     8.3481    10.0634   427.8673     8.3959     0.0243     2.4504     0.1218   121.8981
   78.5000   -89.0945     8.5334    10.0661   416.3963     8.3822     0.0372     2.4767     0.1059   121.4683
   79.0000   -86.2325     8.5876    10.1388   399.6475     8.3686     0.0371     2.4730     0.1094   122.3883
   79.5000   -81.8734     8.5899    10.2120   402.6536     8.3699     0.0470     2.4505     0.1199   122.3426
   80.0000   -78.2629     8.5324    10.2857   431.7837     8.3713     0.0699     2.4701     0.1127   117.9350
   80.5000   -74.5026     8.3594    10.2168   486.9529     8.3726     0.0856     2.4619     0.1148   111.8830
   81.0000   -70.8921     8.1904     9.8046   429.9149     8.3740     0.0919     2.4684     0.1106   101.7831
   81.5000   -66.6507     8.0795     9.2152   363.6907     8.3753     0.0968     2.5052     0.0967    94.8315
   82.0000   -62.7126     7.9706     8.7802   560.1768     8.3769     0.0697     2.5124     0.0805    95.0764
   82.5000   -60.0000     7.9178     8.5444   285.7082     8.3629     0.0412     2.5222     0.0768    98.6946
   83.0000   -58.6667     7.9205     8.5468    76.0802     8.3493     0.0328     2.5080     0.0976   100.5136
   83.5000   -58.0745     7.9777     8.7896    73.0180     8.2911     0.0338     2.4833     0.1066   100.0788
   84.0000   -57.6076     7.9799     8.8530   167.8417     8.2475     0.0153     2.4563     0.1170    99.8739
   84.5000   -57.4447     8.0375     8.7937   192.8737     8.2488     0.0219     2.4751     0.1098   101.4731
   85.0000   -57.5766     8.0397     8.6160   152.4675     8.2502     0.0279     2.4834     0.1077   101.9429
   85.5000   -57.7086     8.0419     8.4993   416.7654     8.2515     0.0190     2.4730     0.1130   100.1637
   86.0000   -57.5367     8.0441     8.5022  1077.6276     8.2528     0.0108     2.4602     0.1119   100.4086
   86.5000   -57.5190     7.9907     8.5636  1238.5145     8.2542     0.0138     2.4685     0.1163   102.0028
   87.0000   -57.5013     7.9378     8.6853  1318.7632     8.2555     0.0221     2.4754     0.1091   103.5970
   87.5000   -58.3818     7.9405     8.8087   882.8674     8.2568     0.0191     2.4499     0.1196   103.3921
   88.0000   -59.2622     7.9427     9.0584   213.3669     8.2582     0.0042     2.4507     0.1202   101.8378
   88.5000   -59.6980     7.8895     9.1871   156.2660     8.2595     0.0215     2.4590     0.1151   102.1072
   89.0000   -59.6759     7.8922     9.0567   507.9529     8.2758     0.0163     2.4696     0.1117   103.0022
   89.5000   -59.3587     7.8943     8.6296   754.3595     8.2771     0.0141     2.4846     0.1081    99.8787
   90.0000   -59.0416     7.8965     8.2887    21.4213     8.2784     0.0216     2.4772     0.1087   101.6978
   90.5000   -58.8742     7.8986     8.1770    10.2103     8.2648     0.0284     2.4802     0.1015   103.9667
   91.0000   -59.0120     7.9556     8.2360     9.5981     8.2811     0.0375     2.4931     0.0966   105.3360
   91.5000   -59.3014     8.0131     8.2954     9.6033     8.2675     0.0481     2.5014     0.0918   106.0306
   92.0000   -59.7405     8.1269     8.3553     9.6086     8.2691     0.0436     2.4864     0.0999   106.5003
   92.5000   -60.1462     8.1856     8.5329     9.6807     8.2705     0.0245     2.4955     0.0942   106.0705
   93.0000   -60.4278     8.2447     8.5945     9.8258     8.2718     0.0144     2.4963     0.0973   103.8416
   93.5000   -60.5642     8.3619     8.7771    10.0331     8.2731     0.0212     2.4858     0.1046   102.7322
   94.0000   -60.6962     8.4228     8.8405    10.2507     8.2745     0.0182     2.4701     0.1118   105.0060
   94.5000   -60.8282     8.4836     8.8429    10.5446     8.2758     0.0130     2.4679     0.1130   105.0260
   95.0000   -60.9602     8.5448     8.9686    10.8469     8.2771     0.0116     2.4830     0.1112   103.0220
   95.5000   -60.9380     8.6065     9.0333    11.2355     8.2784     0.0229     2.4793     0.1009   102.3666
   96.0000   -61.0744     8.6088     9.0358    11.0103     8.2798     0.0342     2.4943     0.0922   104.1864
   96.5000   -61.0522     8.6112     9.1011    10.4222     8.2811     0.0335     2.5019     0.0937   104.8810
   97.0000   -61.0345     8.6135     9.1040    10.2119     8.2824     0.0170     2.4974     0.1009   104.4483
   97.5000   -60.8671     8.6159     9.1698    10.5792     8.2838     0.0080     2.4712     0.1111   104.9363
   98.0000   -60.6996     8.5588     9.2359    10.7327     8.2851     0.0143     2.4863     0.1002   106.5697
   98.5000   -60.6819     8.5611     9.1606    10.6629     8.3014     0.0213     2.4882     0.0993   107.4347
   99.0000   -60.6642     8.5043     9.2330    10.5233     8.3177     0.0284     2.4992     0.0932   103.4117
   99.5000   -60.4968     8.4480     9.3041    10.6760     8.3190     0.0232     2.4842     0.1014   101.6325
  100.0000   -60.4790     8.3921     9.3758    11.3693     8.3204     0.0203     2.4774     0.0994   100.2739
  100.5000   -60.6139     8.2660     9.3182    10.6779     8.3094     0.0222     2.4955     0.0955    97.2486
  101.0000   -60.2994     8.2269     9.3253    10.2579     8.2984     0.0265     2.4835     0.1027    95.6922
  101.5000   -60.1347     8.1741     9.2662    10.2649     8.2874     0.0346     2.4911     0.1041    96.6058
  102.0000   -60.1198     8.0110     9.1458    10.2705     8.2764     0.0294     2.4836     0.1014    97.2949
  102.5000   -60.1048     8.0149     9.0286    10.1913     8.2664     0.0235     2.4701     0.1075    96.6328
  103.0000   -60.2401     7.9083     8.9732    10.0501     8.2828     0.0167     2.4671     0.1123    98.6731
  103.5000   -60.4005     7.8034     8.7955     9.9269     8.2840     0.0243     2.4921     0.1062   101.1586
  104.0000   -60.5097     7.8073     8.6213     9.8653     8.3001     0.0303     2.5071     0.0981   103.4196
  104.5000   -60.6446     7.8111     8.4506     9.8041     8.3013     0.0364     2.4958     0.0929   105.0069
  105.0000   -60.6260     7.8149     8.3391     9.8125     8.3025     0.0499     2.4996     0.0908   105.4716
  105.5000   -60.7645     7.8186     8.3470     9.8193     8.3037     0.0372     2.4884     0.1050   104.0704
  106.0000   -60.7459     7.8767     8.3534     9.9629     8.3048     0.0275     2.4794     0.1089   101.8713
  106.5000   -60.7310     7.9903     8.4177    10.0389     8.3060     0.0208     2.4749     0.1016   101.7004
  107.0000   -60.7161     8.0497     8.5415    10.2564     8.3072     0.0313     2.4968     0.0989   102.1650
  107.5000   -60.7013     8.1668     8.6073    10.3346     8.3084     0.0343     2.4787     0.1064    98.3669
