~VERSION INFORMATION
 VERS.                2.0:   CWLS LOG ASCII STANDARD - VERSION 2.0
 WRAP.                 NO:   ONE LINE PER DEPTH STEP
~WELL INFORMATION
#MNEM.UNIT      DATA TYPE    INFORMATION
#----------   ------------   ------------------------------
 STRT.F           66.0000:   START DEPTH
 STOP.F          794.0000:   STOP DEPTH
 STEP.F            0.5000:   STEP LENGTH
 NULL.          -999.2500:   NO VALUE
 COMP. LAWRENCE/ALLISON INC:   COMPANY
 WELL.    27-16 SX #35-35:   WELL
 FLD .           NPR NO 3:   FIELD
 LOC .      S35 T39N R78W:   LOCATION
 CNTY.            NATRONA:   COUNTY
 STAT.            WYOMING:   STATE
 CTRY. UNITED STATES OF AMERICA:   COUNTRY
 SRVC.           Gearhart:   SERVICE COMPANY
 DATE.        16-MAY-1986:   LOGDATE
 API .       490251106100:   API NUMBER
~CURVE INFORMATION
#MNEM.UNIT       API CODE    CURVE DESCRIPTION
#----------   ------------   ------------------------------
 DEPT.F                  :   
 GRN .GAPI   42 310 01 00:   GAMMA RAY FROM COMPENSATED NEUTRON LOG
 CNC .DEC    42 890 01 00:   NEUTRON POROSITY LIMESTONE
~PARAMETER INFORMATION
#MNEM.UNIT          VALUE    DESCRIPTION
#----------   ------------   ------------------------------
 PD  .                 GL:   PERMANENT DATUM
 LMF .                 GL:   LOG MEASURED FROM
 DMF .                 GL:   DRILLING MEASURED FROM
 DATE.        16-MAY-1986:   RUN DATE
 RUN .                  1:   RUN NUMBER
 DD  .F               803:   DEPTH DRILLER
 DL  .F             793.5:   DEPTH LOGGER
 BLI .F             793.5:   BOTTOM LOG INTERVAL
 TLI .F                50:   TOP LOG INTERVAL
 BS  .IN             7.87:   BIT SIZE
 BSD .F               803:   BIT SIZE AT DEPTH
 DFT .              WATER:   DRILLING FLUID TYPE
 LUN .               6084:   LOGGING UNIT NUMBER
 LUL .           GILLETTE:   LOGGING UNIT LOCATION
 ENGI.                COX:   RECORDING ENGINEER
 WITN.             STRONG:   WITNESSED BY
 CLNT.            A2DTECH:   CLIENT CODE
 ORIG.           5" PRINT:   ORIGIN OF DATA
 UWI .       490251106100:   UNIQUE WELL ID
 DICO. A2D Technologies, Inc.:   DIGITIZING COMPANY
~OTHER INFORMATION
~A   DEPT       GRN       CNC   
# ...
  430.5000   100.2385     0.2529
  431.0000   102.6864     0.2526
  431.5000   102.6803     0.2466
  432.0000   101.7540     0.2426
  432.5000   100.5209     0.2387
  433.0000    99.2878     0.2347
  433.5000    99.5885     0.2312
  434.0000   102.3431     0.2407
  434.5000   104.1790     0.2479
  435.0000   100.7972     0.2499
  435.5000    99.5641     0.2521
  436.0000    99.8648     0.2571
  436.5000   102.0059     0.2595
  437.0000   103.8403     0.2520
  437.5000   106.5950     0.2420
  438.0000   103.5214     0.2372
  438.5000   101.6748     0.2472
  439.0000   104.1227     0.2587
  439.5000   103.7987     0.2654
  440.0000   102.2289     0.2576
  440.5000   100.6725     0.2447
  441.0000    99.3765     0.2382
  441.5000    98.8765     0.2331
  442.0000   100.0974     0.2437
  442.5000   101.0116     0.2507
  443.0000   100.0853     0.2516
  443.5000    98.2387     0.2483
  444.0000    97.6191     0.2526
  444.5000    97.9197     0.2632
  445.0000    99.7541     0.2620
  445.5000   101.2818     0.2572
  446.0000   100.0487     0.2551
  446.5000    95.7481     0.2579
  447.0000    92.6746     0.2582
  447.5000    92.0550     0.2502
  448.0000    91.7421     0.2414
  448.5000    91.7361     0.2355
  449.0000    92.0367     0.2510
  449.5000    96.3251     0.2607
  450.0000   101.2270     0.2650
  450.5000   106.1289     0.2626
  451.0000   101.4850     0.2575
  451.5000    99.6472     0.2481
  452.0000    99.9756     0.2412
  452.5000   100.9355     0.2460
  453.0000   101.1905     0.2567
  453.5000    99.9558     0.2682
  454.0000    94.7116     0.2767
  454.5000    94.3957     0.2840
  455.0000    95.0002     0.2864
  455.5000    97.2690     0.2883
  456.0000   102.5231     0.2622
  456.5000   103.5618     0.2595
  457.0000   102.9369     0.2853
  457.5000   101.7008     0.3020
  458.0000    98.9309     0.2987
  458.5000    96.7746     0.2896
  459.0000    95.5385     0.2857
  459.5000    94.9159     0.2845
  460.0000    94.9068     0.2958
  460.5000    97.0449     0.3058
  461.0000    99.7965     0.3179
  461.5000    97.9469     0.3246
  462.0000    93.9501     0.3171
  462.5000    93.3297     0.3013
  463.0000    96.0791     0.2857
  463.5000    98.5240     0.2700
  464.0000   101.2756     0.2590
  464.5000   104.9475     0.2735
  465.0000   107.0856     0.2905
  465.5000   107.3834     0.3006
  466.0000   106.1471     0.3063
  466.5000   103.3773     0.3076
  467.0000   102.4479     0.2958
  467.5000   103.3590     0.2810
  468.0000   104.9162     0.2626
  468.5000   103.5571     0.2468
  469.0000   100.3987     0.2334
  469.5000    96.2651     0.2259
  470.0000    94.1088     0.2468
  470.5000    95.6334     0.2662
  471.0000    98.1842     0.2726
  471.5000   100.9955     0.2739
  472.0000   103.2778     0.2723
  472.5000   102.6552     0.2676
  473.0000   103.8708     0.2603
  473.5000   104.4755     0.2518
  474.0000   103.2391     0.2503
  474.5000    99.5490     0.2607
  475.0000    95.8589     0.2646
  475.5000    95.8741     0.2674
  476.0000    98.3190     0.2695
  476.5000   100.1626     0.2683
  477.0000   100.4237     0.2653
  477.5000    96.4246     0.2711
  478.0000    95.1885     0.2826
  478.5000    97.6333     0.2704
  479.0000    99.1602     0.2595
  479.5000    98.8421     0.2486
  480.0000    98.2195     0.2584
  480.5000   101.5846     0.2729
  481.0000   104.9497     0.2789
  481.5000   107.7014     0.2826
  482.0000   108.9192     0.2683
  482.5000   108.6034     0.2531
  483.0000   103.9930     0.2474
  483.5000    97.8490     0.2459
  484.0000    95.3859     0.2632
  484.5000    94.7655     0.2949
  485.0000    96.5946     0.3291
  485.5000    98.7328     0.3679
  486.0000    98.1102     0.4003
  486.5000    93.4998     0.4012
  487.0000    88.5827     0.4012
  487.5000    85.8129     0.4013
  488.0000    85.8037     0.3778
  488.5000    87.1195     0.3437
  489.0000    93.2949     0.3428
  489.5000    97.6288     0.3378
  490.0000   101.7160     0.3186
  490.5000   102.6294     0.3199
  491.0000   101.6977     0.3128
  491.5000   103.8359     0.2902
  492.0000   105.3628     0.2655
  492.5000   102.8974     0.2506
  493.0000   101.6613     0.2705
  493.5000   101.6522     0.2911
  494.0000   101.9498     0.3040
  494.5000   102.8632     0.2844
  495.0000   104.6923     0.2671
  495.5000   106.8305     0.2468
  496.0000   108.9686     0.2629
  496.5000   110.4932     0.2900
  497.0000   111.4066     0.3126
  497.5000   111.7043     0.3064
  498.0000   109.5457     0.2969
  498.5000   107.6960     0.3072
  499.0000   107.6626     0.3163
  499.5000   109.5183     0.3169
  500.0000   109.2025     0.3065
  500.5000   100.3032     0.2894
  501.0000    99.6867     0.2779
  501.5000   102.1376     0.2728
  502.0000   105.2021     0.2810
  502.5000   106.7328     0.2868
  503.0000   107.0372     0.2832
  503.5000   105.8065     0.2662
  504.0000   104.2697     0.2523
  504.5000   103.0396     0.2499
  505.0000   102.4231     0.2496
  505.5000   103.3403     0.2436
  506.0000   104.5643     0.2427
  506.5000   106.4017     0.2495
  507.0000   107.9324     0.2599
  507.5000   107.6226     0.2675
  508.0000   106.6994     0.2704
  508.5000   107.0070     0.2606
  509.0000   107.6135     0.2520
  509.5000   107.3036     0.2496
  510.0000   106.3395     0.2596
  510.5000   105.4571     0.2781
  511.0000   105.7609     0.2859
  511.5000   106.9841     0.2903
  512.0000   108.2081     0.2818
  512.5000   109.4320     0.2779
  513.0000   111.5762     0.2882
  513.5000   113.4137     0.3162
  514.0000   115.5579     0.3469
  514.5000   115.8623     0.3619
  515.0000   114.6315     0.3595
  515.5000   111.8678     0.3426
  516.0000   108.1838     0.3253
  516.5000   106.9537     0.3117
  517.0000   108.1777     0.2941
  517.5000   110.6286     0.2836
  518.0000   112.4661     0.2869
  518.5000   110.0091     0.3085
  519.0000   105.4048     0.3040
  519.5000   100.4938     0.2867
  520.0000    99.5705     0.2771
  520.5000    99.8742     0.2671
  521.0000   102.0223     0.2762
  521.5000   103.8885     0.2859
  522.0000   106.0285     0.2923
  522.5000   106.3038     0.2905
  523.0000   105.3271     0.2814
  523.5000   104.7640     0.2702
  524.0000   106.2939     0.2639
  524.5000   108.1314     0.2615
  525.0000   107.2081     0.2588
  525.5000   106.8983     0.2503
  526.0000   107.2020     0.2434
  526.5000   107.8132     0.2649
  527.0000   108.1169     0.2831
  527.5000   106.8861     0.2741
  528.0000   106.2696     0.2633
  528.5000   106.2666     0.2535
  529.0000   107.1838     0.2735
  529.5000   108.7145     0.2941
  530.0000   109.0190     0.3088
  530.5000   106.8679     0.3211
  531.0000   106.8649     0.3276
  531.5000   107.1686     0.3312
  532.0000   108.0859     0.3313
  532.5000   109.9233     0.3060
  533.0000   111.1472     0.2819
  533.5000   109.2919     0.2819
  534.0000   105.6033     0.2921
  534.5000   104.3326     0.2997
  535.0000   103.1595     0.3023
  535.5000   104.3836     0.2975
  536.0000   105.6075     0.2969
  536.5000   103.7632     0.3194
  537.0000   100.3860     0.3713
  537.5000    98.2357     0.3915
  538.0000    99.1529     0.3629
  538.5000   100.9904     0.3073
  539.0000   103.1346     0.2910
  539.5000   104.9720     0.2749
  540.0000   106.5027     0.2662
  540.5000   106.1929     0.2686
  541.0000   103.1224     0.2802
  541.5000   100.9721     0.2869
  542.0000   100.3564     0.2908
  542.5000   101.2728     0.2821
  543.0000   103.4170     0.2745
  543.5000   108.0152     0.2697
  544.0000   111.6931     0.2694
  544.5000   114.1441     0.2934
  545.0000   111.6871     0.3071
  545.5000   108.0031     0.3083
  546.0000   104.3072     0.2949
  546.5000   102.4755     0.2907
  547.0000   103.4780     0.2953
  547.5000   107.1931     0.2817
  548.0000   109.2149     0.2603
  548.5000   107.0638     0.2496
  549.0000   102.7663     0.2572
  549.5000    97.8553     0.2715
  550.0000    93.5578     0.2739
  550.5000    90.7940     0.2631
  551.0000    90.1775     0.2582
  551.5000    89.5609     0.2657
