~VERSION INFORMATION
 VERS.                2.0:   CWLS LOG ASCII STANDARD - VERSION 2.0
 WRAP.                 NO:   ONE LINE PER DEPTH STEP
~WELL INFORMATION
#MNEM.UNIT      DATA TYPE    INFORMATION
#----------   ------------   ------------------------------
 STRT.F         1470.0000:   START DEPTH
 STOP.F         2310.0000:   STOP DEPTH
 STEP.F            0.5000:   STEP LENGTH
 NULL.          -999.2500:   NO VALUE
 COMP. BROWN JOHN E&C INC:   COMPANY
 WELL. NAVAL PETROLEUM RESERVE 3 STX- #22-10:   WELL
 FLD .             TEAPOT:   FIELD
 LOC .      S10 T38N R78W:   LOCATION
 CNTY.            NATRONA:   COUNTY
 STAT.            WYOMING:   STATE
 CTRY. UNITED STATES OF AMERICA:   COUNTRY
 SRVC.            Unknown:   SERVICE COMPANY
 DATE.        26-AUG-1991:   LOGDATE
 API .       490251111700:   API NUMBER
~CURVE INFORMATION
#MNEM.UNIT       API CODE    CURVE DESCRIPTION
#----------   ------------   ------------------------------
 DEPT.F                  :   
 ROP .MIN/FT 91 810 01 00:   RAT OF DRILLING PENETRATION
 TGAS.UNITS  91 830 01 00:   TOTAL GAS FROM HOTWIRE
~PARAMETER INFORMATION
#MNEM.UNIT          VALUE    DESCRIPTION
#----------   ------------   ------------------------------
 EKB .F              5277:   KELLING BUSHING
 EGL .F              5267:   GROUND LEVEL
 DATE.            8-26-91:   RUN DATE
 DD  .F              2311:   DEPTH DRILLER
 TCS .HRS            0200:   TIME CURCULATED STOPPED
 TLAB.HRS            2335:   TIME LOGGER AT BOTTOM
 ENGI.              TOWER:   RECORDING ENGINEER
 WITN.               HUSK:   WITNESSED BY
 CLNT.            A2DTECH:   CLIENT CODE
 ORIG.           5" PRINT:   ORIGIN OF DATA
 UWI .       490251111700:   UNIQUE WELL ID
 DICO. A2D Technologies, Inc.:   DIGITIZING COMPANY
~OTHER INFORMATION
~A  DEPT         ROP      TGAS  
# ...
 1591.5000     0.7042   104.2797
 1592.0000     0.6495   104.2406
 1592.5000     0.6101   104.2015
 1593.0000     0.6536   104.1623
 1593.5000     0.6350   104.1232
 1594.0000     0.6097   104.0841
 1594.5000     0.6423   104.0449
 1595.0000     0.6944   104.0058
 1595.5000     0.7485   103.9667
 1596.0000     0.7970   103.9275
 1596.5000     0.7437   103.8884
 1597.0000     0.6574   103.8493
 1597.5000     0.5709   103.8101
 1598.0000     0.4816   103.7710
 1598.5000     0.4478   103.7318
 1599.0000     0.5139   103.6927
 1599.5000     0.5866   103.6536
 1600.0000     0.6585   103.6144
 1600.5000     0.7006   103.5753
 1601.0000     0.6596   103.5361
 1601.5000     0.6204   103.4970
 1602.0000     0.5821   103.4579
 1602.5000     0.5902   103.4187
 1603.0000     0.6203   103.3796
 1603.5000     0.5881   103.3404
 1604.0000     0.6004   103.3003
 1604.5000     0.6571   103.2599
 1605.0000     0.7139   103.2286
 1605.5000     0.7700   103.4215
 1606.0000     0.7955   104.1677
 1606.5000     0.7340   104.5220
 1607.0000     0.6754   104.5889
 1607.5000     0.6276   104.6562
 1608.0000     0.6350   104.7217
 1608.5000     0.6645   104.7875
 1609.0000     0.6348   104.8535
 1609.5000     0.6658   104.9195
 1610.0000     0.7287   104.9855
 1610.5000     0.7919   105.0516
 1611.0000     0.8780   105.1176
 1611.5000     0.9747   105.1836
 1612.0000     0.9936   105.2496
 1612.5000     0.9349   105.3156
 1613.0000     0.8763   105.3816
 1613.5000     0.8210   105.4476
 1614.0000     0.7878   105.5136
 1614.5000     0.8397   105.5796
 1615.0000     0.8908   105.6456
 1615.5000     0.9413   105.7116
 1616.0000     0.9852   105.7776
 1616.5000     0.9693   105.8437
 1617.0000     0.9474   105.9097
 1617.5000     0.9202   105.9757
 1618.0000     0.8930   106.0417
 1618.5000     0.8658   106.1077
 1619.0000     0.8385   106.1737
 1619.5000     0.8113   106.2397
 1620.0000     0.7748   106.3057
 1620.5000     0.7291   106.3717
 1621.0000     0.6889   106.4377
 1621.5000     0.6612   106.5038
 1622.0000     0.6594   106.5698
 1622.5000     0.6783   106.6358
 1623.0000     0.6661   106.7018
 1623.5000     0.6958   106.7678
 1624.0000     0.7674   106.8352
 1624.5000     0.8389   106.8995
 1625.0000     0.9109   106.9668
 1625.5000     0.9839   107.0974
 1626.0000     1.0576   104.4602
 1626.5000     0.9576   100.8243
 1627.0000     0.8407    97.1629
 1627.5000     0.7319    93.5026
 1628.0000     0.6503    89.8456
 1628.5000     0.6087    86.1893
 1629.0000     0.5568    82.5293
 1629.5000     0.4998    78.8460
 1630.0000     0.4466    75.1173
 1630.5000     0.4268    73.9679
 1631.0000     0.4982    72.9210
 1631.5000     0.5545    71.7970
 1632.0000     0.6077    70.1022
 1632.5000     0.6467    69.7841
 1633.0000     0.6552    69.7370
 1633.5000     0.6389    69.6756
 1634.0000     0.6226    69.6031
 1634.5000     0.6320    69.5316
 1635.0000     0.6439    69.4601
 1635.5000     0.6472    69.3886
 1636.0000     0.6458    69.3171
 1636.5000     0.6177    69.2456
 1637.0000     0.5905    69.1741
 1637.5000     0.5679    69.1026
 1638.0000     0.5562    69.0311
 1638.5000     0.5490    68.9595
 1639.0000     0.6058    68.8880
 1639.5000     0.6608    68.8166
 1640.0000     0.7099    68.7448
 1640.5000     0.7235    68.6736
 1641.0000     0.7450    68.6076
 1641.5000     0.7526    68.4226
 1642.0000     0.7224    68.2229
 1642.5000     0.6933    68.0214
 1643.0000     0.6643    67.8202
 1643.5000     0.6350    67.6192
 1644.0000     0.6094    67.4183
 1644.5000     0.6245    67.2173
 1645.0000     0.6976    67.0163
 1645.5000     0.7679    66.8153
 1646.0000     0.8367    66.6143
 1646.5000     0.8766    66.4133
 1647.0000     0.8360    66.2124
 1647.5000     0.7977    66.0114
 1648.0000     0.7595    65.8104
 1648.5000     0.7205    65.6094
 1649.0000     0.6954    65.4083
 1649.5000     0.6880    65.2076
 1650.0000     0.6946    65.0066
 1650.5000     0.7011    64.7989
 1651.0000     0.7072    64.7447
 1651.5000     0.7416    64.7429
 1652.0000     0.7873    64.7433
 1652.5000     0.8332    64.7436
 1653.0000     0.8791    64.7436
 1653.5000     0.9249    64.7436
 1654.0000     0.9730    64.7436
 1654.5000     0.9675    64.7436
 1655.0000     0.9408    64.7436
 1655.5000     0.9137    64.7436
 1656.0000     0.9158    64.7436
 1656.5000     0.9543    64.7436
 1657.0000     0.9927    64.7436
 1657.5000     1.0313    64.7436
 1658.0000     1.0697    64.7436
 1658.5000     1.1021    64.7436
 1659.0000     1.1123    64.7426
 1659.5000     1.1260    64.7449
 1660.0000     1.0867    64.7415
 1660.5000     1.0266    64.6814
 1661.0000     0.9666    66.7207
 1661.5000     0.9067    69.2527
 1662.0000     0.8463    71.8077
 1662.5000     0.8175    74.3591
 1663.0000     0.8108    76.9077
 1663.5000     0.8411    79.4564
 1664.0000     0.8727    82.0051
 1664.5000     0.8685    84.5543
 1665.0000     0.8405    87.1010
 1665.5000     0.8121    89.6495
 1666.0000     0.7838    92.2478
 1666.5000     0.7567    94.1258
 1667.0000     0.7418    95.8144
 1667.5000     0.7255    97.4877
 1668.0000     0.7323    99.1632
 1668.5000     0.7452   100.8406
 1669.0000     0.7583   102.5191
 1669.5000     0.7713   104.1978
 1670.0000     0.7853   105.7620
 1670.5000     0.8237   106.2257
 1671.0000     0.8648   106.6482
 1671.5000     0.9059   107.0434
 1672.0000     0.9469   107.0209
 1672.5000     0.9880   106.9867
 1673.0000     1.0291   106.9544
 1673.5000     1.0668   106.9225
 1674.0000     1.1026   106.8906
 1674.5000     1.0957   106.8588
 1675.0000     1.0648   106.8269
 1675.5000     1.0335   106.7951
 1676.0000     1.0022   106.7632
 1676.5000     0.9701   106.7314
 1677.0000     0.9459   106.6995
 1677.5000     0.9236   106.6676
 1678.0000     0.9021   106.6358
 1678.5000     0.8945   106.6039
 1679.0000     0.9234   106.5721
 1679.5000     0.9052   106.5402
 1680.0000     0.8880   106.5083
 1680.5000     0.9100   106.4765
 1681.0000     0.9382   106.4446
 1681.5000     0.9666   106.4128
 1682.0000     0.9949   106.3809
 1682.5000     1.0232   106.3490
 1683.0000     1.0516   106.3172
 1683.5000     1.0797   106.2853
 1684.0000     1.1075   106.2535
 1684.5000     1.0953   106.2216
 1685.0000     1.0271   106.1897
 1685.5000     0.9661   106.1579
 1686.0000     0.9380   106.1260
 1686.5000     0.9089   106.0942
 1687.0000     0.8806   106.0623
 1687.5000     0.8616   106.0304
 1688.0000     0.8831   105.9986
 1688.5000     0.9070   105.9667
 1689.0000     0.8884   105.9349
 1689.5000     0.8620   105.9030
 1690.0000     0.8794   105.8712
 1690.5000     0.8960   105.8391
 1691.0000     0.8199   105.8076
 1691.5000     0.7384   105.7824
 1692.0000     0.6567   105.5559
 1692.5000     0.5976   105.2921
 1693.0000     0.5831   105.0243
 1693.5000     0.5708   104.7500
 1694.0000     0.5724   104.4875
 1694.5000     0.6194   104.5111
 1695.0000     0.6701   107.0828
 1695.5000     0.7209   114.5400
 1696.0000     0.7733   121.9153
 1696.5000     0.7681   129.3117
 1697.0000     0.7455   135.4557
 1697.5000     0.7219   140.5455
 1698.0000     0.6983   145.6252
 1698.5000     0.7159   150.7315
 1699.0000     0.7538   153.2334
 1699.5000     0.7980   155.7054
 1700.0000     0.8419   156.8654
 1700.5000     0.8728   157.8067
 1701.0000     0.8680   158.5803
 1701.5000     0.8639   159.3747
 1702.0000     0.8616   160.1773
 1702.5000     0.8868   160.8989
 1703.0000     0.9116   161.0597
 1703.5000     0.9360   161.2038
 1704.0000     0.9603   161.3493
 1704.5000     0.9649   161.4948
 1705.0000     0.9464   161.6405
 1705.5000     0.9278   161.7863
 1706.0000     0.9127   161.9323
 1706.5000     0.9571   162.0777
 1707.0000     1.0197   162.1790
 1707.5000     1.0902   162.1068
 1708.0000     1.1602   162.0393
 1708.5000     1.1508   161.9725
 1709.0000     1.0381   161.9057
 1709.5000     0.9269   161.8389
 1710.0000     0.8310   161.7722
 1710.5000     0.7697   161.7054
 1711.0000     0.7798   161.6386
 1711.5000     0.8265   161.5719
 1712.0000     0.8727   161.5051
 1712.5000     0.8988   161.4383
