~VERSION INFORMATION
 VERS.                2.0:   CWLS LOG ASCII STANDARD - VERSION 2.0
 WRAP.                 NO:   ONE LINE PER DEPTH STEP
~WELL INFORMATION
#MNEM.UNIT      DATA TYPE    INFORMATION
#----------   ------------   ------------------------------
 STRT.F           86.0000:   START DEPTH
 STOP.F         1134.0000:   STOP DEPTH
 STEP.F            0.5000:   STEP LENGTH
 NULL.          -999.2500:   NO VALUE
 COMP.          U.S. NAVY:   COMPANY
 WELL. RES 3 TEAPOT DOM #64-S-2:   WELL
 FLD .             TEAPOT:   FIELD
 LOC .       S2 T38N R78W:   LOCATION
 CNTY.            NATRONA:   COUNTY
 STAT.            WYOMING:   STATE
 CTRY. UNITED STATES OF AMERICA:   COUNTRY
 SRVC. Schlumberger Well Surveying Corp:   SERVICE COMPANY
 DATE.        28-JUL-1964:   LOGDATE
 API .       490250644400:   API NUMBER
~CURVE INFORMATION
#MNEM.UNIT       API CODE    CURVE DESCRIPTION
#----------   ------------   ------------------------------
 DEPT.F                  :   
 ASN .OHMM   05 041 16 00:   AMPLIFIED SHORT NORMAL 16"
 CILD.MMHO   05 110 46 00:   CONDUCTIVITY INDUCTION LOG DEEP
 ILD .OHMM   05 120 46 00:   INDUCTION LOG DEEP
 SPR .MV     05 010 01 00:   SPONTANEOUS POTENTIAL FROM RES.
 DT  .US/F   60 520 33 00:   INTERVAL TRANSIT TIME
 GR  .GAPI   30 310 01 00:   GAMMA RAY
~PARAMETER INFORMATION
#MNEM.UNIT          VALUE    DESCRIPTION
#----------   ------------   ------------------------------
 PD  .                 GL:   PERMANENT DATUM
 EPD .F              5204:   ELEVATION PERMANENT DATUM
 LMF .                 KB:   LOG MEASURED FROM
 DAPD.F                 5:   FEET ABOVE PERMANENT DATUM
 DMF .                 KB:   DRILLING MEASURED FROM
 EKB .F              5209:   KELLING BUSHING
 EGL .F              5204:   GROUND LEVEL
 DATE.        28-JUL-1964:   RUN DATE
 RUN .                  1:   RUN NUMBER
 DD  .F              1135:   DEPTH DRILLER
 DL  .F              1135:   DEPTH LOGGER
 BLI .F              1134:   BOTTOM LOG INTERVAL
 TLI .F                86:   TOP LOG INTERVAL
 CS  .IN            10.75:   CASING SIZE
 CBD .F                11:   CASING BOTTOM DRILLER
 BS  .IN            7.875:   BIT SIZE
 BSD .F              1135:   BIT SIZE AT DEPTH
 DFT .            GEL-OIL:   DRILLING FLUID TYPE
 DFD .                9.5:   DRILLING FLUID DENSITY
 DFV .                 49:   DRILLING FLUID VISCOSITY
 DFL .                 10:   DRILLING FLUID LOSS
 MSS .           FLOWLINE:   MUD SAMPLE SOURCE
 RMS .OHMM           2.35:   RESISTIVITY MUD SAMPLE
 MST .F                89:   MUD SAMPLE TEMPERATURE
 RMF .OHMM           1.71:   RESISTIVITY MUD FILTRATE SAMPLE
 MFST.F                89:   MUD FILTRATE SAMPLE TEMPERATURE
 RMC .OHMM           3.01:   RESISTIVITY MUD CAKE
 MCST.F                89:   MUD CAKE SAMPLE TEMPERATURE
 MFSS.                 FP:   MUD FILTRATE SAMPLE SOURCE
 MCSS.                 FP:   MUD CAKE SAMPLE SOURCE
 TCS .HRS               1:   TIME CURCULATED STOPPED
 LUN .               3527:   LOGGING UNIT NUMBER
 LUL .               CSPR:   LOGGING UNIT LOCATION
 ENGI.             KNOBEL:   RECORDING ENGINEER
 WITN.          JORGENSEN:   WITNESSED BY
 CLNT.            A2DTECH:   CLIENT CODE
 ORIG.        2" 5" PRINT:   ORIGIN OF DATA
 UWI .       490250644400:   UNIQUE WELL ID
 DICO. A2D Technologies, Inc.:   DIGITIZING COMPANY
~OTHER INFORMATION
~A   DEPT        ASN      CILD        ILD       SPR         DT         GR   
   86.0000     0.0454   198.3735    16.0851   -33.8621  -999.2500  -999.2500
   86.5000     2.4009   197.5615     5.0501   -34.0127  -999.2500  -999.2500
   87.0000     2.3510   196.1470     2.8722   -34.0135  -999.2500  -999.2500
   87.5000     1.8911   195.1243     2.1053   -34.1640  -999.2500  -999.2500
   88.0000     1.6914   193.9056     1.5038   -34.0150  -999.2500  -999.2500
   88.5000     1.5371   192.1963     1.4060   -34.0157  -999.2500  -999.2500
   89.0000     1.4523   190.7154     1.4286   -34.0165  -999.2500  -999.2500
   89.5000     1.6954   189.4434     1.6015   -33.8674  -999.2500  -999.2500
   90.0000     2.7231   187.8514     2.6316   -33.8681  -999.2500  -999.2500
   90.5000     5.7378   185.3991     4.2807   -33.8688  -999.2500  -999.2500
   91.0000     6.2784   181.9593     5.3784   -34.0196  -999.2500  -999.2500
   91.5000     6.2935   177.5101     5.8647   -34.0202  -999.2500  -999.2500
   92.0000     6.3248   172.5904     6.1303   -34.0210  -999.2500  -999.2500
   92.5000     6.4927   166.9450     6.3910   -34.0219  -999.2500  -999.2500
   93.0000     6.7625   162.7510     6.5414   -34.0225  -999.2500  -999.2500
   93.5000     6.8578   158.6371     6.5414   -34.0232  -999.2500  -999.2500
   94.0000     6.8996   155.6958     6.6165   -34.0240  -999.2500  -999.2500
   94.5000     6.9440   154.9520     6.6165   -34.0247  -999.2500  -999.2500
   95.0000     6.9440   156.4764     6.6165   -34.0255  -999.2500  -999.2500
   95.5000     6.9440   158.4400     6.5414   -34.0262  -999.2500  -999.2500
   96.0000     6.9349   159.8594     6.5414   -34.0270  -999.2500  -999.2500
   96.5000     6.9067   161.7934     6.5414   -34.0278  -999.2500  -999.2500
   97.0000     6.8533   162.9393     6.5414   -34.0285  -999.2500  -999.2500
   97.5000     6.8003   164.2947     6.5414   -34.0292  -999.2500  -999.2500
   98.0000     6.7413   166.3575     6.4612   -34.0301  -999.2500  -999.2500
   98.5000     6.6717   168.1915     6.3910   -34.0307  -999.2500  -999.2500
   99.0000     6.6233   170.2360     6.3759   -34.0315  -999.2500  -999.2500
   99.5000     6.5330   172.4275     6.2406   -34.0324  -999.2500  -999.2500
  100.0000     6.4498   173.6948     6.1905   -34.0330  -999.2500  -999.2500
  100.5000     6.4206   175.4671     6.0150   -33.8838  -999.2500  -999.2500
  101.0000     6.3843   176.6943     5.9398   -33.8846  -999.2500  -999.2500
  101.5000     6.3454   177.0007     5.9398   -33.7353  -999.2500  -999.2500
  102.0000     6.3177   174.7601     5.9398   -33.5863  -999.2500  -999.2500
  102.5000     6.2784   171.3291     6.0773   -33.5870  -999.2500  -999.2500
  103.0000     6.2562   168.7636     6.1517   -33.4377  -999.2500  -999.2500
  103.5000     6.2622   168.7819     6.2259   -33.4386  -999.2500  -999.2500
  104.0000     6.3300   169.8795     6.2252   -33.3693  -999.2500  -999.2500
  104.5000     6.5099   171.1283     6.2245   -33.2901  -999.2500  -999.2500
  105.0000     6.4602   172.5930     6.2236   -33.2910  -999.2500  -999.2500
  105.5000     6.4021   174.9134     6.1479   -33.2916  -999.2500  -999.2500
  106.0000     6.3290   177.8916     6.0711   -33.2924  -999.2500  -999.2500
  106.5000     6.2469   181.5926     5.9472   -33.1433  -999.2500  -999.2500
  107.0000     6.1329   186.8148     5.8013   -33.1439  -999.2500  -999.2500
  107.5000     6.0586   192.2448     5.5443   -33.1447  -999.2500  -999.2500
  108.0000     5.9605   198.0823     5.3824   -33.1454  -999.2500  -999.2500
  108.5000     5.8320   203.3735     5.2265   -33.2961  -999.2500  -999.2500
  109.0000     5.7068   208.1040     5.1666   -33.2969  -999.2500  -999.2500
  109.5000     5.6295   207.4222     5.0908   -33.4475  -999.2500  -999.2500
  110.0000     5.5759   204.9699     5.1652   -33.5982  -999.2500  -999.2500
  110.5000     5.5681   202.1259     5.1643   -33.5990  -999.2500  -999.2500
  111.0000     5.5757   199.7816     5.2698   -33.6672  -999.2500  -999.2500
  111.5000     5.5905   196.8600     5.3921   -33.7504  -999.2500  -999.2500
  112.0000     5.6535   194.4076     5.5374   -33.7512  -999.2500  -999.2500
  112.5000     5.7632   191.7357     5.6369   -33.9018  -999.2500  -999.2500
  113.0000     5.9359   186.3862     5.6862   -33.9050  -999.2500  -999.2500
  113.5000     6.0817   182.8577     5.8066   -34.0532  -999.2500  -999.2500
  114.0000     6.1161   179.1717     5.7598   -34.0540  -999.2500  -999.2500
  114.5000     6.0262   176.6430     5.7590   -34.0547  -999.2500  -999.2500
  115.0000     5.9759   177.3845     5.7583   -34.0555  -999.2500  -999.2500
  115.5000     5.9653   179.0223     5.7575   -34.0900  -999.2500  -999.2500
  116.0000     5.9828   181.2070     5.7567   -34.0570  -999.2500  -999.2500
  116.5000     6.0170   182.2728     5.7560   -34.0577  -999.2500  -999.2500
  117.0000     6.0851   183.5492     5.7553   -34.0585  -999.2500  -999.2500
  117.5000     6.1534   185.7711     5.6793   -33.9094  -999.2500  -999.2500
  118.0000     6.2147   187.0080     5.6787   -33.9100  -999.2500  -999.2500
  118.5000     6.2049   188.8107     5.6769   -33.8995  -999.2500  -999.2500
  119.0000     6.0794   190.4669     5.6021   -33.7616  -999.2500  -999.2500
  119.5000     6.0078   191.8503     5.5263   -33.7086  -999.2500  -999.2500
  120.0000     5.9639   188.8566     5.5255   -33.6132  -999.2500  -999.2500
  120.5000     5.9280   185.4706     5.5998   -33.4640  -999.2500  -999.2500
  121.0000     5.9032   181.5687     5.6902   -33.4223  -999.2500  -999.2500
  121.5000     5.8783   174.5954     5.8235   -33.3156  -999.2500  -999.2500
  122.0000     5.9597   165.2259     6.0100   -33.1664  -999.2500  -999.2500
  122.5000     6.6398   154.8255     6.1424   -33.1359  -999.2500  -999.2500
  123.0000     6.8464   148.2859     6.4969   -33.0180  -999.2500  -999.2500
  123.5000     7.0776   145.7869     6.7525   -33.0187  -999.2500  -999.2500
  124.0000     7.2559   145.3012     6.8749   -33.0395  -999.2500  -999.2500
  124.5000     7.3238   147.2829     7.0201   -33.3202  -999.2500  -999.2500
  125.0000     7.2431   149.6611     6.9194   -33.4708  -999.2500  -999.2500
  125.5000     7.0901   153.6306     6.8686   -33.6214  -999.2500  -999.2500
  126.0000     6.9438   158.2430     6.7928   -33.6223  -999.2500  -999.2500
  126.5000     6.8298   163.0685     6.6979   -33.6229  -999.2500  -999.2500
  127.0000     6.7287   167.9837     6.6411   -33.6237  -999.2500  -999.2500
  127.5000     6.6511   171.4985     6.5253   -33.6244  -999.2500  -999.2500
  128.0000     6.5923   176.4759     6.4144   -33.6252  -999.2500  -999.2500
  128.5000     6.5427   180.8309     6.3385   -33.4761  -999.2500  -999.2500
  129.0000     6.4978   183.6395     6.2287   -33.3943  -999.2500  -999.2500
  129.5000     6.4423   185.3765     6.1049   -33.3275  -999.2500  -999.2500
  130.0000     6.3759   186.6215     5.9608   -33.1785  -999.2500  -999.2500
  130.5000     6.2322   187.8703     5.8571   -33.1792  -999.2500  -999.2500
  131.0000     6.1260   188.4346     5.7332   -33.1624  -999.2500  -999.2500
  131.5000     6.1489   184.8783     5.6584   -33.0307  -999.2500  -999.2500
  132.0000     6.1734   178.5842     5.5826   -33.0315  -999.2500  -999.2500
  132.5000     6.2007   168.1492     5.5818   -33.0322  -999.2500  -999.2500
  133.0000     6.2445   164.5081     5.7743   -33.1831  -999.2500  -999.2500
  133.5000     6.2984   159.5883     5.9877   -33.2324  -999.2500  -999.2500
  134.0000     6.5762   152.3819     6.2552   -33.3344  -999.2500  -999.2500
  134.5000     7.1068   147.2051     6.5158   -33.5762  -999.2500  -999.2500
  135.0000     7.2687   141.0642     6.8093   -33.6357  -999.2500  -999.2500
  135.5000     7.3878   136.6379     7.1538   -33.7864  -999.2500  -999.2500
  136.0000     7.8009   133.6118     7.4404   -33.7871  -999.2500  -999.2500
  136.5000     8.3048   135.1362     7.6780   -33.7879  -999.2500  -999.2500
  137.0000     8.1710   139.1265     7.5269   -33.6388  -999.2500  -999.2500
  137.5000     7.6767   144.0763     7.3011   -33.6394  -999.2500  -999.2500
