~VERSION INFORMATION
 VERS.                2.0:   CWLS LOG ASCII STANDARD - VERSION 2.0
 WRAP.                 NO:   ONE LINE PER DEPTH STEP
~WELL INFORMATION
#MNEM.UNIT      DATA TYPE    INFORMATION
#----------   ------------   ------------------------------
 STRT.F           30.0000:   START DEPTH
 STOP.F          526.0000:   STOP DEPTH
 STEP.F            0.5000:   STEP LENGTH
 NULL.          -999.2500:   NO VALUE
 COMP. FENIX & SCISSON INC:   COMPANY
 WELL.       NPR #37-SX-3:   WELL
 FLD .             TEAPOT:   FIELD
 LOC .       S3 T38N R78W:   LOCATION
 CNTY.            NATRONA:   COUNTY
 STAT.            WYOMING:   STATE
 CTRY. UNITED STATES OF AMERICA:   COUNTRY
 SRVC.              Welex:   SERVICE COMPANY
 DATE.        10-MAR-1977:   LOGDATE
 API .       490251028600:   API NUMBER
~CURVE INFORMATION
#MNEM.UNIT       API CODE    CURVE DESCRIPTION
#----------   ------------   ------------------------------
 DEPT.F                  :   
 ILD .OHMM   07 120 46 00:   INDUCTION LOG DEEP
 ILM .OHMM   07 120 44 00:   INDUCTION LOG MEDIUM
 SPR .MV     07 010 01 00:   SPONTANEOUS POTENTIAL
 SGRD.OHMM   07 220 05 00:   SHALLOW RESISTIVITY
 GRD .GAPI   45 310 01 00:   GAMMA RAY FROM DENSITY LOG
 CALD.IN     45 280 60 00:   CALIPER
 CORR.G/C3   45 356 01 00:   DENSITY CORRECTION
 RHOB.G/C3   45 350 01 00:   BULK DENSITY
 DPOR.DEC    45 890 12 00:   DENSITY POROSITY SANDSTONE
~PARAMETER INFORMATION
#MNEM.UNIT          VALUE    DESCRIPTION
#----------   ------------   ------------------------------
 PD  .                 GL:   PERMANENT DATUM
 EPD .F              5232:   ELEVATION PERMANENT DATUM
 LMF .                 GL:   LOG MEASURED FROM
 DMF .                 GL:   DRILLING MEASURED FROM
 EGL .F              5232:   GROUND LEVEL
 DATE.            3-10-77:   RUN DATE
 RUN .                  1:   RUN NUMBER
 DD  .F               530:   DEPTH DRILLER
 DL  .F               528:   DEPTH LOGGER
 BLI .F               526:   BOTTOM LOG INTERVAL
 TLI .F                35:   TOP LOG INTERVAL
 CS  .IN            8.625:   CASING SIZE
 CBD .F                40:   CASING BOTTOM DRILLER
 CBL .F                42:   CASING BOTTOM LOGGER
 BS  .IN            7.875:   BIT SIZE
 BSD .F               530:   BIT SIZE AT DEPTH
 DFT .            KCL MUD:   DRILLING FLUID TYPE
 DFD .                8.8:   DRILLING FLUID DENSITY
 DFV .                 32:   DRILLING FLUID VISCOSITY
 DFPH.                  8:   DRILLING FLUID PH
 DFL .                7.7:   DRILLING FLUID LOSS
 MSS .            MUD PIT:   MUD SAMPLE SOURCE
 RMS .OHMM            .48:   RESISTIVITY MUD SAMPLE
 MST .F                47:   MUD SAMPLE TEMPERATURE
 RMF .OHMM            .43:   RESISTIVITY MUD FILTRATE SAMPLE
 MFST.F                47:   MUD FILTRATE SAMPLE TEMPERATURE
 RMC .OHMM            .52:   RESISTIVITY MUD CAKE
 MCST.F                47:   MUD CAKE SAMPLE TEMPERATURE
 MFSS.           FANN KIT:   MUD FILTRATE SAMPLE SOURCE
 MCSS.           FANN KIT:   MUD CAKE SAMPLE SOURCE
 RMB .OHMM            .41:   RESISTIVITY MUD AT BHT
 BHT .F                55:   BOTTOM HOLE TEMPERATURE
 TCS .HRS             1.5:   TIME CURCULATED STOPPED
 MRT .F                55:   MAXIMUM RECORDED TEMPERATURE
 LUN .               8611:   LOGGING UNIT NUMBER
 LUL .           GILLETTE:   LOGGING UNIT LOCATION
 ENGI.               DOAK:   RECORDING ENGINEER
 WITN.              BURKE:   WITNESSED BY
 CLNT.            A2DTECH:   CLIENT CODE
 ORIG.       2", 5" PRINT:   ORIGIN OF DATA
 UWI .       490251028600:   UNIQUE WELL ID
 DICO. A2D Technologies, Inc.:   DIGITIZING COMPANY
~OTHER INFORMATION
~A   DEPT      ILD        ILM        SPR       SGRD         GRD        CALD      CORR        RHOB     DPOR   
# ...
  249.0000     2.6957     3.3561   -50.2386     4.4470   121.1161     8.0020     0.0589     2.3888     0.8031
  249.5000     2.8461     3.6705   -49.9366     6.2472   123.7013     8.0020     0.0619     2.4363     0.8862
  250.0000     3.1174     4.0149   -49.6346     7.0459   125.5792     8.0020     0.0631     2.4450     0.9177
  250.5000     3.4145     4.3913   -49.3327     5.7890   127.3270     8.0020     0.0591     2.4409     0.9151
  251.0000     3.7400     4.8031   -49.0307     5.3478   127.7050     8.0020     0.0551     2.4531     0.9329
  251.5000     4.0964     5.2536   -48.7287     8.6250   127.8246     8.0020     0.0554     2.4684     0.9590
  252.0000     4.4869     5.7466   -48.4268     9.4634   126.7564     8.0020     0.0572     2.4714     0.9674
  252.5000     4.9147     6.2847   -48.1248     9.2777   129.7993     8.0020     0.0600     2.4763     0.9769
  253.0000     5.3862     6.8090   -47.8225     9.1009   133.4835     8.0023     0.0636     2.4822     0.9886
  253.5000     5.7348     6.9405   -47.5209     8.8662   137.1015     8.0035     0.0672     2.4880     1.0003
  254.0000     5.8310     7.0459   -47.2142     9.0307   139.0881     8.0047     0.0708     2.4939     1.0121
  254.5000     5.9296     7.0459   -47.1891     8.7573   138.1376     8.0059     0.0744     2.4998     1.0238
  255.0000     6.0310     7.0459   -47.2806     8.4679   136.9906     8.0070     0.0780     2.5042     1.0337
  255.5000     6.1380     7.0459   -47.3755     8.6171   136.7693     8.0082     0.0765     2.4980     1.0301
  256.0000     5.9658     7.0463   -47.4725     8.7555   138.1367     8.0094     0.0747     2.4893     1.0113
  256.5000     5.7872     7.0308   -47.6435     8.8961   139.6766     8.0106     0.0729     2.4805     0.9875
  257.0000     5.5947     7.0115   -47.9032     9.0390   139.7711     8.0118     0.0705     2.4703     0.9635
  257.5000     5.4057     6.9916   -48.1621     9.1842   140.0883     8.0129     0.0675     2.4540     0.9403
  258.0000     5.2232     6.6885   -48.4221     9.3689   142.8318     8.0141     0.0645     2.4375     0.9183
  258.5000     5.0467     6.1557   -48.6756     9.4554   145.9968     8.0153     0.0615     2.4278     0.8999
  259.0000     4.8762     5.6663   -48.8857     5.8627   143.4098     8.0164     0.0585     2.4333     0.9058
  259.5000     4.7113     5.3478   -49.0834     5.7032   139.7784     8.0176     0.0555     2.4384     0.9109
  260.0000     4.6424     5.4055   -49.2819     6.4326   136.0368     8.0188     0.0525     2.4420     0.9222
  260.5000     4.6164     5.4973   -49.4815     7.6440   134.6899     8.0200     0.0502     2.4458     0.9348
  261.0000     4.6164     5.6771   -49.4355     6.6712   135.2167     8.0211     0.0512     2.4561     0.9475
  261.5000     4.6590     5.8742   -49.3552     5.5993   136.5184     8.0211     0.0521     2.4669     0.9603
  262.0000     4.8659     6.1149   -49.2749     7.1602   138.4325     8.0182     0.0530     2.4686     0.9654
  262.5000     5.0820     6.4813   -49.1957     8.6250   136.9614     8.0154     0.0540     2.4693     0.9685
  263.0000     5.3077     6.8696   -49.1145     8.1367   134.1038     8.0126     0.0524     2.4762     0.9796
  263.5000     5.5435     7.2812   -48.8657     7.8442   131.2455     8.0099     0.0502     2.4831     0.9960
  264.0000     5.7896     7.7175   -48.5962     7.8000   128.9739     8.0071     0.0481     2.4809     0.9987
  264.5000     6.0468     7.9433   -48.3269     9.5328   128.5106     8.0043     0.0481     2.4769     0.9854
  265.0000     6.3153     8.1826   -48.0579    10.1475   132.8442     8.0015     0.0481     2.4728     0.9750
  265.5000     6.5958     8.4283   -47.7817    10.3809   136.5492     7.9988     0.0481     2.4687     0.9647
  266.0000     6.7884     8.6802   -47.5984    10.6183   138.8649     7.9960     0.0482     2.4644     0.9625
  266.5000     6.9526     8.7990   -47.4360    10.8628   138.9408     7.9932     0.0510     2.4691     0.9714
  267.0000     7.1110     8.8224   -47.2743    10.9535   138.4809     7.9905     0.0539     2.4753     0.9804
  267.5000     7.2196     8.8458   -47.1119    10.8462   139.6026     7.9877     0.0568     2.4815     0.9894
  268.0000     7.3098     8.8662   -46.9498    10.7724   144.2444     7.9849     0.0597     2.4856     0.9976
  268.5000     7.1857     8.8131   -46.7878    10.3340   146.6263     7.9821     0.0584     2.4818     0.9907
  269.0000     7.0780     8.7571   -46.8004     9.8070   144.8045     7.9834     0.0557     2.4773     0.9774
  269.5000     6.9720     8.7047   -46.9731     9.8378   142.4100     7.9851     0.0529     2.4693     0.9643
  270.0000     6.7915     8.4446   -47.1459     9.8761   142.8986     7.9868     0.0525     2.4613     0.9513
  270.5000     6.5367     8.2058   -47.3190     9.9000   143.4876     7.9885     0.0531     2.4534     0.9375
  271.0000     6.2916     7.9739   -47.4926     9.6347   142.8075     7.9902     0.0538     2.4455     0.9203
  271.5000     6.0555     7.7484   -47.6644     9.4393   143.1725     7.9919     0.0538     2.4376     0.9033
  272.0000     5.8283     7.5294   -47.8954     9.1681   144.8675     7.9936     0.0531     2.4297     0.8849
  272.5000     5.6096     7.2304   -48.1450     8.8604   145.8537     7.9953     0.0523     2.4215     0.8657
  273.0000     5.3990     6.7436   -48.3977     8.5630   145.7329     7.9970     0.0516     2.4192     0.8595
  273.5000     5.1965     6.2895   -48.6502     8.2831   147.1045     7.9988     0.0509     2.4188     0.8577
  274.0000     4.9687     5.8637   -48.9031     7.7190   148.6171     8.0005     0.0502     2.4174     0.8614
  274.5000     4.9865     5.3501   -49.1547     6.7409   147.1592     8.0022     0.0509     2.4209     0.8935
  275.0000     5.0083     5.6735   -49.4112     5.8647   145.2457     8.0039     0.0517     2.4335     0.9291
  275.5000     5.1485     6.2102   -49.3228     5.6510   143.3200     8.0056     0.0549     2.4594     0.9646
  276.0000     5.3428     6.7907   -49.0385     7.8423   142.1178     8.0073     0.0603     2.4911     0.9997
  276.5000     5.5444     7.4255   -48.7495     9.9916   142.0566     8.0090     0.0635     2.4938     1.0163
  277.0000     5.7536     7.9402   -48.4720    10.1986   144.0399     8.0107     0.0609     2.4926     1.0074
  277.5000     5.9708     8.0456   -48.2678    10.4059   146.4008     8.0124     0.0585     2.4856     0.9954
  278.0000     6.1962     8.1466   -48.0603    10.6175   147.2123     8.0141     0.0561     2.4788     0.9830
  278.5000     6.4300     8.2488   -47.8526    10.7540   145.3226     8.0158     0.0536     2.4768     0.9831
  279.0000     6.6678     8.3523   -47.6458    10.3523   145.0393     8.0175     0.0512     2.4763     0.9836
  279.5000     6.8489     8.5426   -47.4724    10.0838   149.3136     8.0192     0.0487     2.4720     0.9717
  280.0000     7.0313     8.7880   -47.3544    10.5655   149.7761     8.0209     0.0481     2.4666     0.9589
  280.5000     7.2186     9.0407   -47.2356    11.2598   145.1147     8.0212     0.0481     2.4657     0.9509
  281.0000     7.3773     9.3006   -47.1171    11.1932   140.3654     8.0196     0.0496     2.4759     0.9695
  281.5000     7.3679     9.5700   -46.9985    11.0750   139.2663     8.0181     0.0522     2.4802     0.9838
  282.0000     7.3600     9.7198   -46.8800    10.9580   141.6415     8.0164     0.0549     2.4833     0.9981
  282.5000     7.3519     9.4404   -46.7551    10.8533   144.2100     8.0148     0.0575     2.4899     1.0126
  283.0000     7.3439     9.2514   -46.7772    11.0107   145.4274     8.0133     0.0602     2.4968     1.0271
  283.5000     7.3359     9.0662   -46.8490    11.2598   143.2724     8.0117     0.0629     2.5025     1.0343
  284.0000     7.3280     8.8847   -46.9219    11.1005   141.0580     8.0101     0.0656     2.5007     1.0306
  284.5000     7.3200     8.7851   -46.9943    10.8383   138.9798     8.0085     0.0656     2.4991     1.0258
  285.0000     7.3121     8.8453   -47.0667    10.6556   138.9866     8.0069     0.0647     2.4964     1.0179
