~VERSION INFORMATION
 VERS.                2.0:   CWLS LOG ASCII STANDARD - VERSION 2.0
 WRAP.                 NO:   ONE LINE PER DEPTH STEP
~WELL INFORMATION
#MNEM.UNIT      DATA TYPE    INFORMATION
#----------   ------------   ------------------------------
 STRT.F            2.5000:   START DEPTH
 STOP.F         1003.0000:   STOP DEPTH
 STEP.F            0.5000:   STEP LENGTH
 NULL.          -999.2500:   NO VALUE
 COMP. U S NAVY-INTEX OIL:   COMPANY
 WELL.   NPR #3 #87-SX-27:   WELL
 FLD .             TEAPOT:   FIELD
 LOC .      S27 T39N R78W:   LOCATION
 CNTY.            NATRONA:   COUNTY
 STAT.            WYOMING:   STATE
 CTRY. UNITED STATES OF AMERICA:   COUNTRY
 SRVC. Schlumberger Well Surveying Corp:   SERVICE COMPANY
 DATE.        13-AUG-1961:   LOGDATE
 API .       490250659000:   API NUMBER
~CURVE INFORMATION
#MNEM.UNIT       API CODE    CURVE DESCRIPTION
#----------   ------------   ------------------------------
 DEPT.F                  :   
 ASN .OHMM   05 041 16 00:   AMPLIFIER SHORT NORMAL
 SPR .MV     05 010 01 00:   SPONTANEOUS POTENSIAL
 CILD.MMHO   05 110 46 00:   CONDUCTIVITY INDUCTION LOG DEEP
 ILD .OHMM   05 120 46 00:   INDUCTION LOG DEEP
 GRN .MG/TON 35 310 30 00:   GAMMA RAY
 NEUT.NAPI   35 330 01 00:   NEUTRON
~PARAMETER INFORMATION
#MNEM.UNIT          VALUE    DESCRIPTION
#----------   ------------   ------------------------------
 PD  .                 GL:   PERMANENT DATUM
 EPD .F              5082:   ELEVATION PERMANENT DATUM
 LMF .                 KB:   LOG MEASURED FROM
 DAPD.F                 5:   FEET ABOVE PERMANENT DATUM
 DMF .                 KB:   DRILLING MEASURED FROM
 EKB .F              5087:   KELLING BUSHING
 EGL .F              5082:   GROUND LEVEL
 DATE.        13-AUG-1961:   RUN DATE
 RUN .                  1:   RUN NUMBER
 DD  .F              1000:   DEPTH DRILLER
 DL  .F              1003:   DEPTH LOGGER
 BLI .F              1002:   BOTTOM LOG INTERVAL
 TLI .F                90:   TOP LOG INTERVAL
 BS  .IN             6.75:   BIT SIZE
 BSD .F              1000:   BIT SIZE AT DEPTH
 DFT . OIL EMUL (12% OIL):   DRILLING FLUID TYPE
 DFD .                9.3:   DRILLING FLUID DENSITY
 DFV .                 60:   DRILLING FLUID VISCOSITY
 DFL .                  4:   DRILLING FLUID LOSS
 MSS .           FLOWLINE:   MUD SAMPLE SOURCE
 RMS .OHMM           1.29:   RESISTIVITY MUD SAMPLE
 MST .F                80:   MUD SAMPLE TEMPERATURE
 TCS .HRS               1:   TIME CURCULATED STOPPED
 LUN .               2523:   LOGGING UNIT NUMBER
 LUL .               CSPR:   LOGGING UNIT LOCATION
 ENGI.              SCOTT:   RECORDING ENGINEER
 WITN.          JORGENSEN:   WITNESSED BY
 CLNT.            A2DTECH:   CLIENT CODE
 ORIG.       2", 5" PRINT:   ORIGIN OF DATA
 UWI .       490250659000:   UNIQUE WELL ID
 DICO. A2D Technologies, Inc.:   DIGITIZING COMPANY
~OTHER INFORMATION
~A    DEPT     ASN        SPR       CILD        ILD          GRN     NEUT   
# ...
  106.5000     6.8875   -16.6568   165.6581     5.0452     5.9631   190.5528
  107.0000     6.8006   -16.6562   168.4835     5.1958     5.9960   199.4879
  107.5000     6.7974   -16.5053   170.0098     5.3464     6.0541   211.6867
  108.0000     6.8669   -16.4084   170.0300     5.3926     6.2479   240.8005
  108.5000     6.9670   -16.3536   168.5497     5.5147     6.2889   255.4305
  109.0000     7.1009   -16.2027   167.0758     5.5723     6.3006   261.7670
  109.5000     7.1834   -16.2020   162.9905     5.6476     6.1951   264.0380
  110.0000     7.2222   -16.2012   158.1081     5.6476     6.0327   262.2338
  110.5000     7.2591   -16.2003   158.1306     5.6476     5.9537   239.9477
  111.0000     7.2835   -16.1997   158.9540     5.5723     5.9497   213.7245
  111.5000     7.3123   -16.1990   162.6815     5.4970     6.0882   198.7209
  112.0000     7.2322   -16.3483   165.0050     5.4086     6.1231   193.2883
  112.5000     6.8318   -16.3476   167.4800     5.2554     6.1307   190.9564
  113.0000     6.6404   -16.3468   168.7565     5.1205     6.1624   191.1063
  113.5000     6.5853   -16.1959   170.9284     5.0452     6.1910   190.3731
  114.0000     6.5465   -16.1952   173.4034     4.9644     6.1080   187.8832
  114.5000     6.5165   -16.1943   174.8315     4.8946     6.1075   191.8422
  115.0000     6.4865   -16.1937   176.8519     4.8193     6.1397   198.0228
  115.5000     6.4565   -16.3431   179.3773     4.8193     6.1533   200.9518
  116.0000     6.4014   -16.3423   180.9009     4.7440     6.1232   201.6894
  116.5000     6.2913   -16.5273   182.7753     4.7440     5.8962   200.2660
  117.0000     6.1161   -16.6411   185.4523     4.7440     5.7653   193.3233
  117.5000     5.9785   -16.6404   187.7252     4.6687     5.6698   188.3373
  118.0000     5.8408   -16.6396   190.2002     4.6652     5.6332   186.4762
  118.5000     5.8396   -16.6388   193.0287     4.5934     5.5929   186.4678
  119.0000     5.9572   -16.6381   196.6517     4.6152     5.5009   185.7019
  119.5000     6.2162   -16.4872   195.8733     4.7440     5.4221   184.9351
  120.0000     6.3514   -16.1562   185.0852     4.8594     5.3960   184.9263
  120.5000     6.4865   -15.8516   176.1487     5.0452     5.4200   184.9199
  121.0000     6.5641   -15.5840   170.6165     5.1205     5.5126   186.4433
  121.5000     6.5766   -15.5128   169.7873     5.1505     5.5597   199.9105
  122.0000     6.5766   -15.4324   169.1564     5.1958     5.6343   211.1230
  122.5000     6.5697   -15.8820   172.1870     5.1475     5.7994   212.9775
  123.0000     6.5453   -16.1336   175.2102     5.0452     5.9336   215.7918
  123.5000     6.4865   -16.4812   176.7342     4.9699     5.9724   222.6671
  124.0000     6.4364   -16.7187   178.2619     4.8946     5.9232   231.9329
  124.5000     6.3514   -16.9303   179.7823     4.8946     5.7224   232.5803
  125.0000     6.2625   -16.9294   179.8048     4.8193     5.5804   222.6823
  125.5000     6.1555   -17.0788   179.8273     4.8946     5.6415   221.2817
  126.0000     6.0661   -17.0901   179.8499     4.8946     5.7562   220.5162
  126.5000     6.0511   -17.1219   179.8737     4.8946     5.5804   221.2677
  127.0000     6.0686   -16.8283   177.5926     4.9877     5.4954   223.4389
  127.5000     6.1712   -16.3251   175.1627     5.1205     5.5889   228.1355
  128.0000     6.2763   -15.9379   170.9337     5.3795     5.6778   237.9457
  128.5000     6.4565   -15.5433   168.1507     5.6782     5.7800   242.1784
  129.0000     6.6704   -15.2717   163.3683     6.1747     5.8744   245.8944
  129.5000     6.9413   -15.2045   157.4891     6.2760     5.8800   249.3096
  130.0000     7.1321   -15.1201   153.0030     6.3253     5.7900   248.7462
  130.5000     7.1334   -15.1192   147.0200     6.3563     5.6935   225.2578
  131.0000     7.0858   -15.1186   147.3423     6.1431     5.6490   189.3140
  131.5000     7.0420   -15.1178   152.2697     5.7982     5.6240   185.2552
  132.0000     6.9970   -15.2012   157.5994     5.5793     5.5879   183.9861
  132.5000     6.9369   -15.2666   162.8754     5.3294     5.5433   182.7576
  133.0000     6.8418   -15.4158   168.7538     4.9699     5.4895   180.3802
  133.5000     6.7105   -15.4152   177.1879     4.7713     5.4079   175.6122
  134.0000     6.3964   -15.4144   184.4144     4.5181     5.3348   170.2306
  134.5000     6.0342   -15.5637   187.8404     4.4428     5.3467   162.7757
  135.0000     5.8333   -15.5631   191.7668     4.3675     5.6578   155.0922
  135.5000     5.7508   -15.5623   193.7913     4.4428     5.8277   151.0963
  136.0000     5.8709   -15.5616   193.8147     4.5502     5.8819   147.4868
  136.5000     6.0961   -15.7110   192.1346     4.7476     5.9042   154.3098
  137.0000     6.2087   -15.7101   186.9520     4.9202     5.9381   164.1497
  137.5000     6.3219   -15.7720   180.3702     5.0891     5.9950   164.9557
  138.0000     6.4414   -15.8589   173.7838     5.2711     6.0246   153.6056
  138.5000     6.4784   -15.7080   169.6021     5.4270     6.1080   143.3062
  139.0000     6.5040   -15.7072   163.9226     5.6594     6.0307   141.3672
  139.5000     6.5616   -15.5563   160.3879     5.7982     5.9648   148.1771
  140.0000     6.6316   -15.4054   157.9580     5.8283     6.0251   162.4568
  140.5000     6.8468   -15.2310   154.0265     5.9504     6.1220   166.3968
  141.0000     6.9720   -15.1035   151.5966     6.0725     6.1078   164.2586
  141.5000     7.0696   -14.7420   149.0179     6.0994     6.0327   161.7395
  142.0000     7.1321   -14.5015   149.8399     6.0241     5.9615   157.2628
  142.5000     7.1252   -14.5008   152.5650     5.8722     5.9187   176.0643
  143.0000     7.1146   -14.5000   159.5974     5.7131     5.9422   183.0598
  143.5000     7.0420   -14.6494   165.4229     5.4970     5.9766   182.6134
  144.0000     6.9570   -14.8769   170.3503     5.3936     6.0105   181.5276
  144.5000     6.8318   -15.1199   176.1828     5.1958     6.0351   199.7377
  145.0000     6.6504   -15.3053   180.2052     4.9523     6.0598   209.1570
  145.5000     6.4364   -15.4557   185.2332     4.7081     6.0779   213.4777
  146.0000     6.0511   -15.5485   189.1591     4.5181     6.0854   213.3792
  146.5000     5.9772   -15.6959   191.6341     4.4428     6.0854   212.3187
  147.0000     5.9447   -15.6952   194.3112     4.4506     6.0553   211.8469
  147.5000     5.9416   -15.6944   195.0826     4.5181     5.9544   213.5979
  148.0000     5.9960   -15.5435   197.3574     4.6456     5.9045   216.8319
  148.5000     6.0961   -15.3926   197.3831     4.8946     5.9121   219.4151
  149.0000     6.2087   -15.2416   196.2012     5.0587     5.9255   219.8355
  149.5000     6.3551   -15.2410   189.7674     5.2277     5.9347   220.1603
  150.0000     6.5315   -15.0901   180.4303     5.4970     5.8392   216.3554
  150.5000     6.7230   -15.0893   171.0436     5.6065     5.7129   205.0865
  151.0000     6.8969   -15.0886   165.9619     5.7287     5.6181   192.0488
  151.5000     6.9820   -15.0878   163.6311     5.7982     5.5166   196.5944
  152.0000     7.0320   -15.0871   161.4987     5.7982     5.4975   200.9505
  152.5000     6.9970   -15.2365   160.0248     5.7982     5.3618   202.6536
  153.0000     6.9319   -15.3858   161.5466     5.7982     5.2980   202.6460
  153.5000     6.8706   -15.3851   163.0706     5.7982     5.2714   202.6384
  154.0000     6.8168   -15.3844   163.0968     5.7982     5.3166   202.6304
  154.5000     6.7949   -15.5338   162.5651     5.7982     5.3766   202.6232
  155.0000     6.7718   -15.4980   161.6366     5.7982     5.5812   202.6156
  155.5000     6.8168   -15.2319   159.2067     5.8488     5.6131   204.1255
  156.0000     6.8468   -15.0090   158.6750     5.9488     5.5833   209.9794
  156.5000     6.9069   -14.7645   157.2011     6.0241     5.5879   225.4796
  157.0000     6.9782   -14.6290   156.4214     6.0994     5.7801   248.1326
  157.5000     7.0664   -14.4782   153.9915     6.2500     5.9995   256.9198
  158.0000     7.1622   -14.4775   151.2640     6.4006     6.1005   272.4113
