~VERSION INFORMATION
 VERS.                2.0:   CWLS LOG ASCII STANDARD - VERSION 2.0
 WRAP.                 NO:   ONE LINE PER DEPTH STEP
~WELL INFORMATION
#MNEM.UNIT      DATA TYPE    INFORMATION
#----------   ------------   ------------------------------
 STRT.F           11.0000:   START DEPTH
 STOP.F          807.0000:   STOP DEPTH
 STEP.F            0.5000:   STEP LENGTH
 NULL.          -999.2500:   NO VALUE
 COMP. BROWN JOHN E&C INC:   COMPANY
 WELL. NPR 3 SHX-34 #77-1-34:   WELL
 FLD .             TEAPOT:   FIELD
 LOC .      S34 T39N R79W:   LOCATION
 CNTY.            NATRONA:   COUNTY
 STAT.            WYOMING:   STATE
 CTRY. UNITED STATES OF AMERICA:   COUNTRY
 SRVC.     Atlas Wireline:   SERVICE COMPANY
 DATE.        07-DEC-1991:   LOGDATE
 API .       490252248000:   API NUMBER
~CURVE INFORMATION
#MNEM.UNIT       API CODE    CURVE DESCRIPTION
#----------   ------------   ------------------------------
 DEPT.F                  :   
 CALD.IN     45 280 60 00:   CALIPER FROM DENSITY LOG
 CORR.G/C3   45 356 01 00:   DENSITY CORRECTION
 DEN .G/C3   45 350 01 00:   COMPENSATED BULK DENSTIY
 GRD .GAPI   45 310 01 00:   GAMMA RAY FROM DENSITY LOG
 PORD.DEC    45 890 12 00:   POROSITY DENSITY SANDSTONE
 GRR .GAPI   07 310 01 00:   GAMMA RAY FROM RESISTIVITY
 RILD.OHMM   07 120 46 00:   RESISTIVITY INDUCTION LOG DEEP
 RILM.OHMM   07 120 44 00:   RESITIVITY INDUCTION LOG MEDIUM
~PARAMETER INFORMATION
#MNEM.UNIT          VALUE    DESCRIPTION
#----------   ------------   ------------------------------
 PD  .                 GL:   PERMANENT DATUM
 EPD .F              5098:   ELEVATION PERMANENT DATUM
 LMF .                 KB:   LOG MEASURED FROM
 DAPD.F                10:   FEET ABOVE PERMANENT DATUM
 DMF .                 KB:   DRILLING MEASURED FROM
 EKB .F              5108:   KELLING BUSHING
 EDF .F              5107:   DRILLING FLOOR
 EGL .F              5098:   GROUND LEVEL
 DATE.        07-DEC-1991:   RUN DATE
 RUN .                  1:   RUN NUMBER
 DD  .F               810:   DEPTH DRILLER
 DL  .F               810:   DEPTH LOGGER
 BLI .F               808:   BOTTOM LOG INTERVAL
 CS  .IN            9.625:   CASING SIZE
 CBD .F                85:   CASING BOTTOM DRILLER
 CBL .F                97:   CASING BOTTOM LOGGER
 BS  .IN             8.75:   BIT SIZE
 BSD .F               810:   BIT SIZE AT DEPTH
 DFT .                AIR:   DRILLING FLUID TYPE
 BHT .F                90:   BOTTOM HOLE TEMPERATURE
 MRT .F                90:   MAXIMUM RECORDED TEMPERATURE
 LUN .            HL 6274:   LOGGING UNIT NUMBER
 LUL .             CASPER:   LOGGING UNIT LOCATION
 ENGI.       P. RASMUSSEN:   RECORDING ENGINEER
 WITN.        GARY STRONG:   WITNESSED BY
 CLNT.            A2DTECH:   CLIENT CODE
 ORIG.           5" PRINT:   ORIGIN OF DATA
 UWI .       490252248000:   UNIQUE WELL ID
 DICO. A2D Technologies, Inc.:   DIGITIZING COMPANY
~OTHER INFORMATION
~A   DEPT     CALD       CORR        DEN        GRD       PORD         GRR      RILD       RILM   
# ...
  335.0000     9.3674    -0.0021     2.4256   136.8161     0.1333   110.1815     9.2554     9.3864
  335.5000     9.3820    -0.0021     2.4211   138.9126     0.1386   113.4738     9.5349     9.6483
  336.0000     9.3667    -0.0005     2.4188   141.0290     0.1407   111.3630     9.8518     9.9176
  336.5000     9.3514     0.0010     2.4180   140.7018     0.1401   107.1500    10.0593    10.0582
  337.0000     9.3361     0.0041     2.4210   136.7923     0.1371   104.7387    10.2006    10.3349
  337.5000     9.3058     0.0086     2.4240   131.6816     0.1350   105.4305    10.3438    10.4770
  338.0000     9.3055     0.0057     2.4270   129.2722     0.1326   108.0224    10.4890    10.4756
  338.5000     9.2902     0.0027     2.4315   130.1674     0.1311   110.1158    10.4904    10.4742
  339.0000     9.2750    -0.0002     2.4307   133.1648     0.1326   111.3104    10.4196    10.4006
  339.5000     9.2747    -0.0017     2.4270   134.6607     0.1344   110.6989    10.3493    10.3276
  340.0000     9.2743     0.0029     2.4224   134.0531     0.1368   110.0895    10.2088    10.3262
  340.5000     9.2740     0.0044     2.4186   134.6481     0.1387   111.2819    10.0705    10.3248
  341.0000     9.2888     0.0029     2.4149   136.7446     0.1428   114.5765    10.0718    10.1816
  341.5000     9.3035     0.0030     2.4073   140.0409     0.1471   115.4686     9.9350    10.1786
  342.0000     9.3031     0.0015     2.4028   142.7380     0.1495   113.0553     9.8677    10.0390
  342.5000     9.3028     0.0016     2.3998   143.6347     0.1501   114.8483     9.7340     9.8995
  343.0000     9.3025     0.0016     2.3983   143.6276     0.1492   117.8426     9.6680     9.7622
  343.5000     9.3022     0.0017     2.4058   143.6207     0.1462   119.9359     9.5370     9.6268
  344.0000     9.3019     0.0032     2.4133   143.0145     0.1435   116.6238     9.5383     9.5592
  344.5000     9.3016     0.0033     2.4133   143.6095     0.1423   117.2157     9.5315     9.4921
  345.0000     9.3013     0.0033     2.4102   145.7045     0.1441   120.2099     9.4100     9.3604
  345.5000     9.3010     0.0049     2.4110   147.8010     0.1432   122.9039     9.4116     9.3592
  346.0000     9.3157     0.0049     2.4162   147.4951     0.1408   122.5385     9.3478     9.2934
  346.5000     9.3004     0.0065     2.4192   145.6827     0.1393   120.7820     9.2847     9.2281
  347.0000     9.3001     0.0065     2.4207   144.7798     0.1375   120.1727     9.2863     9.2269
  347.5000     9.2998     0.0065     2.4229   145.3762     0.1357   119.8636     9.2875     9.1620
  348.0000     9.2995     0.0051     2.4267   145.9700     0.1336   115.3504     9.2888     9.0974
  348.5000     9.2992     0.0051     2.4282   144.1610     0.1330   112.3386     9.2900     9.0962
  349.0000     9.2989     0.0037     2.4267   141.7530     0.1339   111.1286     9.1638     9.0323
  349.5000     9.2836     0.0037     2.4251   140.2458     0.1357   111.1199     9.1654     8.9688
  350.0000     9.2684     0.0038     2.4251   140.5405     0.1354   110.5105     9.1666     8.9676
  350.5000     9.2680     0.0143     2.4259   144.1371     0.1333   108.0651     9.1679     8.8433
  351.0000     9.2827     0.0170     2.4289   145.6330     0.1309   107.4900     9.1691     8.8421
  351.5000     9.2975     0.0158     2.4319   145.9277     0.1285   115.8874     9.1703     8.8409
  352.0000     9.2972     0.0113     2.4356   146.9029     0.1261   122.4853     9.1081     8.8429
  352.5000     9.3118     0.0038     2.4347   149.5187     0.1255   123.3796     9.0470     8.8384
  353.0000     9.3115     0.0023     2.4296   150.4140     0.1312   120.6660     9.0482     8.8370
  353.5000     9.2962     0.0038     2.4250   151.6096     0.1358   118.8554     9.0495     8.8974
  354.0000     9.2659     0.0038     2.4205   152.2046     0.1388   123.9518     9.0509     8.8346
  354.5000     9.2506     0.0068     2.4137   150.9964     0.1412   130.2731     9.0522     8.8334
  355.0000     9.2504     0.0098     2.4107   148.2881     0.1430   132.9432     8.9292     8.8322
  355.5000     9.2651     0.0083     2.4129   147.0460     0.1427   128.1275     8.8690     8.7702
  356.0000     9.2647     0.0082     2.4167   146.4750     0.1406   124.8154     8.6883     8.7086
  356.5000     9.2644     0.0068     2.4197   148.2698     0.1382   123.6055     8.5703     8.5878
  357.0000     9.2792     0.0053     2.4204   151.2672     0.1370   123.5967     8.4539     8.4687
  357.5000     9.2939     0.0068     2.4181   154.7743     0.1382   125.6900     8.3391     8.3445
  358.0000     9.3086     0.0098     2.4144   157.8258     0.1424   128.6843     7.7494     8.1221
  358.5000     9.3082     0.0036     2.4091   160.1570     0.1458   133.1800     7.5373     7.8450
  359.0000     9.2930     0.0023     2.4053   160.4460     0.1482   131.6457     7.3819     7.6300
  359.5000     9.2926     0.0038     2.4053   156.2276     0.1485   129.5586     7.2293     7.4208
  360.0000     9.2923     0.0038     2.4083   155.3153     0.1467   128.9473     7.1787     7.2675
  360.5000     9.2920     0.0038     2.4098   154.7005     0.1448   125.3350     7.0793     7.1173
  361.0000     9.3068     0.0068     2.4135   150.1847     0.1425   124.4253     7.0297     7.0673
  361.5000     9.3215     0.0113     2.4166   148.3715     0.1407   124.7190     7.0828     7.0610
  362.0000     9.3156     0.0128     2.4210   147.7596     0.1386   124.7081     7.3249     7.1144
  362.5000     9.2834     0.0066     2.4240   146.8445     0.1371   124.0987     7.6337     7.2626
  363.0000     9.2978     0.0038     2.4262   145.0313     0.1365   122.8888     7.8464     7.3719
  363.5000     9.3122     0.0098     2.4251   142.9179     0.1365   121.6426     7.9576     7.6204
  364.0000     9.3115     0.0173     2.4243   139.9035     0.1359   114.8468     8.1196     7.8331
  364.5000     9.2951     0.0172     2.4220   137.1291     0.1356   106.7316     8.1751     7.9965
  365.0000     9.2803     0.0083     2.4175   132.9711     0.1389   107.6268     8.2304     8.1067
  365.5000     9.2347     0.0023     2.4137   132.3591     0.1407   109.7233     8.2293     8.2182
  366.0000     9.2192     0.0008     2.4189   133.8493     0.1413   110.6185     8.1713     8.2741
  366.5000     9.2786     0.0023     2.4219   136.5606     0.1395   109.6686     8.1703     8.2160
  367.0000     9.3080     0.0053     2.4264   140.4303     0.1359   112.1072     8.1130     8.2149
  367.5000     9.3073     0.0113     2.4286   144.3229     0.1331   116.6061     8.0561     8.2138
  368.0000     9.3067     0.0143     2.4293   144.9150     0.1316   118.7027     8.0548     8.2127
  368.5000     9.2761     0.0158     2.4293   138.2942     0.1328   115.6396     8.0538     8.1547
  369.0000     9.2455     0.0083     2.4293   135.2770     0.1340   112.6837     8.0527     8.0974
  369.5000     9.2449     0.0113     2.4277   136.4697     0.1343   109.6751     8.1075     8.0963
  370.0000     9.2593     0.0128     2.4269   136.4555     0.1346   105.7655     8.1064     8.1517
  370.5000     9.2738     0.0098     2.4216   136.7448     0.1352   109.1623     8.1615     8.2072
  371.0000     9.2731     0.0068     2.4171   137.6340     0.1371   115.6626     8.2167     8.2058
  371.5000     9.2575     0.0068     2.4171   139.1213     0.1389   116.2590     8.2728     8.2616
  372.0000     9.2569     0.0113     2.4246   140.0109     0.1389   115.9516     8.3865     8.4336
  372.5000     9.2564     0.0143     2.4366   139.9995     0.1334   118.0480     8.5020     8.5499
  373.0000     9.2557     0.0068     2.4411   139.6877     0.1268   121.3442     8.5006     8.5487
  373.5000     9.2551     0.0038     2.4410   139.9740     0.1256   120.1374     8.4410     8.5473
  374.0000     9.2545     0.0038     2.4335   145.9686     0.1262   116.8284     8.3818     8.5462
  374.5000     9.2540     0.0053     2.4252   149.5609     0.1298   113.2191     8.3805     8.4861
  375.0000     9.2684     0.0068     2.4169   148.9489     0.1341   118.0168     8.3217     8.4265
