~VERSION INFORMATION
 VERS.                2.0:   CWLS LOG ASCII STANDARD - VERSION 2.0
 WRAP.                 NO:   ONE LINE PER DEPTH STEP
~WELL INFORMATION
#MNEM.UNIT      DATA TYPE    INFORMATION
#----------   ------------   ------------------------------
 STRT.F           22.5000:   START DEPTH
 STOP.F          644.0000:   STOP DEPTH
 STEP.F            0.5000:   STEP LENGTH
 NULL.          -999.2500:   NO VALUE
 COMP.    FELIX & SCISION:   COMPANY
 WELL.     NPR #3 #14-S-2:   WELL
 FLD .             TEAPOT:   FIELD
 LOC .       S2 T38N R78W:   LOCATION
 CNTY.            NATRONA:   COUNTY
 STAT.            WYOMING:   STATE
 CTRY. UNITED STATES OF AMERICA:   COUNTRY
 SRVC.           BIRDWELL:   SERVICE COMPANY
 DATE.        18-JAN-1978:   LOGDATE
 API .       490251055600:   API NUMBER
~CURVE INFORMATION
#MNEM.UNIT       API CODE    CURVE DESCRIPTION
#----------   ------------   ------------------------------
 DEPT.F                  :   
 CALD.IN     45 280 60 00:   CALIPER FROM DENSITY LOG
 CORR.G/C3   45 356 01 00:   DENSITY CORRECTION
 DPHI.DEC    45 890 12 00:   DENSITY POROSITY SANDSTONE
 GRD .GAPI   45 310 01 00:   GAMMA RAY FROM DENSITY LOG
 RHOB.G/C3   45 350 01 00:   BULK DENSITY
 ILD .OHMM   05 120 46 00:   INDUCTION LOG DEEP
 SPR .MV     05 010 01 00:   SPONTANEOUS POTENTIAL FROM RES.
 SN  .OHMM   05 040 16 00:   SHORT NORMAL 16"
~PARAMETER INFORMATION
#MNEM.UNIT          VALUE    DESCRIPTION
#----------   ------------   ------------------------------
 PD  .                 GL:   PERMANENT DATUM
 EPD .F              5121:   ELEVATION PERMANENT DATUM
 LMF .                 KB:   LOG MEASURED FROM
 DAPD.F                 4:   FEET ABOVE PERMANENT DATUM
 DMF .                 KB:   DRILLING MEASURED FROM
 EKB .F              5126:   KELLING BUSHING
 EGL .F              5121:   GROUND LEVEL
 DATE.          1-18-1978:   RUN DATE
 RUN .                  1:   RUN NUMBER
 DD  .F               645:   DEPTH DRILLER
 DL  .F               648:   DEPTH LOGGER
 BLI .F               642:   BOTTOM LOG INTERVAL
 TLI .F                39:   TOP LOG INTERVAL
 CS  .IN            8.625:   CASING SIZE
 CBD .F                39:   CASING BOTTOM DRILLER
 BS  .IN            7.875:   BIT SIZE
 BSD .F               645:   BIT SIZE AT DEPTH
 DFT .                KCL:   DRILLING FLUID TYPE
 DFD .                8.8:   DRILLING FLUID DENSITY
 DFV .                 34:   DRILLING FLUID VISCOSITY
 DFPH.                9.5:   DRILLING FLUID PH
 DFL .                6.4:   DRILLING FLUID LOSS
 MSS .                PIT:   MUD SAMPLE SOURCE
 RMS .OHMM            .38:   RESISTIVITY MUD SAMPLE
 MST .F                43:   MUD SAMPLE TEMPERATURE
 RMF .OHMM            .26:   RESISTIVITY MUD FILTRATE SAMPLE
 MFST.F                70:   MUD FILTRATE SAMPLE TEMPERATURE
 RMC .OHMM            .42:   RESISTIVITY MUD CAKE
 MCST.F                70:   MUD CAKE SAMPLE TEMPERATURE
 MFSS.           MEASURED:   MUD FILTRATE SAMPLE SOURCE
 MCSS.           MEASURED:   MUD CAKE SAMPLE SOURCE
 RMB .OHMM            .24:   RESISTIVITY MUD AT BHT
 BHT .F                69:   BOTTOM HOLE TEMPERATURE
 TCS .HRS               2:   TIME CURCULATED STOPPED
 MRT .F                69:   MAXIMUM RECORDED TEMPERATURE
 LUN .               2958:   LOGGING UNIT NUMBER
 LUL .             CASPER:   LOGGING UNIT LOCATION
 ENGI.           REYNOLDS:   RECORDING ENGINEER
 WITN.         HARRINGTON:   WITNESSED BY
 CLNT.            A2DTECH:   CLIENT CODE
 ORIG.      2" , 5" PRINT:   ORIGIN OF DATA
 UWI .       490251055600:   UNIQUE WELL ID
 DICO. A2D Technologies, Inc.:   DIGITIZING COMPANY
~OTHER INFORMATION
~A   DEPT     CALD       CORR       DPHI         GRD      RHOB        ILD        SPR         SN   
# ...
  468.0000     7.7703     0.0892     0.1627    63.1407     2.3768    15.2486   -12.1364    16.9226
  468.5000     7.8009     0.0899     0.1636    63.8909     2.3829    15.2570   -12.1306    16.8119
  469.0000     7.8018     0.0899     0.1594    66.1256     2.3897    15.2653   -12.1247    16.7019
  469.5000     7.8027     0.0900     0.1558    65.5371     2.3950    15.2737   -12.2679    16.7078
  470.0000     7.8036     0.0884     0.1555    60.0452     2.3965    15.1744   -12.2617    16.7147
  470.5000     7.8045     0.0845     0.1555    60.6454     2.3958    15.0778   -12.2558    16.4897
  471.0000     7.8054     0.0768     0.1555    61.9885     2.3959    14.8782   -12.2499    16.2691
  471.5000     7.8064     0.0689     0.1555    63.7774     2.3936    14.6833   -12.3929    15.7237
  472.0000     7.8222     0.0674     0.1590    66.7550     2.3914    14.5896   -12.6846    15.1953
  472.5000     7.8231     0.0689     0.1605    67.5038     2.3877    14.4968   -12.8275    15.0946
  473.0000     7.8388     0.0705     0.1623    67.6582     2.3847    14.3050   -12.9705    14.9959
  473.5000     7.8397     0.0705     0.1644    67.8128     2.3818    13.9197   -13.2622    15.0022
  474.0000     7.8406     0.0697     0.1647    67.6699     2.3810    13.5417   -13.4036    14.9028
  474.5000     7.8415     0.0705     0.1650    67.5286     2.3811    13.2656   -13.3978    14.9091
  475.0000     7.8423     0.0705     0.1650    67.0886     2.3811    13.1916   -13.5422    14.8116
  475.5000     7.8432     0.0713     0.1650    66.0544     2.3804    13.1076   -13.5348    14.6134
  476.0000     7.8441     0.0773     0.1650    65.7616     2.3812    13.0241   -13.5289    14.4179
  476.5000     7.8450     0.0804     0.1650    68.1463     2.3812    13.0331   -13.5230    14.3213
  477.0000     7.8458     0.0789     0.1575    70.5295     2.4069    13.0402   -13.5172    14.1236
  477.5000     7.8467     0.0774     0.1496    72.4670     2.4107    12.9572   -13.6615    13.9287
  478.0000     7.8476     0.0766     0.1490    72.6200     2.4114    12.8729   -13.6542    13.6617
  478.5000     7.8336     0.0744     0.1500    71.5872     2.4100    12.7927   -13.6483    13.3873
  479.0000     7.8347     0.0729     0.1505    70.8499     2.4085    12.7095   -13.7927    13.1162
  479.5000     7.8356     0.0722     0.1514    70.8559     2.4070    12.6303   -13.7854    12.8517
  480.0000     7.8513     0.0714     0.1526    70.3863     2.4026    12.5499   -13.7795    12.7676
  480.5000     7.8522     0.0699     0.1574    69.8274     2.3958    12.5568   -13.7736    12.5968
  481.0000     7.8531     0.0692     0.1598    69.9833     2.3936    12.6511   -13.6189    12.5144
  481.5000     7.8540     0.0677     0.1604    69.6920     2.3928    12.6580   -13.4642    12.4325
  482.0000     7.8400     0.0692     0.1610    67.4690     2.3869    12.6650   -13.3095    12.3512
  482.5000     7.8408     0.0753     0.1640    64.2059     2.3802    12.5843   -13.3036    12.3564
  483.0000     7.8266     0.0783     0.1652    63.3202     2.3787    12.5912   -13.2976    12.4463
  483.5000     7.8277     0.0813     0.1646    62.8788     2.3810    12.5111   -13.1429    12.4505
  484.0000     7.8137     0.0798     0.1627    62.7360     2.3871    12.5179   -13.2860    12.3690
  484.5000     7.8146     0.0700     0.1535    63.7835     2.4059    12.4284   -13.2786    12.2850
  485.0000     7.8304     0.0670     0.1480    65.1266     2.4067    12.2736   -13.5703    12.1237
  485.5000     7.8313     0.0663     0.1435    66.3211     2.4150    12.1128   -13.8621    11.9482
  486.0000     7.8321     0.0656     0.1395    66.7727     2.4263    11.8699   -14.0065    11.7213
  486.5000     7.8332     0.0648     0.1386    66.4785     2.4301    11.6319   -14.2982    11.5635
  487.0000     7.8341     0.0641     0.1389    65.7167     2.4294    11.3986   -14.5900    11.5684
  487.5000     7.8350     0.0641     0.1395    64.2149     2.4271    11.3260   -14.5826    11.4917
  488.0000     7.8358     0.0634     0.1419    65.7574     2.4231    11.3322   -14.5767    11.4966
  488.5000     7.8367     0.0626     0.1452    68.7350     2.4107    11.2585   -14.5708    11.5005
  489.0000     7.8525     0.0611     0.1464    70.5239     2.4130    11.1868   -14.4161    11.5044
  489.5000     7.8534     0.0604     0.1452    71.4213     2.4168    11.1156   -14.2614    11.5083
  490.0000     7.8542     0.0597     0.1451    71.2785     2.4176    11.1232   -14.2556    11.4321
  490.5000     7.8551     0.0665     0.1473    70.6886     2.4056    11.1293   -14.2497    11.4369
  491.0000     7.8560     0.0702     0.1512    71.2902     2.4087    11.1354   -14.3929    11.5201
  491.5000     7.8420     0.0695     0.1515    71.8904     2.4125    11.0642   -14.3867    11.5240
  492.0000     7.8429     0.0703     0.1528    71.8962     2.4140    11.1476   -14.3808    11.5279
  492.5000     7.8438     0.0741     0.1557    69.5247     2.4110    11.2671   -14.8214    11.5319
  493.0000     7.8446     0.0741     0.1563    69.5305     2.4096    11.3945   -14.9643    11.5449
  493.5000     7.8455     0.0741     0.1562    70.2932     2.4088    11.4801   -14.8095    11.6198
  494.0000     7.8466     0.0749     0.1562    70.5823     2.4081    11.5664   -14.7877    11.7051
  494.5000     7.8324     0.0786     0.1559    67.0235     2.4090    11.5728   -14.6488    11.7091
  495.0000     7.8184     0.0787     0.1550    67.1779     2.4150    11.5793   -14.6417    11.6315
  495.5000     7.8195     0.0778     0.1535    67.6295     2.4180    11.5869   -14.4870    11.7170
  496.0000     7.8204     0.0772     0.1514    68.3783     2.4196    11.6740   -14.4811    11.7210
  496.5000     7.8212     0.0817     0.1508    69.4242     2.4181    11.5996   -14.4752    11.7250
  497.0000     7.8370     0.0817     0.1508    70.4702     2.4189    11.6060   -14.4693    11.7290
  497.5000     7.8379     0.0818     0.1508    70.4760     2.4182    11.5305   -14.4635    11.6512
  498.0000     7.8536     0.0818     0.1504    68.6988     2.4167    11.4571   -14.4576    11.6562
  498.5000     7.8545     0.0825     0.1504    66.9216     2.4160    11.4649   -14.4517    11.6602
  499.0000     7.8554     0.0826     0.1495    66.9054     2.4198    11.3904   -14.4458    11.5042
  499.5000     7.8414     0.0841     0.1477    69.0135     2.4258    11.3179   -14.7390    11.4288
  500.0000     7.8274     0.0856     0.1426    70.5052     2.4334    11.3256   -14.8819    11.1984
  500.5000     7.8277     0.0872     0.1420    69.9167     2.4365    11.2520   -14.7201    10.9748
  501.0000     7.8277     0.0872     0.1401    70.2793     2.4381    11.2894   -14.7099    10.9053
  501.5000     7.8278     0.0864     0.1398    73.7549     2.4380    11.4232   -14.5508    10.9114
  502.0000     7.8279     0.0851     0.1404    75.4336     2.4358    11.5117   -13.6476    10.9175
  502.5000     7.8279     0.0843     0.1431    74.5479     2.4306    11.3580   -13.6373    10.9246
  503.0000     7.8280     0.0844     0.1458    69.5018     2.4246    11.2843   -13.6270    11.0063
  503.5000     7.8281     0.0837     0.1482    67.1302     2.4216    11.2901   -13.6167    11.0123
  504.0000     7.8282     0.0868     0.1487    67.7305     2.4224    11.1393   -13.6065    11.0184
  504.5000     7.8282     0.0861     0.1487    68.9250     2.4225    11.1439   -13.4474    11.1007
  505.0000     7.8283     0.0778     0.1484    70.5654     2.4218    11.1485   -12.8418    11.1838
  505.5000     7.8284     0.0756     0.1517    72.8001     2.4150    11.1530   -11.9387    11.2674
  506.0000     7.8284     0.0749     0.1610    72.6573     2.4045    11.3132   -11.3332    11.3517
  506.5000     7.8285     0.0742     0.1643    72.0674     2.3963    11.7166   -11.1741    11.6759
  507.0000     7.8286     0.0690     0.1673    72.2219     2.3858    12.3891   -11.1637    11.9268
  507.5000     7.8287     0.0645     0.1730    72.0791     2.3745    13.2829   -11.1533    12.2674
  508.0000     7.8287     0.0593     0.1829    70.7492     2.3565    14.1429   -11.1429    12.7053
