~VERSION INFORMATION
 VERS.                2.0:   CWLS LOG ASCII STANDARD - VERSION 2.0
 WRAP.                 NO:   ONE LINE PER DEPTH STEP
~WELL INFORMATION
#MNEM.UNIT      DATA TYPE    INFORMATION
#----------   ------------   ------------------------------
 STRT.F            2.0000:   START DEPTH
 STOP.F          832.0000:   STOP DEPTH
 STEP.F            0.5000:   STEP LENGTH
 NULL.          -999.2500:   NO VALUE
 COMP. U S NAVY-INTEX OIL:   COMPANY
 WELL.        NPR #46-S-2:   WELL
 FLD .             TEAPOT:   FIELD
 LOC .       S2 T38N R78W:   LOCATION
 CNTY.            NATRONA:   COUNTY
 STAT.            WYOMING:   STATE
 CTRY. UNITED STATES OF AMERICA:   COUNTRY
 SRVC.      NL McCullough:   SERVICE COMPANY
 DATE.        13-AUG-1961:   LOGDATE
 API .       490250641500:   API NUMBER
~CURVE INFORMATION
#MNEM.UNIT       API CODE    CURVE DESCRIPTION
#----------   ------------   ------------------------------
 DEPT.F                  :   
 GR  .MG/TON 35 310 30 00:   GAMMA RAY
 NEUT.NAPI   35 330 01 00:   NEUTRON
~PARAMETER INFORMATION
#MNEM.UNIT          VALUE    DESCRIPTION
#----------   ------------   ------------------------------
 PD  .                 GL:   PERMANENT DATUM
 EPD .F              5150:   ELEVATION PERMANENT DATUM
 LMF .                 KB:   LOG MEASURED FROM
 DAPD.F                 6:   FEET ABOVE PERMANENT DATUM
 DMF .                 KB:   DRILLING MEASURED FROM
 EKB .F              5156:   KELLING BUSHING
 EGL .F              5150:   GROUND LEVEL
 DATE.        13-AUG-1961:   RUN DATE
 RUN .                  1:   RUN NUMBER
 DD  .F               830:   DEPTH DRILLER
 DL  .F               834:   DEPTH LOGGER
 BLI .F             832.5:   BOTTOM LOG INTERVAL
 BS  .IN            7.875:   BIT SIZE
 BSD .F               830:   BIT SIZE AT DEPTH
 DFT .       OIL EMULSION:   DRILLING FLUID TYPE
 DFD .                9.5:   DRILLING FLUID DENSITY
 TCS .HRS               1:   TIME CURCULATED STOPPED
 LUN .               1296:   LOGGING UNIT NUMBER
 ENGI.            JACKSON:   RECORDING ENGINEER
 WITN.          JORGENSEN:   WITNESSED BY
 CLNT.            A2DTECH:   CLIENT CODE
 ORIG.        2" 5" PRINT:   ORIGIN OF DATA
 UWI .       490250641500:   UNIQUE WELL ID
 DICO. A2D Technologies, Inc.:   DIGITIZING COMPANY
~OTHER INFORMATION
~A    DEPT        GR     NEUT   
# ...
  366.5000     6.1838   193.5407
  367.0000     6.1061   192.9347
  367.5000     6.1524   185.4408
  368.0000     6.1886   179.6802
  368.5000     6.2054   177.1964
  369.0000     6.2249   175.5047
  369.5000     6.2128   173.5162
  370.0000     6.1684   187.0326
  370.5000     6.1171   202.4862
  371.0000     6.0713   200.7294
  371.5000     6.1617   182.5928
  372.0000     6.2435   178.4908
  372.5000     6.2520   171.3831
  373.0000     6.1351   167.7811
  373.5000     6.0621   164.6713
  374.0000     5.9914   181.9358
  374.5000     5.8820   186.0495
  375.0000     5.8651   184.7826
  375.5000     6.0428   178.9952
  376.0000     6.2012   172.8336
  376.5000     6.2906   164.0374
  377.0000     6.3564   162.9735
  377.5000     6.4047   167.8599
  378.0000     6.4850   174.5901
  378.5000     6.5215   176.5467
  379.0000     6.5450   175.3298
  379.5000     6.5375   172.9223
  380.0000     6.4769   170.5147
  380.5000     6.3296   167.9361
  381.0000     6.1703   166.8266
  381.5000     6.0767   166.4716
  382.0000     6.0931   167.9940
  382.5000     6.1099   169.0280
  383.0000     6.1072   171.7769
  383.5000     6.0309   175.3822
  384.0000     5.9064   177.0590
  384.5000     6.0253   165.0882
  385.0000     6.0708   168.9654
  385.5000     5.9220   181.3782
  386.0000     5.8477   193.6318
  386.5000     5.8958   197.8523
  387.0000     5.9376   198.9139
  387.5000     5.9030   201.6492
  388.0000     5.8113   208.5458
  388.5000     5.8688   216.2132
  389.0000     5.8950   218.3358
  389.5000     5.9014   212.4998
  390.0000     5.8301   220.8647
  390.5000     5.6560   227.9073
  391.0000     5.7103   229.0495
  391.5000     5.7938   234.2442
  392.0000     5.8727   240.4898
  392.5000     5.8998   245.5991
  393.0000     5.8273   250.4373
  393.5000     5.8064   262.1256
  394.0000     5.7894   274.7377
  394.5000     5.7770   283.8995
  395.0000     5.7504   273.4279
  395.5000     5.7113   260.4722
  396.0000     5.6212   256.9316
  396.5000     5.5292   258.2546
  397.0000     5.5918   260.7538
  397.5000     5.6829   254.7799
  398.0000     5.7413   248.5258
  398.5000     5.6149   251.8162
  399.0000     5.4762   249.5904
  399.5000     5.4031   241.2806
  400.0000     5.3249   226.3868
  400.5000     5.5556   218.1597
  401.0000     5.6830   230.6527
  401.5000     5.6683   239.9375
  402.0000     5.6417   220.9146
  402.5000     5.6240   198.4818
  403.0000     5.7435   191.2694
  403.5000     5.8260   197.1852
  404.0000     5.9263   205.5468
  404.5000     6.0348   198.5418
  405.0000     6.2412   187.5939
  405.5000     6.4972   174.1200
  406.0000     6.5958   156.4465
  406.5000     6.4940   149.4169
  407.0000     6.1924   156.1864
  407.5000     6.0883   161.0382
  408.0000     6.1516   149.9250
  408.5000     6.2602   143.5004
  409.0000     6.2380   139.2728
  409.5000     6.2010   145.0341
  410.0000     6.3080   150.5998
  410.5000     6.4950   156.9453
  411.0000     6.5817   165.3315
  411.5000     6.6244   170.5510
  412.0000     6.6686   175.3823
  412.5000     6.7016   176.2556
  413.0000     6.5905   168.8383
  413.5000     6.4226   157.8821
  414.0000     6.2328   150.0898
  414.5000     6.2107   140.6035
  415.0000     6.2109   134.7463
  415.5000     6.1773   137.4100
  416.0000     6.0931   134.9323
  416.5000     6.0327   128.0571
  417.0000     5.9912   128.0735
  417.5000     5.9810   126.4054
  418.0000     6.0632   121.3681
  418.5000     6.1754   123.2946
  419.0000     6.2440   129.6484
  419.5000     6.2725   134.6965
  420.0000     6.0815   137.3313
  420.5000     5.8110   140.2006
  421.0000     5.6741   146.3793
  421.5000     5.5717   161.4956
  422.0000     5.5806   167.9942
  422.5000     5.5846   165.4611
  423.0000     5.5622   162.7813
  423.5000     5.5217   171.9979
  424.0000     5.5145   181.4691
  424.5000     5.5164   192.0742
  425.0000     5.6366   196.9642
  425.5000     5.7789   212.7701
  426.0000     5.8879   233.3611
  426.5000     5.9371   238.7519
  427.0000     6.0002   241.6414
  427.5000     6.0240   239.4490
  428.0000     6.0513   232.9237
  428.5000     6.1409   224.4575
  429.0000     6.2321   218.2981
  429.5000     6.2675   212.2452
  430.0000     6.2474   210.2722
  430.5000     6.1935   215.0038
  431.0000     6.1654   215.5541
  431.5000     6.0841   215.3411
  432.0000     5.9477   222.8185
  432.5000     5.8188   226.1063
  433.0000     5.7719   239.6333
  433.5000     5.7539   263.2268
  434.0000     5.7425   266.7616
  434.5000     5.8173   264.4116
  435.0000     5.8572   268.6285
  435.5000     5.8326   275.6965
  436.0000     5.8134   280.2698
  436.5000     5.8939   285.4761
  437.0000     5.9162   288.6731
  437.5000     5.9527   276.3306
  438.0000     6.0349   271.2907
  438.5000     5.9532   266.7652
  439.0000     5.9683   262.7662
  439.5000     6.1222   259.3542
  440.0000     6.2792   258.0210
  440.5000     6.2968   255.6406
  441.0000     6.2449   281.7911
  441.5000     6.0608   300.7758
  442.0000     5.8861   305.1733
  442.5000     5.8432   308.6770
  443.0000     5.8543   315.9593
  443.5000     5.9330   326.9699
  444.0000     6.0749   332.3839
  444.5000     6.0925   341.5106
  445.0000     6.0380   348.7666
  445.5000     5.9508   349.5315
  446.0000     6.0052   349.5507
  446.5000     6.0312   344.6666
  447.0000     6.1556   331.5370
  447.5000     6.2900   313.6262
  448.0000     6.2972   300.6892
  448.5000     6.1903   289.3442
  449.0000     6.0502   286.6942
  449.5000     5.9283   288.5720
  450.0000     5.8390   291.9790
  450.5000     5.6902   291.5255
  451.0000     5.6070   285.2400
  451.5000     5.5330   281.5418
  452.0000     5.4823   277.7511
  452.5000     5.4750   275.3562
  453.0000     5.5130   281.5992
  453.5000     5.6096   285.8433
  454.0000     5.6978   288.3808
  454.5000     5.7832   287.8973
  455.0000     5.8636   285.7197
  455.5000     5.9183   280.1920
  456.0000     5.9461   271.5143
  456.5000     6.0906   258.8492
  457.0000     6.2013   251.0141
  457.5000     6.2746   247.4325
  458.0000     6.3538   242.6237
  458.5000     6.4628   243.5753
  459.0000     6.4655   248.8531
  459.5000     6.4598   253.3549
  460.0000     6.5514   255.7720
  460.5000     6.5877   258.8119
  461.0000     6.4575   260.1590
  461.5000     6.3435   260.9258
  462.0000     6.2344   260.9445
  462.5000     6.2644   260.9661
  463.0000     6.3516   260.9820
  463.5000     6.6203   261.0008
  464.0000     6.6352   261.0195
  464.5000     6.5922   261.0382
  465.0000     6.7027   261.8077
  465.5000     6.7551   262.9723
  466.0000     6.6718   264.3328
  466.5000     6.4542   267.8622
  467.0000     6.3385   276.9046
  467.5000     6.3312   291.4726
  468.0000     6.1839   306.9003
  468.5000     5.9144   321.6981
  469.0000     5.8923   332.4220
  469.5000     5.9610   341.0007
  470.0000     6.0194   345.3523
  470.5000     5.9540   346.7224
  471.0000     5.8186   346.0495
  471.5000     5.7848   338.9245
  472.0000     5.7908   331.7873
  472.5000     5.8193   327.6050
  473.0000     5.8921   334.8203
  473.5000     5.9956   346.1581
  474.0000     6.2298   355.8443
  474.5000     6.3507   343.1237
  475.0000     6.4538   330.7721
  475.5000     6.5805   320.4459
  476.0000     6.6972   301.2022
  476.5000     6.7525   297.7998
  477.0000     6.7443   292.9908
  477.5000     6.5779   308.9017
  478.0000     6.3359   317.1066
  478.5000     6.2167   323.0333
  479.0000     6.2763   331.1317
  479.5000     6.4335   348.6172
  480.0000     6.4213   372.5660
  480.5000     6.2253   364.6437
  481.0000     6.3089   348.2534
  481.5000     6.4065   335.8918
  482.0000     6.5464   325.4422
  482.5000     6.3268   323.9318
  483.0000     6.0341   325.8845
  483.5000     5.9733   325.4310
  484.0000     5.9481   314.2447
  484.5000     5.9364   304.6967
  485.0000     5.9690   297.3389
  485.5000     6.0084   289.5645
  486.0000     6.0121   287.3313
  486.5000     6.0489   288.8495
  487.0000     6.0940   288.8681
  487.5000     6.0719   288.3246
