~VERSION INFORMATION
 VERS.                2.0:   CWLS LOG ASCII STANDARD - VERSION 2.0
 WRAP.                 NO:   ONE LINE PER DEPTH STEP
~WELL INFORMATION
#MNEM.UNIT      DATA TYPE    INFORMATION
#----------   ------------   ------------------------------
 STRT.F            2.0000:   START DEPTH
 STOP.F          510.5000:   STOP DEPTH
 STEP.F            0.5000:   STEP LENGTH
 NULL.          -999.2500:   NO VALUE
 COMP. LAWRENCE/ALLISON INC:   COMPANY
 WELL.   NPR #3 #58-12 SX:   WELL
 FLD .             TEAPOT:   FIELD
 LOC .       S3 T38N R78W:   LOCATION
 CNTY.            NATRONA:   COUNTY
 STAT.            WYOMING:   STATE
 CTRY. UNITED STATES OF AMERICA:   COUNTRY
 SRVC.           Gearhart:   SERVICE COMPANY
 DATE.        20-JUN-1988:   LOGDATE
 API .       490251123500:   API NUMBER
~CURVE INFORMATION
#MNEM.UNIT       API CODE    CURVE DESCRIPTION
#----------   ------------   ------------------------------
 DEPT.F                  :   
 GRR .GAPI   07 310 01 00:   GAMMA RAY FROM RES. LOG.
 RILD.OHMM   07 120 46 00:   INDUCTION LOG DEEP RESISTIVITY
 RILM.OHMM   07 120 44 00:   INDUCTION LOG MEDIUM RESISTIVITY
~PARAMETER INFORMATION
#MNEM.UNIT          VALUE    DESCRIPTION
#----------   ------------   ------------------------------
 PD  .                 GL:   PERMANENT DATUM
 EPD .F              5195:   ELEVATION PERMANENT DATUM
 LMF .                 KB:   LOG MEASURED FROM
 DAPD.F                10:   FEET ABOVE PERMANENT DATUM
 DMF .                 KB:   DRILLING MEASURED FROM
 EKB .F              5205:   KELLING BUSHING
 EGL .F              5195:   GROUND LEVEL
 DATE.            6-20-88:   RUN DATE
 RUN .                  1:   RUN NUMBER
 DD  .F               515:   DEPTH DRILLER
 DL  .F               519:   DEPTH LOGGER
 BLI .F             510.5:   BOTTOM LOG INTERVAL
 TLI .F                50:   TOP LOG INTERVAL
 CS  .IN            9.625:   CASING SIZE
 CBD .F                50:   CASING BOTTOM DRILLER
 CBL .F                50:   CASING BOTTOM LOGGER
 BS  .IN             8.75:   BIT SIZE
 BSD .F               515:   BIT SIZE AT DEPTH
 DFT .                AIR:   DRILLING FLUID TYPE
 TLAB.HRS            0414:   TIME LOGGER AT BOTTOM
 MRT .F                70:   MAXIMUM RECORDED TEMPERATURE
 LUN .               7597:   LOGGING UNIT NUMBER
 LUL .           GILLETTE:   LOGGING UNIT LOCATION
 ENGI.          HUCKFELDT:   RECORDING ENGINEER
 WITN.             STRONG:   WITNESSED BY
 CLNT.            A2DTECH:   CLIENT CODE
 ORIG.       2", 5" PRINT:   ORIGIN OF DATA
 UWI .       490251123500:   UNIQUE WELL ID
 DICO. A2D Technologies, Inc.:   DIGITIZING COMPANY
~OTHER INFORMATION
~A    DEPT      GRR      RILD       RILM   
# ...
   93.0000   121.1167     9.3262     8.8225
   93.5000   120.1263     9.4274     8.8215
   94.0000   117.6729     9.5738     8.9049
   94.5000   115.2371     9.7225     8.9048
   95.0000   113.2190     9.8735     9.1164
   95.5000   114.1663    10.0268     9.2826
   96.0000   115.6249    10.1912     9.4518
   96.5000   117.0898    10.3786     9.6241
   97.0000   118.5509    10.5696     9.7996
   97.5000   120.0454    10.7640     9.9782
   98.0000   119.6498    10.9620    10.1601
   98.5000   118.3667    11.1636    10.3453
   99.0000   117.0889    11.3690    10.5339
   99.5000   115.7144    11.5781    10.7260
  100.0000   113.9794    11.7911    10.9219
  100.5000   112.1220    12.0080    11.1188
  101.0000   110.2611    12.2289    11.3123
  101.5000   110.2925    12.4538    11.4914
  102.0000   110.5680    12.6829    11.6749
  102.5000   110.8686    12.9023    11.8615
  103.0000   109.6525    13.0115    12.0509
  103.5000   108.2613    13.1215    12.2437
  104.0000   106.7565    13.2325    12.4404
  104.5000   104.6990    13.3762    12.6542
  105.0000   102.7008    13.3105    12.6542
  105.5000   101.7205    13.1850    12.5259
  106.0000   102.2719    13.0607    12.4232
  106.5000   102.7985    12.9375    12.2898
  107.0000   103.3369    12.8154    12.1486
  107.5000   104.2945    12.6946    12.0087
  108.0000   105.8361    12.5748    11.8704
  108.5000   107.3729    12.4562    11.7337
  109.0000   108.8138    12.3032    11.5984
  109.5000   108.6688    12.4269    11.4642
  110.0000   108.3923    12.4193    11.3238
  110.5000   106.5313    12.4224    11.3240
  111.0000   104.6292    12.4223    11.3643
  111.5000   102.7354    12.4223    11.3935
  112.0000   101.2799    12.4223    11.4229
  112.5000   102.5407    12.4224    11.4524
  113.0000   104.7505    12.4226    11.4820
  113.5000   105.6824    12.4223    11.5115
  114.0000   105.8683    12.3091    11.5365
  114.5000   106.0385    12.1607    11.4693
  115.0000   106.4704    12.0140    11.3811
  115.5000   107.6420    11.8691    11.2452
  116.0000   108.7951    11.7260    11.0269
  116.5000   109.9774    11.5845    10.8129
  117.0000   109.0057    11.4448    10.6030
  117.5000   106.4914    11.3068    10.3972
  118.0000   103.9641    11.1704    10.2298
  118.5000   102.1976    11.0357    10.2916
  119.0000   103.4518    10.9026    10.3248
  119.5000   105.3378    10.7711    10.2590
  120.0000   107.2511    10.6412    10.1748
  120.5000   109.2241    10.5129    10.0914
  121.0000   109.6682    10.3861    10.0086
  121.5000   109.0346    10.2605     9.9265
  122.0000   108.1745    10.1326     9.8451
  122.5000   107.2635    10.1315     9.7643
  123.0000   105.5989    10.2879     9.6842
  123.5000   103.9628    10.3396     9.5885
  124.0000   104.9230    10.3907     9.6203
  124.5000   106.2057    10.4207     9.6739
  125.0000   105.6966    10.3669     9.7279
  125.5000   103.4515    10.3285     9.7821
  126.0000   101.2159    10.2904     9.8583
  126.5000    99.4783    10.2530     9.8108
  127.0000    99.9532    10.1697     9.7327
  127.5000   101.4901    10.0249     9.6553
  128.0000   103.0101     9.8818     9.5785
  128.5000   103.8451     9.7407     9.5023
  129.0000   104.5472     9.6016     9.4267
  129.5000   105.3354     9.4646     9.2468
  130.0000   107.8403     9.3295     9.0474
  130.5000   110.3195     9.1963     8.8523
  131.0000   111.8193     9.0650     8.6614
  131.5000   112.0241     8.9356     8.4746
  132.0000   110.8708     8.8081     8.2918
  132.5000   108.9999     8.6823     8.1186
  133.0000   107.2369     8.6612     8.1631
  133.5000   106.0353     8.6830     8.2084
  134.0000   106.0054     8.7175     8.2535
  134.5000   106.8762     8.7522     8.2986
  135.0000   109.0776     8.7870     8.3440
  135.5000   111.2550     8.8220     8.3895
  136.0000   112.5926     8.8571     8.4242
  136.5000   113.1811     8.8923     8.3869
  137.0000   111.7528     8.9365     8.3571
  137.5000   109.9266     8.9858     8.3273
  138.0000   108.5916     9.0353     8.2975
  138.5000   109.6460     9.0851     8.2678
  139.0000   110.6853     9.1352     8.2653
  139.5000   110.4442     9.1855     8.4131
  140.0000   109.9121     9.2362     8.5232
  140.5000   109.3643     9.2871     8.6316
  141.0000   109.2508     9.3383     8.7413
  141.5000   110.0089     9.3897     8.8525
  142.0000   110.7663     9.4415     8.9650
  142.5000   110.4367     9.5003     9.0710
  143.0000   110.0940     9.4639     9.0119
  143.5000   111.6366     9.4222     8.9445
  144.0000   114.0333     9.3807     8.8775
  144.5000   116.9145     9.3394     8.8111
  145.0000   119.1715     9.2983     8.7451
  145.5000   119.4653     9.2574     8.6797
  146.0000   117.4514     9.2166     8.6147
  146.5000   115.4375     9.1758     8.5814
  147.0000   113.4518     9.1553     8.6079
  147.5000   111.2677     9.1770     8.6466
  148.0000   109.6364     9.1918     8.6854
  148.5000   108.8866     9.2064     8.7245
  149.0000   109.4022     9.2211     8.7637
  149.5000   110.3593     9.2409     8.8030
  150.0000   111.7722     9.2416     8.8228
  150.5000   113.2040     9.1687     8.7643
  151.0000   112.3362     9.1040     8.7114
  151.5000   110.4427     9.0397     8.6588
  152.0000   108.5439     8.9760     8.6065
  152.5000   108.7654     8.9126     8.5546
  153.0000   111.2814     8.8497     8.5029
  153.5000   113.9019     8.7873     8.4516
  154.0000   115.9426     8.7253     8.4006
  154.5000   116.4011     8.6637     8.3466
  155.0000   115.5501     8.6026     8.3150
  155.5000   114.6904     8.5419     8.2698
  156.0000   113.7347     8.4734     8.1385
  156.5000   112.6544     8.2790     8.0384
  157.0000   111.2769     8.0891     7.9395
  157.5000   109.8812     7.9035     7.7636
  158.0000   108.4932     7.7221     7.5315
  158.5000   109.7277     7.5450     7.3063
  159.0000   111.9900     7.3718     7.0879
  159.5000   114.2512     7.2027     6.8760
  160.0000   116.1142     7.0668     6.7475
  160.5000   114.9129     7.2227     6.8077
  161.0000   113.7298     7.3404     6.9675
  161.5000   113.8771     7.4600     7.1311
  162.0000   114.0620     7.5814     7.2986
  162.5000   113.5852     7.7049     7.4700
  163.0000   113.0754     7.8303     7.6454
  163.5000   112.6810     7.9577     7.8249
  164.0000   112.7867     8.0873     8.0448
  164.5000   113.5748     8.2189     8.0432
  165.0000   114.3594     8.3507     8.0440
  165.5000   114.4811     8.2839     8.0441
  166.0000   114.0950     8.2209     8.0052
  166.5000   113.1442     8.1590     7.9429
  167.0000   112.2020     8.0978     7.8809
  167.5000   113.0371     8.0371     7.8138
  168.0000   116.1086     7.9768     7.7515
  168.5000   119.1270     7.9170     7.4921
  169.0000   119.7591     7.7279     7.2358
  169.5000   120.4281     7.4709     6.9882
  170.0000   120.9459     7.2035     6.7491
  170.5000   120.8782     6.9601     6.5181
  171.0000   119.8495     6.7249     6.2951
  171.5000   117.6538     6.4976     6.0797
  172.0000   115.2952     6.2779     5.8715
  172.5000   113.4130     6.1515     5.6708
  173.0000   112.4150     6.1515     5.4767
  173.5000   111.0847     6.1515     5.4547
  174.0000   108.8340     6.2087     5.7426
  174.5000   108.5547     6.4874     6.0237
  175.0000   110.3733     6.7537     6.3185
  175.5000   112.2807     7.0310     6.6278
  176.0000   113.6983     7.3196     6.9522
  176.5000   114.4779     7.6201     7.2925
  177.0000   114.1776     7.9077     7.6801
  177.5000   113.2538     8.0085     7.7329
  178.0000   112.0930     8.1105     7.8072
  178.5000   110.9226     8.2138     7.8822
  179.0000   110.8699     8.3185     7.9579
  179.5000   111.2860     8.4245     8.0343
  180.0000   112.2742     8.5318     8.1114
  180.5000   114.1372     8.6405     8.1893
  181.0000   116.3612     8.7506     8.2680
  181.5000   117.5179     8.8621     8.3474
  182.0000   117.1826     8.9750     8.4275
  182.5000   116.4892     9.0710     8.5085
  183.0000   115.7893     9.0710     8.5901
  183.5000   115.0909     9.0711     8.6727
