~VERSION INFORMATION
 VERS.                2.0:   CWLS LOG ASCII STANDARD - VERSION 2.0
 WRAP.                 NO:   ONE LINE PER DEPTH STEP
~WELL INFORMATION
#MNEM.UNIT      DATA TYPE    INFORMATION
#----------   ------------   ------------------------------
 STRT.F           38.0000:   START DEPTH
 STOP.F          846.0000:   STOP DEPTH
 STEP.F            0.5000:   STEP LENGTH
 NULL.          -999.2500:   NO VALUE
 COMP. FENIX & SCISSON INC:   COMPANY
 WELL.    NPR 3 #34-SX-14:   WELL
 FLD .        TEAPOT DOME:   FIELD
 LOC .      S14 T38N R78W:   LOCATION
 CNTY.            NATRONA:   COUNTY
 STAT.            WYOMING:   STATE
 CTRY. UNITED STATES OF AMERICA:   COUNTRY
 SRVC.           BIRDWELL:   SERVICE COMPANY
 DATE.        26-APR-1978:   LOGDATE
 API .       490251063500:   API NUMBER
~CURVE INFORMATION
#MNEM.UNIT       API CODE    CURVE DESCRIPTION
#----------   ------------   ------------------------------
 DEPT.F                  :   
 NEUT.CPS    81 330 30 00:   NEUTRON
 TT  .US/F   81 520 00 00:   TRANSIT TIME
 GRD .GAPI   45 310 01 00:   GAMMA RAY FROM DENSITY LOG
 RHOB.G/C3   45 350 01 00:   BULK DENSITY
 DPOR.DEC    45 890 10 00:   DENSITY POROSITY
 CALD.IN     45 280 60 00:   CALIPER FROM DENSITY LOG
 CORR.G/C3   45 356 01 00:   DENSITY CORRECTION
~PARAMETER INFORMATION
#MNEM.UNIT          VALUE    DESCRIPTION
#----------   ------------   ------------------------------
 PD  .                 GL:   PERMANENT DATUM
 EPD .F              5232:   ELEVATION PERMANENT DATUM
 LMF .                 KB:   LOG MEASURED FROM
 DMF .                 KB:   DRILLING MEASURED FROM
 EKB .F              5236:   KELLING BUSHING
 EGL .F              5232:   GROUND LEVEL
 DATE.          4-26-1978:   RUN DATE
 RUN .                  1:   RUN NUMBER
 DD  .F               855:   DEPTH DRILLER
 DL  .F               853:   DEPTH LOGGER
 BLI .F               846:   BOTTOM LOG INTERVAL
 TLI .F                40:   TOP LOG INTERVAL
 CS  .IN            8.625:   CASING SIZE
 CBD .F                40:   CASING BOTTOM DRILLER
 CBL .F                40:   CASING BOTTOM LOGGER
 BS  .IN            7.875:   BIT SIZE
 BSD .F               855:   BIT SIZE AT DEPTH
 DFT .                KCL:   DRILLING FLUID TYPE
 DFD .                8.5:   DRILLING FLUID DENSITY
 DFV .                 31:   DRILLING FLUID VISCOSITY
 DFPH.                 10:   DRILLING FLUID PH
 DFL .               10.4:   DRILLING FLUID LOSS
 MSS .          FLUID PIT:   MUD SAMPLE SOURCE
 RMS .OHMM            .36:   RESISTIVITY MUD SAMPLE
 MST .F                68:   MUD SAMPLE TEMPERATURE
 RMF .OHMM            .28:   RESISTIVITY MUD FILTRATE SAMPLE
 MFST.F                74:   MUD FILTRATE SAMPLE TEMPERATURE
 RMC .OHMM            .48:   RESISTIVITY MUD CAKE
 MCST.F                79:   MUD CAKE SAMPLE TEMPERATURE
 MFSS.               MEAS:   MUD FILTRATE SAMPLE SOURCE
 RMB .OHMM            .33:   RESISTIVITY MUD AT BHT
 BHT .F                75:   BOTTOM HOLE TEMPERATURE
 TCS .HRS               1:   TIME CURCULATED STOPPED
 MRT .F                75:   MAXIMUM RECORDED TEMPERATURE
 LUN .               3006:   LOGGING UNIT NUMBER
 LUL .              CASP.:   LOGGING UNIT LOCATION
 ENGI.             MILLER:   RECORDING ENGINEER
 WITN.           MCGINLEY:   WITNESSED BY
 CLNT.            A2DTECH:   CLIENT CODE
 ORIG.      2" , 5" PRINT:   ORIGIN OF DATA
 UWI .       490251063500:   UNIQUE WELL ID
 DICO. A2D Technologies, Inc.:   DIGITIZING COMPANY
~OTHER INFORMATION
~A   DEPT     NEUT         TT         GRD      RHOB       DPOR       CALD       CORR   
# ...
  174.5000  -999.2500  -999.2500    77.9346     2.3857     0.1341     8.2129     0.0717
  175.0000  -999.2500  -999.2500    74.0715     2.3966     0.1343     8.0437     0.0497
  175.5000  -999.2500  -999.2500    71.0547     2.4035     0.1358     7.9895     0.0441
  176.0000  -999.2500  -999.2500    77.1240     2.4014     0.1372     7.9423     0.0402
  176.5000  -999.2500  -999.2500    78.1052     2.3990     0.1386     7.9471     0.0377
  177.0000  -999.2500  -999.2500    77.6277     2.3965     0.1364     7.9639     0.0367
  177.5000  -999.2500  -999.2500    77.5185     2.4004     0.1306     7.9800     0.0358
  178.0000  -999.2500  -999.2500    78.5006     2.4101     0.1248     7.9962     0.0348
  178.5000  -999.2500  -999.2500    78.5209     2.4198     0.1214     8.0122     0.0338
  179.0000  -999.2500  -999.2500    78.0840     2.4249     0.1214     8.0242     0.0329
  179.5000  -999.2500  -999.2500    77.6451     2.4292     0.1208     8.0229     0.0323
  180.0000  -999.2500  -999.2500    77.2045     2.4334     0.1186     8.0216     0.0349
  180.5000  -999.2500  -999.2500    76.7381     2.4376     0.1164     8.0203     0.0375
  181.0000  -999.2500  -999.2500    77.7108     2.4418     0.1142     8.0190     0.0400
  181.5000  -999.2500  -999.2500    78.9254     2.4461     0.1120     8.0178     0.0425
  182.0000  -999.2500  -999.2500    79.8823     2.4502     0.1102     8.0165     0.0451
  182.5000  -999.2500  -999.2500    77.9655     2.4501     0.1110     8.0153     0.0457
  183.0000  -999.2500  -999.2500    75.9762     2.4497     0.1118     8.0140     0.0451
  183.5000  -999.2500  -999.2500    74.5466     2.4494     0.1126     8.0127     0.0445
  184.0000  -999.2500  -999.2500    74.2911     2.4492     0.1134     8.0115     0.0438
  184.5000  -999.2500  -999.2500    74.3190     2.4490     0.1131     8.0102     0.0432
  185.0000  -999.2500  -999.2500    76.0290     2.4488     0.1127     8.0090     0.0426
  185.5000  -999.2500  -999.2500    78.0773     2.4486     0.1122     8.0077     0.0419
  186.0000  -999.2500  -999.2500    78.0420     2.4485     0.1124     8.0064     0.0413
  186.5000  -999.2500  -999.2500    77.1852     2.4483     0.1126     8.0051     0.0407
  187.0000  -999.2500  -999.2500    76.6909     2.4481     0.1128     8.0043     0.0401
  187.5000  -999.2500  -999.2500    78.8928     2.4479     0.1130     8.0195     0.0401
  188.0000  -999.2500  -999.2500    80.6678     2.4477     0.1132     8.0522     0.0401
  188.5000  -999.2500  -999.2500    80.6986     2.4475     0.1134     8.0847     0.0402
  189.0000  -999.2500  -999.2500    80.7176     2.4489     0.1006     8.1173     0.0432
  189.5000  -999.2500  -999.2500    81.5197     2.4566     0.1007     8.1498     0.0464
  190.0000  -999.2500  -999.2500    83.3273     2.4641     0.1027     8.1824     0.0495
  190.5000  -999.2500  -999.2500    83.5022     2.4657     0.1047     8.2150     0.0517
  191.0000  -999.2500  -999.2500    83.1586     2.4611     0.1066     8.2476     0.0486
  191.5000  -999.2500  -999.2500    82.8032     2.4566     0.1086     8.2802     0.0456
  192.0000  -999.2500  -999.2500    82.9292     2.4534     0.1106     8.3127     0.0426
  192.5000  -999.2500  -999.2500    83.6856     2.4534     0.1114     8.3456     0.0401
  193.0000  -999.2500  -999.2500    84.4446     2.4525     0.1112     8.3770     0.0404
  193.5000  -999.2500  -999.2500    84.6546     2.4510     0.1109     8.4054     0.0408
  194.0000  -999.2500  -999.2500    84.1621     2.4495     0.1106     8.4266     0.0411
  194.5000  -999.2500  -999.2500    83.6705     2.4495     0.1102     8.4492     0.0414
  195.0000  -999.2500  -999.2500    83.1518     2.4498     0.1099     8.4714     0.0417
  195.5000  -999.2500  -999.2500    81.6449     2.4500     0.1096     8.4936     0.0422
  196.0000  -999.2500  -999.2500    78.8039     2.4502     0.1112     8.5158     0.0373
  196.5000  -999.2500  -999.2500    76.9291     2.4477     0.1147     8.5385     0.0317
  197.0000  -999.2500  -999.2500    76.0639     2.4395     0.1183     8.5430     0.0261
  197.5000  -999.2500  -999.2500    75.2296     2.4315     0.1219     8.5428     0.0239
  198.0000  -999.2500  -999.2500    74.7005     2.4272     0.1233     8.5329     0.0236
  198.5000  -999.2500  -999.2500    75.8116     2.4255     0.1238     8.5121     0.0233
  199.0000  -999.2500  -999.2500    77.0392     2.4239     0.1250     8.4914     0.0231
  199.5000  -999.2500  -999.2500    78.2821     2.4222     0.1265     8.4706     0.0228
  200.0000  -999.2500  -999.2500    79.0302     2.4183     0.1280     8.4499     0.0225
  200.5000  -999.2500  -999.2500    77.2456     2.4144     0.1313     8.4291     0.0222
  201.0000  -999.2500  -999.2500    75.4787     2.4104     0.1383     8.4089     0.0208
  201.5000  -999.2500  -999.2500    75.0573     2.4036     0.1453     8.3505     0.0168
  202.0000  -999.2500  -999.2500    76.0371     2.3919     0.1523     8.2806     0.0128
  202.5000  -999.2500  -999.2500    77.0255     2.3720     0.1608     8.2103     0.0089
  203.0000  -999.2500  -999.2500    77.9946     2.3521     0.1748     8.1446     0.0050
  203.5000  -999.2500  -999.2500    79.0193     2.3308     0.1889     8.1419     0.0021
  204.0000  -999.2500  -999.2500    77.0509     2.3020     0.2029     8.1639     0.0031
  204.5000  -999.2500  -999.2500    76.4668     2.2740     0.2169     8.1667     0.0039
  205.0000  -999.2500  -999.2500    76.7588     2.2459     0.2309     8.1689     0.0053
  205.5000  -999.2500  -999.2500    77.2978     2.2178     0.2449     8.1709     0.0089
  206.0000  -999.2500  -999.2500    77.6591     2.1897     0.2590     8.1730     0.0143
  206.5000  -999.2500  -999.2500    82.3486     2.1616     0.2730     8.1751     0.0204
  207.0000  -999.2500  -999.2500    83.6919     2.1333     0.2842     8.1772     0.0407
  207.5000  -999.2500  -999.2500    84.5306     2.1226     0.2842     8.1793     0.0620
  208.0000  -999.2500  -999.2500    87.3944     2.1213     0.2842     8.1816     0.0828
  208.5000  -999.2500  -999.2500    85.6132     2.1327     0.1770     8.1833     0.1459
  209.0000  -999.2500  -999.2500    82.8007     2.2928     0.1467     8.1399     0.2079
  209.5000  -999.2500  -999.2500    84.1746     2.3668     0.1334     8.0914     0.0364
  210.0000  -999.2500  -999.2500    80.4977     2.3971     0.1279     8.0430     0.0266
  210.5000  -999.2500  -999.2500    73.3822     2.4283     0.1224     7.9947     0.0337
  211.0000  -999.2500  -999.2500    71.7374     2.4344     0.1169     7.9464     0.0397
  211.5000  -999.2500  -999.2500    70.5691     2.4404     0.1146     7.8981     0.0402
  212.0000  -999.2500  -999.2500    69.6878     2.4402     0.1175     7.8498     0.0371
  212.5000  -999.2500  -999.2500    69.0839     2.4394     0.1243     7.8015     0.0340
  213.0000  -999.2500  -999.2500    68.6825     2.4330     0.1311     7.7530     0.0308
  213.5000  -999.2500  -999.2500    68.6947     2.4191     0.1380     7.7046     0.0283
  214.0000  -999.2500  -999.2500    68.6997     2.4053     0.1448     7.6628     0.0336
  214.5000  -999.2500  -999.2500    68.6980     2.3914     0.1516     7.6676     0.0389
  215.0000  -999.2500  -999.2500    68.9530     2.3775     0.1585     7.7750     0.0401
  215.5000  -999.2500  -999.2500    69.5927     2.3637     0.1653     7.8862     0.0407
  216.0000  -999.2500  -999.2500    72.1723     2.3498     0.1721     7.9285     0.0449
  216.5000  -999.2500  -999.2500    75.4564     2.3358     0.1747     7.9436     0.0502
  217.0000  -999.2500  -999.2500    78.7089     2.3276     0.1656     7.9441     0.0606
  217.5000  -999.2500  -999.2500    81.5832     2.3541     0.1509     7.9622     0.0710
  218.0000  -999.2500  -999.2500    81.2996     2.3785     0.1362     8.0670     0.0645
  218.5000  -999.2500  -999.2500    77.1337     2.4032     0.1320     8.1824     0.0529
  219.0000  -999.2500  -999.2500    74.0688     2.4059     0.1331     8.2963     0.0475
  219.5000  -999.2500  -999.2500    71.4510     2.4062     0.1348     8.3686     0.0438
