~VERSION INFORMATION
 VERS.                2.0:   CWLS LOG ASCII STANDARD - VERSION 2.0
 WRAP.                 NO:   ONE LINE PER DEPTH STEP
~WELL INFORMATION
#MNEM.UNIT      DATA TYPE    INFORMATION
#----------   ------------   ------------------------------
 STRT.F           34.0000:   START DEPTH
 STOP.F          514.0000:   STOP DEPTH
 STEP.F            0.5000:   STEP LENGTH
 NULL.          -999.2500:   NO VALUE
 COMP. FENIX & SCISSON INC:   COMPANY
 WELL. NPR 3 #41 SX 10-10:   WELL
 FLD .             TEAPOT:   FIELD
 LOC .      S10 T38N R78W:   LOCATION
 CNTY.            NATRONA:   COUNTY
 STAT.            WYOMING:   STATE
 CTRY. UNITED STATES OF AMERICA:   COUNTRY
 SRVC.           BIRDWELL:   SERVICE COMPANY
 DATE.        25-JUN-1978:   LOGDATE
 API .       490251065200:   API NUMBER
~CURVE INFORMATION
#MNEM.UNIT       API CODE    CURVE DESCRIPTION
#----------   ------------   ------------------------------
 DEPT.F                  :   
 SPR .MV     07 010 01 00:   SPONTANEOUS POTENTIAL
 ILD .OHMM   07 120 46 00:   INDUCTION LOG DEEP
 SN  .OHMM   07 040 16 00:   SHORT NORMAL 16"
 CALD.IN     45 280 60 00:   CALIPER FROM DENSITY LOG
 GRD .GAPI   45 310 01 00:   GAMMA RAY FROM DENSITY LOG
 CORR.G/C3   45 356 01 00:   DENSITY CORRECTION
 DPHI.DEC    45 890 12 00:   DENSITY POROSITY SANDSTONE
 DEN .G/C3   45 350 01 00:   COMPENSATED BULK DENSTIY
 GRN .GAPI   35 310 01 00:   GAMMA RAY
 NEUT.NAPI   35 330 01 00:   NEUTRON
~PARAMETER INFORMATION
#MNEM.UNIT          VALUE    DESCRIPTION
#----------   ------------   ------------------------------
 PD  .                 GL:   PERMANENT DATUM
 EPD .F              5235:   ELEVATION PERMANENT DATUM
 LMF .                 KB:   LOG MEASURED FROM
 DAPD.F                 4:   FEET ABOVE PERMANENT DATUM
 DMF .                 KB:   DRILLING MEASURED FROM
 EKB .F              5239:   KELLING BUSHING
 EGL .F              5235:   GROUND LEVEL
 DATE.        25-JUN-1978:   RUN DATE
 RUN .                  1:   RUN NUMBER
 DD  .F               510:   DEPTH DRILLER
 DL  .F               514:   DEPTH LOGGER
 BLI .F               514:   BOTTOM LOG INTERVAL
 TLI .F                30:   TOP LOG INTERVAL
 CS  .IN            8.625:   CASING SIZE
 CBD .F                40:   CASING BOTTOM DRILLER
 CBL .F                40:   CASING BOTTOM LOGGER
 BS  .IN            7.875:   BIT SIZE
 BSD .F               510:   BIT SIZE AT DEPTH
 DFT .                KCL:   DRILLING FLUID TYPE
 DFD .                8.6:   DRILLING FLUID DENSITY
 DFV .                 31:   DRILLING FLUID VISCOSITY
 DFPH.                9.5:   DRILLING FLUID PH
 DFL .                 17:   DRILLING FLUID LOSS
 MSS .           FLOWLINE:   MUD SAMPLE SOURCE
 RMS .OHMM             .5:   RESISTIVITY MUD SAMPLE
 MST .F                74:   MUD SAMPLE TEMPERATURE
 RMF .OHMM            .54:   RESISTIVITY MUD FILTRATE SAMPLE
 MFST.F                72:   MUD FILTRATE SAMPLE TEMPERATURE
 RMC .OHMM            1.0:   RESISTIVITY MUD CAKE
 MCST.F                66:   MUD CAKE SAMPLE TEMPERATURE
 MFSS.               MEAS:   MUD FILTRATE SAMPLE SOURCE
 MCSS.               MEAS:   MUD CAKE SAMPLE SOURCE
 BHT .F                74:   BOTTOM HOLE TEMPERATURE
 TCS .HRS            0100:   TIME CURCULATED STOPPED
 MRT .F                74:   MAXIMUM RECORDED TEMPERATURE
 LUN .               2958:   LOGGING UNIT NUMBER
 LUL .               CASP:   LOGGING UNIT LOCATION
 ENGI.           REYNOLDS:   RECORDING ENGINEER
 CLNT.            A2DTECH:   CLIENT CODE
 ORIG.           5" PRINT:   ORIGIN OF DATA
 UWI .       490251065200:   UNIQUE WELL ID
 DICO. A2D Technologies, Inc.:   DIGITIZING COMPANY
~OTHER INFORMATION
~A   DEPT      SPR        ILD         SN       CALD        GRD       CORR       DPHI        DEN        GRN       NEUT   
# ...
  134.5000   -65.1338     8.9848     9.9635     7.9956    99.6354     0.0245     0.1265     2.4951    48.6530  1537.7148
  135.0000   -65.1429     9.0435    10.1040     8.0106    99.0343     0.0260     0.1246     2.4891    47.5337  1548.4835
  135.5000   -65.1519     9.1026    10.1759     8.0255    99.4897     0.0275     0.1247     2.4876    45.7414  1560.6017
  136.0000   -65.1609     9.2888    10.3909     8.0254    97.5325     0.0274     0.1282     2.4876    47.8060  1570.0210
  136.5000   -65.1699     9.6119    10.6842     8.0252    94.5128     0.0259     0.1186     2.4884    46.1183  1557.6251
  137.0000   -65.1789    10.0153    10.9100     8.0555    94.5225     0.0274     0.1204     2.4974    46.1198  1545.6748
  137.5000   -65.1880    10.3637    11.0638     8.1005    93.9221     0.0274     0.1174     2.4974    45.2240  1541.6074
  138.0000   -65.1970    10.7242    11.3760     8.1154    91.6625     0.0244     0.1113     2.5019    45.1507  1546.9789
  138.5000   -65.2060    11.1743    11.7782     8.1454    89.5531     0.0124     0.1110     2.5094    42.1630  1553.6930
  139.0000   -65.2150    11.4833    12.3645     8.1604    89.1042     0.0003     0.1128     2.5109    42.3936  1559.0645
  139.5000   -65.2241    11.8040    12.8016     8.1754    87.4480     0.0153     0.1204     2.5282    45.2305  1565.7852
  140.0000   -65.2331    12.0434    13.0722     8.1752    78.8338     0.0273     0.1282     2.5244    46.2035  1548.2115
  140.5000   -65.2428    12.1221    13.2565     8.1600    73.5775     0.0273     0.1198     2.4914    46.4288  1556.2817
  141.0000   -65.2515    11.9495    13.3508     8.1749    79.7652     0.0273     0.1297     2.4891    45.5334  1580.5436
  141.5000   -65.2611    11.5384    13.4457     8.2050    91.5328     0.0258     0.1300     2.4793    45.7594  1599.4082
  142.0000   -65.4202    11.1415    12.8126     8.2200    96.2107     0.0273     0.1315     2.4756    45.5366  1618.2728
  142.5000   -65.4200    10.6840    12.2058     8.2198    94.7060     0.0273     0.1349     2.4756    41.8573  1643.2086
  143.0000   -65.4147    10.3165    11.9538     8.2196    95.3123     0.0257     0.1388     2.4748    41.5037  1657.3450
  143.5000   -65.4095     9.9616    11.7883     8.2195    97.0448     0.0212     0.1409     2.4657    44.0466  1655.9697
  144.0000   -65.4042     9.9576    11.7191     8.2042   100.4470     0.0229     0.1358     2.4621    45.8417  1623.5601
  144.5000   -65.3989    10.0227    11.6404     8.1587   100.6000     0.0272     0.1327     2.4673    46.2169  1603.2943
  145.0000   -65.3936    10.0928    11.4829     8.1284    98.3412     0.0287     0.1379     2.4726    46.2930  1587.0764
  145.5000   -65.3883    10.2246    11.2491     8.1433    97.4391     0.0317     0.1454     2.4673    45.9955  1576.2560
  146.0000   -65.3831    10.3619    11.1730     8.1734    96.8387     0.0347     0.1469     2.4576    44.3976  1584.3260
  146.5000   -65.3778    10.4296    11.0219     8.2186    95.1825     0.0376     0.1482     2.4530    43.1587  1589.6909
  147.0000   -65.3725    10.4977    10.8720     8.2335    92.4586     0.0361     0.1442     2.4522    43.6086  1596.4116
  147.5000   -65.3672    10.4935    10.7989     8.2334    89.7592     0.0346     0.1378     2.4545    47.3469  1600.4337
  148.0000   -65.3619    10.4892    10.8761     8.2332    90.9688     0.0331     0.1325     2.4658    50.3379  1585.5652
  148.5000   -65.3567    10.4850    10.9535     8.2784    93.0833     0.0346     0.1382     2.4726    50.0404  1561.2515
  149.0000   -65.3514    10.4084    10.9554     8.2782    94.2928     0.0331     0.1349     2.4711    50.4230  1594.9521
  149.5000   -65.3461    10.4042    10.9572     8.2932    94.4466     0.0285     0.1288     2.4718    50.1931  1612.4675
  150.0000   -65.3408    10.4000    10.9591     8.2779    93.8462     0.0255     0.1201     2.4771    50.4933  1624.2411
  150.5000   -65.3355    10.4491    10.9610     8.2783    92.6411     0.0225     0.1164     2.4974    51.3154  1650.1794
  151.0000   -65.3303    10.4982    10.8873     8.2181    91.5867     0.0255     0.1333     2.5011    46.6069  1706.8123
  151.5000   -65.3250    10.4584    10.8141     8.1278    90.3565     0.0255     0.1433     2.4844    47.2048  1745.9036
  152.0000   -65.3197    10.3105    10.5939     8.0375    92.6458     0.0270     0.1484     2.4523    47.5037  1791.7417
  152.5000   -65.3144    10.2354    10.3784     7.9773    94.3060     0.0225     0.1496     2.4418    46.5321  1824.8716
  153.0000   -65.3091    10.0211    10.3082     7.9625    93.5537     0.0210     0.1539     2.4418    46.4529  1834.8423
  153.5000   -65.3044     9.8113    10.0987     7.9629    94.7617     0.0195     0.1545     2.4388    45.6353  1822.6495
  154.0000   -65.3033     9.6636     9.8249     7.9783    95.5173     0.0405     0.1632     2.4366    43.9910  1695.7773
  154.5000   -65.3022     9.4039     9.6248     7.9786    94.4633     0.0495     0.1704     2.4229    44.8132  1612.8096
  155.0000   -65.3011     9.3353     9.4939     7.9638    87.9791     0.0526     0.1571     2.4163    45.1121  1589.0930
  155.5000   -65.3000     9.2673     9.4959     7.9338    86.6231     0.0571     0.1526     2.4321    47.6532  1591.7527
  156.0000   -65.2990     9.2636     9.6298     7.9493    88.8870     0.0477     0.1381     2.4374    47.8027  1599.8097
  156.5000   -65.2979     9.2599     9.6982     7.9798    92.2067     0.0390     0.1300     2.4576    46.4574  1584.9281
  157.0000   -65.2968     9.1915     9.7672     8.0103    93.8673     0.0360     0.1381     2.4719    45.6353  1570.0466
  157.5000   -65.2957     9.1245     9.7015     8.0861    93.8436     0.0315     0.1423     2.4667    45.3363  1561.8892
  158.0000   -65.2946     9.0577     9.5700     8.1619    93.2668     0.0240     0.1375     2.4607    46.3079  1567.2603
  158.5000   -65.2935     9.0544     9.4374     8.2075    94.0228     0.0225     0.1417     2.4622    46.2332  1576.6764
  159.0000   -65.2925     8.9884     9.3121     8.1475    95.0801     0.0240     0.1417     2.4584    46.5321  1573.9291
  159.5000   -65.2914     8.9227     9.2416     8.1326    95.9865     0.0270     0.1441     2.4584    46.9806  1577.9381
  160.0000   -65.2903     8.8569     9.1240     8.2236    94.6305     0.0315     0.1531     2.4554    48.9238  1590.0431
  160.5000   -65.2892     8.7923     9.0627     8.2541    90.8612     0.0315     0.1544     2.4464    50.4933  1599.4493
  161.0000   -65.2881     8.7282     8.9853     8.2549    93.2763     0.0315     0.1501     2.4397    50.4185  1602.1091
  161.5000   -65.2870     8.6646     8.9333     8.3001    95.6910     0.0330     0.1459     2.4487    47.7280  1589.9165
  162.0000   -65.2859     8.6611     8.8814     8.3306    94.3350     0.0345     0.1426     2.4555    49.5964  1588.5282
  162.5000   -65.2849     8.5972     8.7780     8.3611    93.7327     0.0345     0.1442     2.4555    50.7922  1591.1877
  163.0000   -65.2838     8.5345     8.7745     8.3916    92.8296     0.0360     0.1423     2.4570    51.0164  1581.7036
  163.5000   -65.2827     8.5311     8.7709     8.4070    91.4735     0.0345     0.1477     2.4563    49.8954  1572.2194
  164.0000   -65.2816     8.5277     8.7666     8.4073    91.1737     0.0315     0.1428     2.4540    50.1943  1563.9406
  164.5000   -65.2873     8.4656     8.7631     8.3924    91.4768     0.0285     0.1401     2.4570    50.6612  1555.9398
  165.0000   -65.2932     8.4621     8.7596     8.2870    92.2324     0.0300     0.1362     2.4623    49.2975  1550.5035
  165.5000   -65.2993     8.4580     8.8170     8.2268    93.1388     0.0315     0.1350     2.4660    48.8490  1530.2247
  166.0000   -65.3053     8.4546     8.8135     8.2272    92.0845     0.0330     0.1438     2.4683    45.1121  1500.5006
  166.5000   -65.3113     8.3930     8.7491     8.2275    90.8290     0.0330     0.1416     2.4613    45.9342  1445.1394
  167.0000   -65.3173     8.3318     8.6846     8.2430    90.4282     0.0345     0.1392     2.4563    47.1330  1431.5627
  167.5000   -65.3233     8.2710     8.6212     8.2432    93.5975     0.0345     0.1431     2.4593    48.6996  1486.8292
