~VERSION INFORMATION
 VERS.                2.0:   CWLS LOG ASCII STANDARD - VERSION 2.0
 WRAP.                 NO:   ONE LINE PER DEPTH STEP
~WELL INFORMATION
#MNEM.UNIT      DATA TYPE    INFORMATION
#----------   ------------   ------------------------------
 STRT.F           71.5000:   START DEPTH
 STOP.F          820.0000:   STOP DEPTH
 STEP.F            0.5000:   STEP LENGTH
 NULL.          -999.2500:   NO VALUE
 COMP. U S NAVY/INTEX OIL CO:   COMPANY
 WELL. RES 3 TEAPOT DOME #72-S-34:   WELL
 FLD .             TEAPOT:   FIELD
 LOC .      S34 T39N R78W:   LOCATION
 CNTY.            NATRONA:   COUNTY
 STAT.            WYOMING:   STATE
 CTRY. UNITED STATES OF AMERICA:   COUNTRY
 SRVC.       Schlumberger:   SERVICE COMPANY
 DATE.        20-FEB-1961:   LOGDATE
 API .       490250655700:   API NUMBER
~CURVE INFORMATION
#MNEM.UNIT       API CODE    CURVE DESCRIPTION
#----------   ------------   ------------------------------
 DEPT.F                  :   
 GR  .GAPI   30 310 01 00:   GAMMA RAY
 SPR .MV     05 010 01 00:   SPONTANEOUS POTENTIAL FROM RES.
 ILD .OHMM   05 120 46 00:   INDUCTION LOG DEEP
 ASN .OHMM   05 041 16 00:   AMPLIFIED SHORT NORMAL 16"
 CILD.MMHO   05 110 46 00:   CONDUCTIVITY INDUCTION LOG DEEP
~PARAMETER INFORMATION
#MNEM.UNIT          VALUE    DESCRIPTION
#----------   ------------   ------------------------------
 LMF .                 KB:   LOG MEASURED FROM
 DMF .                 KB:   DRILLING MEASURED FROM
 EKB .F              5071:   KELLING BUSHING
 EGL .F              5057:   GROUND LEVEL
 DATE.          2-20-1961:   RUN DATE
 RUN .                  1:   RUN NUMBER
 DD  .F               820:   DEPTH DRILLER
 DL  .F               820:   DEPTH LOGGER
 BLI .F               819:   BOTTOM LOG INTERVAL
 TLI .F                80:   TOP LOG INTERVAL
 CBD .F                12:   CASING BOTTOM DRILLER
 BS  .IN            7.875:   BIT SIZE
 BSD .F               820:   BIT SIZE AT DEPTH
 DFT .       GEL-OIL EMUL:   DRILLING FLUID TYPE
 DFD .                9.3:   DRILLING FLUID DENSITY
 DFV .                 48:   DRILLING FLUID VISCOSITY
 DFPH.                8.5:   DRILLING FLUID PH
 DFL .                 16:   DRILLING FLUID LOSS
 MSS .           FLOWLINE:   MUD SAMPLE SOURCE
 RMS .OHMM            .82:   RESISTIVITY MUD SAMPLE
 MST .F                70:   MUD SAMPLE TEMPERATURE
 RMF .OHMM            .45:   RESISTIVITY MUD FILTRATE SAMPLE
 MFST.F                72:   MUD FILTRATE SAMPLE TEMPERATURE
 RMC .OHMM            1.4:   RESISTIVITY MUD CAKE
 MCST.F                78:   MUD CAKE SAMPLE TEMPERATURE
 RMB .OHMM            .73:   RESISTIVITY MUD AT BHT
 BHT .F                78:   BOTTOM HOLE TEMPERATURE
 TCS .HRS               1:   TIME CURCULATED STOPPED
 MRT .F                78:   MAXIMUM RECORDED TEMPERATURE
 LUN .               2523:   LOGGING UNIT NUMBER
 LUL .              CSPR.:   LOGGING UNIT LOCATION
 ENGI.             KNOBEL:   RECORDING ENGINEER
 WITN.          JORGENSEN:   WITNESSED BY
 CLNT.            A2DTECH:   CLIENT CODE
 ORIG.      2" & 5" PRINT:   ORIGIN OF DATA
 UWI .       490250655700:   UNIQUE WELL ID
 DICO. A2D Technologies, Inc.:   DIGITIZING COMPANY
~OTHER INFORMATION
~A   DEPT       GR        SPR          ILD      ASN       CILD   
# ...
  132.5000  -999.2500   -20.4146     3.6294     5.0167   266.8828
  133.0000  -999.2500   -20.4143     3.7177     4.9817   266.8909
  133.5000  -999.2500   -20.4146     3.8648     4.9811   258.2953
  134.0000  -999.2500   -20.4143     4.0581     4.9958   250.4312
  134.5000  -999.2500   -20.4146     4.2839     5.1600   243.0291
  135.0000  -999.2500   -20.4143     4.5104     5.4413   230.3045
  135.5000  -999.2500   -20.4145     4.7363     5.7220   218.2936
  136.0000  -999.2500   -20.4143     4.9626     6.0032   206.2961
  136.5000  -999.2500   -20.4144     5.1885     6.2839   194.2858
  137.0000  -999.2500   -20.4143     5.4147     6.5649   182.4091
  137.5000  -999.2500   -20.4144     5.6407     6.8458   177.1040
  138.0000  -999.2500   -20.4143     5.8668     7.0071   171.8618
  138.5000  -999.2500   -20.4165     6.0929     7.0463   166.5046
  139.0000  -999.2500   -20.4197     6.2427     7.0855   164.1526
  139.5000  -999.2500   -20.4230     6.3109     7.1614   161.7451
  140.0000  -999.2500   -20.4262     6.4100     7.2794   159.3435
  140.5000  -999.2500   -20.4295     6.5346     7.3975   156.9374
  141.0000  -999.2500   -20.4327     6.6087     7.5154   154.5529
  141.5000  -999.2500   -20.4360     6.6087     7.5833   152.1789
  142.0000  -999.2500   -20.4393     6.6087     7.5832   149.6024
  142.5000  -999.2500   -20.4425     6.6087     7.5634   149.6024
  143.0000  -999.2500   -20.4458     6.5253     7.5037   152.8463
  143.5000  -999.2500   -20.4490     6.3135     7.3846   156.4546
  144.0000  -999.2500   -20.4523     6.1018     7.2330   160.5368
  144.5000  -999.2500   -20.4556     5.8900     7.0606   166.3236
  145.0000  -999.2500   -20.4588     5.6784     6.8882   172.9852
  145.5000  -999.2500   -20.4621     5.4666     6.7157   179.6467
  146.0000  -999.2500   -20.4653     5.2185     6.5434   186.3083
  146.5000  -999.2500   -20.4686     5.0150     6.3708   192.9699
  147.0000  -999.2500   -20.4719     4.7691     6.1855   199.6314
  147.5000  -999.2500   -20.4751     4.5235     5.9710   208.0517
  148.0000  -999.2500   -20.4784     4.2773     5.7572   220.5169
  148.5000  -999.2500   -20.4817     4.0319     5.5426   232.9821
  149.0000  -999.2500   -20.4849     3.7854     5.2791   247.0576
  149.5000  -999.2500   -20.4882     3.5403     5.0369   265.4274
  150.0000  -999.2500   -20.4914     3.2934     4.7227   283.7972
  150.5000  -999.2500   -20.4947     3.1330     4.4072   297.7137
  151.0000  -999.2500   -20.4980     3.1316     4.2855   297.3509
  151.5000  -999.2500   -20.5012     3.1329     4.2648   296.8589
  152.0000  -999.2500   -20.5045     3.3372     4.2655   292.8380
  152.5000  -999.2500   -20.5078     3.5074     4.2646   287.4254
  153.0000  -999.2500   -20.5110     3.6741     4.3050   279.6123
  153.5000  -999.2500   -20.5143     3.8445     4.7262   265.4445
  154.0000  -999.2500   -20.5175     4.0112     5.0203   248.8554
  154.5000  -999.2500   -20.5208     4.1817     5.0932   232.2664
  155.0000  -999.2500   -20.5241     4.3229     5.1570   218.1909
  155.5000  -999.2500   -20.5273     4.3247     5.1785   215.3578
  156.0000  -999.2500   -20.5306     4.3230     5.1418   213.2207
  156.5000  -999.2500   -20.5339     4.3245     5.0821   217.6740
  157.0000  -999.2500   -20.5371     4.3234     5.0239   224.0358
  157.5000  -999.2500   -20.5404     4.0692     4.9334   231.1133
  158.0000  -999.2500   -20.5437     3.8111     4.8250   244.1153
  158.5000  -999.2500   -20.5469     3.5543     4.7146   265.0210
  159.0000  -999.2500   -20.5502     3.2970     4.6065   292.3570
  159.5000  -999.2500   -20.5534     3.0396     4.5025   319.6930
  160.0000  -999.2500   -20.5567     2.7828     4.1033   347.0289
  160.5000  -999.2500   -20.5600     2.5352     3.7240   373.2604
  161.0000  -999.2500   -20.5632     2.4369     3.5501   373.2604
  161.5000  -999.2500   -20.5665     2.6720     3.5588   366.6441
  162.0000  -999.2500   -20.5697     2.9029     3.6714   354.0477
  162.5000  -999.2500   -20.5730     3.1307     3.8664   341.4513
  163.0000  -999.2500   -20.5763     3.3618     4.0667   317.8330
  163.5000  -999.2500   -20.5795     3.5896     4.8360   293.7376
  164.0000  -999.2500   -20.5828     3.8276     5.6170   256.3260
  164.5000  -999.2500   -20.5860     4.4621     6.0029   218.1431
  165.0000  -999.2500   -20.5893     4.8321     5.9417   193.2903
  165.5000  -999.2500   -20.5925     4.8557     5.8733   189.4632
  166.0000  -999.2500   -20.5958     4.8808     5.8637   191.9235
  166.5000  -999.2500   -20.5991     4.9051     5.8507   194.3837
  167.0000  -999.2500   -20.6024     4.8584     5.8399   196.8439
  167.5000  -999.2500   -20.6056     4.7112     5.8274   201.0139
  168.0000  -999.2500   -20.6089     4.5630     5.8145   207.7058
  168.5000  -999.2500   -20.6113     4.4163     5.7212   215.2088
  169.0000  -999.2500   -20.5994     4.1760     5.6160   227.7485
  169.5000  -999.2500   -20.5896     3.7838     5.4969   244.0358
  170.0000  -999.2500   -20.5799     3.3893     5.1341   274.4533
  170.5000  -999.2500   -20.5700     2.9335     4.7138   315.6064
  171.0000  -999.2500   -20.5603     2.8331     4.2908   321.7942
  171.5000  -999.2500   -20.5504     2.8500     3.9948   330.5169
  172.0000  -999.2500   -20.5407     2.8984     3.9536   331.5109
  172.5000  -999.2500   -20.5309     2.9484     3.9473   331.5109
  173.0000  -999.2500   -20.5211     2.9971     4.0080   328.9795
  173.5000  -999.2500   -20.5113     3.1319     4.0871   322.5646
  174.0000  -999.2500   -20.5015     3.3017     4.5619   304.1948
  174.5000  -999.2500   -20.4917     3.5203     4.6674   280.5765
  175.0000  -999.2500   -20.4820     3.7388     4.8004   256.9583
  175.5000  -999.2500   -20.4721     3.9573     4.9369   239.0656
  176.0000  -999.2500   -20.4624     4.1250     5.0391   228.0616
  176.5000  -999.2500   -20.4525     4.3237     5.1936   221.1730
  177.0000  -999.2500   -20.4428     4.3234     5.3174   220.8847
  177.5000  -999.2500   -20.4329     4.3236     5.4173   221.8688
  178.0000  -999.2500   -20.4232     4.3230     5.3818   222.8529
  178.5000  -999.2500   -20.4140     4.2241     5.3310   223.8370
  179.0000  -999.2500   -20.3776     4.2234     5.2805   224.8211
  179.5000  -999.2500   -20.3435     4.1249     5.2375   232.2346
  180.0000  -999.2500   -20.3095     4.0246     5.0097   242.8628
  180.5000  -999.2500   -20.2754     3.8269     4.8122   252.0060
  181.0000  -999.2500   -20.2415     3.6013     4.6593   267.0478
  181.5000  -999.2500   -20.2073     3.4057     4.5292   280.2439
  182.0000  -999.2500   -20.1734     3.2079     4.4006   293.4198
  182.5000  -999.2500   -20.1393     3.0323     4.2706   306.6113
  183.0000  -999.2500   -20.1053     3.0053     4.1420   318.5873
  183.5000  -999.2500   -20.0712     2.9627     4.0123   321.5974
  184.0000  -999.2500   -20.0373     2.9182     3.8835   324.3456
  184.5000  -999.2500   -20.0032     2.8753     3.8073   329.8111
  185.0000  -999.2500   -19.9692     2.8310     3.8477   337.3521
  185.5000  -999.2500   -19.9351     2.7879     3.9199   344.8929
  186.0000  -999.2500   -19.9012     2.7437     3.9921   350.0851
  186.5000  -999.2500   -19.8671     2.7004     4.0263   353.2276
  187.0000  -999.2500   -19.8332     2.6565     3.9539   356.3517
  187.5000  -999.2500   -19.7990     2.5753     3.8832   362.9704
  188.0000  -999.2500   -19.7652     2.4571     3.9445   380.3578
  188.5000  -999.2500   -19.7309     2.3390     4.1415   408.7560
  189.0000  -999.2500   -19.6971     2.2210     3.9455   437.1542
  189.5000  -999.2500   -19.6629     2.1027     3.3163   466.6998
  190.0000  -999.2500   -19.6256     2.1279     2.9426   465.7058
  190.5000  -999.2500   -19.6488     2.3242     2.8735   444.3185
  191.0000  -999.2500   -19.6751     2.5213     2.9944   421.7937
  191.5000  -999.2500   -19.7010     2.6917     3.1241   399.2688
  192.0000  -999.2500   -19.7273     2.8285     3.2528   376.7440
  192.5000  -999.2500   -19.7531     2.9640     3.5052   350.0663
  193.0000  -999.2500   -19.7794     3.1008     3.9375   317.2631
