~VERSION INFORMATION
 VERS.                2.0:   CWLS LOG ASCII STANDARD - VERSION 2.0
 WRAP.                 NO:   ONE LINE PER DEPTH STEP
~WELL INFORMATION
#MNEM.UNIT      DATA TYPE    INFORMATION
#----------   ------------   ------------------------------
 STRT.F            7.5000:   START DEPTH
 STOP.F         2886.0000:   STOP DEPTH
 STEP.F            0.5000:   STEP LENGTH
 NULL.          -999.2500:   NO VALUE
 COMP. LAWRENCE/ALLISON INC:   COMPANY
 WELL.     16-1 AX #21-21:   WELL
 FLD .             TEAPOT:   FIELD
 LOC .      S21 T39N R78W:   LOCATION
 CNTY.            NATRONA:   COUNTY
 STAT.            WYOMING:   STATE
 CTRY. UNITED STATES OF AMERICA:   COUNTRY
 SRVC.      Dresser Atlas:   SERVICE COMPANY
 DATE.        05-DEC-1986:   LOGDATE
 API .       490251111900:   API NUMBER
~CURVE INFORMATION
#MNEM.UNIT       API CODE    CURVE DESCRIPTION
#----------   ------------   ------------------------------
 DEPT.F                  :   
 GRR .GAPI   07 310 01 00:   GAMMA RAY FROM RES. LOG.
 SPR .MV     07 010 01 00:   SPONTANEOUS POTENTIAL
 RFOC.OHMM   07 220 04 00:   RESISTIVITY FOCUSED LOG
 RILM.OHMM   07 120 44 00:   INDUCTION LOG MEDIUM RESISTIVITY
 RILD.OHMM   07 120 46 00:   INDUCTION LOG DEEP RESISTIVITY
 CALD.IN     45 280 60 00:   CALIPER
 DEN .G/C3   45 350 01 00:   BULK DENSITY
 CORR.G/C3   45 356 01 00:   DENSITY CORRECTION
 CNC .DEC    42 890 03 00:   NEUTRON POROSITY SANDSTONE
 PORD.DEC    45 890 12 00:   DENSITY POROSITY SANDSTONE
~PARAMETER INFORMATION
#MNEM.UNIT          VALUE    DESCRIPTION
#----------   ------------   ------------------------------
 PD  .                 GL:   PERMANENT DATUM
 EPD .F              4992:   ELEVATION PERMANENT DATUM
 LMF .                 KB:   LOG MEASURED FROM
 DAPD.F                12:   FEET ABOVE PERMANENT DATUM
 DMF .                 KB:   DRILLING MEASURED FROM
 EKB .F              5004:   KELLING BUSHING
 EGL .F              4992:   GROUND LEVEL
 DATE.            12-5-86:   RUN DATE
 RUN .                  1:   RUN NUMBER
 DD  .F              2905:   DEPTH DRILLER
 DL  .F              2890:   DEPTH LOGGER
 BLI .F              2884:   BOTTOM LOG INTERVAL
 TLI .F              2200:   TOP LOG INTERVAL
 CS  .IN            8.625:   CASING SIZE
 CBD .F               300:   CASING BOTTOM DRILLER
 CBL .F               300:   CASING BOTTOM LOGGER
 BS  .IN            7.875:   BIT SIZE
 BSD .F              2905:   BIT SIZE AT DEPTH
 DFT .        KCL POLYMER:   DRILLING FLUID TYPE
 DFD .                  9:   DRILLING FLUID DENSITY
 DFV .                 36:   DRILLING FLUID VISCOSITY
 DFPH.                9.5:   DRILLING FLUID PH
 DFL .               11.8:   DRILLING FLUID LOSS
 MSS .            MUDTANK:   MUD SAMPLE SOURCE
 RMS .OHMM            .43:   RESISTIVITY MUD SAMPLE
 MST .F                63:   MUD SAMPLE TEMPERATURE
 RMF .OHMM           .348:   RESISTIVITY MUD FILTRATE SAMPLE
 MFST.F                63:   MUD FILTRATE SAMPLE TEMPERATURE
 RMC .OHMM           .538:   RESISTIVITY MUD CAKE
 MCST.F                63:   MUD CAKE SAMPLE TEMPERATURE
 MFSS.               MEAS:   MUD FILTRATE SAMPLE SOURCE
 MCSS.               CALC:   MUD CAKE SAMPLE SOURCE
 RMB .OHMM           .233:   RESISTIVITY MUD AT BHT
 BHT .F               116:   BOTTOM HOLE TEMPERATURE
 TCS .HRS             3.5:   TIME CURCULATED STOPPED
 MRT .F               116:   MAXIMUM RECORDED TEMPERATURE
 LUN .            HL-6274:   LOGGING UNIT NUMBER
 LUL .           GILLETTE:   LOGGING UNIT LOCATION
 ENGI.             RAUTIO:   RECORDING ENGINEER
 WITN.             STRONG:   WITNESSED BY
 CLNT.            A2DTECH:   CLIENT CODE
 ORIG.       2", 5" PRINT:   ORIGIN OF DATA
 UWI .       490251111900:   UNIQUE WELL ID
 DICO. A2D Technologies, Inc.:   DIGITIZING COMPANY
~OTHER INFORMATION
~A    DEPT     GRR        SPR       RFOC       RILM       RILD       CALD        DEN       CORR        CNC       PORD   
# ...
 2017.5000   101.3941   -65.0412     3.9354     2.8358     2.6616  -999.2500  -999.2500  -999.2500  -999.2500  -999.2500
 2018.0000    99.5899   -65.1383     4.2822     2.7624     2.6701  -999.2500  -999.2500  -999.2500  -999.2500  -999.2500
 2018.5000   100.2667   -65.2361     3.9080     2.7781     2.6834  -999.2500  -999.2500  -999.2500  -999.2500  -999.2500
 2019.0000   102.8254   -65.3371     3.4096     2.8150     2.6965  -999.2500  -999.2500  -999.2500  -999.2500  -999.2500
 2019.5000   104.6749   -65.3765     3.1113     2.9051     2.7095  -999.2500  -999.2500  -999.2500  -999.2500  -999.2500
 2020.0000   101.1776   -65.5036     3.4662     3.0026     2.7224  -999.2500  -999.2500  -999.2500  -999.2500  -999.2500
 2020.5000    97.3921   -65.7383     4.2592     3.1407     2.7368  -999.2500  -999.2500  -999.2500  -999.2500  -999.2500
 2021.0000   101.0491   -66.0607     5.0542     3.2581     2.9283  -999.2500  -999.2500  -999.2500  -999.2500  -999.2500
 2021.5000   106.7484   -66.3839     4.6624     3.4128     3.1623  -999.2500  -999.2500  -999.2500  -999.2500  -999.2500
 2022.0000   112.4924   -66.7143     4.1880     3.6489     3.4491  -999.2500  -999.2500  -999.2500  -999.2500  -999.2500
 2022.5000   114.1917   -66.6441     3.9325     3.8962     3.7540  -999.2500  -999.2500  -999.2500  -999.2500  -999.2500
 2023.0000   112.6472   -66.4917     4.6859     4.1062     3.8920  -999.2500  -999.2500  -999.2500  -999.2500  -999.2500
 2023.5000   109.7602   -66.3368     5.7333     4.3233     4.0172  -999.2500  -999.2500  -999.2500  -999.2500  -999.2500
 2024.0000   107.2946   -66.1827     6.3762     4.5518     4.1196  -999.2500  -999.2500  -999.2500  -999.2500  -999.2500
 2024.5000   105.7879   -66.1721     5.9857     4.7925     4.4612  -999.2500  -999.2500  -999.2500  -999.2500  -999.2500
 2025.0000   105.8270   -66.3325     5.5663     5.0464     4.8093  -999.2500  -999.2500  -999.2500  -999.2500  -999.2500
 2025.5000   106.0412   -66.4919     5.2946     5.3109     5.1889  -999.2500  -999.2500  -999.2500  -999.2500  -999.2500
 2026.0000   106.6102   -66.4981     5.8418     5.5257     5.3550  -999.2500  -999.2500  -999.2500  -999.2500  -999.2500
 2026.5000   104.1494   -66.3721     6.3809     5.6503     5.4631  -999.2500  -999.2500  -999.2500  -999.2500  -999.2500
 2027.0000   101.4777   -66.2447     6.9697     5.7482     5.6505  -999.2500  -999.2500  -999.2500  -999.2500  -999.2500
 2027.5000    99.2457   -66.1164     7.8958     5.8099     5.6407  -999.2500  -999.2500  -999.2500  -999.2500  -999.2500
 2028.0000    98.2823   -65.9847     7.8522     5.7656     5.6236  -999.2500  -999.2500  -999.2500  -999.2500  -999.2500
 2028.5000   102.5998   -66.0425     7.4715     5.7327     5.6065  -999.2500  -999.2500  -999.2500  -999.2500  -999.2500
 2029.0000   108.7661   -66.1409     6.9225     5.7003     5.5894  -999.2500  -999.2500  -999.2500  -999.2500  -999.2500
 2029.5000   111.9965   -66.2401     6.4345     5.6681     5.5723  -999.2500  -999.2500  -999.2500  -999.2500  -999.2500
 2030.0000   111.3393   -66.3391     6.3105     5.6505     5.5549  -999.2500  -999.2500  -999.2500  -999.2500  -999.2500
 2030.5000   109.2319   -66.4371     6.0304     5.7812     5.5465  -999.2500  -999.2500  -999.2500  -999.2500  -999.2500
 2031.0000   108.5109   -66.5417     6.1610     5.8729     5.6574  -999.2500  -999.2500  -999.2500  -999.2500  -999.2500
 2031.5000   104.8109   -66.3491     6.3762     6.0819     5.7343  -999.2500  -999.2500  -999.2500  -999.2500  -999.2500
 2032.0000   100.0565   -66.0477     6.8256     6.4207     5.9689  -999.2500  -999.2500  -999.2500  -999.2500  -999.2500
 2032.5000   101.2299   -65.7404     7.3564     6.7784     6.2803  -999.2500  -999.2500  -999.2500  -999.2500  -999.2500
 2033.0000   102.3808   -65.4216     7.9285     7.1560     6.6079  -999.2500  -999.2500  -999.2500  -999.2500  -999.2500
 2033.5000   100.5560   -65.5278     8.5459     7.5546     6.9525  -999.2500  -999.2500  -999.2500  -999.2500  -999.2500
 2034.0000   102.1585   -65.7451     9.2090     7.9235     7.3152  -999.2500  -999.2500  -999.2500  -999.2500  -999.2500
 2034.5000   106.2215   -65.9638     9.7753     8.0745     7.5711  -999.2500  -999.2500  -999.2500  -999.2500  -999.2500
 2035.0000   108.6658   -66.1424     9.7845     8.2287     7.8378  -999.2500  -999.2500  -999.2500  -999.2500  -999.2500
 2035.5000   108.1080   -65.9818     9.4082     8.3856     8.1139  -999.2500  -999.2500  -999.2500  -999.2500  -999.2500
 2036.0000   104.6063   -65.7589     9.0595     8.5266     8.2872  -999.2500  -999.2500  -999.2500  -999.2500  -999.2500
 2036.5000   101.1293   -65.5349     8.7447     8.6133     8.3233  -999.2500  -999.2500  -999.2500  -999.2500  -999.2500
 2037.0000    97.8684   -65.3114     8.6616     8.7009     8.3588  -999.2500  -999.2500  -999.2500  -999.2500  -999.2500
 2037.5000    98.4261   -65.0889     9.7480     8.7900     8.3946  -999.2500  -999.2500  -999.2500  -999.2500  -999.2500
 2038.0000   101.8242   -64.8647    10.1556     8.8807     8.4308  -999.2500  -999.2500  -999.2500  -999.2500  -999.2500
 2038.5000   106.6252   -64.7611     9.7508     8.9723     8.4670  -999.2500  -999.2500  -999.2500  -999.2500  -999.2500
 2039.0000   110.4146   -64.7570     9.3308     9.0649     8.5053  -999.2500  -999.2500  -999.2500  -999.2500  -999.2500
 2039.5000   111.9578   -65.0220     9.0712     9.1617     8.4363  -999.2500  -999.2500  -999.2500  -999.2500  -999.2500
 2040.0000   114.3511   -65.4934     9.7776     9.0534     8.3490  -999.2500  -999.2500  -999.2500  -999.2500  -999.2500
 2040.5000   117.2940   -65.9543     9.5633     8.9409     8.3701  -999.2500  -999.2500  -999.2500  -999.2500  -999.2500
 2041.0000   119.0271   -66.0927     9.2089     8.8305     8.3971  -999.2500  -999.2500  -999.2500  -999.2500  -999.2500
 2041.5000   118.8384   -66.0936     9.0770     8.7458     8.4246  -999.2500  -999.2500  -999.2500  -999.2500  -999.2500
 2042.0000   118.7113   -65.7191     9.9951     8.7774     8.4522  -999.2500  -999.2500  -999.2500  -999.2500  -999.2500
 2042.5000   117.5229   -65.3542    10.5482     8.8033     8.4801  -999.2500  -999.2500  -999.2500  -999.2500  -999.2500
 2043.0000   116.1565   -65.1201    10.6107     8.8274     8.5053  -999.2500  -999.2500  -999.2500  -999.2500  -999.2500
 2043.5000   115.5393   -65.0357    10.6306     8.7478     8.4312  -999.2500  -999.2500  -999.2500  -999.2500  -999.2500
 2044.0000   117.1496   -64.9507     9.8579     8.6743     8.3628  -999.2500  -999.2500  -999.2500  -999.2500  -999.2500
 2044.5000   115.2849   -64.8659     9.3336     8.6015     8.2950  -999.2500  -999.2500  -999.2500  -999.2500  -999.2500
 2045.0000   111.2682   -64.7786     9.1617     8.5293     8.2278  -999.2500  -999.2500  -999.2500  -999.2500  -999.2500
 2045.5000   106.3148   -64.6693     9.2128     8.4266     8.1611  -999.2500  -999.2500  -999.2500  -999.2500  -999.2500
 2046.0000   101.3940   -64.6083     9.3990     8.5110     8.1191  -999.2500  -999.2500  -999.2500  -999.2500  -999.2500
 2046.5000    96.8997   -64.8924     9.8261     8.6648     8.1949  -999.2500  -999.2500  -999.2500  -999.2500  -999.2500
 2047.0000    94.6342   -65.0798    10.2725     8.8694     8.3351  -999.2500  -999.2500  -999.2500  -999.2500  -999.2500
 2047.5000    94.6866   -65.2570    10.7299     9.0106     8.4794  -999.2500  -999.2500  -999.2500  -999.2500  -999.2500
 2048.0000    96.1234   -65.2871    10.7299     9.0532     8.6161  -999.2500  -999.2500  -999.2500  -999.2500  -999.2500
 2048.5000    97.5960   -65.1076     9.7627     9.1134     8.7528  -999.2500  -999.2500  -999.2500  -999.2500  -999.2500
 2049.0000    97.4288   -64.9306     9.4121     9.1957     8.8686  -999.2500  -999.2500  -999.2500  -999.2500  -999.2500
 2049.5000    96.9451   -64.7511    10.1177     9.2787     8.9588  -999.2500  -999.2500  -999.2500  -999.2500  -999.2500
 2050.0000    99.8132   -64.5680    10.8353     9.3625     9.0499  -999.2500  -999.2500  -999.2500  -999.2500  -999.2500
 2050.5000   106.3617   -64.6329    11.3891     9.4208     9.0891  -999.2500  -999.2500  -999.2500  -999.2500  -999.2500
