~VERSION INFORMATION
 VERS.                2.0:   CWLS LOG ASCII STANDARD - VERSION 2.0
 WRAP.                 NO:   ONE LINE PER DEPTH STEP
~WELL INFORMATION
#MNEM.UNIT      DATA TYPE    INFORMATION
#----------   ------------   ------------------------------
 STRT.F           32.0000:   START DEPTH
 STOP.F          697.0000:   STOP DEPTH
 STEP.F            0.5000:   STEP LENGTH
 NULL.          -999.2500:   NO VALUE
 COMP.    FENIX & SCISSON:   COMPANY
 WELL.      NPR-3 #81S3-3:   WELL
 FLD .        TEAPOT DOME:   FIELD
 LOC .       S3 T38N R78W:   LOCATION
 CNTY.            NATRONA:   COUNTY
 STAT.            WYOMING:   STATE
 CTRY. UNITED STATES OF AMERICA:   COUNTRY
 SRVC.           BIRDWELL:   SERVICE COMPANY
 DATE.        11-JAN-1978:   LOGDATE
 API .       490251055400:   API NUMBER
~CURVE INFORMATION
#MNEM.UNIT       API CODE    CURVE DESCRIPTION
#----------   ------------   ------------------------------
 DEPT.F                  :   
 ILD .OHMM   05 120 46 00:   INDUCTION LOG DEEP
 SN  .OHMM   05 040 16 00:   SHORT NORMAL 16"
 SPR .MV     05 010 01 00:   SPONTANEOUS POTENTIAL FROM RES.
 CALD.IN     45 280 60 00:   CALIPER FROM DENSITY LOG
 DPHI.DEC    45 890 12 00:   DENSITY POROSITY SANDSTONE
 DRHO.G/C3   45 356 01 00:   DENSITY CORRECTION
 GRD .GAPI   45 310 01 00:   GAMMA RAY FROM DENSITY LOG
 RHOB.G/C3   45 350 01 00:   BULK DENSITY
~PARAMETER INFORMATION
#MNEM.UNIT          VALUE    DESCRIPTION
#----------   ------------   ------------------------------
 PD  .                 GL:   PERMANENT DATUM
 EPD .F              5119:   ELEVATION PERMANENT DATUM
 LMF .                 KB:   LOG MEASURED FROM
 DAPD.F                 4:   FEET ABOVE PERMANENT DATUM
 DMF .                 KB:   DRILLING MEASURED FROM
 EKB .F              5123:   KELLING BUSHING
 EGL .F              5119:   GROUND LEVEL
 DATE.        11-JAN-1978:   RUN DATE
 RUN .                  1:   RUN NUMBER
 DD  .F               695:   DEPTH DRILLER
 DL  .F               704:   DEPTH LOGGER
 BLI .F               697:   BOTTOM LOG INTERVAL
 TLI .F                40:   TOP LOG INTERVAL
 CS  .IN            8.625:   CASING SIZE
 CBD .F                40:   CASING BOTTOM DRILLER
 CBL .F                40:   CASING BOTTOM LOGGER
 BS  .IN            7.875:   BIT SIZE
 BSD .F               695:   BIT SIZE AT DEPTH
 DFT .                KCL:   DRILLING FLUID TYPE
 DFD .                8.6:   DRILLING FLUID DENSITY
 DFV .                 31:   DRILLING FLUID VISCOSITY
 DFPH.                9.5:   DRILLING FLUID PH
 DFL .                7.6:   DRILLING FLUID LOSS
 MSS .           FLOWLINE:   MUD SAMPLE SOURCE
 RMS .OHMM           0.32:   RESISTIVITY MUD SAMPLE
 MST .F                62:   MUD SAMPLE TEMPERATURE
 RMF .OHMM           0.32:   RESISTIVITY MUD FILTRATE SAMPLE
 MFST.F                62:   MUD FILTRATE SAMPLE TEMPERATURE
 RMC .OHMM            0.8:   RESISTIVITY MUD CAKE
 MCST.F                63:   MUD CAKE SAMPLE TEMPERATURE
 MFSS.               MEAS:   MUD FILTRATE SAMPLE SOURCE
 MCSS.               MEAS:   MUD CAKE SAMPLE SOURCE
 TCS .HRS               2:   TIME CURCULATED STOPPED
 LUN .               2958:   LOGGING UNIT NUMBER
 LUL .             CASPER:   LOGGING UNIT LOCATION
 ENGI.           REYNOLDS:   RECORDING ENGINEER
 WITN.         HARRINGTON:   WITNESSED BY
 CLNT.            A2DTECH:   CLIENT CODE
 ORIG.           5" PRINT:   ORIGIN OF DATA
 UWI .       490251055400:   UNIQUE WELL ID
 DICO. A2D Technologies, Inc.:   DIGITIZING COMPANY
~OTHER INFORMATION
~A   DEPT      ILD         SN        SPR       CALD       DPHI       DRHO         GRD      RHOB   
# ...
  113.0000    31.6192    25.3168   -27.6056     8.5980     0.1004     0.1237    55.2618     2.5277
  113.5000    30.5499    25.3237   -27.5997     8.6580     0.1194     0.1268    58.1008     2.4524
  114.0000    29.1101    24.1143   -27.4446     8.7179     0.1351     0.1283    62.2810     2.4216
  114.5000    27.7382    22.6211   -25.7969     8.7184     0.1384     0.1193    68.8458     2.4141
  115.0000    26.2363    20.4493   -25.4925     8.7188     0.1351     0.0843    70.9396     2.4254
  115.5000    24.4510    19.0862   -26.0837     8.7180     0.1254     0.0742    69.7547     2.4397
  116.0000    22.6575    18.1880   -26.0577     8.7165     0.1197     0.0711    69.6112     2.4510
  116.5000    21.4851    17.5738   -25.7720     8.7151     0.1459     0.0639    71.7068     2.4060
  117.0000    20.9030    17.2172   -25.6168     8.7136     0.1450     0.0444    72.3085     2.4022
  117.5000    20.7628    16.8678   -25.4617     8.7122     0.1429     0.0339    71.8706     2.4143
  118.0000    20.6263    16.6403   -25.7543     8.7107     0.1447     0.0340    72.0270     2.4226
  118.5000    20.4880    16.5288   -26.3455     8.7093     0.1507     0.0355    72.7795     2.3993
  119.0000    20.3519    16.4192   -26.4903     8.7075     0.1561     0.0356    74.5753     2.3866
  119.5000    20.0785    16.1989   -27.2293     8.7080     0.1522     0.0356    75.9309     2.3881
  120.0000    19.8073    16.0914   -27.6726     8.6935     0.1464     0.0356    76.9747     2.3941
  120.5000    19.6744    15.9840   -28.1130     8.6493     0.1410     0.0357    76.9985     2.3987
  121.0000    19.2746    15.7606   -28.7042     8.6348     0.1377     0.0357    77.4595     2.4048
  121.5000    18.6240    15.5565   -28.9968     8.6502     0.1371     0.0356    78.1908     2.4102
  122.0000    17.8698    15.2419   -29.4387     8.6506     0.1358     0.0352    79.0923     2.4162
  122.5000    16.7931    14.9325   -30.6269     8.6660     0.1327     0.0349    80.4410     2.4259
  123.0000    15.2433    14.4283   -32.2925     8.6664     0.1247     0.0345    81.0445     2.4432
  123.5000    13.4580    13.7493   -33.4905     8.6817     0.1109     0.0342    82.3931     2.4642
  124.0000    12.2027    12.8328   -36.7272     8.6822     0.0988     0.0338    86.4243     2.4763
  124.5000    11.4714    11.7312   -36.8720     8.6803     0.1012     0.0334    98.2052     2.4771
  125.0000    11.0664    10.8737   -37.0154     8.6783     0.1033     0.0331   100.8951     2.4718
  125.5000    10.4242    10.3620   -37.9036     8.6763     0.1039     0.0327   100.7535     2.4711
  126.0000    10.1417    10.2216   -37.3007     8.6743     0.0961     0.0323    97.7802     2.4756
  126.5000    10.1445    10.1544   -37.1456     8.6723     0.0952     0.0320    92.5715     2.4809
  127.0000    10.2136    10.0871   -37.4397     8.6700     0.0958     0.0316    89.3002     2.4817
  127.5000    10.2053    10.0876   -37.5831     8.6705     0.0964     0.0313    88.8586     2.4802
  128.0000    10.1970    10.0813   -37.5757     8.6709     0.0970     0.0309    90.5071     2.4795
  128.5000    10.1887    10.0751   -37.5699     8.6713     0.0997     0.0305    92.7500     2.4795
  129.0000    10.1803    10.0688   -38.1610     8.6867     0.1075     0.0365    92.9064     2.4743
  129.5000    10.1720    10.0625   -38.4537     8.7020     0.1129     0.0425    93.8080     2.4593
  130.0000    10.1637    10.0562   -38.4478     8.7173     0.1153     0.0456    94.7095     2.4496
  130.5000    10.1554    10.0500   -38.4418     8.7326     0.1156     0.0486    95.0149     2.4557
  131.0000    10.1471    10.0437   -38.4557     8.7628     0.1141     0.0487    95.0223     2.4579
  131.5000    10.1387    10.0423   -38.7287     8.7633     0.1111     0.0517    94.1167     2.4579
  132.0000    10.1304    10.0457   -39.0213     8.7637     0.1050     0.0533    93.5467     2.4587
  132.5000    10.1221    10.0485   -39.1647     8.7641     0.1011     0.0534    93.8972     2.4685
  133.0000    10.1138    10.0512   -39.0081     8.7646     0.1011     0.0534    95.0536     2.4768
  133.5000    10.1837    10.0539   -39.0022     8.7650     0.1032     0.0534    95.2082     2.4723
  134.0000    10.1863    10.0567   -39.1471     8.7655     0.0978     0.0532    90.0013     2.4776
  134.5000    10.1892    10.0594   -39.1397     8.7659     0.0966     0.0520    88.0713     2.4829
  135.0000    10.1920    10.1321   -39.2846     8.7664     0.0981     0.0535    88.2277     2.4792
  135.5000    10.1227    10.1348   -39.2772     8.7668     0.0984     0.0536    89.4273     2.4807
  136.0000    10.0516    10.1376   -39.7191     8.7673     0.0953     0.0551    90.0308     2.4822
  136.5000     9.9903    10.2108   -39.7132     8.7677     0.0984     0.0567    89.4421     2.4793
  137.0000     9.9240    10.2846   -39.7074     8.7682     0.0974     0.0582    87.3630     2.4778
  137.5000     9.7906    10.3589   -39.2537     8.7686     0.0938     0.0583    85.8801     2.4838
  138.0000     9.8615    10.3624   -38.8000     8.7839     0.0971     0.0598    86.7816     2.4846
  138.5000     9.9328    10.3652   -39.2420     8.7844     0.0962     0.0599    87.8322     2.4809
  139.0000    10.0047    10.3680   -39.6824     8.7849     0.0959     0.0599    87.8396     2.4811
  139.5000    10.1472    10.3708   -39.6765     8.8002     0.0965     0.0600    88.2940     2.4842
  140.0000    10.2206    10.3736   -38.9244     8.8006     0.0935     0.0570    89.0466     2.4878
  140.5000    10.2946    10.3765   -38.6200     8.8011     0.0926     0.0540    89.5010     2.4900
  141.0000    10.4412    10.3793   -38.6141     8.8164     0.0944     0.0541    88.0181     2.4826
  141.5000    10.5900    10.3821   -38.6083     8.8019     0.0962     0.0556    85.0448     2.4833
  142.0000    10.6666    10.4571   -38.4546     8.8024     0.0989     0.0617    84.8952     2.4819
  142.5000    10.8938    10.5326   -38.8950     8.8029     0.1031     0.0677    86.7064     2.4729
  143.0000    10.9726    10.6087   -39.1891     8.8033     0.1007     0.0678    89.1357     2.4737
  143.5000    11.0520    10.7596   -39.6310     8.7888     0.0944     0.0678    91.6781     2.4812
  144.0000    11.1320    10.9127   -39.3252     8.7893     0.0889     0.0693    92.4063     2.4872
  144.5000    11.2126    10.9922   -39.3193     8.7880     0.0877     0.0691    92.5410     2.4933
  145.0000    11.2937    11.1485   -39.4627     8.7795     0.0901     0.0689    91.9537     2.4956
  145.5000    11.3755    11.2290   -39.6061     8.7710     0.0916     0.0687    90.1727     2.4866
  146.0000    11.5382    11.3887   -39.6000     8.7626     0.0919     0.0685    88.2427     2.4829
  146.5000    11.5413    11.4710   -39.7436     8.7541     0.0913     0.0683    86.4617     2.4821
  147.0000    11.6248    11.6342   -39.8855     8.7456     0.0910     0.0681    85.2768     2.4844
  147.5000    11.7090    11.6373   -39.8796     8.7371     0.0907     0.0682    85.1333     2.4867
  148.0000    11.7122    11.6405   -39.7245     8.7333     0.0903     0.0698    85.4406     2.4882
  148.5000    11.7154    11.6439   -39.4201     8.7338     0.0901     0.0713    86.3421     2.4906
  149.0000    11.6376    11.7280   -38.6680     8.7343     0.0958     0.0728    87.2419     2.4928
  149.5000    11.5595    11.6495   -38.6621     8.7348     0.0985     0.0744    84.4195     2.4876
  150.0000    11.4034    11.5722   -38.9547     8.7352     0.0988     0.0744    80.4030     2.4838
  150.5000    11.2494    11.4161   -39.2474     8.7356     0.0952     0.0745    79.0672     2.4861
  151.0000    11.2532    11.2629   -39.5415     8.7361     0.0928     0.0745    81.6100     2.4862
  151.5000    11.1784    11.1882   -39.5341     8.7365     0.0982     0.0761    85.7902     2.4839
  152.0000    11.1816    11.1913   -38.6327     8.7370     0.0952     0.0806    87.4370     2.4870
  152.5000    11.1846    11.1171   -38.4776     8.7374     0.0888     0.0807    88.7856     2.4968
  153.0000    11.1863    11.1975   -38.4716     8.7378     0.0852     0.0822    92.9659     2.4991
