~VERSION INFORMATION
 VERS.                2.0:   CWLS LOG ASCII STANDARD - VERSION 2.0
 WRAP.                 NO:   ONE LINE PER DEPTH STEP
~WELL INFORMATION
#MNEM.UNIT      DATA TYPE    INFORMATION
#----------   ------------   ------------------------------
 STRT.F            2.0000:   START DEPTH
 STOP.F          832.0000:   STOP DEPTH
 STEP.F            0.5000:   STEP LENGTH
 NULL.          -999.2500:   NO VALUE
 COMP. U S NAVY-INTEX OIL:   COMPANY
 WELL.        NPR #46-S-2:   WELL
 FLD .             TEAPOT:   FIELD
 LOC .       S2 T38N R78W:   LOCATION
 CNTY.            NATRONA:   COUNTY
 STAT.            WYOMING:   STATE
 CTRY. UNITED STATES OF AMERICA:   COUNTRY
 SRVC.      NL McCullough:   SERVICE COMPANY
 DATE.        13-AUG-1961:   LOGDATE
 API .       490250641500:   API NUMBER
~CURVE INFORMATION
#MNEM.UNIT       API CODE    CURVE DESCRIPTION
#----------   ------------   ------------------------------
 DEPT.F                  :   
 GR  .MG/TON 35 310 30 00:   GAMMA RAY
 NEUT.NAPI   35 330 01 00:   NEUTRON
~PARAMETER INFORMATION
#MNEM.UNIT          VALUE    DESCRIPTION
#----------   ------------   ------------------------------
 PD  .                 GL:   PERMANENT DATUM
 EPD .F              5150:   ELEVATION PERMANENT DATUM
 LMF .                 KB:   LOG MEASURED FROM
 DAPD.F                 6:   FEET ABOVE PERMANENT DATUM
 DMF .                 KB:   DRILLING MEASURED FROM
 EKB .F              5156:   KELLING BUSHING
 EGL .F              5150:   GROUND LEVEL
 DATE.        13-AUG-1961:   RUN DATE
 RUN .                  1:   RUN NUMBER
 DD  .F               830:   DEPTH DRILLER
 DL  .F               834:   DEPTH LOGGER
 BLI .F             832.5:   BOTTOM LOG INTERVAL
 BS  .IN            7.875:   BIT SIZE
 BSD .F               830:   BIT SIZE AT DEPTH
 DFT .       OIL EMULSION:   DRILLING FLUID TYPE
 DFD .                9.5:   DRILLING FLUID DENSITY
 TCS .HRS               1:   TIME CURCULATED STOPPED
 LUN .               1296:   LOGGING UNIT NUMBER
 ENGI.            JACKSON:   RECORDING ENGINEER
 WITN.          JORGENSEN:   WITNESSED BY
 CLNT.            A2DTECH:   CLIENT CODE
 ORIG.        2" 5" PRINT:   ORIGIN OF DATA
 UWI .       490250641500:   UNIQUE WELL ID
 DICO. A2D Technologies, Inc.:   DIGITIZING COMPANY
~OTHER INFORMATION
~A    DEPT        GR     NEUT   
# ...
  609.5000     5.7648   252.5364
  610.0000     6.1590   269.0112
  610.5000     6.0555   254.1193
  611.0000     5.8923   273.5815
  611.5000     5.9003   280.3364
  612.0000     6.3168   282.6327
  612.5000     6.2430   290.1456
  613.0000     6.1839   284.9625
  613.5000     6.2363   276.7921
  614.0000     6.4152   286.5455
  614.5000     6.3488   308.9949
  615.0000     6.2748   320.2419
  615.5000     6.4017   318.7930
  616.0000     6.0975   312.1162
  616.5000     6.1723   333.0720
  617.0000     6.2618   312.2055
  617.5000     6.4480   320.4653
  618.0000     6.0176   319.6714
  618.5000     5.9289   332.5038
  619.0000     6.0036   322.8397
  619.5000     6.2269   301.2264
  620.0000     5.9895   296.4901
  620.5000     6.0718   311.0245
  621.0000     6.2803   330.4866
  621.5000     6.3178   332.2325
  622.0000     6.1029   299.9561
  622.5000     6.4302   292.5318
  623.0000     6.4974   302.2859
  623.5000     6.2974   307.6179
  624.0000     6.4984   271.7553
  624.5000     6.5879   296.4453
  625.0000     6.5289   309.9328
  625.5000     6.8266   301.7230
  626.0000     6.9756   292.8257
  626.5000     6.8869   285.9889
  627.0000     6.6422   265.8499
  627.5000     6.2712   262.3593
  628.0000     6.2938   273.6063
  628.5000     6.1160   269.7781
  629.0000     6.3468   262.9221
  629.5000     6.1467   249.2156
  630.0000     6.0951   227.3837
  630.5000     6.0139   226.7796
  631.0000     5.9770   191.7837
  631.5000     6.0741   165.6998
  632.0000     5.9186   120.3087
  632.5000     5.9934   116.4280
  633.0000     6.0011    98.5600
  633.5000     5.9274    64.9974
  634.0000     5.8831    53.0929
  634.5000     5.9506    50.8859
  635.0000     6.0402    78.5743
  635.5000     6.3229   101.7706
  636.0000     6.7097   139.9034
  636.5000     6.6729   169.0742
  637.0000     6.7254   180.3213
  637.5000     6.8076   207.2516
  638.0000     7.2092   218.4987
  638.5000     7.4029   237.2140
  639.0000     7.4999   240.2348
  639.5000     7.1957   215.6454
  640.0000     7.1206   198.5130
  640.5000     7.1816   218.7220
  641.0000     6.9666   243.4119
  641.5000     6.8038   241.9629
  642.0000     6.9082   250.9695
  642.5000     6.8789   236.8245
  643.0000     6.7827   221.9326
  643.5000     6.9614   225.7114
  644.0000     7.1180   201.8576
  644.5000     7.3042   183.9785
  645.0000     7.5201   175.8080
  645.5000     7.5724   174.3479
  646.0000     7.2758   190.0871
  646.5000     7.2094   220.0048
  647.0000     7.0315   229.0002
  647.5000     7.1063   217.8536
  648.0000     6.9730   221.6324
  648.5000     7.2260   226.1580
  649.0000     7.3379   229.1788
  649.5000     7.3309   206.8299
  650.0000     6.9228   232.2666
  650.5000     6.8192   259.1965
  651.0000     6.9757   284.6328
  651.5000     7.0307   302.6009
  652.0000     6.8502   307.1260
  652.5000     7.0637   312.3980
  653.0000     6.8729   317.6700
  653.5000     6.8287   306.2461
  654.0000     6.7870   272.3915
  654.5000     6.6964   246.9461
  655.0000     6.6671   232.7198
  655.5000     6.7642   232.0062
  656.0000     7.0099   252.2147
  656.5000     7.1217   247.0422
  657.0000     6.9588   237.3777
  657.5000     6.8255   218.0044
  658.0000     6.8779   190.4161
  658.5000     7.0567   196.4349
  659.0000     7.0348   204.6942
  659.5000     7.1913   198.0170
  660.0000     7.4666   183.1247
  660.5000     7.1847   177.9411
  661.0000     6.9103   180.9726
  661.5000     6.6284   185.4978
  662.0000     6.7923   213.9214
  662.5000     6.9710   229.6490
  663.0000     7.0606   249.8575
  663.5000     6.8960   220.3792
  664.0000     7.1542   232.8616
  664.5000     7.3072   248.5076
  665.0000     7.5008   245.5645
  665.5000     7.4194   237.3826
  666.0000     6.9668   259.0958
  666.5000     6.8112   268.8488
  667.0000     6.8710   271.1335
  667.5000     7.0053   266.6967
  668.0000     7.0279   271.2219
  668.5000     6.8872   274.9892
  669.0000     7.2815   272.0461
  669.5000     7.3487   275.0887
  670.0000     7.1858   275.8687
  670.5000     7.2679   235.5953
  671.0000     7.1643   229.6649
  671.5000     7.2688   222.2409
  672.0000     7.1725   205.8550
  672.5000     6.9913   215.2086
  673.0000     6.8737   228.3482
  673.5000     7.0741   231.8992
  674.0000     7.3826   216.4985
  674.5000     7.4573   211.3038
  675.0000     7.3314   219.5742
  675.5000     7.5250   234.5549
  676.0000     7.6666   236.8286
  676.5000     7.5408   239.1243
  677.0000     7.4892   223.4852
  677.5000     7.1999   195.1501
  678.0000     7.5421   176.5236
  678.5000     7.7134   183.2893
  679.0000     7.4390   204.2446
  679.5000     7.3131   209.7932
  680.0000     7.1724   205.0799
  680.5000     7.2323   200.6431
  681.0000     7.7082   185.7508
  681.5000     7.6265   186.6420
  682.0000     7.3845   195.5489
  682.5000     6.7209   171.9449
  683.0000     6.9071   159.0420
  683.5000     6.8338   203.9068
  684.0000     6.3958   228.5963
  684.5000     6.5225   253.2858
  685.0000     6.4191   248.8490
  685.5000     6.3824   220.5139
  686.0000     6.1897   204.1169
  686.5000     5.6849   231.8047
  687.0000     5.3584   219.1529
  687.5000     4.9800   266.2471
  688.0000     4.7130   332.0121
  688.5000     4.2974   388.8150
  689.0000     3.8372   435.1625
  689.5000     3.8970   512.8766
  690.0000     4.0238   544.2875
  690.5000     4.0094   504.3008
  691.0000     3.9355   489.3492
  691.5000     3.9880   494.6223
  692.0000     4.0065   516.4145
  692.5000     4.0707   487.8019
  693.0000     4.3534   468.8853
  693.5000     4.4876   457.8828
  694.0000     4.5549   426.9153
  694.5000     4.4365   441.9703
  695.0000     4.6152   470.1180
  695.5000     4.6974   493.3687
  696.0000     4.7126   458.1923
  696.5000     4.6017   462.7163
  697.0000     4.3941   474.7310
  697.5000     4.1195   475.5097
  698.0000     4.5138   503.2547
  698.5000     4.5377   505.5241
  699.0000     4.4627   492.8271
  699.5000     4.5820   483.1115
  700.0000     4.3860   537.0737
  700.5000     4.2366   524.3766
  701.0000     4.2214   525.9045
  701.5000     4.2137   504.2112
  702.0000     4.2283   480.2708
  702.5000     4.3472   462.3221
  703.0000     4.4811   470.5923
  703.5000     4.6522   468.2843
  704.0000     4.6891   448.9287
  704.5000     4.8080   453.4528
  705.0000     4.8450   443.4466
  705.5000     4.8522   451.3732
  706.0000     4.8668   461.1232
  706.5000     4.8586   462.5601
  707.0000     4.6770   460.3500
  707.5000     4.3442   427.9405
  708.0000     4.2504   448.9291
  708.5000     4.6343   445.9477
  709.0000     4.7308   462.4420
  709.5000     4.7082   445.9550
  710.0000     4.7069   467.9646
  710.5000     4.7374   483.2520
  711.0000     4.7297   471.1751
  711.5000     4.5713   469.2578
  712.0000     4.7397   461.7857
  712.5000     4.6456   434.8342
  713.0000     4.6084   418.3697
  713.5000     4.4610   419.1336
  714.0000     4.6064   464.0923
  714.5000     4.6828   494.0696
  715.0000     4.7049   500.8261
  715.5000     4.7195   473.8746
  716.0000     4.7564   424.4513
  716.5000     4.7487   417.7208
  717.0000     4.4653   433.4660
  717.5000     4.6810   427.4883
  718.0000     4.5615   414.7728
  718.5000     4.5389   404.2971
  719.0000     4.5982   415.5516
  719.5000     4.6351   420.0571
  720.0000     4.5603   402.0981
  720.5000     4.5302   389.3789
  721.0000     4.3585   399.1316
  721.5000     4.4998   434.3524
  722.0000     4.5889   448.5995
  722.5000     4.7004   450.8615
  723.0000     4.7896   489.3002
  723.5000     4.6700   513.1486
  724.0000     4.8858   516.0746
  724.5000     4.9451   482.3815
  725.0000     4.8554   488.5143
  725.5000     4.6763   489.1528
  726.0000     4.9592   492.1676
  726.5000     4.9365   499.6731
  727.0000     4.8021   518.4146
  727.5000     4.5186   485.4706
  728.0000     4.4810   454.0247
  728.5000     4.4733   438.3055
  729.0000     4.5332   469.0357
  729.5000     4.5174   464.5562
  730.0000     4.7213   423.3726
  730.5000     4.6796   452.6009
