~VERSION INFORMATION
 VERS.                2.0:   CWLS LOG ASCII STANDARD - VERSION 2.0
 WRAP.                 NO:   ONE LINE PER DEPTH STEP
~WELL INFORMATION
#MNEM.UNIT      DATA TYPE    INFORMATION
#----------   ------------   ------------------------------
 STRT.F           34.0000:   START DEPTH
 STOP.F          662.0000:   STOP DEPTH
 STEP.F            0.5000:   STEP LENGTH
 NULL.          -999.2500:   NO VALUE
 COMP. FENIX & SCISSON INC:   COMPANY
 WELL.     55 S 34 #34-34:   WELL
 FLD .          N.P.R. #3:   FIELD
 LOC .      S34 T39N R78W:   LOCATION
 CNTY.            NATRONA:   COUNTY
 STAT.            WYOMING:   STATE
 CTRY. UNITED STATES OF AMERICA:   COUNTRY
 SRVC.       Schlumberger:   SERVICE COMPANY
 DATE.        15-MAR-1977:   LOGDATE
 API .       490251030500:   API NUMBER
~CURVE INFORMATION
#MNEM.UNIT       API CODE    CURVE DESCRIPTION
#----------   ------------   ------------------------------
 DEPT.F                  :   
 GRD .GAPI   45 310 01 00:   GAMMA RAY FROM DENSITY LOG
 CORR.G/C3   45 356 01 00:   DENSITY CORRECTION
 RHOB.G/C3   45 350 01 00:   BULK DENSITY
 DPOR.DEC    45 890 12 00:   DENSITY POROSITY SANDSTONE
 SPR .MV     07 010 01 00:   SPONTANEOUS POTENTIAL
 LL8 .OHMM   07 220 08 00:   LATEROLOG-8 RES.
 ILD .OHMM   07 120 46 00:   INDUCTION LOG DEEP
 ILM .OHMM   07 120 44 00:   INDUCTION LOG MEDIUM
 CALD.IN     45 280 60 00:   CALIPER
~PARAMETER INFORMATION
#MNEM.UNIT          VALUE    DESCRIPTION
#----------   ------------   ------------------------------
 PD  .                 GL:   PERMANENT DATUM
 EPD .F              5087:   ELEVATION PERMANENT DATUM
 LMF .                 GL:   LOG MEASURED FROM
 DMF .                 GL:   DRILLING MEASURED FROM
 EKB .F              5091:   KELLING BUSHING
 EGL .F              5087:   GROUND LEVEL
 DATE.            3-15-77:   RUN DATE
 RUN .                  1:   RUN NUMBER
 DD  .F               670:   DEPTH DRILLER
 DL  .F               663:   DEPTH LOGGER
 BLI .F               657:   BOTTOM LOG INTERVAL
 TLI .F                40:   TOP LOG INTERVAL
 CS  .IN            8.625:   CASING SIZE
 CBD .F                40:   CASING BOTTOM DRILLER
 CBL .F                40:   CASING BOTTOM LOGGER
 BS  .IN            7.875:   BIT SIZE
 BSD .F               670:   BIT SIZE AT DEPTH
 DFT .                KCL:   DRILLING FLUID TYPE
 DFD .                8.6:   DRILLING FLUID DENSITY
 DFV .                 31:   DRILLING FLUID VISCOSITY
 DFPH.                  8:   DRILLING FLUID PH
 DFL .                8.8:   DRILLING FLUID LOSS
 MSS .                PIT:   MUD SAMPLE SOURCE
 RMS .OHMM           .246:   RESISTIVITY MUD SAMPLE
 MST .F                76:   MUD SAMPLE TEMPERATURE
 RMF .OHMM           .243:   RESISTIVITY MUD FILTRATE SAMPLE
 MFST.F                76:   MUD FILTRATE SAMPLE TEMPERATURE
 MFSS.                  M:   MUD FILTRATE SAMPLE SOURCE
 RMB .OHMM           .267:   RESISTIVITY MUD AT BHT
 BHT .F                70:   BOTTOM HOLE TEMPERATURE
 TCS .HRS            1800:   TIME CURCULATED STOPPED
 TLAB.HRS            2200:   TIME LOGGER AT BOTTOM
 MRT .F                70:   MAXIMUM RECORDED TEMPERATURE
 LUN .               5642:   LOGGING UNIT NUMBER
 LUL .               CSPR:   LOGGING UNIT LOCATION
 ENGI.             MARTIN:   RECORDING ENGINEER
 WITN.              BURKE:   WITNESSED BY
 CLNT.            A2DTECH:   CLIENT CODE
 ORIG. 2", 2.5", 5" PRINT:   ORIGIN OF DATA
 UWI .       490251030500:   UNIQUE WELL ID
 DICO. A2D Technologies, Inc.:   DIGITIZING COMPANY
~OTHER INFORMATION
~A   DEPT       GRD      CORR       RHOB       DPOR        SPR        LL8        ILD        ILM       CALD   
# ...
  180.0000   110.0601     0.0073     2.4808     0.1013   -58.3539     8.0184     7.1279     7.5700     8.3278
  180.5000   108.6664     0.0378     2.4924     0.0894   -58.5073     8.8043     7.1167     7.6415     8.3222
  181.0000   107.7987     0.0241     2.4684     0.0980   -58.6580     8.7065     7.0514     7.7322     8.3166
  181.5000   106.8171     0.0092     2.4555     0.1118   -58.8094     8.5377     7.0713     7.7016     8.3110
  182.0000   107.0179     0.0210     2.4828     0.0998   -58.9609     8.4010     7.0864     7.6461     8.3054
  182.5000   106.7141     0.0298     2.4983     0.0978   -59.1117     8.5012     7.1018     7.5910     8.2998
  183.0000   105.3282     0.0228     2.4773     0.1002   -59.2687     8.5873     7.1167     7.6272     8.2980
  183.5000   108.0723     0.0304     2.4804     0.1037   -59.1147     8.6366     7.2357     7.6872     8.3101
  184.0000   110.9074     0.0196     2.4641     0.1078   -58.7876     8.6895     7.3212     7.7477     8.3221
  184.5000   112.7321     0.0039     2.4530     0.1126   -58.4579     8.8298     7.4077     7.8086     8.3341
  185.0000   113.4686    -0.0039     2.4604     0.1158   -58.1287     9.2548     7.5224     7.8700     8.3461
  185.5000   111.9611     0.0104     2.4669     0.1027   -57.7963     9.6476     7.5222     7.8761     8.3581
  186.0000   112.6012     0.0114     2.4497     0.1108   -57.6664     9.2749     7.4967     7.8457     8.3700
  186.5000   113.4533    -0.0021     2.4510     0.1176   -57.6162     8.7884     7.4747     7.8227     8.3820
  187.0000   109.0655     0.0027     2.4544     0.1158   -57.5680     8.3938     7.4523     7.8038     8.3940
  187.5000   110.1805     0.0086     2.4623     0.1103   -57.5183     8.3240     7.4523     7.8421     8.4059
  188.0000   112.0444     0.0210     2.4708     0.1054   -57.5580     8.3586     7.5399     7.9085     8.4159
  188.5000   113.8864     0.0314     2.4791     0.1070   -57.6498     8.4432     7.6035     7.9752     8.4119
  189.0000   114.5592     0.0269     2.4853     0.0995   -57.6965     8.5287     7.6676     8.0425     8.4075
  189.5000   113.5939     0.0369     2.4905     0.0938   -57.8133     8.7401     7.7322     8.1103     8.4031
  190.0000   112.6710     0.0183     2.4844     0.0986   -57.9422     9.1277     7.8038     8.1719     8.3986
  190.5000   112.3378     0.0259     2.4825     0.0990   -58.0710     9.5325     7.7923     8.1550     8.3942
  191.0000   113.0987     0.0188     2.4831     0.0970   -58.1995     9.7361     7.7695     8.1311     8.3898
  191.5000   114.7880     0.0189     2.4833     0.0978   -58.3280     9.5326     7.7467     8.1072     8.3853
  192.0000   116.4749     0.0036     2.4777     0.1018   -58.4570     9.1730     7.7322     8.0773     8.3809
  192.5000   116.1378     0.0078     2.4720     0.1054   -58.5859     8.8268     7.6286     7.9669     8.3764
  193.0000   115.4820     0.0142     2.4664     0.1088   -58.7038     8.4938     7.5244     7.8580     8.3757
  193.5000   114.1105     0.0137     2.4716     0.1095   -58.5834     8.2476     7.4216     7.7507     8.3757
  194.0000   111.8448     0.0269     2.4791     0.1001   -58.3602     8.0969     7.3201     7.6448     8.3757
  194.5000   111.9567     0.0363     2.4701     0.0957   -58.1365     8.0226     7.2201     7.5403     8.3757
  195.0000   111.8561     0.0167     2.4590     0.1114   -57.9124     8.0756     7.1214     7.4373     8.3757
  195.5000   110.8648     0.0025     2.4492     0.1138   -57.7008     8.1576     7.0241     7.3356     8.3757
  196.0000   110.7426     0.0071     2.4548     0.1146   -57.6252     8.2393     6.9226     7.2491     8.3757
  196.5000   110.8987     0.0160     2.4631     0.1138   -57.5548     8.3240     6.9088     7.2267     8.3757
  197.0000   111.9680     0.0131     2.4713     0.1074   -57.4839     8.3240     6.8699     7.1860     8.3757
  197.5000   110.9912     0.0232     2.4699     0.1030   -57.4128     8.2781     6.8313     7.1456     8.3757
  198.0000   108.6413     0.0096     2.4591     0.1095   -57.3430     8.2009     6.7928     7.1053     8.3757
  198.5000   106.7961     0.0042     2.4485     0.1156   -57.3256     8.1233     6.7546     7.0653     8.3757
  199.0000   107.5775     0.0145     2.4486     0.1170   -57.3912     8.0100     6.7336     7.0440     8.3757
  199.5000   108.8426     0.0267     2.4575     0.1115   -57.4559     7.8754     6.7044     7.0148     8.3757
  200.0000   110.1086     0.0374     2.4661     0.1026   -57.5209     7.7447     6.6765     6.9859     8.3759
  200.5000   111.3772     0.0195     2.4704     0.1044   -57.5862     7.7322     6.6483     6.9571     8.3896
  201.0000   112.6373     0.0277     2.4698     0.1066   -57.6508     7.9303     6.6107     6.9258     8.4048
  201.5000   113.6102     0.0174     2.4704     0.1070   -57.6793     8.2945     6.6719     6.9900     8.4139
  202.0000   113.2866     0.0184     2.4737     0.0998   -57.5701     8.6755     6.7533     7.0905     8.3972
  202.5000   112.0962     0.0024     2.4736     0.1026   -57.4650     8.8788     6.8514     7.1941     8.3805
  203.0000   109.4831     0.0045     2.4665     0.1083   -57.3600     8.8788     6.9500     7.2991     8.3639
  203.5000   105.9091     0.0081     2.4605     0.1128   -57.2550     8.8788     7.0522     7.4523     8.3474
  204.0000   101.9237     0.0066     2.4624     0.1134   -57.1500     8.8788     7.3867     7.8034     8.3357
  204.5000    97.8530     0.0015     2.4666     0.1068   -57.0450     8.8788     7.7287     8.1634     8.3359
  205.0000    94.7509    -0.0132     2.4723     0.1059   -56.9400     9.4010     8.0853     8.5401     8.3381
  205.5000    94.2548    -0.0066     2.4832     0.0955   -56.8350    12.5474     8.2506     8.6433     8.3411
  206.0000    95.8547     0.0084     2.4941     0.0826   -56.7299    16.6177     8.2679     8.6619     8.3441
  206.5000    98.7537     0.0069     2.4948     0.0971   -56.6247    13.7495     8.2852     8.6799     8.3470
  207.0000   101.9287     0.0069     2.4713     0.1035   -56.5155    10.9591     8.3026     8.6996     8.3500
  207.5000   105.1531     0.0145     2.4713     0.1037   -56.5956     8.9610     8.3240     8.7166     8.3530
  208.0000   106.5733     0.0221     2.4720     0.0999   -56.7146     8.8713     8.0865     8.4129     8.3560
  208.5000   106.6135     0.0222     2.4636     0.1082   -56.8339     8.7790     7.8156     8.1310     8.3589
  209.0000   107.3205     0.0109     2.4604     0.1102   -56.9528     8.6876     7.5537     7.8583     8.3619
  209.5000   107.8064     0.0180     2.4664     0.1098   -57.0717     8.5972     7.3006     7.5939     8.3649
  210.0000   108.8094     0.0150     2.4725     0.1070   -57.1906     8.5574     7.0514     7.3120     8.3679
  210.5000   110.2823     0.0210     2.4790     0.1026   -57.3094     8.4404     6.9866     7.3162     8.3708
  211.0000   111.0288     0.0386     2.4790     0.0972   -57.4283     8.3228     6.9226     7.2491     8.3738
  211.5000   112.1133     0.0244     2.4686     0.0966   -57.5472     8.2068     6.9226     7.2491     8.3758
  212.0000   113.3993     0.0105     2.4637     0.1054   -57.6719     8.0924     6.9226     7.2491     8.3751
  212.5000   114.5974     0.0201     2.4680     0.1045   -57.6970     8.0226     6.9226     7.2491     8.3745
  213.0000   114.3651     0.0078     2.4632     0.1086   -57.5154     8.0969     7.0289     7.3968     8.3739
  213.5000   113.0332     0.0063     2.4540     0.1126   -57.3188     8.3423     7.2124     7.5892     8.3732
  214.0000   111.1531     0.0202     2.4655     0.1052   -57.1233     8.6344     7.4007     7.7881     8.3726
  214.5000   109.6177     0.0205     2.4781     0.0978   -56.9279     8.9400     7.5940     7.9917     8.3720
  215.0000   111.1649     0.0155     2.4712     0.1072   -56.7326     9.2562     7.7923     8.2017     8.3713
  215.5000   113.2451     0.0093     2.4648     0.1081   -56.5372     9.5837     7.9957     8.4010     8.3707
  216.0000   113.1665     0.0024     2.4541     0.1124   -56.3418     9.9226     8.1037     8.4989     8.3701
