~VERSION INFORMATION
 VERS.                2.0:   CWLS LOG ASCII STANDARD - VERSION 2.0
 WRAP.                 NO:   ONE LINE PER DEPTH STEP
~WELL INFORMATION
#MNEM.UNIT      DATA TYPE    INFORMATION
#----------   ------------   ------------------------------
 STRT.F           28.5000:   START DEPTH
 STOP.F          781.0000:   STOP DEPTH
 STEP.F            0.5000:   STEP LENGTH
 NULL.          -999.2500:   NO VALUE
 COMP. FENIX & SCISSON INC:   COMPANY
 WELL. NPR 3 23 SX 14 #23-14:   WELL
 FLD .        TEAPOT DOME:   FIELD
 LOC .      S14 T38N R78W:   LOCATION
 CNTY.            NATRONA:   COUNTY
 STAT.            WYOMING:   STATE
 CTRY. UNITED STATES OF AMERICA:   COUNTRY
 SRVC.            Unknown:   SERVICE COMPANY
 DATE.        13-MAY-1978:   LOGDATE
 API .       490251063400:   API NUMBER
~CURVE INFORMATION
#MNEM.UNIT       API CODE    CURVE DESCRIPTION
#----------   ------------   ------------------------------
 DEPT.F                  :   
 RHOB.G/C3   45 350 01 00:   BULK DENSITY
 DPHI.DEC    45 890 12 00:   DENSITY POROSITY SANDSTONE
 GRD .GAPI   45 310 01 00:   GAMMA RAY FROM DENSITY LOG
 CALD.IN     45 280 60 00:   CALIPER FROM DENSITY LOG
 CORR.G/C3   45 356 01 00:   DENSITY CORRECTION
 SN  .OHMM   05 040 16 00:   SHORT NORMAL 16"
 SPR .MV     05 010 01 00:   SPONTANEOUS POTENTIAL FROM RES.
 ILD .OHMM   05 120 46 00:   INDUCTION LOG DEEP
~PARAMETER INFORMATION
#MNEM.UNIT          VALUE    DESCRIPTION
#----------   ------------   ------------------------------
 PD  .                 GL:   PERMANENT DATUM
 EPD .F              5202:   ELEVATION PERMANENT DATUM
 LMF .                 KB:   LOG MEASURED FROM
 DMF .                 KB:   DRILLING MEASURED FROM
 EKB .F              5206:   KELLING BUSHING
 EGL .F              5202:   GROUND LEVEL
 DATE.          5-13-1978:   RUN DATE
 RUN .                  1:   RUN NUMBER
 DD  .F               785:   DEPTH DRILLER
 DL  .F               776:   DEPTH LOGGER
 BLI .F               770:   BOTTOM LOG INTERVAL
 TLI .F                50:   TOP LOG INTERVAL
 CS  .IN            8.625:   CASING SIZE
 CBD .F                40:   CASING BOTTOM DRILLER
 CBL .F                40:   CASING BOTTOM LOGGER
 BS  .IN            7.875:   BIT SIZE
 BSD .F               785:   BIT SIZE AT DEPTH
 DFT .                KCL:   DRILLING FLUID TYPE
 DFD .                8.6:   DRILLING FLUID DENSITY
 DFV .                 30:   DRILLING FLUID VISCOSITY
 DFPH.                 10:   DRILLING FLUID PH
 DFL .                 14:   DRILLING FLUID LOSS
 MSS .           FLOWLINE:   MUD SAMPLE SOURCE
 RMS .OHMM             .4:   RESISTIVITY MUD SAMPLE
 MST .F                69:   MUD SAMPLE TEMPERATURE
 RMF .OHMM            .36:   RESISTIVITY MUD FILTRATE SAMPLE
 MFST.F                72:   MUD FILTRATE SAMPLE TEMPERATURE
 RMC .OHMM            .56:   RESISTIVITY MUD CAKE
 MCST.F                73:   MUD CAKE SAMPLE TEMPERATURE
 MFSS.               MEAS:   MUD FILTRATE SAMPLE SOURCE
 RMB .OHMM            .35:   RESISTIVITY MUD AT BHT
 BHT .F                79:   BOTTOM HOLE TEMPERATURE
 TCS .HRS               2:   TIME CURCULATED STOPPED
 MRT .F                79:   MAXIMUM RECORDED TEMPERATURE
 LUN .               3006:   LOGGING UNIT NUMBER
 LUL .              CASP.:   LOGGING UNIT LOCATION
 ENGI.             MILLER:   RECORDING ENGINEER
 WITN.           MCGINLEY:   WITNESSED BY
 CLNT.            A2DTECH:   CLIENT CODE
 ORIG.           5" PRINT:   ORIGIN OF DATA
 UWI .       490251063400:   UNIQUE WELL ID
 DICO. A2D Technologies, Inc.:   DIGITIZING COMPANY
~OTHER INFORMATION
~A   DEPT     RHOB       DPHI         GRD      CALD       CORR         SN        SPR        ILD   
# ...
  757.5000     2.5192     0.0790    93.3038     7.7500     0.0534    10.0333   -65.8404     8.0443
  758.0000     2.5186     0.0794    93.8922     7.6955     0.0526    10.0129   -65.8491     7.9936
  758.5000     2.5179     0.0799    97.2255     7.6480     0.0517     9.9926   -65.8578     7.9433
  759.0000     2.5172     0.0803   100.5732     7.6445     0.0508     9.9745   -65.8665     7.8932
  759.5000     2.5165     0.0808   100.2060     7.6400     0.0499    10.0398   -65.8752     7.8436
  760.0000     2.5158     0.0812    96.7890     7.6355     0.0490    10.1113   -65.8839     7.7833
  760.5000     2.5151     0.0821    94.1238     7.6320     0.0481    10.1833   -65.8926     7.8211
  761.0000     2.5144     0.0832    93.0442     7.5814     0.0486    10.2558   -65.9009     7.8708
  761.5000     2.5136     0.0842    91.9770     7.5422     0.0493    10.3289   -65.9415     7.9208
  762.0000     2.5130     0.0828    88.6367     7.5252     0.0498    10.4024   -65.9997     7.9710
  762.5000     2.5141     0.0748    82.4149     7.5100     0.0538    10.4765   -66.0584     8.0217
  763.0000     2.5210     0.0669    80.9063     7.5099     0.0600    10.5511   -66.1171     8.0726
  763.5000     2.5319     0.0593    92.6701     7.5099     0.0663    10.6263   -66.1758     8.1238
  764.0000     2.5429     0.0593    94.6823     7.5192     0.0720    10.7018   -66.2345     8.1754
  764.5000     2.5490     0.0697    92.7321     7.5361     0.0679    10.7358   -66.2932     8.2273
  765.0000     2.5370     0.0780    99.8650     7.5530     0.0586    10.6823   -66.3512     8.2795
  765.5000     2.5238     0.0870    87.2196     7.5699     0.0539    10.6436   -66.4098  -999.2500
  766.0000     2.5106     0.0903    92.1314     7.5869     0.0532    10.6052   -66.4755  -999.2500
  766.5000     2.4992     0.0923    92.4096     7.6038     0.0526    10.5669   -66.8793  -999.2500
  767.0000     2.4986     0.0895    91.2356     7.6207     0.0521    10.5394   -67.7114  -999.2500
  767.5000     2.5009     0.0845    93.8256     7.6377     0.0515  -999.2500   -68.5315  -999.2500
  768.0000     2.5040     0.0870    92.2073     7.6549     0.0509  -999.2500   -69.0803  -999.2500
  768.5000     2.5041     0.0896    91.3090     7.6701     0.0503  -999.2500   -67.9519  -999.2500
  769.0000     2.5020     0.0921    95.4703     7.6596     0.0482  -999.2500   -66.6571  -999.2500
  769.5000     2.5000     0.0901    96.1569     7.5918     0.0453  -999.2500   -63.3960  -999.2500
  770.0000     2.4996     0.0862    96.6035     7.2193     0.0424  -999.2500   -61.9216  -999.2500
  770.5000     2.5043  -999.2500    96.7935     7.8568     0.0394  -999.2500  -999.2500  -999.2500
  771.0000  -999.2500  -999.2500    96.1552     7.8275  -999.2500  -999.2500  -999.2500  -999.2500
  771.5000  -999.2500  -999.2500    88.9436     7.8232  -999.2500  -999.2500  -999.2500  -999.2500
  772.0000  -999.2500  -999.2500    86.5538     7.8196  -999.2500  -999.2500  -999.2500  -999.2500
  772.5000  -999.2500  -999.2500    88.5302     7.8158  -999.2500  -999.2500  -999.2500  -999.2500
  773.0000  -999.2500  -999.2500    91.0026     7.8121  -999.2500  -999.2500  -999.2500  -999.2500
  773.5000  -999.2500  -999.2500    92.7462     7.8100  -999.2500  -999.2500  -999.2500  -999.2500
  774.0000  -999.2500  -999.2500    90.6576     7.8100  -999.2500  -999.2500  -999.2500  -999.2500
  774.5000  -999.2500  -999.2500  -999.2500     7.8100  -999.2500  -999.2500  -999.2500  -999.2500
  775.0000  -999.2500  -999.2500  -999.2500     7.8100  -999.2500  -999.2500  -999.2500  -999.2500
  775.5000  -999.2500  -999.2500  -999.2500     7.8100  -999.2500  -999.2500  -999.2500  -999.2500
  776.0000  -999.2500  -999.2500  -999.2500     7.8100  -999.2500  -999.2500  -999.2500  -999.2500
  776.5000  -999.2500  -999.2500  -999.2500     7.8100  -999.2500  -999.2500  -999.2500  -999.2500
  777.0000  -999.2500  -999.2500  -999.2500     7.8100  -999.2500  -999.2500  -999.2500  -999.2500
  777.5000  -999.2500  -999.2500  -999.2500     7.8100  -999.2500  -999.2500  -999.2500  -999.2500
  778.0000  -999.2500  -999.2500  -999.2500     7.8100  -999.2500  -999.2500  -999.2500  -999.2500
  778.5000  -999.2500  -999.2500  -999.2500     7.8100  -999.2500  -999.2500  -999.2500  -999.2500
  779.0000  -999.2500  -999.2500  -999.2500     7.8100  -999.2500  -999.2500  -999.2500  -999.2500
  779.5000  -999.2500  -999.2500  -999.2500     7.8100  -999.2500  -999.2500  -999.2500  -999.2500
  780.0000  -999.2500  -999.2500  -999.2500     7.8100  -999.2500  -999.2500  -999.2500  -999.2500
  780.5000  -999.2500  -999.2500  -999.2500     7.8100  -999.2500  -999.2500  -999.2500  -999.2500
  781.0000  -999.2500  -999.2500  -999.2500     7.8100  -999.2500  -999.2500  -999.2500  -999.2500
