~VERSION INFORMATION
 VERS.                2.0:   CWLS LOG ASCII STANDARD - VERSION 2.0
 WRAP.                 NO:   ONE LINE PER DEPTH STEP
~WELL INFORMATION
#MNEM.UNIT      DATA TYPE    INFORMATION
#----------   ------------   ------------------------------
 STRT.F            3.0000:   START DEPTH
 STOP.F          477.0000:   STOP DEPTH
 STEP.F            0.5000:   STEP LENGTH
 NULL.          -999.2500:   NO VALUE
 COMP. BROWN JOHN E&C INC:   COMPANY
 WELL. NAVAL PETROLEUM RESERVE 3 SX-1 #73-4-10:   WELL
 FLD .             TEAPOT:   FIELD
 LOC .      S10 T38N R78W:   LOCATION
 CNTY.            NATRONA:   COUNTY
 STAT.            WYOMING:   STATE
 CTRY. UNITED STATES OF AMERICA:   COUNTRY
 SRVC.     Atlas Wireline:   SERVICE COMPANY
 DATE.        19-SEP-1991:   LOGDATE
 API .       490252244500:   API NUMBER
~CURVE INFORMATION
#MNEM.UNIT       API CODE    CURVE DESCRIPTION
#----------   ------------   ------------------------------
 DEPT.F                  :   
 GRR .GAPI   07 310 01 00:   GAMMA RAY
 RILD.OHMM   07 120 46 00:   INDUCTION LOG DEEP
 RILM.OHMM   07 120 44 00:   RESITIVITY LONG MEDIUM
~PARAMETER INFORMATION
#MNEM.UNIT          VALUE    DESCRIPTION
#----------   ------------   ------------------------------
 PD  .                 GL:   PERMANENT DATUM
 EPD .F              5171:   ELEVATION PERMANENT DATUM
 LMF .                 GL:   LOG MEASURED FROM
 DMF .                 GL:   DRILLING MEASURED FROM
 EGL .F              5171:   GROUND LEVEL
 DATE.        19-SEP-1991:   RUN DATE
 RUN .                  1:   RUN NUMBER
 DD  .F               490:   DEPTH DRILLER
 DL  .F               489:   DEPTH LOGGER
 BLI .F               482:   BOTTOM LOG INTERVAL
 CS  .IN                7:   CASING SIZE
 CBD .F                80:   CASING BOTTOM DRILLER
 BS  .IN             6.25:   BIT SIZE
 BSD .F               490:   BIT SIZE AT DEPTH
 DFT .                AIR:   DRILLING FLUID TYPE
 LUN .            HL 6272:   LOGGING UNIT NUMBER
 LUL .             CASPER:   LOGGING UNIT LOCATION
 ENGI.          OTTERHOLT:   RECORDING ENGINEER
 WITN.             STRONG:   WITNESSED BY
 CLNT.            A2DTECH:   CLIENT CODE
 ORIG.           5" PRINT:   ORIGIN OF DATA
 UWI .       490252244500:   UNIQUE WELL ID
 DICO. A2D Technologies, Inc.:   DIGITIZING COMPANY
~OTHER INFORMATION
~A    DEPT      GRR      RILD       RILM   
# ...
  276.0000   139.2218     8.1454     9.4683
  276.5000   133.1916     8.3159     9.5326
  277.0000   127.1473     8.2008     9.4644
  277.5000   123.2128     7.9759     8.9528
  278.0000   123.7445     7.2374     8.0128
  278.5000   129.4057     6.5672     7.3220
  279.0000   133.6168     6.2124     7.0228
  279.5000   135.0202     6.0420     6.8770
  280.0000   132.3082     6.0416     6.8282
  280.5000   128.6913     6.2111     6.8742
  281.0000   121.1528     6.3412     7.1147
  281.5000   119.0442     6.5645     7.4148
  282.0000   120.5555     6.8430     8.3388
  282.5000   122.3684     7.2884     9.2489
  283.0000   125.0863     8.5615     9.9783
  283.5000   128.7092     9.1632    10.4714
  284.0000   130.5222     9.5665    10.9889
  284.5000   129.0861    10.1573    11.2171
  285.0000   127.5113    10.7360    11.4500
  285.5000   128.4425    11.2693    12.0158
  286.0000   129.3273    11.9115    13.1513
  286.5000   127.9758    12.9443    14.2976
  287.0000   115.1559    15.1819    16.1903
  287.5000    99.1710    16.7288    18.7121
  288.0000    85.2977    19.3504    23.2328
  288.5000    75.3459    22.3827    27.7101
  289.0000    72.6339    24.1555    31.6461
  289.5000    72.0329    25.5318    32.7587
  290.0000    73.8465    26.8001    33.6302
  290.5000    75.0562    27.7443    33.3897
  291.0000    78.6791    27.7420    32.6969
  291.5000    81.0953    27.1688    31.5785
  292.0000    82.6066    26.2410    30.9233
  292.5000    83.5146    26.0579    29.8655
  293.0000    83.8192    25.8760    30.2754
  293.5000    83.5198    25.8850    31.5524
  294.0000    82.6185    26.2339    32.4312
  294.5000    81.1132    26.2320    32.8764
  295.0000    77.7980    26.4128    33.3277
  295.5000    76.8959    26.4105    33.3208
  296.0000    78.1056    26.5930    32.8561
  296.5000    79.9185    26.7762    32.6228
  297.0000    79.6199    26.9607    32.3911
  297.5000    79.3212    26.9584    31.7191
  298.0000    79.0225    26.7703    31.7125
  298.5000    80.2329    26.2172    31.9278
  299.0000    82.9508    26.2154    31.9196
  299.5000    87.1770    26.5798    32.3594
  300.0000    89.2916    27.3267    33.8807
  300.5000    88.3896    28.6789    35.5733
  301.0000    85.3760    30.3090    37.6104
  301.5000    82.9657    31.4143    38.9690
  302.0000    80.5187    32.2466    40.0510
  302.5000    81.1162    32.4645    39.2322
  303.0000    82.0139    32.9129    38.1684
  303.5000    84.7230    32.9047    37.6501
  304.0000    87.1305    32.4449    36.6274
  304.5000    89.2363    31.9915    35.8804
  305.0000    91.3420    31.3047    35.1486
  305.5000    93.4478    30.0421    34.9127
  306.0000    94.9503    29.2143    35.1645
  306.5000    95.5478    29.2084    35.1716
  307.0000    95.2389    29.6104    35.1786
  307.5000    94.3281    30.0180    35.1857
  308.0000    91.3056    29.1908    35.4377
  308.5000    89.1882    26.9647    35.6915
  309.0000    85.5625    22.7309    33.3084
  309.5000    85.2550    19.5103    31.5170
  310.0000    87.0577    17.0981    29.8219
  310.5000    89.4651    16.3979    28.2180
  311.0000    93.0792    16.3946    27.4501
  311.5000    94.2815    17.4470    26.3379
  312.0000    94.2742    19.5491    25.6130
  312.5000    94.2684    20.3148    24.7258
  313.0000    94.8838    19.2135    24.0828
  313.5000    95.7635    18.1729    23.9200
  314.0000    95.4561    15.8160    23.9260
  314.5000    95.4502    16.3707    24.0974
  315.0000    94.2378    18.6728    24.6090
  315.5000    94.8353    21.4632    25.3063
  316.0000    96.9411    22.1981    25.6913
  316.5000    97.8402    22.6602    26.0299
  317.0000    94.2130    22.6557    26.3988
  317.5000    93.3022    22.8087    26.4041
  318.0000    93.5995    22.8042    26.0443
  318.5000    94.4987    22.7996    26.0509
  319.0000    95.3964    22.9536    25.8760
  319.5000    98.1055    22.7893    25.7024
  320.0000    98.4013    22.7847    25.5299
  320.5000    96.8857    22.6227    25.3585
  321.0000    95.9749    22.3066    25.3649
  321.5000    97.1757    21.8429    25.0205
  322.0000   101.0915    21.6875    25.0255
  322.5000   104.1022    21.6831    24.6858
  323.0000   106.2080    21.2314    24.6726
  323.5000   102.4554    20.9347    24.1884
  324.0000    99.5584    20.4995    24.0248
  324.5000   100.7592    20.3537    23.6998
  325.0000   101.3582    20.2090    23.3769
  325.5000    98.9376    19.9266    23.0606
  326.0000    95.9152    19.9225    22.7476
  326.5000    97.1160    19.7799    22.7386
  327.0000   100.7743    19.6393    22.4432
  327.5000   103.1361    19.6353    22.4489
  328.0000   103.4334    19.6314    22.6096
  328.5000   102.2195    19.6274    22.7716
  329.0000    99.4987    19.6235    22.9347
  329.5000    98.8910    19.6194    23.0989
  330.0000   101.9004    19.3444    23.2644
  330.5000   103.1012    18.5523    23.4310
  331.0000   102.4906    18.0410    22.9531
  331.5000   101.2781    18.4166    22.6426
  332.0000   101.8771    18.9310    22.4895
  332.5000   100.0598    18.7963    22.1842
  333.0000    98.2440    17.9950    21.8840
  333.5000    97.6349    16.2414    21.4309
  334.0000    98.6065    14.8381    21.0016
  334.5000   100.6398    15.6815    21.0058
  335.0000   101.2373    16.8043    20.7206
  335.5000   100.3251    17.3939    20.4383
  336.0000    99.4143    17.5113    20.3011
  336.5000    98.2018    17.4920    19.8880
  337.0000    98.1780    17.0245    19.4818
  337.5000    99.4470    16.9034    19.2183
  338.0000   102.1045    16.7832    18.9573
  338.5000   103.0051    16.5487    18.6854
  339.0000   102.9978    16.2047    18.3186
  339.5000   102.3886    15.8678    17.9459
  340.0000   100.2712    15.6460    17.8245
  340.5000    97.8521    15.6422    17.7049
  341.0000    97.5445    15.7479    17.7094
  341.5000   100.2523    15.9646    17.8362
  342.0000   103.5647    16.0733    17.8399
  342.5000   102.9556    15.4143    17.8443
  343.0000   102.0448    13.6972    17.9721
  343.5000   101.1340    12.9430    17.9757
  344.0000   102.9381    13.0422    17.9793
  344.5000   103.8372    13.8795    17.7352
  345.0000   102.3217    14.8733    17.3735
  345.5000   100.5059    15.0787    17.1376
  346.0000    96.2768    14.9708    16.9049
  346.5000    95.0644    14.6595    16.5610
  347.0000    94.7569    14.2417    16.3353
  347.5000    95.3544    13.6711    16.0022
  348.0000    96.3097    13.0206    15.7857
  348.5000    99.8662    11.8134    15.5713
  349.0000   101.6703    10.2271    15.3543
  349.5000   103.4744     9.9881    15.1514
  350.0000   105.2783    10.0655    14.9365
  350.5000   100.4427    11.4073    14.8220
  351.0000    98.0205    12.5739    14.5436
  351.5000    97.4081    13.0212    14.4453
  352.0000    97.3991    13.2067    14.3485
  352.5000    98.2951    13.3023    14.3522
  353.0000   101.6043    13.3145    14.7591
  353.5000   103.4057    12.9454    15.1774
  354.0000   101.5863    12.1654    15.6076
  354.5000    99.4657    11.0407    15.8289
  355.0000    98.2501    10.7436    15.9424
  355.5000    97.6378    12.0809    16.0567
  356.0000    97.9306    13.8266    16.0600
  356.5000    99.4297    13.9949    15.5159
  357.0000   101.5323    13.9995    15.1786
  357.5000   100.3167    13.6202    14.7674
  358.0000    97.8944    13.2512    14.3502
  358.5000    98.4907    12.8922    13.8971
  359.0000    99.0910    12.6302    13.6138
  359.5000    99.9790    12.2031    13.4290
  360.0000    99.9698    11.9551    13.2468
  360.5000   100.2886    11.7121    13.2497
  361.0000   103.1290    10.2689    13.1607
  361.5000   108.3931     9.9210    13.1636
  362.0000   116.6134    10.2036    13.0752
  362.5000   112.4938    11.5635    13.1767
  363.0000   101.5002    13.0140    13.3694
  363.5000    98.9997    13.4770    14.4498
  364.0000   102.0073    14.3489    16.8357
  364.5000   103.5089    15.9265    20.1456
  365.0000    97.4644    17.8005    23.1581
  365.5000    90.5173    18.8212    26.3902
  366.0000    86.8883    20.3188    27.8977
  366.5000    83.2594    22.5527    29.2868
