~VERSION INFORMATION
 VERS.                2.0:   CWLS LOG ASCII STANDARD - VERSION 2.0
 WRAP.                 NO:   ONE LINE PER DEPTH STEP
~WELL INFORMATION
#MNEM.UNIT      DATA TYPE    INFORMATION
#----------   ------------   ------------------------------
 STRT.F           80.0000:   START DEPTH
 STOP.F          718.5000:   STOP DEPTH
 STEP.F            0.5000:   STEP LENGTH
 NULL.          -999.2500:   NO VALUE
 COMP. U S NAVY-INTEX OIL:   COMPANY
 WELL. RES 3 TEAPOT DOM #21-S-2:   WELL
 FLD .        TEAPOT DOME:   FIELD
 LOC .       S2 T38N R78W:   LOCATION
 CNTY.            NATRONA:   COUNTY
 STAT.            WYOMING:   STATE
 CTRY. UNITED STATES OF AMERICA:   COUNTRY
 SRVC. Schlumberger Well Surveying Corp:   SERVICE COMPANY
 DATE.        18-JUL-1962:   LOGDATE
 API .       490250648100:   API NUMBER
~CURVE INFORMATION
#MNEM.UNIT       API CODE    CURVE DESCRIPTION
#----------   ------------   ------------------------------
 DEPT.F                  :   
 CALM.IN     15 280 01 00:   CALIPER FROM MICRO LOG
 SPR .MV     05 010 01 00:   SPONTANEOUS POTENTIAL FROM RES.
 ASN .OHMM   05 041 16 00:   AMPLIFIED SHORT NORMAL 16"
 ILD .OHMM   05 120 46 00:   INDUCTION LOG DEEP
 CILD.MMHO   05 110 46 00:   CONDUCTIVITY INDUCTION LOG DEEP
~PARAMETER INFORMATION
#MNEM.UNIT          VALUE    DESCRIPTION
#----------   ------------   ------------------------------
 LMF .                 KB:   LOG MEASURED FROM
 DMF .                 KB:   DRILLING MEASURED FROM
 EKB .F              5116:   KELLING BUSHING
 EGL .F              5111:   GROUND LEVEL
 DATE.          7-18-1962:   RUN DATE
 RUN .                  1:   RUN NUMBER
 DD  .F               719:   DEPTH DRILLER
 DL  .F               719:   DEPTH LOGGER
 BLI .F               718:   BOTTOM LOG INTERVAL
 TLI .F                90:   TOP LOG INTERVAL
 BS  .IN             6.75:   BIT SIZE
 BSD .F               719:   BIT SIZE AT DEPTH
 DFT .           OIL EMUL:   DRILLING FLUID TYPE
 DFD .                 10:   DRILLING FLUID DENSITY
 DFV .                 45:   DRILLING FLUID VISCOSITY
 DFL .                2.8:   DRILLING FLUID LOSS
 RMS .OHMM           3.87:   RESISTIVITY MUD SAMPLE
 MST .F                94:   MUD SAMPLE TEMPERATURE
 RMF .OHMM           2.93:   RESISTIVITY MUD FILTRATE SAMPLE
 MFST.F                94:   MUD FILTRATE SAMPLE TEMPERATURE
 RMC .OHMM           3.95:   RESISTIVITY MUD CAKE
 MCST.F                94:   MUD CAKE SAMPLE TEMPERATURE
 TCS .HRS              .5:   TIME CURCULATED STOPPED
 LUN .               2503:   LOGGING UNIT NUMBER
 LUL .              CSPR.:   LOGGING UNIT LOCATION
 ENGI.             DANNER:   RECORDING ENGINEER
 WITN.          JORGENSEN:   WITNESSED BY
 CLNT.            A2DTECH:   CLIENT CODE
 ORIG.      2" , 5" PRINT:   ORIGIN OF DATA
 UWI .       490250648100:   UNIQUE WELL ID
 DICO. A2D Technologies, Inc.:   DIGITIZING COMPANY
~OTHER INFORMATION
~A   DEPT     CALM        SPR          ASN        ILD      CILD  
# ...
  507.0000     6.8780   -51.1124     7.5429     6.9823   136.3100
  507.5000     6.8831   -51.0931     7.5071     6.9289   137.2225
  508.0000     6.8878   -50.9734     7.4717     6.8758   138.5930
  508.5000     6.8923   -50.8529     7.4364     6.8228   140.6824
  509.0000     6.8820   -50.7325     7.3921     6.7698   143.3156
  509.5000     6.8475   -50.6123     7.3020     6.7152   145.9498
  510.0000     6.8341   -50.4920     7.1910     6.5698   148.5820
  510.5000     6.8768   -50.3717     7.0431     6.2618   151.2563
  511.0000     6.9285   -50.2512     6.8961     5.9563   158.7613
  511.5000     6.9006   -50.1253     6.7048     5.6504   172.0050
  512.0000     6.8586   -50.1872     6.4713     5.3445   185.2487
  512.5000     6.8307   -50.3018     6.1854     5.0379   198.4925
  513.0000     6.8213   -50.4178     5.8998     4.7264   209.2261
  513.5000     6.8118   -50.5333     5.6213     4.7002   212.5628
  514.0000     6.8023   -50.6485     5.4781     4.7331   210.6069
  514.5000     6.7930   -50.7631     5.3951     4.7668   208.6664
  515.0000     6.7842   -50.8711     5.4406     4.8251   205.6382
  515.5000     6.7691   -51.4197     5.5193     4.8889   201.0975
  516.0000     6.6568   -52.0925     5.7358     4.9476   193.4382
  516.5000     6.5459   -52.7805     6.3984     5.2963   181.5819
  517.0000     6.4851   -53.3057     6.7289     5.7973   169.7256
  517.5000     6.4665   -53.2230     6.9613     6.3008   157.8694
  518.0000     6.4488   -53.0892     7.0748     6.7094   148.8020
  518.5000     6.4307   -52.8717     7.1826     6.7842   143.2523
  519.0000     6.4145   -52.6550     7.2906     6.8640   139.6963
  519.5000     6.5062   -52.4384     7.3987     6.9443   138.5751
  520.0000     6.6077   -52.2223     7.5068     7.0247   137.4539
  520.5000     6.6968   -52.0043     7.6150     7.1051   136.3515
  521.0000     6.6861   -51.9166     7.7230     7.1856   134.2332
  521.5000     6.6745   -51.9157     7.8311     7.2660   132.0008
  522.0000     6.6632   -51.9522     7.9285     7.3464   129.7577
  522.5000     6.6519   -52.0510     8.0026     7.4268   127.9062
  523.0000     6.6411   -52.1486     8.0752     7.5073   127.0653
  523.5000     6.6509   -52.2465     8.1869     7.5878   126.2245
  524.0000     6.6973   -52.3451     8.2954     7.6681   125.3836
  524.5000     6.7339   -52.4422     8.3861     7.7486   124.5427
  525.0000     6.7245   -52.4767     8.4374     7.7890   123.7018
  525.5000     6.7159   -52.2197     8.4878     7.7888   122.7761
  526.0000     6.7074   -51.8344     8.5350     7.7889   121.6549
  526.5000     6.6995   -51.3688     8.5430     7.7950   121.2893
  527.0000     6.7194   -50.9120     8.5520     7.8452   121.6497
  527.5000     6.7803   -50.6443     8.5613     7.8795   122.0100
  528.0000     6.8120   -50.3855     8.5723     7.7840   122.3704
  528.5000     6.8045   -50.1260     8.4995     7.6878   122.7308
  529.0000     6.7975   -49.8662     8.3990     7.5932   123.0910
  529.5000     6.8062   -49.6061     8.2979     7.6541   123.4515
  530.0000     6.8317   -49.3449     8.1970     7.7270   123.8119
  530.5000     6.8353   -49.1008     8.0962     7.7998   124.3110
  531.0000     6.8501   -49.1483     7.9954     7.8782   125.6387
  531.5000     6.8824   -49.2059     7.8759     7.6944   126.9664
  532.0000     6.9146   -49.2614     7.7203     7.4356   128.2941
  532.5000     6.9470   -49.2545     7.5642     7.1751   130.7286
  533.0000     6.9767   -49.1589     7.3523     6.9152   135.1432
  533.5000     6.9434   -49.0644     7.1223     6.6559   142.4151
  534.0000     6.9069   -48.9696     6.8839     6.3957   150.5651
  534.5000     6.8703   -48.8752     6.4980     6.0771   159.6789
  535.0000     6.8335   -48.7816     6.0995     5.4655   173.5798
  535.5000     6.7957   -48.6813     5.7010     4.8548   195.1019
  536.0000     6.8336   -48.4278     5.3029     4.2449   221.6367
  536.5000     6.8872   -48.1739     4.9048     3.6369   262.6773
  537.0000     6.9409   -47.9208     4.5065     3.0986   304.3484
  537.5000     6.9945   -47.6691     4.1073     2.6779   345.9799
  538.0000     7.0482   -47.4755     3.7950     2.2752   387.6030
  538.5000     7.1020   -47.4791     3.5341     2.1732   424.5226
  539.0000     7.1556   -47.4808     3.3954     2.0690   438.9145
  539.5000     7.0881   -47.4724     3.2975     1.9632   446.7853
  540.0000     6.9681   -47.9530     3.2651     1.8590   452.3636
  540.5000     6.8489   -48.6565     3.2317     2.0604   432.5779
  541.0000     6.7813   -49.0707     3.2363     2.3814   403.9854
  541.5000     6.8264   -49.3439     3.5185     2.7669   361.7889
  542.0000     6.8691   -49.6153     3.9421     3.2448   319.5925
  542.5000     6.8783   -49.8871     4.3500     3.7207   277.3961
  543.0000     6.8342   -50.1616     4.5514     4.1973   235.1996
  543.5000     6.7907   -50.4624     5.0717     4.6740   210.2125
  544.0000     6.7477   -50.8018     5.5721     5.1510   188.4977
  544.5000     6.7276   -51.1047     5.8762     5.6250   170.4454
  545.0000     6.7994   -51.0007     6.0567     5.9959   163.1078
  545.5000     6.8688   -50.5222     6.0892     6.1591   155.7341
  546.0000     6.9381   -50.0620     6.1229     6.1523   153.2663
  546.5000     6.9839   -49.6022     6.1551     6.1186   153.2793
  547.0000     7.0164   -49.1523     6.2151     6.0857   156.8478
  547.5000     6.9855   -48.8357     6.2769     6.0878   160.1371
  548.0000     6.9496   -48.6765     6.3190     5.8288   166.7425
  548.5000     6.9140   -48.6507     6.3087     5.5421   177.7370
  549.0000     6.9046   -48.6247     6.1194     5.2545   188.8764
  549.5000     6.9240   -48.5989     5.8629     4.9677   199.9968
  550.0000     6.9433   -48.5729     5.6036     4.6808   211.1047
  550.5000     6.9621   -48.5470     5.3428     4.3949   222.2152
  551.0000     6.9650   -48.5211     5.1566     4.1070   233.1945
  551.5000     6.9258   -48.4958     5.0338     3.9461   243.2190
  552.0000     6.8872   -48.4059     4.9154     3.8922   246.2421
  552.5000     6.8487   -48.2941     4.8719     3.9497   245.8565
  553.0000     6.8218   -48.1805     4.9944     4.0981   241.0349
  553.5000     6.8918   -47.9991     5.1137     4.2453   229.6017
  554.0000     6.9624   -47.4392     5.2327     4.3820   218.1686
  554.5000     6.9838   -47.0994     5.3595     4.6925   206.7354
  555.0000     6.9620   -47.1823     5.6642     5.0272   195.3022
  555.5000     6.9393   -47.2580     5.9820     5.3615   183.8691
  556.0000     6.9169   -47.3350     6.2994     5.6953   172.4376
  556.5000     6.9401   -47.4117     6.6167     6.0292   161.5243
  557.0000     6.9675   -47.4884     6.9238     6.3632   152.7839
  557.5000     6.9943   -47.5650     7.2164     6.6977   144.2211
  558.0000     6.9667   -47.6417     7.3584     7.0310   139.9162
  558.5000     6.9345   -47.7185     7.4710     7.2957   135.6951
  559.0000     6.9026   -47.7956     7.4877     7.1703   134.1709
  559.5000     6.8755   -47.8740     7.4873     7.0302   134.9095
  560.0000     6.8837   -47.8274     7.4620     6.8900   137.8643
  560.5000     6.8914   -47.7619     7.4018     6.7504   140.8191
  561.0000     6.8990   -47.6960     7.2726     6.6119   144.6298
  561.5000     6.9065   -47.6304     7.1455     6.4717   148.5695
  562.0000     6.9141   -47.5647     7.0242     6.2258   152.5092
  562.5000     6.9217   -47.4942     6.8294     5.9861   157.9436
  563.0000     6.9293   -47.5687     6.6326     5.7432   166.9053
  563.5000     6.9356   -47.7331     6.4365     5.3854   175.8670
  564.0000     6.9242   -48.1521     6.2174     4.9755   189.3065
  564.5000     6.9120   -48.5851     5.9525     4.5616   204.5025
  565.0000     6.8999   -49.0279     5.6871     4.3475   217.0408
  565.5000     6.8880   -49.4922     5.4166     4.2579   224.3573
  566.0000     6.8745   -49.7343     5.2394     4.1729   227.2390
  566.5000     6.8172   -49.8104     5.1811     4.1739   225.8679
  567.0000     6.7564   -49.8831     5.3195     4.3420   221.1789
  567.5000     6.6954   -49.9548     5.4556     4.5219   216.4923
