~VERSION INFORMATION
 VERS.                2.0:   CWLS LOG ASCII STANDARD - VERSION 2.0
 WRAP.                 NO:   ONE LINE PER DEPTH STEP
~WELL INFORMATION
#MNEM.UNIT      DATA TYPE    INFORMATION
#----------   ------------   ------------------------------
 STRT.F           32.0000:   START DEPTH
 STOP.F          697.0000:   STOP DEPTH
 STEP.F            0.5000:   STEP LENGTH
 NULL.          -999.2500:   NO VALUE
 COMP.    FENIX & SCISSON:   COMPANY
 WELL.      NPR-3 #81S3-3:   WELL
 FLD .        TEAPOT DOME:   FIELD
 LOC .       S3 T38N R78W:   LOCATION
 CNTY.            NATRONA:   COUNTY
 STAT.            WYOMING:   STATE
 CTRY. UNITED STATES OF AMERICA:   COUNTRY
 SRVC.           BIRDWELL:   SERVICE COMPANY
 DATE.        11-JAN-1978:   LOGDATE
 API .       490251055400:   API NUMBER
~CURVE INFORMATION
#MNEM.UNIT       API CODE    CURVE DESCRIPTION
#----------   ------------   ------------------------------
 DEPT.F                  :   
 ILD .OHMM   05 120 46 00:   INDUCTION LOG DEEP
 SN  .OHMM   05 040 16 00:   SHORT NORMAL 16"
 SPR .MV     05 010 01 00:   SPONTANEOUS POTENTIAL FROM RES.
 CALD.IN     45 280 60 00:   CALIPER FROM DENSITY LOG
 DPHI.DEC    45 890 12 00:   DENSITY POROSITY SANDSTONE
 DRHO.G/C3   45 356 01 00:   DENSITY CORRECTION
 GRD .GAPI   45 310 01 00:   GAMMA RAY FROM DENSITY LOG
 RHOB.G/C3   45 350 01 00:   BULK DENSITY
~PARAMETER INFORMATION
#MNEM.UNIT          VALUE    DESCRIPTION
#----------   ------------   ------------------------------
 PD  .                 GL:   PERMANENT DATUM
 EPD .F              5119:   ELEVATION PERMANENT DATUM
 LMF .                 KB:   LOG MEASURED FROM
 DAPD.F                 4:   FEET ABOVE PERMANENT DATUM
 DMF .                 KB:   DRILLING MEASURED FROM
 EKB .F              5123:   KELLING BUSHING
 EGL .F              5119:   GROUND LEVEL
 DATE.        11-JAN-1978:   RUN DATE
 RUN .                  1:   RUN NUMBER
 DD  .F               695:   DEPTH DRILLER
 DL  .F               704:   DEPTH LOGGER
 BLI .F               697:   BOTTOM LOG INTERVAL
 TLI .F                40:   TOP LOG INTERVAL
 CS  .IN            8.625:   CASING SIZE
 CBD .F                40:   CASING BOTTOM DRILLER
 CBL .F                40:   CASING BOTTOM LOGGER
 BS  .IN            7.875:   BIT SIZE
 BSD .F               695:   BIT SIZE AT DEPTH
 DFT .                KCL:   DRILLING FLUID TYPE
 DFD .                8.6:   DRILLING FLUID DENSITY
 DFV .                 31:   DRILLING FLUID VISCOSITY
 DFPH.                9.5:   DRILLING FLUID PH
 DFL .                7.6:   DRILLING FLUID LOSS
 MSS .           FLOWLINE:   MUD SAMPLE SOURCE
 RMS .OHMM           0.32:   RESISTIVITY MUD SAMPLE
 MST .F                62:   MUD SAMPLE TEMPERATURE
 RMF .OHMM           0.32:   RESISTIVITY MUD FILTRATE SAMPLE
 MFST.F                62:   MUD FILTRATE SAMPLE TEMPERATURE
 RMC .OHMM            0.8:   RESISTIVITY MUD CAKE
 MCST.F                63:   MUD CAKE SAMPLE TEMPERATURE
 MFSS.               MEAS:   MUD FILTRATE SAMPLE SOURCE
 MCSS.               MEAS:   MUD CAKE SAMPLE SOURCE
 TCS .HRS               2:   TIME CURCULATED STOPPED
 LUN .               2958:   LOGGING UNIT NUMBER
 LUL .             CASPER:   LOGGING UNIT LOCATION
 ENGI.           REYNOLDS:   RECORDING ENGINEER
 WITN.         HARRINGTON:   WITNESSED BY
 CLNT.            A2DTECH:   CLIENT CODE
 ORIG.           5" PRINT:   ORIGIN OF DATA
 UWI .       490251055400:   UNIQUE WELL ID
 DICO. A2D Technologies, Inc.:   DIGITIZING COMPANY
~OTHER INFORMATION
~A   DEPT      ILD         SN        SPR       CALD       DPHI       DRHO         GRD      RHOB   
# ...
  153.5000    11.1866    11.1970   -38.4657     8.7383     0.0834     0.0823    94.4635     2.5006
  154.0000    11.1869    11.1934   -39.3540     8.7536     0.0828     0.0823    91.3333     2.5029
  154.5000    11.1871    11.1899   -39.6482     8.7540     0.0830     0.0824    89.2370     2.5037
  155.0000    11.1874    11.1863   -39.4916     8.7545     0.0844     0.0809    87.3254     2.5007
  155.5000    11.1877    11.1827   -39.3364     8.7412     0.0839     0.0809    88.4993     2.5007
  156.0000    11.1880    11.1792   -39.3306     8.7441     0.0820     0.0780    89.8450     2.5030
  156.5000    11.1882    11.1756   -39.4749     8.7470     0.0827     0.0720    89.3905     2.5061
  157.0000    11.1885    11.1721   -39.6182     8.7500     0.0839     0.0706    87.4456     2.5021
  157.5000    11.1888    11.1685   -39.7616     8.7529     0.0836     0.0691    86.1325     2.5006
  158.0000    11.1891    11.1649   -39.4557     8.7558     0.0835     0.0646    89.0521     2.5029
  158.5000    11.1893    11.1614   -39.1513     8.7576     0.0835     0.0644    90.6134     2.5014
  159.0000    11.1896    11.1575   -38.9976     8.7580     0.0835     0.0660    90.4687     2.5014
  159.5000    11.1899    11.1505   -40.0350     8.7585     0.0853     0.0675    87.3435     2.4984
  160.0000    11.1902    11.1428   -39.7306     8.7589     0.0874     0.0675    84.9634     2.4969
  160.5000    11.1904    11.1351   -38.9784     8.7784     0.0856     0.0691    84.8177     2.4999
  161.0000    11.1940    11.1274   -38.9725     8.7928     0.0880     0.0691    84.8232     2.4939
  161.5000    11.1986    11.1197   -39.4143     8.7923     0.0904     0.0676    86.4670     2.4917
  162.0000    11.2032    11.1164   -39.5591     8.7919     0.0910     0.0631    88.4077     2.4940
  162.5000    11.2079    11.1278   -39.4025     8.7915     0.0876     0.0617    87.5190     2.4970
  163.0000    11.2906    11.1468   -38.9488     8.7911     0.0843     0.0632    87.6724     2.5008
  163.5000    11.3739    11.1658   -38.3459     8.7907     0.0900     0.0632    88.7201     2.4978
  164.0000    11.4588    11.1847   -38.3400     8.7903     0.0933     0.0663    89.9167     2.4865
  164.5000    11.4635    11.2037   -38.3341     8.7900     0.0894     0.0693    89.3250     2.4910
  165.0000    11.4682    11.2183   -38.3282     8.7896     0.0867     0.0693    86.0507     2.4971
  165.5000    11.3149    11.0678   -38.9194     8.7892     0.0846     0.0694    84.2668     2.4978
  166.0000    11.1636    10.9184   -39.0627     8.7888     0.0837     0.0679    86.8345     2.4979
  166.5000    10.8626    10.6985   -39.0567     8.7884     0.0857     0.0647    89.3845     2.4979
  167.0000    10.6422    10.6274   -39.3493     8.7880     0.0860     0.0604    90.5832     2.4988
  167.5000    10.5010    10.5577   -39.6419     8.7876     0.0836     0.0589    90.9908     2.5018
  168.0000    10.5054    10.4169   -39.7852     8.7872     0.0862     0.0635    89.3570     2.4934
  168.5000    10.4873    10.4205   -39.9286     8.7868     0.0916     0.0650    86.8279     2.4897
  169.0000    10.4403    10.3512   -39.9224     8.7875     0.0978     0.0651    86.3841     2.4829
  169.5000    10.4456    10.3557   -39.9153     8.7882     0.0968     0.0651    88.7741     2.4807
  170.0000    10.4500    10.3592   -39.9094     8.7887     0.0938     0.0651    90.1198     2.4845
  170.5000    10.3809    10.3628   -39.7542     8.7886     0.0926     0.0667    86.1004     2.4890
  171.0000    10.3863    10.3664   -39.4498     8.7883     0.0883     0.0667    85.2095     2.4950
  171.5000    10.3905    10.3699   -38.9961     8.7880     0.0856     0.0667    85.6621     2.5003
  172.0000    10.3948    10.3735   -38.5424     8.7877     0.0841     0.0667    86.2626     2.5018
  172.5000    10.3991    10.3771   -38.8365     8.7874     0.0832     0.0683    87.4593     2.5018
  173.0000    10.4758    10.3806   -39.2769     8.7871     0.0820     0.0683    87.7607     2.5041
  173.5000    10.5558    10.3842   -39.8680     8.7868     0.0808     0.0683    85.0836     2.5093
  174.0000    10.7049    10.3877   -39.5636     8.7865     0.0798     0.0623    82.4055     2.5086
  174.5000    10.7186    10.3913   -38.6621     8.7862     0.0768     0.0564    81.3348     2.5101
  175.0000    10.8635    10.3949   -38.2085     8.7860     0.0744     0.0534    83.0104     2.5147
  175.5000    10.9445    10.5459   -38.7996     8.7857     0.0819     0.0519    83.5425     2.5124
  176.0000    11.0253    10.7735   -39.0922     8.7854     0.0858     0.0504    84.0944     2.5027
  176.5000    11.0298    10.9984   -39.2370     8.7851     0.0855     0.0505    85.0089     2.4974
  177.0000    11.1111    11.0022   -39.2296     8.7848     0.0837     0.0505    84.5195     2.4982
  177.5000    11.1931    11.0061   -39.2237     8.7845     0.0828     0.0505    84.0757     2.5020
  178.0000    11.1977    10.9824   -39.2178     8.7842     0.0843     0.0506    84.2303     2.4997
  178.5000    11.2023    10.9516   -39.0626     8.7838     0.0879     0.0506    84.3837     2.4922
  179.0000    11.2069    10.9208   -38.9074     8.7828     0.0909     0.0506    84.9842     2.4907
  179.5000    11.0571    10.8900   -39.0547     8.7818     0.0948     0.0506    86.1809     2.4885
  180.0000    11.0616    10.7978   -39.4926     8.7809     0.0935     0.0507    87.9737     2.4855
  180.5000    11.0662    10.8025   -39.6360     8.7799     0.0890     0.0507    88.1260     2.4908
  181.0000    10.9942    10.7307   -39.6298     8.7789     0.0945     0.0507    83.9587     2.4877
  181.5000    10.9987    10.7353   -39.4746     8.7779     0.0925     0.0508    82.7697     2.4863
  182.0000    11.0033    10.7390   -39.3183     8.7769     0.0962     0.0568    84.2656     2.4909
  182.5000    11.0078    10.7427   -39.1631     8.7759     0.0986     0.0629    83.3758     2.4843
  183.0000    11.0123    10.7463   -39.0079     8.7749     0.0938     0.0704    82.7841     2.4796
  183.5000    11.0169    10.8247   -39.0020     8.7740     0.0877     0.0704    82.6393     2.4969
  184.0000    11.0214    10.8285   -38.9970     8.7730     0.0829     0.0690    83.0910     2.5052
  184.5000    11.0259    10.9074   -38.9902     8.7720     0.0790     0.0630    83.5445     2.5082
  185.0000    11.0305    10.9112   -38.8350     8.7710     0.0736     0.0555    84.4610     2.5157
  185.5000    11.1119    11.0672   -38.9784     8.7700     0.0699     0.0525    85.3577     2.5225
  186.0000    11.1212    11.1531   -38.8232     8.7690     0.0708     0.0525    84.6707     2.5232
  186.5000    11.2113    11.3152   -37.9218     8.7680     0.0750     0.0526    84.0072     2.5150
  187.0000    11.4397    11.4796   -38.0666     8.7670     0.0780     0.0526    85.0559     2.5135
  187.5000    11.6043    11.6330   -38.0592     8.7661     0.0804     0.0526    85.5074     2.5098
  188.0000    11.7712    11.7187   -38.2025     8.7506     0.0825     0.0527    85.8099     2.5045
  188.5000    11.9405    11.8862   -38.9429     8.7512     0.0846     0.0527    86.2603     2.5008
  189.0000    12.0286    11.9729   -38.7877     8.7518     0.0882     0.0542    83.2852     2.4955
  189.5000    12.0335    12.0603   -38.6326     8.7524     0.0915     0.0543    81.9483     2.4933
  190.0000    12.1223    12.0644   -38.7759     8.7530     0.0939     0.0528    82.8469     2.4858
  190.5000    12.0422    11.9842   -38.9194     8.7536     0.0942     0.0528    87.3223     2.4843
  191.0000    11.8824    11.7429   -39.2119     8.7542     0.0942     0.0528    89.5622     2.4851
  191.5000    11.7236    11.5853   -39.6537     8.7548     0.0942     0.0529    90.4608     2.4858
  192.0000    11.4869    11.4289   -39.7971     8.7554     0.0942     0.0529    88.8258     2.4859
  192.5000    11.4110    11.3539   -39.7910     8.7560     0.0945     0.0531    88.1942     2.4859
  193.0000    11.1807    11.2016   -39.9345     8.7565     0.0947     0.0575    88.8347     2.4859
  193.5000    11.0323    11.1281   -39.7791     8.7571     0.0954     0.0590    89.1371     2.4837
