~VERSION INFORMATION
 VERS.                2.0:   CWLS LOG ASCII STANDARD - VERSION 2.0
 WRAP.                 NO:   ONE LINE PER DEPTH STEP
~WELL INFORMATION
#MNEM.UNIT      DATA TYPE    INFORMATION
#----------   ------------   ------------------------------
 STRT.F           29.0000:   START DEPTH
 STOP.F          462.0000:   STOP DEPTH
 STEP.F            0.5000:   STEP LENGTH
 NULL.          -999.2500:   NO VALUE
 COMP.    FENIX & SCISSON:   COMPANY
 WELL.      NPR #71-SX-10:   WELL
 FLD .             TEAPOT:   FIELD
 LOC .      S10 T38N R78W:   LOCATION
 CNTY.            NATRONA:   COUNTY
 STAT.            WYOMING:   STATE
 CTRY. UNITED STATES OF AMERICA:   COUNTRY
 SRVC.              Welex:   SERVICE COMPANY
 DATE.        01-APR-1977:   LOGDATE
 API .       490251032300:   API NUMBER
~CURVE INFORMATION
#MNEM.UNIT       API CODE    CURVE DESCRIPTION
#----------   ------------   ------------------------------
 DEPT.F                  :   
 SPR .MV     07 010 01 00:   SPONTANEOUS POTENTIAL
 ILD .OHMM   07 120 46 00:   INDUCTION LOG DEEP
 ILM .OHMM   07 120 44 00:   INDUCTION LOG MEDIUM
 SGRD.OHMM   07 221 05 00:   SHALLOW SHORT GUARD RESISTIVITY
 CALD.IN     45 280 60 00:   CALIPER FROM DENSITY LOG
 GRD .GAPI   45 310 01 00:   GAMMA RAY FROM DENSITY LOG
 CORR.G/C3   45 356 01 00:   DENSITY CORRECTION
 RHOB.G/C3   45 350 01 00:   BULK DENSITY
 DPHI.DEC    45 890 12 00:   DENSITY POROSITY SANDSTONE
~PARAMETER INFORMATION
#MNEM.UNIT          VALUE    DESCRIPTION
#----------   ------------   ------------------------------
 PD  .                 GL:   PERMANENT DATUM
 EPD .F              5157:   ELEVATION PERMANENT DATUM
 LMF .                 GL:   LOG MEASURED FROM
 DMF .                 GL:   DRILLING MEASURED FROM
 EGL .F              5157:   GROUND LEVEL
 DATE.        01-APR-1977:   RUN DATE
 RUN .                  1:   RUN NUMBER
 DD  .F               475:   DEPTH DRILLER
 DL  .F               466:   DEPTH LOGGER
 BLI .F               463:   BOTTOM LOG INTERVAL
 TLI .F                30:   TOP LOG INTERVAL
 CS  .IN            8.625:   CASING SIZE
 BS  .IN            7.875:   BIT SIZE
 BSD .F               475:   BIT SIZE AT DEPTH
 DFT .                KCL:   DRILLING FLUID TYPE
 DFD .                8.5:   DRILLING FLUID DENSITY
 TCS .HRS               3:   TIME CURCULATED STOPPED
 MRT .F                67:   MAXIMUM RECORDED TEMPERATURE
 ENGI.            C. DOAK:   RECORDING ENGINEER
 WITN.   R. B. HARRINGTON:   WITNESSED BY
 CLNT.            A2DTECH:   CLIENT CODE
 ORIG.           5" PRINT:   ORIGIN OF DATA
 UWI .       490251032300:   UNIQUE WELL ID
 DICO. A2D Technologies, Inc.:   DIGITIZING COMPANY
~OTHER INFORMATION
~A   DEPT      SPR        ILD        ILM       SGRD         CALD      GRD       CORR       RHOB       DPHI   
# ...
  138.5000   -35.9496     7.7081     8.3610    11.3296     8.4916   114.0683    -0.0101     2.4761     0.1048
  139.0000   -35.7864     7.8752     8.2539    11.5746     8.4929   110.2056    -0.0069     2.4806     0.1012
  139.5000   -35.7715     7.9905     8.2602    12.2416     8.4943   108.1340    -0.0024     2.4679     0.1099
  140.0000   -35.7537     8.0515     8.2079    11.5090     8.4956   105.9131    -0.0006     2.4123     0.1330
  140.5000   -35.7389     8.0015     8.2727    11.1243     8.4821   107.1251    -0.0006     2.4237     0.1336
  141.0000   -35.8762     8.0071     8.2779    11.1126     8.4834   108.7848    -0.0005     2.4388     0.1272
  141.5000   -35.8576     8.0126     8.3429    12.0197     8.4848   110.2953    -0.0003     2.4508     0.1197
  142.0000   -35.8428     8.4153     8.4072    11.6179     8.4861   111.9550    -0.0002     2.4584     0.1173
  142.5000   -35.6797     8.4212     8.5308    11.7873     8.4874   112.4162     0.0000     2.4465     0.1212
  143.0000   -35.6648     8.3686     8.6563    12.4665     8.5036   110.4983     0.0002     2.4496     0.1193
  143.5000   -35.7984     8.3166     8.7836    12.4815     8.4901   109.3222     0.0018     2.4527     0.1193
  144.0000   -35.9320     8.2650     8.9747    12.3956     8.4914   108.7431     0.0020     2.4513     0.1208
  144.5000   -36.0692     8.2137     9.2336    12.4036     8.4928   109.8058     0.0021     2.4431     0.1226
  145.0000   -36.2028     8.2208     9.5000    12.0722     8.5089   111.1670     0.0053     2.4515     0.1211
  145.5000   -36.6294     8.2264     9.5072    12.1637     8.4954   112.8267     0.0070     2.4463     0.1198
  146.0000   -36.7666     8.2321     9.2547    12.3410     8.4968   113.5864     0.0102     2.4539     0.1177
  146.5000   -37.0485     8.2378     9.1327    12.0113     8.4981   110.6238     0.0133     2.4630     0.1150
  147.0000   -37.1821     8.2435     9.0766    11.7715     8.4846   108.9999     0.0180     2.4683     0.1126
  147.5000   -37.1636     8.2492     9.0209    12.7996     8.4859   106.7790     0.0212     2.4730     0.1087
  148.0000   -37.1488     8.1965     9.0295    14.6167     8.4724   109.3343     0.0229     2.4903     0.1080
  148.5000   -36.9856     8.0895     8.9723    11.0046     8.4737   114.2776     0.0215     2.4796     0.1107
  149.0000   -36.9708     7.9852     8.9172    11.3207     8.4751   118.4746     0.0186     2.4685     0.1152
  149.5000   -36.9585     7.9907     8.8625    11.8904     8.4764   120.7313     0.0127     2.4567     0.1194
  150.0000   -36.6453     8.1638     8.9317    12.2330     8.4777   120.1152     0.0053     2.4479     0.1224
  150.5000   -36.7744     8.1113     8.8728    12.1529     8.4795   117.9328     0.0031     2.4427     0.1235
  151.0000   -36.9084     8.1177     8.8153    12.0749     8.4813   118.4032     0.0004     2.4390     0.1247
  151.5000   -37.0376     8.1227     8.7582    11.8324     8.4834   119.3213    -0.0020     2.4331     0.1280
  152.0000   -37.0136     8.0705     8.8235    11.5961     8.4852   119.7916    -0.0018     2.4197     0.1340
  152.5000   -37.1475     8.0768     8.8885    11.8453     8.4870   117.7245    -0.0002     2.4106     0.1361
  153.0000   -37.1235     8.0818     8.9539    12.3538     8.4888   115.0605     0.0029     2.4297     0.1288
  153.5000   -37.2575     8.0869     9.0199    12.6193     8.4905   111.9487     0.0076     2.4425     0.1228
  154.0000   -37.5350     8.0919     9.0236    12.0280     8.4923   109.7324     0.0122     2.4501     0.1192
  154.5000   -37.6602     8.0970     9.0274    11.7850     8.4941   110.2027     0.0108     2.4547     0.1168
  155.0000   -37.7893     8.1021     9.0938    11.9551     8.4956   110.8222     0.0079     2.4473     0.1212
  155.5000   -37.9184     8.1071     9.0976    11.3963     8.4973   111.8895     0.0035     2.4429     0.1239
  156.0000   -38.0468     8.0550     9.1014    11.3218     8.4991   110.8672    -0.0010     2.4339     0.1272
  156.5000   -38.0276     8.0044     9.1051    11.8913     8.5009   100.5913    -0.0039     2.4385     0.1209
  157.0000   -38.0084     7.9990     9.1089    12.8388     8.5027    98.2201    -0.0068     2.4521     0.1170
  157.5000   -38.1380     7.7956     9.0499    11.8207     8.5045   103.0244    -0.0065     2.4620     0.1151
  158.0000   -38.4151     7.5876     8.9283    10.8821     8.5062   107.5245    -0.0049     2.4561     0.1202
  158.5000   -38.5445     7.3850     8.6291    11.8322     8.5080   110.9798    -0.0003     2.4442     0.1241
  159.0000   -38.9702     7.1805     8.1678    11.1999     8.5098   111.5938     0.0042     2.4315     0.1268
  159.5000   -39.3961     6.9411     7.8389    11.1267     8.4967   108.3383     0.0013     2.4391     0.1241
  160.0000   -39.6736     6.8032     7.5232    10.8293     8.4985   105.5250    -0.0032     2.4369     0.1270
  160.5000   -39.8027     6.6220     7.3208    10.5385     8.5003   105.6968    -0.0061     2.4295     0.1312
  161.0000   -39.7834     6.4457     7.1734     9.1166     8.5021   106.9133    -0.0075     2.4221     0.1303
  161.5000   -39.7567     6.3615     7.2764     8.8707     8.5038   110.3687    -0.0013     2.4312     0.1228
  162.0000   -39.5964     6.3260     7.4321     9.2516     8.5056   112.3315     0.0005     2.4493     0.1131
  162.5000   -39.5772     6.2863     7.6439     7.1639     8.5074   112.9454    -0.0042     2.4681     0.1197
  163.0000   -39.2463     6.3372     7.9712    11.5593     8.5094   111.6303    -0.0071     2.4592     0.1365
  163.5000   -38.7621     6.4291     8.1984    11.8062     8.5110   109.2647    -0.0085     2.4127     0.1329
  164.0000   -37.8675     6.5676     8.3161    10.8713     8.5128   110.0335    -0.0069     2.4114     0.1311
  164.5000   -37.2745     6.7556     8.4940    10.6517     8.5146   111.5486    -0.0037     2.4229     0.1298
  165.0000   -37.1068     6.9491     8.6160    10.6581     8.5163   111.8696     0.0009     2.4268     0.1280
  165.5000   -37.0875     7.1481     8.6196    11.1157     8.5033   111.2951     0.0056     2.4343     0.1247
  166.0000   -37.0644     7.3020     8.6830    11.7546     8.5051   109.3717     0.0087     2.4463     0.1181
  166.5000   -37.0452     7.3566     8.9304    11.5185     8.4920   111.1909     0.0103     2.4591     0.1151
  167.0000   -37.3227     7.3612     8.9962    11.1305     8.4938   112.4075     0.0044     2.4644     0.1141
  167.5000   -37.6051     7.3658     9.0624    11.4501     8.4808   112.7228    -0.0031     2.4563     0.1198
  168.0000   -37.7342     7.3704     9.0036    11.4557     8.4826   111.4806    -0.0060     2.4451     0.1261
  168.5000   -38.0069     7.3750     8.9453    11.4612     8.4843   109.7224    -0.0014     2.4249     0.1333
  169.0000   -38.1409     7.3796     8.8260    11.1535     8.4861   107.9473     0.0033     2.4178     0.1303
  169.5000   -38.2701     7.3333     8.7679    11.0041     8.4879   105.2971     0.0064     2.4364     0.1239
  170.0000   -38.6912     7.2872     8.7110    11.3200     8.4897   105.5821     0.0095     2.4447     0.1212
  170.5000   -38.9687     7.2919     8.5356    10.4948     8.4915   108.3935     0.0081     2.4426     0.1245
  171.0000   -39.2510     7.2460     8.3645    10.1413     8.4933   107.8000     0.0067     2.4381     0.1269
  171.5000   -39.3802     7.1017     8.2530    10.8001     8.4951   106.4851     0.0068     2.4337     0.1281
  172.0000   -39.6529     6.9121     8.0310    10.7294     8.4968   105.3136     0.0069     2.4286     0.1292
  172.5000   -39.7869     6.4988     7.7611    10.4426     8.4834   104.1421     0.0070     2.4272     0.1310
  173.0000   -39.9160     6.1953     7.6041    10.0225     8.4856   102.9706     0.0071     2.4243     0.1343
  173.5000   -40.1888     5.9884     7.2986     9.8882     8.4721   105.5304     0.0057     2.4183     0.1349
  174.0000   -40.4711     5.7485     6.9084     9.9630     8.4743   108.6872     0.0058     2.4124     0.1327
  174.5000   -40.7438     5.5564     6.4940     9.5621     8.4761   107.8142     0.0044     2.4013     0.1342
