~VERSION INFORMATION
 VERS.                2.0:   CWLS LOG ASCII STANDARD - VERSION 2.0
 WRAP.                 NO:   ONE LINE PER DEPTH STEP
~WELL INFORMATION
#MNEM.UNIT      DATA TYPE    INFORMATION
#----------   ------------   ------------------------------
 STRT.F           60.0000:   START DEPTH
 STOP.F          748.0000:   STOP DEPTH
 STEP.F            0.5000:   STEP LENGTH
 NULL.          -999.2500:   NO VALUE
 COMP.               NAVY:   COMPANY
 WELL.        S-11 #31-11:   WELL
 FLD .             TEAPOT:   FIELD
 LOC .      S11 T38N R78W:   LOCATION
 CNTY.            NATRONA:   COUNTY
 STAT.            WYOMING:   STATE
 CTRY. UNITED STATES OF AMERICA:   COUNTRY
 SRVC.      NL McCullough:   SERVICE COMPANY
 DATE.        10-AUG-1961:   LOGDATE
 API .       490250637600:   API NUMBER
~CURVE INFORMATION
#MNEM.UNIT       API CODE    CURVE DESCRIPTION
#----------   ------------   ------------------------------
 DEPT.F                  :   
 GRN .GAPI   35 310 01 00:   GAMMA RAY
 NEUT.NAPI   35 330 01 00:   NEUTRON
~PARAMETER INFORMATION
#MNEM.UNIT          VALUE    DESCRIPTION
#----------   ------------   ------------------------------
 PD  .                 GL:   PERMANENT DATUM
 EPD .F              5157:   ELEVATION PERMANENT DATUM
 LMF .                 KB:   LOG MEASURED FROM
 DAPD.F                56:   FEET ABOVE PERMANENT DATUM
 DMF .                 KB:   DRILLING MEASURED FROM
 EKB .F              5162:   KELLING BUSHING
 EGL .F              5157:   GROUND LEVEL
 DATE.        10-AUG-1961:   RUN DATE
 RUN .                  1:   RUN NUMBER
 DD  .F               760:   DEPTH DRILLER
 DL  .F               749:   DEPTH LOGGER
 BLI .F               748:   BOTTOM LOG INTERVAL
 TLI .F                60:   TOP LOG INTERVAL
 BS  .IN            7.875:   BIT SIZE
 BSD .F               760:   BIT SIZE AT DEPTH
 DFT .       OIL EMULSION:   DRILLING FLUID TYPE
 DFD .                9.5:   DRILLING FLUID DENSITY
 TCS .HRS            0130:   TIME CURCULATED STOPPED
 ENGI.            JACKSON:   RECORDING ENGINEER
 WITN.          JORGENSEN:   WITNESSED BY
 CLNT.            A2DTECH:   CLIENT CODE
 ORIG.       2", 5" PRINT:   ORIGIN OF DATA
 UWI .       490250637600:   UNIQUE WELL ID
 DICO. A2D Technologies, Inc.:   DIGITIZING COMPANY
~OTHER INFORMATION
~A   DEPT        GRN     NEUT   
   60.0000     4.7893  -999.2500
   60.5000     4.1853  -999.2500
   61.0000     4.1067  -999.2500
   61.5000     3.8765  -999.2500
   62.0000     3.4509   976.4130
   62.5000     3.1212   575.1376
   63.0000     2.7391   264.3558
   63.5000     2.4429   255.5760
   64.0000     2.5960   245.7671
   64.5000     2.6698   247.9277
   65.0000     2.6940   254.3331
   65.5000     2.8191   248.7311
   66.0000     3.0633   236.6240
   66.5000     3.3950   224.6802
   67.0000     3.8224   217.0309
   67.5000     5.0325   244.0959
   68.0000     5.4639   261.1913
   68.5000     5.4489   276.5637
   69.0000     5.1352   314.2405
   69.5000     4.7023   321.0249
   70.0000     4.6151   296.4080
   70.5000     4.8362   292.3889
   71.0000     4.9879   295.4032
   71.5000     5.1223   305.3503
   72.0000     5.2676   321.4255
   72.5000     5.5002   351.1681
   73.0000     5.3794   369.2788
   73.5000     5.1603   381.3112
   74.0000     5.2575   379.0501
   74.5000     5.5001   361.6935
   75.0000     5.8434   350.4145
   75.5000     5.8799   356.7450
   76.0000     5.2875   369.4547
   76.5000     5.2647   372.2683
   77.0000     5.4994   363.3004
   77.5000     5.5869   347.4001
   78.0000     5.5430   339.3620
   78.5000     5.4988   333.2704
   79.0000     5.5134   326.2999
   79.5000     5.7411   322.9966
   80.0000     5.9854   321.7784
   80.5000     6.1196   320.2713
   81.0000     6.0663   331.2252
   81.5000     5.9487   359.4574
   82.0000     5.7911   353.6798
   82.5000     5.4730   336.7235
   83.0000     5.2644   321.7784
   83.5000     5.1868   317.2948
   84.0000     5.3518   314.2426
   84.5000     5.6777   313.9035
   85.0000     5.9515   316.0008
   85.5000     5.9920   318.7641
   86.0000     5.9739   319.2163
   86.5000     5.8924   317.2443
   87.0000     5.7340   316.0261
   87.5000     5.5644   318.9522
   88.0000     5.5525   330.8214
   88.5000     5.6081   340.9069
   89.0000     5.7836   346.8724
   89.5000     5.8488   342.1251
   90.0000     5.8591   334.3381
   90.5000     5.7624   336.8500
   91.0000     5.5621   340.3921
   91.5000     5.2526   343.9086
   92.0000     5.1383   345.8930
   92.5000     5.1159   347.9028
   93.0000     5.1207   353.5292
   93.5000     5.2238   357.4229
   94.0000     5.5700   347.0473
   94.5000     6.0270   327.0535
   95.0000     6.1530   331.5750
   95.5000     5.7135   339.8643
   96.0000     5.7386   325.5464
   96.5000     6.0692   307.9888
   97.0000     6.2635   288.6209
   97.5000     6.5298   282.4668
   98.0000     6.7279   281.0851
   98.5000     6.8058   289.3745
   99.0000     6.8653   296.4072
   99.5000     6.8562   312.3614
  100.0000     6.1944   342.5640
  100.5000     5.2574   363.7286
  101.0000     5.3323   380.3818
  101.5000     5.6384   381.5920
  102.0000     5.7266   372.3914
  102.5000     5.6321   367.9895
  103.0000     5.7169   398.8610
  103.5000     5.8528   424.5892
  104.0000     5.5590   422.0398
  104.5000     5.5138   384.4796
  105.0000     5.6202   383.5498
  105.5000     5.8100   398.0703
  106.0000     5.9451   415.7811
  106.5000     5.8898   432.7562
  107.0000     5.5197   449.9397
  107.5000     5.4427   460.7057
  108.0000     5.6161   459.2892
  108.5000     6.0580   426.5154
  109.0000     6.0392   422.7238
  109.5000     5.8899   427.9846
  110.0000     5.5879   391.9753
  110.5000     5.3947   384.8404
  111.0000     5.2391   384.2137
  111.5000     5.3111   391.3093
  112.0000     5.5490   404.3194
  112.5000     5.8213   416.5543
  113.0000     5.9721   414.8432
  113.5000     6.0565   407.4733
  114.0000     6.0400   398.5703
  114.5000     5.9350   392.9791
  115.0000     5.7318   398.3670
  115.5000     5.6620   422.3085
  116.0000     5.9042   436.0080
  116.5000     5.8238   404.8115
  117.0000     5.7267   403.5661
  117.5000     5.6462   417.1052
  118.0000     5.5888   430.5408
  118.5000     5.5095   448.1664
  119.0000     5.5697   465.2709
  119.5000     5.7089   472.6786
  120.0000     5.7212   474.2759
  120.5000     5.6932   475.0542
  121.0000     5.6282   496.2437
  121.5000     5.5494   502.8486
  122.0000     5.4591   505.4829
  122.5000     5.3189   503.4492
  123.0000     5.2003   489.2209
  123.5000     5.1747   467.3810
  124.0000     5.1763   438.5661
  124.5000     5.1088   423.3380
  125.0000     5.0227   411.8423
  125.5000     5.0168   388.8935
  126.0000     5.1421   378.3057
  126.5000     5.4238   370.9536
  127.0000     5.5627   357.1798
  127.5000     5.6243   325.3657
  128.0000     5.7718   263.6979
  128.5000     5.9469   246.3952
  129.0000     6.3321   240.6886
  129.5000     7.0172   239.5201
  130.0000     7.0030   245.7815
  130.5000     6.8695   274.3132
  131.0000     6.7212   314.0611
  131.5000     6.3811   355.6770
  132.0000     5.9675   433.8423
  132.5000     5.8629   464.9819
  133.0000     5.2021   556.2512
  133.5000     4.7383   634.9846
  134.0000     4.4663   653.9065
  134.5000     4.3229   663.1642
  135.0000     4.3288   671.0931
  135.5000     4.3377   693.5718
  136.0000     4.3030   720.8983
  136.5000     4.3425   700.4236
  137.0000     4.5039   651.7238
  137.5000     4.6629   611.6339
  138.0000     4.8421   569.9911
  138.5000     5.0338   533.3635
  139.0000     5.3785   489.4769
  139.5000     5.9047   436.8448
  140.0000     6.0318   361.1019
  140.5000     6.2768   360.2385
  141.0000     6.4573   368.0208
  141.5000     6.1264   396.8667
  142.0000     5.3403   496.7292
  142.5000     4.8356   520.9617
  143.0000     4.6348   538.1929
  143.5000     4.5247   547.9557
  144.0000     4.4140   564.4013
  144.5000     4.3006   597.6075
  145.0000     4.2742   601.3564
  145.5000     4.3267   608.4599
  146.0000     4.4360   635.2232
  146.5000     4.5436   626.7646
  147.0000     4.4739   609.5635
  147.5000     4.3675   611.2216
  148.0000     4.6239   609.7419
  148.5000     4.7232   610.2538
  149.0000     4.8791   632.5137
  149.5000     4.9817   659.6248
  150.0000     5.1061   672.7375
  150.5000     5.2098   644.1642
  151.0000     5.3179   613.1667
  151.5000     5.5083   621.7073
  152.0000     5.5221   628.2003
  152.5000     5.2341   581.4531
  153.0000     5.1738   582.5583
  153.5000     5.0053   597.2403
  154.0000     4.8151   585.9113
  154.5000     4.7810   572.0873
  155.0000     4.6424   567.7873
  155.5000     4.3951   579.5693
  156.0000     4.2482   611.3022
  156.5000     4.4147   632.5319
  157.0000     4.5363   604.7529
  157.5000     4.6341   562.0505
  158.0000     4.7742   553.3427
  158.5000     4.7412   561.9216
  159.0000     4.1867   601.5338
  159.5000     4.2094   612.5744
  160.0000     4.4308   613.5530
  160.5000     4.6938   594.6882
  161.0000     4.7333   570.7878
  161.5000     4.7617   557.7248
  162.0000     4.7084   575.6547
  162.5000     4.4306   590.3096
  163.0000     4.2915   563.6901
  163.5000     4.2518   560.2487
  164.0000     4.2230   574.8700
  164.5000     4.4817   629.9418
  165.0000     4.7076   630.9849
  165.5000     4.6544   579.7837
  166.0000     4.5137   565.6226
  166.5000     4.4799   568.1877
  167.0000     4.6539   582.3649
  167.5000     4.8131   551.9285
  168.0000     4.9188   538.6041
  168.5000     4.9535   526.5368
  169.0000     4.8697   520.9495
  169.5000     4.3653   567.2534
  170.0000     4.3157   560.6609
  170.5000     4.3907   538.6284
  171.0000     4.5542   527.1890
  171.5000     4.5241   525.6833
  172.0000     4.4706   541.9737
  172.5000     4.4349   575.3548
  173.0000     4.4173   597.0887
  173.5000     4.4474   571.5489
  174.0000     4.4861   563.0608
  174.5000     4.5650   555.1934
  175.0000     4.7778   539.8352
  175.5000     4.9989   516.4172
  176.0000     5.3406   480.8678
  176.5000     5.5171   419.9528
  177.0000     5.7892   418.1613
  177.5000     6.1962   418.4076
  178.0000     6.2159   420.3467
  178.5000     6.1345   418.7848
  179.0000     5.8051   416.0835
  179.5000     5.0102   415.6642
  180.0000     4.9682   416.5922
  180.5000     5.0200   429.5847
  181.0000     5.2664   438.6240
