~VERSION INFORMATION
 VERS.                2.0:   CWLS LOG ASCII STANDARD - VERSION 2.0
 WRAP.                 NO:   ONE LINE PER DEPTH STEP
~WELL INFORMATION
#MNEM.UNIT      DATA TYPE    INFORMATION
#----------   ------------   ------------------------------
 STRT.F           16.0000:   START DEPTH
 STOP.F          716.0000:   STOP DEPTH
 STEP.F            0.5000:   STEP LENGTH
 NULL.          -999.2500:   NO VALUE
 COMP. BROWN JOHN E&C INC:   COMPANY
 WELL.   STX 10 #24-51-10:   WELL
 FLD .             NPR #3:   FIELD
 LOC .      S10 T38N R78W:   LOCATION
 CNTY.            NATRONA:   COUNTY
 STAT.            WYOMING:   STATE
 CTRY. UNITED STATES OF AMERICA:   COUNTRY
 SRVC.           Gearhart:   SERVICE COMPANY
 DATE.        01-JUL-1986:   LOGDATE
 API .       490251107800:   API NUMBER
~CURVE INFORMATION
#MNEM.UNIT       API CODE    CURVE DESCRIPTION
#----------   ------------   ------------------------------
 DEPT.F                  :   
 GRR .GAPI   07 310 01 00:   GAMMA RAY
 RILD.OHMM   07 120 46 00:   INDUCTION LOG DEEP RESISTIVITY
 RILM.OHMM   07 120 44 00:   INDUCTION LOG MEDIUM RESISTIVITY
~PARAMETER INFORMATION
#MNEM.UNIT          VALUE    DESCRIPTION
#----------   ------------   ------------------------------
 PD  .                 GL:   PERMANENT DATUM
 EPD .F              5235:   ELEVATION PERMANENT DATUM
 LMF .                 KB:   LOG MEASURED FROM
 DAPD.F               5.0:   FEET ABOVE PERMANENT DATUM
 DMF .                 KB:   DRILLING MEASURED FROM
 EKB .F              5240:   KELLING BUSHING
 EGL .F              5235:   GROUND LEVEL
 DATE.        01-JUL-1986:   RUN DATE
 RUN .                  1:   RUN NUMBER
 DD  .F               728:   DEPTH DRILLER
 DL  .F               726:   DEPTH LOGGER
 BLI .F               716:   BOTTOM LOG INTERVAL
 TLI .F                15:   TOP LOG INTERVAL
 CS  .IN            8.625:   CASING SIZE
 CBD .F                47:   CASING BOTTOM DRILLER
 CBL .F                47:   CASING BOTTOM LOGGER
 BS  .IN            7.875:   BIT SIZE
 BSD .F               728:   BIT SIZE AT DEPTH
 DFT .               FOAM:   DRILLING FLUID TYPE
 TCS .HRS            0800:   TIME CURCULATED STOPPED
 TLAB.HRS            0930:   TIME LOGGER AT BOTTOM
 MRT .F                85:   MAXIMUM RECORDED TEMPERATURE
 LUN .               7609:   LOGGING UNIT NUMBER
 LUL .           GILLETTE:   LOGGING UNIT LOCATION
 ENGI.              BAUER:   RECORDING ENGINEER
 WITN.              FIVAS:   WITNESSED BY
 CLNT.            A2DTECH:   CLIENT CODE
 ORIG.           5" PRINT:   ORIGIN OF DATA
 UWI .       490251107800:   UNIQUE WELL ID
 DICO. A2D Technologies, Inc.:   DIGITIZING COMPANY
~OTHER INFORMATION
~A   DEPT       GRR      RILD       RILM   
# ...
  653.0000   106.0976    10.0312    10.8635
  653.5000   102.4390    10.0375    10.8697
  654.0000   100.9146    10.1145    10.7982
  654.5000   102.4390    10.1209    10.7288
  655.0000   107.0122     9.9863    10.7363
  655.5000   114.0244     9.8519    10.5927
  656.0000   114.6341     9.7224    10.4510
  656.5000   109.7561     9.5932    10.3823
  657.0000   104.8781     9.4656    10.2300
  657.5000   103.0488     9.3397    10.1064
  658.0000   102.7439     9.2155     9.9016
  658.5000   103.3537     9.0294     9.7582
  659.0000   104.8781     8.7240     9.5508
  659.5000   107.6219     8.1958     9.1727
  660.0000   110.9756     7.6996     8.7840
  660.5000   111.2805     7.0829     7.9754
  661.0000   110.3659     6.5998     7.3365
  661.5000   111.2805     5.9513     6.7965
  662.0000   112.5000     5.2861     6.2881
  662.5000   109.7561     4.7950     5.7080
  663.0000   107.3171     4.2890     5.2092
  663.5000   107.0122     4.0294     4.5335
  664.0000   107.6219     3.7854     3.9653
  664.5000   109.1463     3.4579     3.5298
  665.0000   110.0610     3.4358     3.4603
  665.5000   109.1463     3.5359     3.5364
  666.0000   105.7927     3.7160     3.7444
  666.5000   104.8781     4.0447     4.1599
  667.0000   105.4878     4.4645     4.6563
  667.5000   109.1463     4.9626     5.0326
  668.0000   112.8049     5.5551     5.5941
  668.5000   114.3293     6.0464     6.1749
  669.0000   110.6707     6.6274     6.6740
  669.5000   102.1341     6.9651     6.9648
  670.0000    94.7561     7.3200     7.3194
  670.5000    94.8770     7.5859     7.5319
  671.0000    97.1280     7.8614     7.7506
  671.5000   102.7856     7.9774     7.8646
  672.0000   108.8215     8.0386     7.9802
  672.5000   113.4704     8.0437     8.0409
  673.0000   113.7195     8.0488     8.0454
  673.5000   112.0874     8.0538     8.1066
  674.0000   109.6502     8.0589     8.1111
  674.5000   108.2317     8.0640     8.1728
  675.0000   108.5366     8.0691     8.1774
  675.5000   109.5506     8.0742     8.2396
  676.0000   112.9512     8.0793     8.2443
  676.5000   115.3394     8.1413     8.2489
  677.0000   115.9005     8.2037     8.2535
  677.5000   116.2041     8.2089     8.1993
  678.0000   117.1179     8.2141     8.2051
  678.5000   117.3781     8.2193     8.2675
  679.0000   115.1585     8.2245     8.2721
  679.5000   110.2826     8.2297     8.2768
  680.0000   107.9268     8.2348     8.3397
  680.5000   109.2252     8.2400     8.3444
  681.0000   112.6163     8.2453     8.3491
  681.5000   115.2814     8.3085     8.3538
  682.0000   113.9512     8.3137     8.3585
  682.5000   111.1738     8.3190     8.3632
  683.0000   109.1463     8.3242     8.2514
  683.5000   110.3992     8.2135     8.1971
  684.0000   111.8902     8.1600     8.0886
  684.5000   111.5540     7.9407     7.9235
  685.0000   110.9451     7.7260     7.7086
  685.5000   110.0610     7.4125     7.4482
  686.0000   109.7561     7.1117     7.2462
  686.5000   110.6981     6.9195     7.0497
  687.0000   112.9113     6.8264     6.9058
  687.5000   118.6735     6.7830     6.7667
  688.0000   121.6707     6.7398     6.7222
  688.5000   120.9432     6.7926     6.7270
  689.0000   116.0462     6.8447     6.7781
  689.5000   107.1255     6.9457     6.9749
  690.0000    99.3287     6.9990     7.1775
  690.5000    96.3031     7.3556     7.3859
  691.0000    95.1219     7.7304     7.6538
  691.5000    96.3415     8.0112     7.9873
  692.0000    96.9676     8.3022     8.2771
  692.5000    97.5610     8.5436     8.5174
  693.0000    97.5610     8.7921     8.7647
  693.5000    96.3153     8.9846     8.9562
  694.0000    94.1829     9.0535     9.1518
  694.5000    91.4522     9.1230     9.2214
  695.0000    89.0039     9.1930     9.2915
  695.5000    88.1098     9.1988     9.3622
  696.0000    89.0327     9.2693     9.4334
  696.5000    91.1656     9.2752     9.4261
  697.0000    93.0061     9.3463     9.4175
  697.5000    93.9024     9.4180     9.4089
  698.0000    92.6790     9.4902     9.4003
  698.5000    91.1525     9.4962     9.4600
  699.0000    89.9390     9.5022     9.4653
  699.5000    90.2470     9.5082     9.4706
  700.0000    92.9878     9.5142     9.4760
  700.5000    95.7317     9.4523     9.4150
  701.0000    96.6463     9.3280     9.3531
  701.5000    96.3415     9.3339     9.2943
  702.0000    95.7317     9.2083     9.2995
  702.5000  -999.2500     9.0859     9.1751
  703.0000  -999.2500     8.9665     9.0511
  703.5000  -999.2500     8.8472     8.9313
  704.0000  -999.2500     8.7296     8.8106
  704.5000  -999.2500     8.6121     8.6940
  705.0000  -999.2500     8.6189     8.6368
  705.5000  -999.2500     8.6850     8.5813
  706.0000  -999.2500     8.6905     8.6478
  706.5000  -999.2500     8.8188     8.7136
  707.0000  -999.2500     8.8864     8.7788
  707.5000  -999.2500     8.9546     8.8456
  708.0000  -999.2500     9.0867     8.9128
  708.5000  -999.2500     9.1564     8.9806
  709.0000  -999.2500     9.2267     9.0489
  709.5000  -999.2500     9.3628     9.1178
  710.0000  -999.2500     9.5010     9.1229
  710.5000  -999.2500     9.5739     9.0640
  711.0000  -999.2500     9.7152     9.0057
  711.5000  -999.2500     9.7897     8.8853
  712.0000  -999.2500     9.8648     8.8281
  712.5000  -999.2500  -999.2500     8.7051
  713.0000  -999.2500  -999.2500     8.5935
  713.5000  -999.2500  -999.2500     8.4786
  714.0000  -999.2500  -999.2500     8.4240
  714.5000  -999.2500  -999.2500     8.4289
  715.0000  -999.2500  -999.2500     8.5548
  715.5000  -999.2500  -999.2500     8.9268
  716.0000  -999.2500  -999.2500     9.3811
