~VERSION INFORMATION
 VERS.                2.0:   CWLS LOG ASCII STANDARD - VERSION 2.0
 WRAP.                 NO:   ONE LINE PER DEPTH STEP
~WELL INFORMATION
#MNEM.UNIT      DATA TYPE    INFORMATION
#----------   ------------   ------------------------------
 STRT.F            0.0000:   START DEPTH
 STOP.F         4112.0000:   STOP DEPTH
 STEP.F            0.5000:   STEP LENGTH
 NULL.          -999.2500:   NO VALUE
 COMP. LAWRENCE-ALLISON &AS:   COMPANY
 WELL. N P R 3-76-1-SX #3-3:   WELL
 FLD .          N.P.R. #3:   FIELD
 LOC .       S3 T38N R78W:   LOCATION
 CNTY.            NATRONA:   COUNTY
 STAT.            WYOMING:   STATE
 CTRY. UNITED STATES OF AMERICA:   COUNTRY
 SRVC.      Dresser Atlas:   SERVICE COMPANY
 DATE.        04-SEP-1983:   LOGDATE
 API .       490251093100:   API NUMBER
~CURVE INFORMATION
#MNEM.UNIT       API CODE    CURVE DESCRIPTION
#----------   ------------   ------------------------------
 DEPT.F                  :   
 DEN .G/C3   45 350 01 00:   COMPENSATED BULK DENSTIY
 CORR.G/C3   45 356 01 00:   DENSITY CORRECTION
 PORD.DEC    45 890 12 00:   POROSITY DENSITY SANDSTONE
 CNC .DEC    42 890 03 00:   NEUTRON POROSITY SANDSTONE
 SPR .MV     07 010 01 00:   SPONTANEOUS POTENTIAL
 GRR .GAPI   07 310 01 00:   GAMMA RAY FROM RES. LOG.
 RFOC.OHMM   07 220 04 00:   RESISTIVITY FOCUSED LOG
 CALD.IN     45 280 60 00:   CALIPER
 AC  .US/F   60 520 00 00:   ACOUSTIC SONIC
 RILD.OHMM   07 120 46 00:   INDUCTION LOG DEEP RESISTIVITY
 RILM.OHMM   07 120 44 00:   INDUCTION LOG MEDIUM RESISTIVITY
~PARAMETER INFORMATION
#MNEM.UNIT          VALUE    DESCRIPTION
#----------   ------------   ------------------------------
 PD  .                 GL:   PERMANENT DATUM
 EPD .F              5147:   ELEVATION PERMANENT DATUM
 LMF .                 KB:   LOG MEASURED FROM
 DAPD.F                10:   FEET ABOVE PERMANENT DATUM
 DMF .                 KB:   DRILLING MEASURED FROM
 EKB .F              5157:   KELLING BUSHING
 EGL .F              5147:   GROUND LEVEL
 DATE.             9-4-83:   RUN DATE
 RUN .                  1:   RUN NUMBER
 DD  .F              4119:   DEPTH DRILLER
 DL  .F              4115:   DEPTH LOGGER
 BLI .F              4112:   BOTTOM LOG INTERVAL
 CS  .IN            9.625:   CASING SIZE
 CBD .F               491:   CASING BOTTOM DRILLER
 CBL .F               494:   CASING BOTTOM LOGGER
 BS  .IN             8.75:   BIT SIZE
 BSD .F              4119:   BIT SIZE AT DEPTH
 DFT .            KCL GEL:   DRILLING FLUID TYPE
 DFD .                8.9:   DRILLING FLUID DENSITY
 DFV .                 46:   DRILLING FLUID VISCOSITY
 DFPH.                  9:   DRILLING FLUID PH
 DFL .               13.6:   DRILLING FLUID LOSS
 MSS .            MUDTANK:   MUD SAMPLE SOURCE
 RMS .OHMM           .315:   RESISTIVITY MUD SAMPLE
 MST .F                92:   MUD SAMPLE TEMPERATURE
 RMF .OHMM            .25:   RESISTIVITY MUD FILTRATE SAMPLE
 MFST.F                84:   MUD FILTRATE SAMPLE TEMPERATURE
 RMC .OHMM             .4:   RESISTIVITY MUD CAKE
 MCST.F                92:   MUD CAKE SAMPLE TEMPERATURE
 MFSS.                  M:   MUD FILTRATE SAMPLE SOURCE
 MCSS.                  C:   MUD CAKE SAMPLE SOURCE
 RMB .OHMM            .22:   RESISTIVITY MUD AT BHT
 BHT .F               132:   BOTTOM HOLE TEMPERATURE
 TCS .HRS               4:   TIME CURCULATED STOPPED
 MRT .F               132:   MAXIMUM RECORDED TEMPERATURE
 LUN .               6274:   LOGGING UNIT NUMBER
 LUL .               GLTE:   LOGGING UNIT LOCATION
 ENGI.             RAUTIO:   RECORDING ENGINEER
 WITN.             STRONG:   WITNESSED BY
 CLNT.            A2DTECH:   CLIENT CODE
 ORIG. 1", 2", 2.5", 5" PRINT:   ORIGIN OF DATA
 UWI .       490251093100:   UNIQUE WELL ID
 DICO. A2D Technologies, Inc.:   DIGITIZING COMPANY
~OTHER INFORMATION
~A    DEPT     DEN       CORR       PORD        CNC        SPR          GRR     RFOC       CALD         AC       RILD       RILM   
# ...
  488.0000  -999.2500  -999.2500  -999.2500     0.3157  -999.2500    66.5182  -999.2500  -999.2500  -999.2500  -999.2500  -999.2500
  488.5000  -999.2500  -999.2500  -999.2500     0.2964  -999.2500    59.5751  -999.2500  -999.2500  -999.2500  -999.2500  -999.2500
  489.0000  -999.2500  -999.2500  -999.2500     0.2947  -999.2500    62.3489  -999.2500  -999.2500  -999.2500  -999.2500  -999.2500
  489.5000  -999.2500  -999.2500  -999.2500     0.2980  -999.2500    67.8045  -999.2500  -999.2500  -999.2500  -999.2500  -999.2500
  490.0000  -999.2500  -999.2500  -999.2500     0.3097  -999.2500    73.1574  -999.2500  -999.2500  -999.2500  -999.2500  -999.2500
  490.5000  -999.2500  -999.2500  -999.2500     0.3279  -999.2500    85.8864  -999.2500  -999.2500  -999.2500  -999.2500  -999.2500
  491.0000  -999.2500  -999.2500  -999.2500     0.3510  -999.2500    97.2936  -999.2500  -999.2500  -999.2500  -999.2500  -999.2500
  491.5000  -999.2500  -999.2500  -999.2500     0.3442  -999.2500   108.8349  -999.2500  -999.2500  -999.2500  -999.2500  -999.2500
  492.0000  -999.2500  -999.2500  -999.2500     0.3268  -999.2500   109.9115  -999.2500  -999.2500  -999.2500  -999.2500  -999.2500
  492.5000  -999.2500  -999.2500  -999.2500     0.3044  -999.2500   107.2812  -999.2500  -999.2500  -999.2500  -999.2500  -999.2500
  493.0000  -999.2500  -999.2500  -999.2500     0.3093  -999.2500   104.5381  -999.2500  -999.2500  -999.2500  -999.2500  -999.2500
  493.5000  -999.2500  -999.2500  -999.2500     0.3240  -999.2500   101.3129  -999.2500  -999.2500  -999.2500  -999.2500  -999.2500
  494.0000     2.3433     0.2576     0.1995     0.3387    13.3088    97.1781     2.3568    11.1639  -999.2500    15.1033     9.2859
  494.5000     2.2916     0.1884     0.2177     0.3430     6.9444    91.9734     5.2543    11.3518  -999.2500     3.1430     3.2640
  495.0000     2.3077     0.1191     0.2083     0.3307     2.5794    86.6013     5.2543    11.4819  -999.2500     1.7300     3.4245
  495.5000     2.4058     0.0578     0.1446     0.3060     1.7857    83.3477     5.2543    11.3748  -999.2500     1.6492     4.1290
  496.0000     2.3931     0.1004     0.1488     0.2932    -0.6458    84.9757     5.2379    11.2588  -999.2500     2.2564     4.9784
  496.5000     2.3637     0.3022     0.1558     0.2707    -2.3184    87.3490     5.3419    11.2101  -999.2500     3.5383     6.0026
  497.0000     2.3677     0.2326     0.1735     0.2750    -5.6644    89.5252     5.5371    11.0850  -999.2500     4.4346     7.1730
  497.5000     2.3744     0.1430     0.1405     0.2800    -9.0400    91.7393     5.7395    10.9696  -999.2500     6.9859     7.1601
  498.0000     2.4263     0.0606     0.1041     0.2824   -12.3591    94.0691     5.9493    10.8531  -999.2500     9.3152     7.4271
  498.5000     2.4868     0.0546     0.1051     0.2834   -15.7077    94.8740     6.1956    10.7297  -999.2500     9.0640     7.3562
  499.0000     2.4806     0.0493     0.1063     0.2827   -19.1363    94.7776     6.1956    10.6978  -999.2500     8.8215     7.3092
  499.5000     2.4758     0.0437     0.1073     0.2782   -22.3312    94.9973     6.1956    10.7579  -999.2500     8.5851     7.2626
  500.0000     2.4697     0.0415     0.1085     0.2819   -26.0498    94.9945     6.1956    10.8106  -999.2500     8.2991     7.2163
  500.5000     2.4709     0.0523     0.1095     0.2871   -27.3536   103.8442     6.1956    10.8623  -999.2500     8.3111     7.1730
  501.0000     2.4719     0.0623     0.1106     0.2934   -29.0588   115.5838     6.1956    10.9162  -999.2500     8.3013     6.7769
  501.5000     2.4705     0.0708     0.1117     0.2980   -29.6863   120.8513     6.1956    10.9588  -999.2500     8.3046     6.4200
  502.0000     2.4675     0.0791     0.1128     0.2900   -29.5128   117.5204     6.1956    10.9593  -999.2500     8.3046     6.0858
  502.5000     2.4643     0.0495     0.1100     0.2667   -29.0575   111.1413     6.1956    10.9627  -999.2500     8.0944     5.8843
  503.0000     2.4760     0.0251     0.1024     0.2659   -23.5063   104.1661     6.0820    10.9355  -999.2500     7.5708     5.9571
  503.5000     2.4876     0.0580     0.0893     0.2846   -17.5256   103.9937     5.8803    10.8801  -999.2500     6.8377     6.0308
  504.0000     2.5018     0.1280     0.0982     0.2930   -11.7549   107.5658     5.6853    10.8266  -999.2500     6.1756     6.1052
  504.5000     2.4755     0.1951     0.1301     0.2954    -4.9701   112.0828     5.4968    10.7745  -999.2500     5.5777     6.1804
  505.0000     2.4429     0.1736     0.1201     0.2980    -2.7995   110.8244     5.2543    10.7217  -999.2500     5.2543     6.2563
  505.5000     2.4567     0.1167     0.1079     0.2970    -0.2474   107.3039     5.4583    10.6646  -999.2500     5.5145     6.3101
  506.0000     2.4775     0.0670     0.0986     0.2928     0.6947   103.7287     5.7817    10.6334  -999.2500     5.9325     6.4741
  506.5000     2.4933     0.0842     0.0960     0.2840     0.7237   102.0556     6.1242    10.5874  -999.2500     6.3821     6.6592
  507.0000     2.4896     0.1032     0.0977     0.2763     2.9638   105.8977     6.4871    10.5418  -999.2500     6.8659     6.8497
  507.5000     2.4862     0.0965     0.0994     0.2806     4.5393   109.2893     6.7200    10.4934  -999.2500     7.3056     7.0456
  508.0000     2.4832     0.0899     0.1011     0.2851     4.9346   112.8701     6.8246    10.4468  -999.2500     7.7266     7.2471
  508.5000     2.4804     0.0764     0.1006     0.2835     5.4408   114.6093     6.9295    10.3994  -999.2500     8.0483     7.4544
  509.0000     2.4875     0.0576     0.0976     0.2765     5.9307   114.6732     7.0357    10.3518  -999.2500     8.2067     7.6675
  509.5000     2.4943     0.0433     0.0946     0.2700     6.0871   111.8715     7.1434    10.3173  -999.2500     8.3681     7.7624
  510.0000     2.4986     0.0521     0.0947     0.2634     5.8648   108.9230     7.3046    10.3210  -999.2500     8.5328     7.8206
  510.5000     2.4950     0.0671     0.0956     0.2562     5.6688   105.8877     7.2992    10.3245  -999.2500     8.7006     7.8792
  511.0000     2.4893     0.0691     0.0964     0.2666     5.4644   104.5450     7.2842    10.3288  -999.2500     8.8718     7.9383
  511.5000     2.4928     0.0586     0.0949     0.2690     5.2636   111.0913     7.2691    10.3330  -999.2500     8.9633     8.0051
  512.0000     2.4996     0.0488     0.0910     0.2716     5.1118   112.3816     7.2537    10.3371  -999.2500     9.0070     7.9448
  512.5000     2.5060     0.0390     0.0875     0.2703     4.3486   110.7059     7.2390    10.3412  -999.2500     9.0510     7.8769
  513.0000     2.5076     0.0328     0.0912     0.2675     2.8733   109.3001     7.2243    10.3453  -999.2500     9.1008     7.8095
  513.5000     2.4942     0.0414     0.0986     0.2643     1.4797   107.4612     7.2097    10.3499  -999.2500     9.0278     7.7427
  514.0000     2.4799     0.0498     0.1060     0.2710     0.2567   110.6814     7.1950    10.3531  -999.2500     8.8824     7.6764
  514.5000     2.4704     0.0585     0.1084     0.2865    -0.0520   118.6294     7.1730    10.3557  -999.2500     8.7394     7.5787
  515.0000     2.4755     0.0672     0.1052     0.2996    -0.2609   115.8196     7.1958    10.3245  -999.2500     8.5986     7.5845
  515.5000     2.4829     0.0767     0.0991     0.3068    -2.8905   110.2506     7.2427    10.2935  -999.2500     8.4602     7.5994
  516.0000     2.4896     0.0867     0.0932     0.2972    -6.0505   104.9708     7.2899    10.2611  -999.2500     8.3046     7.6144
  516.5000     2.4954     0.0962     0.0956     0.2883    -9.0900   121.4785     7.3374    10.2338  -999.2500     8.4210     7.6296
  517.0000     2.4882     0.1061     0.0996     0.2849   -11.4794   118.5773     7.3852    10.2203  -999.2500     8.5588     7.6448
  517.5000     2.4816     0.1171     0.1032     0.2748   -15.1319   116.2455     7.4406    10.2063  -999.2500     8.7736     7.6603
  518.0000     2.4766     0.1134     0.1065     0.2610   -19.4276   112.4030     7.3488    10.1926  -999.2500     8.6264     7.6758
