~VERSION INFORMATION
 VERS.                2.0:   CWLS LOG ASCII STANDARD - VERSION 2.0
 WRAP.                 NO:   ONE LINE PER DEPTH STEP
~WELL INFORMATION
#MNEM.UNIT      DATA TYPE    INFORMATION
#----------   ------------   ------------------------------
 STRT.F           20.0000:   START DEPTH
 STOP.F          805.5000:   STOP DEPTH
 STEP.F            0.5000:   STEP LENGTH
 NULL.          -999.2500:   NO VALUE
 COMP. FENIX & SCISSON INC:   COMPANY
 WELL.    16-SX-14 #16-14:   WELL
 FLD .             TEAPOT:   FIELD
 LOC .      S14 T38N R78W:   LOCATION
 CNTY.            NATRONA:   COUNTY
 STAT.            WYOMING:   STATE
 CTRY. UNITED STATES OF AMERICA:   COUNTRY
 SRVC.            Unknown:   SERVICE COMPANY
 DATE.        23-MAY-1978:   LOGDATE
 API .       490251063200:   API NUMBER
~CURVE INFORMATION
#MNEM.UNIT       API CODE    CURVE DESCRIPTION
#----------   ------------   ------------------------------
 DEPT.F                  :   
 SN  .OHMM   05 040 16 00:   SHORT NORMAL 16"
 ILD .OHMM   05 120 46 00:   INDUCTION LOG DEEP
 SPR .MV     05 010 01 00:   SPONTANEOUS POTENTIAL FROM RES.
 RHOB.G/C3   45 350 01 00:   BULK DENSITY
 DPOR.DEC    45 890 12 00:   DENSITY POROSITY SANDSTONE
 CORR.G/C3   45 356 01 00:   DENSITY CORRECTION
 GRD .GAPI   45 310 01 00:   GAMMA RAY FROM DENSITY LOG
 CALD.IN     45 280 60 00:   CALIPER FROM DENSITY LOG
~PARAMETER INFORMATION
#MNEM.UNIT          VALUE    DESCRIPTION
#----------   ------------   ------------------------------
 PD  .                 GL:   PERMANENT DATUM
 EPD .F              5246:   ELEVATION PERMANENT DATUM
 LMF .                 KB:   LOG MEASURED FROM
 DAPD.F                 4:   FEET ABOVE PERMANENT DATUM
 DMF .                 KB:   DRILLING MEASURED FROM
 EKB .F              5250:   KELLING BUSHING
 EGL .F              5246:   GROUND LEVEL
 DATE.          5-23-1978:   RUN DATE
 RUN .                  1:   RUN NUMBER
 DD  .F               825:   DEPTH DRILLER
 DL  .F               812:   DEPTH LOGGER
 BLI .F               805:   BOTTOM LOG INTERVAL
 TLI .F                40:   TOP LOG INTERVAL
 CS  .IN            8.625:   CASING SIZE
 CBD .F                40:   CASING BOTTOM DRILLER
 BS  .IN            7.875:   BIT SIZE
 BSD .F               825:   BIT SIZE AT DEPTH
 DFT .                KCL:   DRILLING FLUID TYPE
 DFD .                8.6:   DRILLING FLUID DENSITY
 DFV .                 30:   DRILLING FLUID VISCOSITY
 DFPH.                 11:   DRILLING FLUID PH
 DFL .                 14:   DRILLING FLUID LOSS
 MSS .            MUD PIT:   MUD SAMPLE SOURCE
 RMS .OHMM            .32:   RESISTIVITY MUD SAMPLE
 MST .F                72:   MUD SAMPLE TEMPERATURE
 RMF .OHMM            .28:   RESISTIVITY MUD FILTRATE SAMPLE
 MFST.F                72:   MUD FILTRATE SAMPLE TEMPERATURE
 RMC .OHMM            .50:   RESISTIVITY MUD CAKE
 MCST.F                82:   MUD CAKE SAMPLE TEMPERATURE
 MFSS.               MEAS:   MUD FILTRATE SAMPLE SOURCE
 RMB .OHMM            .31:   RESISTIVITY MUD AT BHT
 BHT .F                75:   BOTTOM HOLE TEMPERATURE
 TCS .HRS               2:   TIME CURCULATED STOPPED
 MRT .F                75:   MAXIMUM RECORDED TEMPERATURE
 LUN .               2958:   LOGGING UNIT NUMBER
 LUL .              CSPR.:   LOGGING UNIT LOCATION
 ENGI.             MILLER:   RECORDING ENGINEER
 WITN.            RHOADES:   WITNESSED BY
 CLNT.            A2DTECH:   CLIENT CODE
 ORIG.    1" , 2.5" PRINT:   ORIGIN OF DATA
 UWI .       490251063200:   UNIQUE WELL ID
 DICO. A2D Technologies, Inc.:   DIGITIZING COMPANY
~OTHER INFORMATION
~A   DEPT       SN        ILD        SPR       RHOB       DPOR       CORR         GRD      CALD   
# ...
  465.5000     6.8174     6.0965   -27.1058     2.4481     0.1374     0.0357    71.7010     6.9516
  466.0000     6.6856     6.0946   -27.0578     2.4483     0.1383     0.0347    69.8839     6.9434
  466.5000     6.7881     6.1129   -27.0124     2.4486     0.1377     0.0335    68.1401     6.9351
  467.0000     6.9038     6.1494   -26.9646     2.4490     0.1341     0.0322    70.4222     6.9268
  467.5000     7.0214     6.1851   -26.9178     2.4469     0.1400     0.0314    72.6078     6.9188
  468.0000     7.1411     6.2211   -26.8710     2.4416     0.1471     0.0307    73.2713     6.9111
  468.5000     7.3273     6.2572   -26.8239     2.4361     0.1523     0.0455    73.8295     6.9063
  469.0000     7.3212     6.2936   -26.7770     2.4308     0.1486     0.0626    74.6908     6.9425
  469.5000     7.3005     6.3302   -26.7300     2.4330     0.1377     0.0810    75.4813     7.0129
  470.0000     7.2798     6.3670   -26.6831     2.4587     0.1269     0.0906    75.1913     7.0580
  470.5000     7.2591     6.4040   -26.6362     2.4870     0.1148     0.0857    74.8377     7.0536
  471.0000     7.2384     6.4413   -26.5892     2.4904     0.1148     0.0819    75.3733     7.0542
  471.5000     7.2179     6.4787   -26.5422     2.4933     0.1148     0.0780    76.7111     6.1538
  472.0000     7.1950     6.5164   -26.4948     2.4947     0.1135     0.0739    78.0337     5.9561
  472.5000     7.2428     6.5543   -26.4478     2.4969     0.1113     0.0702    76.8419     5.8888
  473.0000     7.3507     6.5924   -26.3995     2.4990     0.1090     0.0701    74.3827     5.9028
  473.5000     7.4603     6.6308   -26.3528     2.5008     0.1068     0.0699    71.4969     6.0117
  474.0000     7.5715     6.6694   -26.3077     2.5029     0.1044     0.0700    70.3163     6.5005
  474.5000     7.6843     6.7083   -26.3019     2.5008     0.1083     0.0700    69.8095     6.8868
  475.0000     7.7988     6.7470   -26.2988     2.4986     0.1124     0.0721    69.4629     7.0548
  475.5000     7.8781     6.7862   -26.4123     2.4963     0.1132     0.0749    69.8974     7.2991
  476.0000     7.8285     6.8082   -26.8806     2.4927     0.1132     0.0777    71.4322     7.0584
  476.5000     7.7793     6.8082   -27.3517     2.4874     0.1185     0.0805    72.9496     6.8124
  477.0000     7.7303     6.8082   -27.8084     2.4830     0.1228     0.0831    72.6040     6.8653
  477.5000     7.6817     6.8082   -28.2863     2.4798     0.1198     0.0858    70.8526     7.0554
  478.0000     7.6038     6.8082   -28.2949     2.4805     0.1171     0.0853    68.9061     7.3321
  478.5000     7.6298     6.8082   -28.2945     2.4841     0.1170     0.0847    68.7558     7.2132
  479.0000     7.6979     6.8085   -28.2718     2.4828     0.1202     0.0839    71.4816     6.9979
  479.5000     7.7665     6.8068   -28.2598     2.4791     0.1235     0.0832    74.1087     6.9966
  480.0000     7.8357     6.8221   -28.2463     2.4804     0.1268     0.0826    75.5085     7.0441
  480.5000     7.9056     6.8468   -28.2308     2.4818     0.1173     0.0824    76.4990     7.1216
  481.0000     7.9761     6.8701   -28.2169     2.4833     0.1127     0.0872    76.8096     7.1926
  481.5000     8.0358     6.8940   -28.2025     2.4907     0.1154     0.0913    75.8460     7.2396
  482.0000     7.9071     6.9158   -28.1885     2.4978     0.1097     0.0957    73.9771     7.2723
  482.5000     7.7978     6.9347   -28.1746     2.5052     0.1028     0.0999    72.1136     7.3024
  483.0000     7.6900     6.8540   -28.1606     2.5131     0.1031     0.1041    75.6268     7.3309
  483.5000     7.5836     6.7573   -28.1467     2.5175     0.1036     0.1090    75.7542     7.3462
  484.0000     7.4788     6.6620   -28.1327     2.5169     0.1019     0.1054    74.9563     7.3376
  484.5000     7.3754     6.5619   -28.1188     2.5172     0.1016     0.0967    74.1222     7.3301
  485.0000     7.3288     6.5619   -28.1049     2.5159     0.1044     0.0818    74.0235     7.4184
  485.5000     7.2874     6.5619   -28.0909     2.5100     0.1089     0.0697    75.9071     6.7462
  486.0000     7.2518     6.5471   -28.0770     2.4990     0.1138     0.0648    81.7015     6.8490
  486.5000     7.2164     6.4770   -28.0630     2.4887     0.1187     0.0632    85.0548     7.1135
  487.0000     7.1811     6.4077   -28.0491     2.4787     0.1236     0.0611    84.1789     7.1140
  487.5000     7.1460     6.3391   -28.0351     2.4716     0.1285     0.0586    84.2745     7.0710
  488.0000     7.1111     6.2713   -28.0212     2.4659     0.1308     0.0609    85.9422     7.0325
  488.5000     7.0764     6.2042   -28.0070     2.4635     0.1279     0.0678    87.6066     6.9970
  489.0000     7.0418     6.1378   -27.9931     2.4663     0.1254     0.0748    85.3957     6.9545
  489.5000     7.0074     6.0721   -27.9786     2.4683     0.1229     0.0773    80.9683     6.9237
  490.0000     6.9732     6.0071   -27.9648     2.4706     0.1238     0.0743    81.9933     6.8059
  490.5000     6.9347     5.8270   -27.9517     2.4654     0.1303     0.0717    82.5709     6.6886
  491.0000     6.8063     5.6325   -27.9341     2.4591     0.1372     0.0681    80.9974     6.6426
  491.5000     6.5500     5.4444   -27.9248     2.4532     0.1360     0.0624    82.6236     6.6283
  492.0000     6.3006     5.3251   -27.9226     2.4540     0.1352     0.0569    86.2477     6.6084
  492.5000     6.0609     5.2621   -28.0907     2.4546     0.1345     0.0510    89.3414     6.5880
  493.0000     5.8730     5.2002   -28.2365     2.4542     0.1337     0.0456    93.6783     6.5788
  493.5000     5.8767     5.1392   -28.3929     2.4520     0.1348     0.0371    92.3539     6.5795
  494.0000     5.8770     5.0710   -28.5462     2.4491     0.1397     0.0292    88.0910     6.5787
  494.5000     5.8725     5.1622   -28.6989     2.4469     0.1446     0.0206    83.8642     6.5806
  495.0000     6.0529     5.2702   -28.8519     2.4383     0.1482     0.0200    81.2923     6.5790
  495.5000     6.2170     5.3805   -29.0072     2.4340     0.1473     0.0247    83.1202     6.5929
  496.0000     6.3874     5.4931   -29.1587     2.4339     0.1464     0.0290    85.2430     6.7139
  496.5000     6.5626     5.6081   -29.3089     2.4364     0.1455     0.0329    84.3337     6.8682
  497.0000     6.8082     5.7255   -29.4769     2.4380     0.1446     0.0405    82.8471     7.0136
  497.5000     6.7894     5.7681   -29.4242     2.4420     0.1436     0.0495    80.9077     7.0174
  498.0000     6.7603     5.7681   -29.2355     2.4480     0.1393     0.0553    83.6105     7.0224
  498.5000     6.7313     5.7681   -29.0625     2.4537     0.1341     0.0572    87.2608     7.0198
  499.0000     6.7024     5.7681   -28.8923     2.4591     0.1290     0.0566    87.8920     7.0200
  499.5000     6.6739     5.7681   -28.7188     2.4647     0.1270     0.0532    85.2082     7.0205
  500.0000     6.6449     5.7681   -28.5471     2.4637     0.1277     0.0498    83.3037     7.0196
  500.5000     6.6161     5.7681   -28.3685     2.4626     0.1284     0.0467    82.3975     7.0200
  501.0000     6.5875     5.7473   -28.3566     2.4612     0.1291     0.0435    84.1421     7.0198
  501.5000     6.5612     5.6623   -28.5592     2.4599     0.1298     0.0398    85.4044     7.0178
  502.0000     6.4673     5.5789   -28.7537     2.4587     0.1321     0.0390    83.8370     7.0480
  502.5000     6.3810     5.4965   -28.9506     2.4572     0.1351     0.0440    82.3602     7.1387
  503.0000     6.2961     5.4155   -29.1486     2.4536     0.1380     0.0450    82.9954     7.2235
  503.5000     6.2127     5.3355   -29.3447     2.4497     0.1474     0.0391    84.3819     7.3126
  504.0000     6.1306     5.2568   -29.5443     2.4391     0.1566     0.0295    85.7157     7.4093
  504.5000     6.0496     5.1653   -29.7400     2.4214     0.1660     0.0191    87.1519     7.4339
  505.0000     5.9694     4.9693   -29.9150     2.4037     0.1753     0.0293    86.6474     7.3238
  505.5000     5.8795     4.7404   -29.9177     2.3860     0.1779     0.0416    85.6024     7.2203
