~VERSION INFORMATION
 VERS.                2.0:   CWLS LOG ASCII STANDARD - VERSION 2.0
 WRAP.                 NO:   ONE LINE PER DEPTH STEP
~WELL INFORMATION
#MNEM.UNIT      DATA TYPE    INFORMATION
#----------   ------------   ------------------------------
 STRT.F            8.0000:   START DEPTH
 STOP.F          513.0000:   STOP DEPTH
 STEP.F            0.5000:   STEP LENGTH
 NULL.          -999.2500:   NO VALUE
 COMP. LAWRENCE-ALLISON &AS:   COMPANY
 WELL. NPR 3 #51-63SX10UP3:   WELL
 FLD .             TEAPOT:   FIELD
 LOC .      S10 T38N R78W:   LOCATION
 CNTY.            NATRONA:   COUNTY
 STAT.            WYOMING:   STATE
 CTRY. UNITED STATES OF AMERICA:   COUNTRY
 SRVC.      Dresser Atlas:   SERVICE COMPANY
 DATE.        09-DEC-1984:   LOGDATE
 API .       490251099400:   API NUMBER
~CURVE INFORMATION
#MNEM.UNIT       API CODE    CURVE DESCRIPTION
#----------   ------------   ------------------------------
 DEPT.F                  :   
 RFOC.OHMM   07 220 01 00:   RESISTIVITY FOCUSED LOG
 RILD.OHMM   07 120 46 00:   INDUCTION LOG DEEP RESISTIVITY
 RILM.OHMM   07 120 44 00:   RESITIVITY LONG MEDIUM
 SPR .MV     07 010 01 00:   SPONTANEOUS POTENTIAL
 CALD.IN     45 280 60 00:   CALIPER FROM DENSITY LOG
 CORR.none               :   
 DEN .G/C3   45 350 01 00:   COMPENSATED BULK DENSTIY
 GRD .GAPI   45 310 01 00:   GAMMA RAY FROM DENSITY LOG
 PORD.DEC    45 890 12 00:   POROSITY DENSITY SANDSTONE
 CNC .DEC    42 890 03 00:   NEUTRON POROSITY SANDSTONE
~PARAMETER INFORMATION
#MNEM.UNIT          VALUE    DESCRIPTION
#----------   ------------   ------------------------------
 PD  .                 GL:   PERMANENT DATUM
 EPD .F              5162:   ELEVATION PERMANENT DATUM
 LMF .                 GL:   LOG MEASURED FROM
 DMF .                 GL:   DRILLING MEASURED FROM
 EGL .F              5162:   GROUND LEVEL
 DATE.        09-DEC-1984:   RUN DATE
 RUN .                  1:   RUN NUMBER
 DD  .F               510:   DEPTH DRILLER
 DL  .F               515:   DEPTH LOGGER
 BLI .F               513:   BOTTOM LOG INTERVAL
 TLI .F                20:   TOP LOG INTERVAL
 CS  .IN            8.625:   CASING SIZE
 CBD .F                20:   CASING BOTTOM DRILLER
 CBL .F                20:   CASING BOTTOM LOGGER
 BS  .IN            7.875:   BIT SIZE
 BSD .F               510:   BIT SIZE AT DEPTH
 DFT .          KCL-WATER:   DRILLING FLUID TYPE
 MSS .            MUDTANK:   MUD SAMPLE SOURCE
 RMS .OHMM           0.41:   RESISTIVITY MUD SAMPLE
 MST .F                45:   MUD SAMPLE TEMPERATURE
 RMF .OHMM           0.31:   RESISTIVITY MUD FILTRATE SAMPLE
 MFST.F                45:   MUD FILTRATE SAMPLE TEMPERATURE
 RMC .OHMM           0.51:   RESISTIVITY MUD CAKE
 MCST.F                45:   MUD CAKE SAMPLE TEMPERATURE
 MFSS.               CALC:   MUD FILTRATE SAMPLE SOURCE
 MCSS.               CALC:   MUD CAKE SAMPLE SOURCE
 RMB .OHMM           0.22:   RESISTIVITY MUD AT BHT
 BHT .F                85:   BOTTOM HOLE TEMPERATURE
 TCS .HRS               2:   TIME CURCULATED STOPPED
 MRT .F               100:   MAXIMUM RECORDED TEMPERATURE
 LUN .               6270:   LOGGING UNIT NUMBER
 LUL .                 FM:   LOGGING UNIT LOCATION
 ENGI.          E. GOVETT:   RECORDING ENGINEER
 WITN.              LUERS:   WITNESSED BY
 CLNT.            A2DTECH:   CLIENT CODE
 ORIG.           5" PRINT:   ORIGIN OF DATA
 UWI .       490251099400:   UNIQUE WELL ID
 DICO. A2D Technologies, Inc.:   DIGITIZING COMPANY
~OTHER INFORMATION
~A    DEPT    RFOC       RILD       RILM        SPR       CALD       CORR        DEN        GRD       PORD          CNC 
# ...
  376.5000    15.3308    12.2302    10.5366   -37.4086     8.1070     0.0372     2.4472    85.1744     0.1372     0.2403
  377.0000    15.2309    12.0697    10.4707   -37.3965     8.1224     0.0416     2.4448    85.3203     0.1390     0.2432
  377.5000    15.1336    11.9110    10.4804   -37.5333     8.1529     0.0353     2.4440    84.8647     0.1403     0.2451
  378.0000    15.1440    11.8248    10.6320   -37.6702     8.1802     0.0275     2.4456    83.7874     0.1409     0.2463
  378.5000    15.0452    11.6810    10.7883   -37.8071     8.1644     0.0230     2.4494    82.8807     0.1400     0.2481
  379.0000    15.0555    11.5294    11.0247   -37.7949     8.1336     0.0228     2.4531    82.4442     0.1378     0.2499
  379.5000    14.9594    11.4553    11.1867   -37.7807     8.1181     0.0318     2.4564    83.3420     0.1351     0.2496
  380.0000    14.8190    11.3837    11.2724   -37.7690     8.1024     0.0408     2.4613    84.3902     0.1321     0.2451
  380.5000    14.5651    11.3125    11.2001   -37.9088     8.1018     0.0345     2.4613    85.4384     0.1315     0.2408
  381.0000    14.4721    11.3221    10.9783   -38.1914     8.0861     0.0268     2.4590    86.1859     0.1321     0.2445
  381.5000    14.3797    11.4089    10.8341   -38.4798     8.0854     0.0206     2.4582    86.4833     0.1321     0.2475
  382.0000    14.2879    11.4964    10.7646   -39.0595     8.0849     0.0159     2.4582    84.8236     0.1318     0.2491
  382.5000    14.2977    11.5846    10.8489   -39.3449     8.0843     0.0143     2.4597    83.1650     0.1306     0.2506
  383.0000    14.3055    11.6734    10.8563   -39.6304     8.0837     0.0248     2.4627    82.4087     0.1288     0.2512
  383.5000    14.4131    11.7651    10.8638   -39.7702     8.0831     0.0353     2.4665    83.3065     0.1270     0.2497
  384.0000    14.4413    11.9361    10.9470   -39.9071     8.0825     0.0412     2.4695    84.8059     0.1252     0.2432
  384.5000    14.5296    11.9460    10.8032   -39.8924     8.0819     0.0411     2.4679    84.9519     0.1261     0.2366
  385.0000    14.5375    12.0376    10.6938   -39.8807     8.0813     0.0409     2.4656    84.7970     0.1280     0.2458
  385.5000    14.4427    11.9623    10.4502   -40.0178     8.0957     0.0453     2.4633    85.4141     0.1295     0.2500
  386.0000    14.2953    11.9705    10.2416   -40.1545     8.0952     0.0497     2.4625    87.1038     0.1307     0.2509
  386.5000    14.2220    11.8936    10.0371   -40.1426     8.0946     0.0390     2.4625    88.5420     0.1310     0.2494
  387.0000    14.1695    11.8192     9.8366   -40.1308     8.0940     0.0267     2.4624    87.4849     0.1304     0.2543
  387.5000    14.1775    11.7473     9.7058   -40.2679     8.0933     0.0174     2.4639    86.2775     0.1286     0.2564
  388.0000    14.1365    11.7553     9.5136   -40.4048     8.0776     0.0112     2.4669    85.0700     0.1271     0.2589
  388.5000    14.0947    11.6814     9.3871   -40.6874     8.0770     0.0141     2.4695    84.9163     0.1253     0.2628
  389.0000    14.0047    11.6087     9.2638   -40.9758     8.0764     0.0201     2.4714    86.8657     0.1271     0.2671
  389.5000    13.9094    11.4561     9.2717   -41.2612     8.0759     0.0169     2.4661    87.6142     0.1289     0.2659
  390.0000    13.8270    11.3004     9.2780   -41.2466     8.0602     0.0137     2.4630    86.5560     0.1307     0.2555
  390.5000    13.6449    11.0796     9.1562   -41.3864     8.0748     0.0136     2.4569    85.6493     0.1326     0.2455
  391.0000    13.4621    10.9358     9.0990   -41.3717     8.0741     0.0135     2.4485    85.1938     0.1366     0.2398
  391.5000    13.1932    10.7173     9.0421   -41.3611     8.0734     0.0133     2.4402    89.3999     0.1414     0.2398
  392.0000    12.9280    10.5746     9.0485   -41.3483     8.0879     0.0117     2.4348    92.1022     0.1445     0.2398
  392.5000    12.7548    10.4356     9.1192   -41.4881     8.0873     0.0100     2.4340    93.3008     0.1460     0.2386
  393.0000    12.6733    10.2288     9.2531   -41.6221     8.0906     0.0099     2.4394    93.9178     0.1417     0.2386
  393.5000    12.8595    10.0944     9.3891   -41.7590     8.1012     0.0158     2.4473    95.1363     0.1359     0.2383
  394.0000    13.2293     9.8909     9.3304   -41.8958     8.1006     0.0339     2.4575    94.4893     0.1309     0.2374
  394.5000    12.6079     9.6277     8.9554   -41.8841     8.1000     0.0474     2.4650    93.4323     0.1257     0.2450
  395.0000    12.0157     9.3699     8.4768   -42.0210     8.0994     0.0412     2.4665    93.1282     0.1281     0.2562
  395.5000    11.6087     9.1190     8.1928   -42.3065     8.0988     0.0274     2.4612    95.2279     0.1309     0.2614
  396.0000    11.3782     8.9351     7.9736   -42.6191     8.0831     0.0167     2.4581    96.5780     0.1330     0.2647
  396.5000    11.3055     8.7518     7.8686   -43.0231     8.0825     0.0089     2.4641    94.1664     0.1321     0.2608
  397.0000    11.3133     8.4660     7.8742   -43.3085     8.0819     0.0164     2.4717    93.4101     0.1276     0.2587
  397.5000    11.3194     8.2393     7.6635   -43.4483     8.0813     0.0314     2.4762    94.1575     0.1230     0.2772
  398.0000    10.7130     7.7986     7.1480   -43.7338     8.0807     0.0236     2.4739    96.1091     0.1203     0.2921
  398.5000    10.1391     6.9335     6.6625   -43.8707     8.0650     0.0126     2.4731    95.0509     0.1227     0.2952
  399.0000     9.4634     6.3825     6.0219   -44.0075     8.0645     0.0052     2.4750    94.4450     0.1237     0.2903
  399.5000     8.0696     5.9577     5.5053   -44.2901     8.0488     0.0218     2.4761    97.2977     0.1218     0.2851
  400.0000     6.0300     5.7349     5.1750   -44.7235     8.0481     0.0384     2.4617   102.2556     0.1206     0.2919
  400.5000     5.0357     5.6412     4.8306   -44.7140     8.0474     0.0307     2.4411   108.5666     0.1378     0.3113
  401.0000     5.1090     5.7237     4.7004   -45.0017     8.0467     0.0262     2.4077   113.3742     0.1631     0.3015
  401.5000     7.7035     6.2684     5.0429   -44.9922     8.0458     0.0368     2.3985   108.4074     0.1677     0.2829
  402.0000    11.4551     7.4110     5.6007   -44.8342     8.0601     0.0565     2.4275   101.4857     0.1483     0.2448
  402.5000    13.2627     8.0042     6.1771   -44.6761     8.0594     0.0702     2.4604    96.3308     0.1167     0.2311
  403.0000    12.9961     8.2340     6.8604   -44.6666     8.0437     0.0808     2.5115    94.3900     0.1013     0.2393
  403.5000    12.2998     8.5891     7.4621   -44.3599     8.0428     0.0792     2.5252    94.1029     0.0894     0.2527
  404.0000    11.8862     9.0220     8.2301   -44.0533     8.0421     0.0730     2.5282    95.6022     0.0904     0.2582
  404.5000    11.7285     9.4110     9.0772   -44.0438     8.0414     0.0638     2.5251    96.2004     0.0922     0.2622
  405.0000    11.8993     9.6141     9.5394   -44.0342     8.0406     0.0519     2.5266    94.0896     0.0940     0.2695
  405.5000    11.9889     9.8216     9.8197   -43.8759     8.0549     0.0458     2.5288    93.1829     0.0937     0.2744
  406.0000    11.9969    10.0335    10.0960   -43.8644     8.0542     0.0533     2.5311    93.0292     0.0909     0.2731
  406.5000    12.0035    10.1790    10.3155   -43.5577     8.0535     0.0685     2.5325    94.6778     0.0880     0.2601
  407.0000    12.0938    10.3267    10.5397   -42.9538     8.0527     0.0564     2.5249    95.7260     0.0931     0.2583
  407.5000    12.1848    10.3413    10.6942   -42.3500     8.0519     0.0427     2.5172    96.6239     0.0980     0.2598
  408.0000    12.5352    10.4089    10.8509   -41.4490     8.0512     0.0335     2.5096    97.5217     0.1001     0.2586
  408.5000    12.8957    10.4876    11.0100   -40.6966     8.0505     0.0366     2.5111    98.4195     0.1011     0.2529
  409.0000    13.2665    10.5659    11.1713   -39.9441     8.0497     0.0548     2.5156    98.8662     0.0999     0.2459
  409.5000    13.4596    10.6448    11.2566   -39.6375     8.0488     0.0608     2.5133    99.1995     0.0987     0.2395
