~VERSION INFORMATION
 VERS.                2.0:   CWLS LOG ASCII STANDARD - VERSION 2.0
 WRAP.                 NO:   ONE LINE PER DEPTH STEP
~WELL INFORMATION
#MNEM.UNIT      DATA TYPE    INFORMATION
#----------   ------------   ------------------------------
 STRT.F           60.0000:   START DEPTH
 STOP.F          482.0000:   STOP DEPTH
 STEP.F            0.5000:   STEP LENGTH
 NULL.          -999.2500:   NO VALUE
 COMP. BROWN JOHN E&C INC:   COMPANY
 WELL. NPR 3 68 SX-3 #68-1-3:   WELL
 FLD .             TEAPOT:   FIELD
 LOC .       S3 T38N R78W:   LOCATION
 CNTY.            NATRONA:   COUNTY
 STAT.            WYOMING:   STATE
 CTRY. UNITED STATES OF AMERICA:   COUNTRY
 SRVC.     Atlas Wireline:   SERVICE COMPANY
 DATE.        29-SEP-1991:   LOGDATE
 API .       490252244800:   API NUMBER
~CURVE INFORMATION
#MNEM.UNIT       API CODE    CURVE DESCRIPTION
#----------   ------------   ------------------------------
 DEPT.F                  :   
 CALD.IN     45 280 60 00:   CALIPER FROM DENSITY LOG
 CNC .DEC    42 890 03 00:   NEUTRON POROSITY SANDSTONE
 CORR.G/C3   45 356 01 00:   DENSITY CORRECTION
 GRD .GAPI   45 310 01 00:   GAMMA RAY FROM DENSITY LOG
 PORD.DEC    45 890 12 00:   POROSITY DENSITY SANDSTONE
 RHOB.G/C3   45 350 01 00:   BULK DENSITY
 RFOC.OHMM   07 220 04 00:   RESISTIVITY FOCUSED LOG
 RILD.OHMM   07 120 46 00:   RESISTIVITY INDUCTION LOG DEEP
 RILM.OHMM   07 120 44 00:   RESISTIVITY INDUCTION LOG MEDIUM
~PARAMETER INFORMATION
#MNEM.UNIT          VALUE    DESCRIPTION
#----------   ------------   ------------------------------
 PD  .                 GL:   PERMANENT DATUM
 EPD .F              5153:   ELEVATION PERMANENT DATUM
 LMF .                 KB:   LOG MEASURED FROM
 DAPD.F                10:   FEET ABOVE PERMANENT DATUM
 DMF .                 KB:   DRILLING MEASURED FROM
 EKB .F              5163:   KELLING BUSHING
 EGL .F              5153:   GROUND LEVEL
 DATE.        29-SEP-1991:   RUN DATE
 RUN .                  1:   RUN NUMBER
 DD  .F               485:   DEPTH DRILLER
 DL  .F               485:   DEPTH LOGGER
 BLI .F               482:   BOTTOM LOG INTERVAL
 CS  .IN            8.625:   CASING SIZE
 CBD .F                98:   CASING BOTTOM DRILLER
 CBL .F               100:   CASING BOTTOM LOGGER
 BS  .IN            7.875:   BIT SIZE
 BSD .F               485:   BIT SIZE AT DEPTH
 DFT .           CHEM GEL:   DRILLING FLUID TYPE
 DFD .               15.4:   DRILLING FLUID DENSITY
 DFV .                 38:   DRILLING FLUID VISCOSITY
 DFPH.                9.0:   DRILLING FLUID PH
 DFL .                8.0:   DRILLING FLUID LOSS
 MSS .           FLOWLINE:   MUD SAMPLE SOURCE
 RMS .OHMM           1.65:   RESISTIVITY MUD SAMPLE
 MST .F                90:   MUD SAMPLE TEMPERATURE
 RMF .OHMM           1.32:   RESISTIVITY MUD FILTRATE SAMPLE
 MFST.F                90:   MUD FILTRATE SAMPLE TEMPERATURE
 RMC .OHMM           2.06:   RESISTIVITY MUD CAKE
 MCST.F                90:   MUD CAKE SAMPLE TEMPERATURE
 MFSS.               CALC:   MUD FILTRATE SAMPLE SOURCE
 MCSS.               CALC:   MUD CAKE SAMPLE SOURCE
 RMB .OHMM           1.65:   RESISTIVITY MUD AT BHT
 BHT .F                90:   BOTTOM HOLE TEMPERATURE
 TCS .HRS               1:   TIME CURCULATED STOPPED
 MRT .F                90:   MAXIMUM RECORDED TEMPERATURE
 LUN .            HL 6272:   LOGGING UNIT NUMBER
 LUL .             CASPER:   LOGGING UNIT LOCATION
 ENGI. WADDELL/ OTTERHOLT:   RECORDING ENGINEER
 WITN.             STRONG:   WITNESSED BY
 CLNT.            A2DTECH:   CLIENT CODE
 ORIG.           5" PRINT:   ORIGIN OF DATA
 UWI .       490252244800:   UNIQUE WELL ID
 DICO. A2D Technologies, Inc.:   DIGITIZING COMPANY
~OTHER INFORMATION
~A   DEPT     CALD        CNC       CORR         GRD      PORD       RHOB       RFOC       RILD       RILM   
# ...
  242.5000     8.4552     0.3220     0.0036    96.0363     0.0706     2.5308     7.9850     7.5507     7.0280
  243.0000     8.4553     0.3223     0.0036    97.2587     0.0742     2.5263     7.9894     7.5002     6.9354
  243.5000     8.4555     0.3226     0.0021    98.7159     0.0757     2.5240     7.9368     7.5553     6.9412
  244.0000     8.4557     0.3219     0.0021    99.3166     0.0748     2.5263     7.9422     7.6635     6.9459
  244.5000     8.4558     0.3207     0.0006    99.0066     0.0736     2.5286     7.8332     7.6114     6.9506
  245.0000     8.4560     0.3195     0.0021   100.5135     0.0729     2.5293     7.6249     7.2937     6.8589
  245.5000     8.4407     0.3192     0.0021   100.5075     0.0730     2.5262     7.4695     7.0051     6.8636
  246.0000     8.4408     0.3283     0.0037    98.0810     0.0756     2.5217     7.3696     7.0070     6.7731
  246.5000     8.4255     0.3319     0.0037    98.3776     0.0771     2.5217     7.2214     7.0089     6.6354
  247.0000     8.4257     0.3328     0.0037    99.2793     0.0750     2.5240     7.1739     7.0107     6.6894
  247.5000     8.4103     0.3297     0.0037    99.5774     0.0725     2.5263     7.1788     7.0617     6.9799
  248.0000     8.4105     0.3252     0.0022    99.5700     0.0701     2.5293     7.1827     7.0637     7.0827
  248.5000     8.4107     0.3206     0.0022    98.6563     0.0685     2.5339     7.3400     7.0164     6.9893
  249.0000     8.4108     0.3164     0.0007    94.7169     0.0682     2.5392     7.7127     6.9215     6.8017
  249.5000     8.4110     0.3127     0.0007    91.1870     0.0682     2.5415     7.9917     6.6395     6.6189
  250.0000     8.4421     0.3121     0.0038    91.6793     0.0688     2.5392     8.1087     5.8984     6.2207
  250.5000     8.4271     0.3147     0.0068    88.0484     0.0688     2.5385     8.2250     5.0959     5.7214
  251.0000     8.4430     0.3236     0.0068    91.6793     0.0688     2.5370     8.2273     4.5907     5.1533
  251.5000     8.4280     0.3517     0.0084    94.8099     0.0764     2.5293     7.9722     4.0718     4.1672
  252.0000     8.4440     0.3778     0.0068   101.0590     0.1042     2.5049     6.8148     3.8047     3.5612
  252.5000     8.4444     0.4138     0.0068   104.6899     0.1518     2.3565     3.7340     3.5991     3.9538
  253.0000     8.4603     0.4280     0.0059   104.9924     0.1809     2.3458     4.0057     3.7020     4.3897
  253.5000     8.4608     0.3736     0.0053   101.9667     0.1356     2.3679     5.1549     3.9984     4.7396
  254.0000     8.4612     0.3168     0.0053    97.1256     0.1045     2.4586     6.8700     4.2587     5.1533
  254.5000     8.4617     0.3017     0.0053    94.7050     0.0833     2.4997     8.4228     5.4414     5.6620
  255.0000     8.4621     0.2971     0.0053    93.1921     0.0688     2.5309     8.5392     5.7254     6.5318
  255.5000     8.4626     0.2990     0.0053    94.7050     0.0691     2.5355     8.2483     7.2437     7.3027
  256.0000     8.4631     0.3028     0.0053    98.9410     0.0694     2.5401     8.1925     7.7692     7.7216
  256.5000     8.4635     0.3013     0.0053    97.7307     0.0675     2.5401     8.0808     7.6631     7.9400
  257.0000     8.4640     0.2940     0.0053    94.0998     0.0663     2.5401     8.0835     7.6657     8.0515
  257.5000     8.4645     0.2976     0.0053    91.6793     0.0648     2.5431     8.0857     7.5615     8.0515
  258.0000     8.4804     0.3013     0.0038    91.6511     0.0663     2.5470     8.0884     7.5636     8.0515
  258.5000     8.4808     0.3073     0.0038    92.8896     0.0715     2.5416     8.0906     7.6724     8.0515
  259.0000     8.4813     0.3097     0.0038    93.7973     0.0718     2.5371     8.0928     7.7823     8.1645
  259.5000     8.4662     0.3084     0.0038    94.7050     0.0715     2.5340     8.3248     7.9491     8.3954
  260.0000     8.4668     0.3024     0.0038    95.3101     0.0721     2.5318     8.6841     8.0069     8.6329
  260.5000     8.4673     0.2848     0.0027    94.0998     0.0763     2.5286     9.3162     8.8927     9.2999
  261.0000     8.4832     0.2781     0.0008    86.8381     0.0933     2.5234    10.0103    10.8144    10.9423
  261.5000     8.4836     0.2769     0.0008    78.9713     0.1069     2.5143    11.0268    12.1997    12.1486
  262.0000     8.4842     0.2871    -0.0008    71.3664     0.1272     2.4450    12.3367    12.8831    13.2088
  262.5000     8.4845     0.3098    -0.0053    65.4565     0.1687     2.3749    13.8022    13.6264    14.0642
  263.0000     8.4851     0.3213    -0.0053    60.2118     0.1866     2.3467    15.0155    14.2128    14.7677
  263.5000     8.4855     0.3228    -0.0068    59.0015     0.1948     2.3338    14.9148    14.6190    15.1853
  264.0000     8.4859     0.3183    -0.0068    61.7247     0.1908     2.3330    13.8083    14.8284    15.2916
  264.5000     8.4864     0.3110    -0.0053    60.2118     0.1899     2.3346    13.7207    14.6252    15.0798
  265.0000     8.4869     0.3067    -0.0008    58.0938     0.1911     2.3346    14.3140    14.2118    14.8710
  265.5000     8.4873     0.3073     0.0010    59.3061     0.1923     2.3338    14.9319    13.7449    14.4620
  266.0000     8.4878     0.3136     0.0038    60.2118     0.1926     2.3331    14.3217    13.2772    14.0642
  266.5000     8.4883     0.3254     0.0008    60.5144     0.1905     2.3376    13.8329    13.0057    13.6616
  267.0000     8.4887     0.3278    -0.0023    59.9092     0.1869     2.3476    13.6443    12.7388    13.2088
  267.5000     8.4892     0.3306    -0.0023    59.3041     0.1802     2.3575    13.3506    12.3923    13.1170
  268.0000     8.4896     0.3333    -0.0023    58.3964     0.1735     2.3651    12.7297    12.3095    12.9354
  268.5000     8.4901     0.3360    -0.0023    57.4887     0.1723     2.3651    12.2095    12.3999    12.9354
  269.0000     8.4906     0.3359     0.0001    59.6067     0.1781     2.3541    12.0423    12.6656    12.9354
  269.5000     8.4910     0.3316     0.0038    61.4221     0.1826     2.3484    12.1309    12.7577    13.1170
  270.0000     8.4894     0.3211     0.0068    61.4221     0.1798     2.3552    13.4773    12.9404    13.1170
  270.5000     8.4765     0.3092     0.0068    60.8169     0.1753     2.3621    14.3666    12.9439    13.1170
  271.0000     8.4770     0.3110     0.0053    60.8169     0.1726     2.3644    14.6660    13.0381    13.1170
  271.5000     8.4774     0.3150     0.0053    60.2118     0.1765     2.3644    14.1664    13.1330    13.2088
  272.0000     8.4779     0.3234     0.0068    59.3041     0.1911     2.3591    13.7790    13.3219    13.3012
  272.5000     8.4629     0.3270     0.0084    58.3964     0.1947     2.3415    13.5903    13.5128    13.4880
  273.0000     8.4634     0.3273     0.0068    55.3061     0.1938     2.3339    13.6903    13.5164    13.6774
  273.5000     8.4793     0.3273    -0.0023    52.3449     0.1856     2.3379    13.6940    13.8060    13.6774
  274.0000     8.4180     0.3252    -0.0190    52.9501     0.1739     2.3469    13.3204    14.1019    13.8695
  274.5000     8.3412     0.3185    -0.0205    53.5552     0.1686     2.3667    13.1379    14.3039    14.0642
  275.0000     8.2797     0.3097    -0.0160    53.5552     0.1702     2.3713    13.6104    14.5259    14.2617
  275.5000     8.2492     0.3085    -0.0084    53.5552     0.1841     2.3660    14.2977    14.7176    14.4620
  276.0000     8.2034     0.3103    -0.0023    53.5552     0.1935     2.3485    15.1251    14.9285    14.7677
  276.5000     8.1884     0.3142    -0.0023    53.5552     0.2011     2.3287    15.3424    15.3551    14.8710
  277.0000     8.1727     0.3208    -0.0023    53.5552     0.2044     2.3188    14.9098    15.4668    14.9750
  277.5000     8.1584     0.3214    -0.0038    53.5552     0.2059     2.3165    14.3131    15.5793    15.2916
  278.0000     8.1410     0.3171    -0.0038    56.5809     0.1965     2.3195    14.9319    15.9206    15.5063
  278.5000     8.1284     0.3093    -0.0023    59.3041     0.1910     2.3317    15.5765    16.3690    16.0564
