~VERSION INFORMATION
 VERS.                2.0:   CWLS LOG ASCII STANDARD - VERSION 2.0
 WRAP.                 NO:   ONE LINE PER DEPTH STEP
~WELL INFORMATION
#MNEM.UNIT      DATA TYPE    INFORMATION
#----------   ------------   ------------------------------
 STRT.F           20.5000:   START DEPTH
 STOP.F          544.0000:   STOP DEPTH
 STEP.F            0.5000:   STEP LENGTH
 NULL.          -999.2500:   NO VALUE
 COMP. LAWRENCE/ALLISON INC:   COMPANY
 WELL.    45-65 SX #10-10:   WELL
 FLD .             TEAPOT:   FIELD
 LOC .      S10 T38N R78W:   LOCATION
 CNTY.            NATRONA:   COUNTY
 STAT.            WYOMING:   STATE
 CTRY. UNITED STATES OF AMERICA:   COUNTRY
 SRVC.            Unknown:   SERVICE COMPANY
 DATE.        01-SEP-1984:   LOGDATE
 API .       490251098400:   API NUMBER
~CURVE INFORMATION
#MNEM.UNIT       API CODE    CURVE DESCRIPTION
#----------   ------------   ------------------------------
 DEPT.F                  :   
 GRD .GAPI   45 310 01 00:   GAMMA RAY FROM DENSITY LOG
 CALD.IN     45 280 60 00:   CALIPER
 DEN .G/C3   45 350 01 00:   COMPENSATED BULK DENSTIY
 CORR.G/C3   45 356 01 00:   DENSITY CORRECTION
 CNC .DEC    42 890 03 00:   NEUTRON POROSITY SANDSTONE
 PORD.DEC    45 890 12 00:   POROSITY DENSITY SANDSTONE
 AC  .US/F   60 520 00 00:   ACOUSTIC SONIC
 SPR .MV     07 010 01 00:   SPONTANEOUS POTENTIAL
 RILD.OHMM   07 120 46 00:   INDUCTION LOG DEEP RESISTIVITY
 RILM.OHMM   07 120 44 00:   INDUCTION LOG MEDIUM RESISTIVITY
 RFOC.OHMM   07 220 04 00:   RESISTIVITY FOCUSED LOG
~PARAMETER INFORMATION
#MNEM.UNIT          VALUE    DESCRIPTION
#----------   ------------   ------------------------------
 PD  .                 GL:   PERMANENT DATUM
 EPD .F              5208:   ELEVATION PERMANENT DATUM
 LMF .                 KB:   LOG MEASURED FROM
 DAPD.F                12:   FEET ABOVE PERMANENT DATUM
 DMF .                 KB:   DRILLING MEASURED FROM
 EKB .F              5220:   KELLING BUSHING
 EGL .F              5208:   GROUND LEVEL
 DATE.        1-SEPT-1984:   RUN DATE
 RUN .                  1:   RUN NUMBER
 DD  .F               550:   DEPTH DRILLER
 DL  .F               544:   DEPTH LOGGER
 BLI .F               544:   BOTTOM LOG INTERVAL
 TLI .F                30:   TOP LOG INTERVAL
 CBL .F                44:   CASING BOTTOM LOGGER
 BS  .IN            7.875:   BIT SIZE
 BSD .F               550:   BIT SIZE AT DEPTH
 DFT .          KCL WATER:   DRILLING FLUID TYPE
 MSS .               TANK:   MUD SAMPLE SOURCE
 RMS .OHMM           .236:   RESISTIVITY MUD SAMPLE
 MST .F                75:   MUD SAMPLE TEMPERATURE
 TCS .HRS               3:   TIME CURCULATED STOPPED
 MRT .F               100:   MAXIMUM RECORDED TEMPERATURE
 LUN .               4082:   LOGGING UNIT NUMBER
 LUL .               ROOS:   LOGGING UNIT LOCATION
 ENGI.             MILLER:   RECORDING ENGINEER
 WITN.            JOHNSON:   WITNESSED BY
 CLNT.            A2DTECH:   CLIENT CODE
 ORIG.       2", 5" PRINT:   ORIGIN OF DATA
 UWI .       490251098400:   UNIQUE WELL ID
 DICO. A2D Technologies, Inc.:   DIGITIZING COMPANY
~OTHER INFORMATION
~A   DEPT      GRD       CALD        DEN       CORR          CNC     PORD         AC        SPR       RILD       RILM       RFOC   
# ...
  386.5000    83.2081     7.7847     2.4216     0.0299     0.2172     0.1516    94.6877   -58.6192    13.1642    13.5322    15.0512
  387.0000    85.4339     7.7826     2.4235     0.0198     0.2152     0.1512    94.5395   -58.6861    13.1642    13.5448    14.8462
  387.5000    83.2041     7.7806     2.4254     0.0145     0.2172     0.1477    94.2114   -58.7527    13.1642    13.5680    14.6409
  388.0000    80.9117     7.7790     2.4271     0.0155     0.2039     0.1347    93.7962   -58.8189    13.1642    13.5912    14.4299
  388.5000    81.3213     7.7783     2.4355     0.0246     0.1960     0.1374    93.6207   -58.8840    13.1642    13.6145    14.4873
  389.0000    81.2032     7.7776     2.4454     0.0341     0.1996     0.1168    93.4539   -58.8160    13.1640    13.6376    14.5649
  389.5000    80.6078     7.7769     2.4590     0.0455     0.1956     0.1187    93.2870   -58.5815    13.1652    13.6557    14.5649
  390.0000    80.8129     7.7762     2.4734     0.0571     0.2133     0.1259    93.1202   -58.3489    13.0716    13.4530    14.3006
  390.5000    81.7505     7.7755     2.4782     0.0561     0.2264     0.1263    92.9534   -58.0697    12.9104    13.2813    14.3645
  391.0000    82.9935     7.7747     2.4718     0.0509     0.2184     0.1261    92.8971   -58.1246    12.7531    13.1118    14.4307
  391.5000    81.5559     7.7740     2.4657     0.0580     0.2269     0.1248    92.8971   -58.3600    12.6889    13.0437    14.2997
  392.0000    79.4465     7.7733     2.4700     0.0648     0.2065     0.1271    92.8415   -58.6034    12.8065    13.1645    14.1687
  392.5000    77.6508     7.7726     2.4707     0.0634     0.1930     0.1251    92.9733   -58.8456    12.9056    13.2517    14.3362
  393.0000    78.3829     7.7719     2.4685     0.0507     0.1935     0.1287    94.6514   -59.0876    13.0054    13.3396    14.5471
  393.5000    79.1359     7.7712     2.4666     0.0382     0.1924     0.1166   101.4266   -59.3293    13.1060    13.4280    14.7610
  394.0000    80.1406     7.7704     2.4743     0.0272     0.2031     0.1267   110.7600   -59.5707    13.1642    13.5170    14.9721
  394.5000    82.5928     7.7697     2.4834     0.0244     0.2128     0.1203   117.6796   -59.7053    13.0408    13.9055    14.5512
  395.0000    84.7548     7.7690     2.4795     0.0378     0.2135     0.1194   113.7901   -59.6938    12.9550    13.3817    14.1687
  395.5000    85.7903     7.7683     2.4587     0.0624     0.2140     0.1423   106.2412   -59.4887    12.8697    13.1632    14.3400
  396.0000    83.2136     7.7676     2.4394     0.0722     0.2204     0.1367    98.6040   -59.2832    12.8061    13.1642    14.4316
  396.5000    79.6740     7.7668     2.4429     0.0613     0.2253     0.1394    94.5605   -59.0790    13.0302    13.3383    14.1366
  397.0000    77.5887     7.7661     2.4495     0.0515     0.2204     0.1363    94.4306   -58.8751    13.1642    13.5322    13.9051
  397.5000    79.7504     7.7654     2.4499     0.0566     0.2248     0.1419    96.0786   -58.6711    12.9990    13.4912    13.7833
  398.0000    82.5546     7.7647     2.4450     0.0771     0.2160     0.1316   108.0735   -58.4670    12.8697    13.4422    13.9066
  398.5000    84.9747     7.7640     2.4407     0.0942     0.2068     0.1333   120.9175   -58.2639    12.7416    13.3527    14.0251
  399.0000    86.2548     7.7632     2.4507     0.0789     0.2090     0.1250   123.9288   -58.1135    12.6149    13.1463    14.1439
  399.5000    85.7653     7.7625     2.4636     0.0499     0.2050     0.1138   115.1969   -58.1038    12.4893    12.9451    14.3033
  400.0000    85.1060     7.7618     2.4769     0.0217     0.1898     0.1102   103.8808   -58.6137    12.3643    12.7470    14.1523
  400.5000    84.4701     7.7611     2.4847     0.0295     0.1918     0.1098    93.6084   -59.1678    12.2318    12.5519    13.8664
  401.0000    87.2006     7.7604     2.4925     0.0453     0.1938     0.1114    93.2157   -59.7240    12.2016    12.4578    13.5814
  401.5000    89.9592     7.7596     2.4998     0.0611     0.2000     0.1130    92.6889   -60.2767    12.1707    12.4912    13.2825
  402.0000    90.7967     7.7641     2.4959     0.0589     0.2015     0.1128    92.1620   -60.8329    12.1396    12.5559    13.4445
  402.5000    90.8715     7.7706     2.4908     0.0334     0.2032     0.1126    91.7827   -61.0474    12.1189    12.6310    13.6706
  403.0000    92.0961     7.7774     2.4913     0.0324     0.2032     0.1135    91.7327   -60.9367    12.2562    12.7113    13.9106
  403.5000    93.1667     7.7781     2.4924     0.0331     0.2039     0.1144    91.6983   -60.8230    12.3599    12.7919    14.0783
  404.0000    92.7939     7.7765     2.4885     0.0286     0.2096     0.1147    91.4914   -60.7085    12.4645    12.8729    14.2588
  404.5000    89.9123     7.7747     2.4867     0.0071     0.2149     0.1145    91.0943   -60.5943    12.5699    12.9545    14.3212
  405.0000    87.5320     7.7730     2.4908     0.0018     0.2129     0.1198    90.9271   -60.4803    12.6762    13.0366    14.3508
  405.5000    86.0347     7.7713     2.4865     0.0063     0.2160     0.1218    90.9990   -60.3668    12.7834    13.1193    14.3794
  406.0000    87.4496     7.7696     2.4800     0.0219     0.2072     0.1140    91.4776   -60.2794    12.8916    13.2024    14.4084
  406.5000    90.4359     7.7679     2.4764     0.0376     0.2082     0.1190    91.9967   -60.2367    13.0430    13.2857    14.4316
  407.0000    92.5917     7.7662     2.4847     0.0517     0.2081     0.1112    92.5157   -60.1931    12.9539    13.2147    14.0538
  407.5000    91.6300     7.7645     2.4932     0.0622     0.2091     0.1046    93.0347   -60.1497    12.8033    13.0986    13.7472
  408.0000    90.9027     7.7628     2.5017     0.0728     0.2132     0.1295    93.5538   -60.1059    12.6558    12.9836    13.4472
  408.5000    92.7961     7.7611     2.5048     0.0842     0.1972     0.1199    93.8961   -60.0988    12.5100    12.8695    13.1642
  409.0000    92.6188     7.7594     2.4848     0.1152     0.1961     0.1126    93.5969   -60.0995    12.3659    12.7564    13.1961
  409.5000    91.6896     7.7579     2.4571     0.1443     0.2044     0.1399    93.0026   -60.0947    12.2236    12.6444    13.2344
  410.0000    91.7346     7.7565     2.4439     0.1466     0.2106     0.1094    92.4082   -60.3643    12.0828    12.5333    13.2857
  410.5000    90.4208     7.7551     2.4539     0.0620     0.2228     0.1098    91.8981   -60.7593    11.9437    12.4254    13.1933
  411.0000    89.0192     7.7537     2.4815     0.0399     0.2251     0.1118    92.1359   -61.1587    11.8982    12.2233    13.0552
  411.5000    88.4160     7.7523     2.5001     0.0273     0.2253     0.1128    92.5738   -61.5631    12.0288    12.3067    12.9184
  412.0000    87.6283     7.7509     2.4965     0.0260     0.2068     0.1131    93.0117   -61.6818    12.1182    12.4661    12.7831
  412.5000    86.5495     7.7494     2.4917     0.0299     0.1988     0.1134    93.3404   -61.6838    12.2084    12.6275    12.6889
  413.0000    85.8516     7.7480     2.4908     0.0340     0.2048     0.1160    93.5345   -61.6835    12.2992    12.8061    12.7971
  413.5000    86.5069     7.7466     2.4888     0.0380     0.1984     0.1175    93.9237   -61.6840    12.5467    13.0930    12.9244
  414.0000    87.1217     7.7452     2.4846     0.0418     0.1988     0.1168    94.5954   -61.6814    12.9528    13.4162    12.8005
  414.5000    87.6965     7.7438     2.4808     0.0421     0.2088     0.1160    94.3331   -61.5320    13.3720    13.7473    12.5654
  415.0000    88.2686     7.7423     2.4843     0.0342     0.2028     0.1181    93.8620   -61.3503    13.6572    14.0390    12.3885
  415.5000    89.3555     7.7409     2.4857     0.0246     0.2032     0.1210    93.3910   -61.5414    13.7833    13.5391    12.1852
  416.0000    90.4817     7.7396     2.4813     0.0150     0.2251     0.1184    92.8971   -61.6550    13.6572    12.5182    11.9852
  416.5000    91.9781     7.7396     2.4771     0.0052     0.2373     0.1158    93.3180   -61.6826    12.5546    11.5743    11.8982
