~VERSION INFORMATION
 VERS.                2.0:   CWLS LOG ASCII STANDARD - VERSION 2.0
 WRAP.                 NO:   ONE LINE PER DEPTH STEP
~WELL INFORMATION
#MNEM.UNIT      DATA TYPE    INFORMATION
#----------   ------------   ------------------------------
 STRT.F            0.0000:   START DEPTH
 STOP.F         1110.0000:   STOP DEPTH
 STEP.F            0.5000:   STEP LENGTH
 NULL.          -999.2500:   NO VALUE
 COMP. FENIX & SCISSON INC:   COMPANY
 WELL. NAVAL PETROLEUM RESERVE 3 SX-1 #63-14:   WELL
 FLD .       TEA POT DOME:   FIELD
 LOC .      S14 T38N R78W:   LOCATION
 CNTY.            NATRONA:   COUNTY
 STAT.            WYOMING:   STATE
 CTRY. UNITED STATES OF AMERICA:   COUNTRY
 SRVC.            Unknown:   SERVICE COMPANY
 DATE.        15-APR-1978:   LOGDATE
 API .       490251061500:   API NUMBER
~CURVE INFORMATION
#MNEM.UNIT       API CODE    CURVE DESCRIPTION
#----------   ------------   ------------------------------
 DEPT.F                  :   
 NPHI.DEC    42 890 03 00:   NEUTRON POROSITY SANDSTONE
 GRD .GAPI   45 310 01 00:   GAMMA RAY FROM DENSITY LOG
 CALD.IN     45 280 60 00:   CALIPER FROM DENSITY LOG
 RHOB.G/C3   45 350 01 00:   BULK DENSITY
 DPHI.DEC    45 890 12 00:   DENSITY POROSITY SANDSTONE
 CORR.G/C3   45 356 01 00:   DENSITY CORRECTION
 SPR .MV     05 010 01 00:   SPONTANEOUS POTENTIAL FROM RES.
 SN  .OHMM   05 040 16 00:   SHORT NORMAL 16"
 ILD .OHMM   05 120 46 00:   INDUCTION LOG DEEP
~PARAMETER INFORMATION
#MNEM.UNIT          VALUE    DESCRIPTION
#----------   ------------   ------------------------------
 PD  .                 GL:   PERMANENT DATUM
 EPD .F              5253:   ELEVATION PERMANENT DATUM
 LMF .                 KB:   LOG MEASURED FROM
 DAPD.F                 4:   FEET ABOVE PERMANENT DATUM
 DMF .                 KB:   DRILLING MEASURED FROM
 EKB .F              5257:   KELLING BUSHING
 EGL .F              5253:   GROUND LEVEL
 DATE.          4-15-1978:   RUN DATE
 RUN .                  1:   RUN NUMBER
 DD  .F              1095:   DEPTH DRILLER
 DL  .F              1102:   DEPTH LOGGER
 BLI .F              1100:   BOTTOM LOG INTERVAL
 TLI .F               850:   TOP LOG INTERVAL
 CS  .IN            9.625:   CASING SIZE
 CBD .F                40:   CASING BOTTOM DRILLER
 CBL .F                40:   CASING BOTTOM LOGGER
 BS  .IN            7.875:   BIT SIZE
 BSD .F              1095:   BIT SIZE AT DEPTH
 DFT .                KCL:   DRILLING FLUID TYPE
 DFD .                8.6:   DRILLING FLUID DENSITY
 DFV .                 30:   DRILLING FLUID VISCOSITY
 DFPH.                 10:   DRILLING FLUID PH
 DFL .                  8:   DRILLING FLUID LOSS
 MSS .           FLOWLINE:   MUD SAMPLE SOURCE
 RMS .OHMM            .46:   RESISTIVITY MUD SAMPLE
 MST .F                58:   MUD SAMPLE TEMPERATURE
 RMF .OHMM             .5:   RESISTIVITY MUD FILTRATE SAMPLE
 MFST.F                60:   MUD FILTRATE SAMPLE TEMPERATURE
 RMC .OHMM             .5:   RESISTIVITY MUD CAKE
 MCST.F                60:   MUD CAKE SAMPLE TEMPERATURE
 MFSS.           MEASURED:   MUD FILTRATE SAMPLE SOURCE
 RMB .OHMM            .33:   RESISTIVITY MUD AT BHT
 BHT .F                80:   BOTTOM HOLE TEMPERATURE
 TCS .HRS               6:   TIME CURCULATED STOPPED
 MRT .F                80:   MAXIMUM RECORDED TEMPERATURE
 LUN .               2958:   LOGGING UNIT NUMBER
 LUL .               CASP:   LOGGING UNIT LOCATION
 ENGI.             MILLER:   RECORDING ENGINEER
 WITN.           MCGINLEY:   WITNESSED BY
 CLNT.            A2DTECH:   CLIENT CODE
 ORIG.      2" & 5" PRINT:   ORIGIN OF DATA
 UWI .       490251061500:   UNIQUE WELL ID
 DICO. A2D Technologies, Inc.:   DIGITIZING COMPANY
~OTHER INFORMATION
~A    DEPT    NPHI         GRD      CALD       RHOB       DPHI       CORR        SPR         SN        ILD   
# ...
 1058.5000     0.1546   108.5867     7.9211     2.4947     0.0912     0.0863   -46.6068     8.5957     8.3271
 1059.0000     0.1549   107.9271     7.9763     2.4945     0.0885     0.0891   -46.6068     8.7177     8.4500
 1059.5000     0.1559   105.9489     7.9507     2.4942     0.0876     0.0883   -46.6068     8.8415     8.5748
 1060.0000     0.1570   104.3193     7.9264     2.4896     0.0919     0.0822   -46.6068     8.9669     8.7014
 1060.5000     0.1580   108.6403     7.9023     2.4861     0.0961     0.0763   -46.6068     9.0942     8.8299
 1061.0000     0.1588   112.5087     7.8786     2.4847     0.0958     0.0703   -46.6068     9.2233     8.9602
 1061.5000     0.1585   113.8725     7.8639     2.4833     0.0931     0.0646   -46.6068     9.3542     9.0925
 1062.0000     0.1581   113.7552     7.8403     2.4751     0.0982     0.0643   -46.6068     9.4869     9.2268
 1062.5000     0.1555   115.3313     7.8230     2.4637     0.1039     0.0580   -46.6068     9.5286     9.2689
 1063.0000     0.1524   115.1105     7.8457     2.4532     0.1089     0.0518   -46.6068     9.5160     9.2566
 1063.5000     0.1503   113.0596     7.8663     2.4494     0.1129     0.0457   -46.6068     9.5075     9.2484
 1064.0000     0.1513   111.2467     7.8249     2.4471     0.1170     0.0406   -46.6067     9.4990     9.2401
 1064.5000     0.1537   108.7249     7.7158     2.4448     0.1212     0.0426   -46.6068     9.4906     9.2319
 1065.0000     0.1532   105.3963     7.6381     2.4501     0.1196     0.0447   -46.6155     9.4821     9.2237
 1065.5000     0.1535   101.9872     7.6726     2.4562     0.1139     0.0520   -46.6590     9.4736     9.2155
 1066.0000     0.1565   100.5852     7.7348     2.4611     0.1091     0.0597   -46.7014     9.4652     9.2073
 1066.5000     0.1594   102.6808     7.7975     2.4603     0.1072     0.0674   -46.7437     9.4568     9.1990
 1067.0000     0.1620   106.2369     7.8594     2.4597     0.1093     0.0686   -46.7859     9.4483     9.1909
 1067.5000     0.1619   105.1457     7.8913     2.4590     0.1089     0.0686   -46.8684     9.4399     9.1827
 1068.0000     0.1617   104.7895     7.8722     2.4584     0.1077     0.0686   -46.9885     9.4315     9.1745
 1068.5000     0.1626   105.1725     7.8569     2.4578     0.1093     0.0686   -47.1080     9.4231     9.1663
 1069.0000     0.1633   106.0653     7.8418     2.4571     0.1111     0.0686   -47.2074     9.4147     9.1581
 1069.5000     0.1624   106.1665     7.8045     2.4599     0.1119     0.0686   -47.1739     9.4063     9.1500
 1070.0000     0.1591   105.4568     7.7988     2.4641     0.1042     0.0694   -47.1406     9.3980     9.1418
 1070.5000     0.1558   104.8359     7.8077     2.4642     0.1023     0.0704   -47.1078     9.3896     9.1337
 1071.0000     0.1524   105.6059     7.8476     2.4610     0.1052     0.0693   -47.0750     9.3812     9.1256
 1071.5000     0.1515   103.7938     7.8864     2.4578     0.1080     0.0652   -47.0410     9.3729     9.1175
 1072.0000     0.1506   101.6081     7.9249     2.4546     0.1109     0.0593   -47.0018     9.3645     9.1096
 1072.5000     0.1499   101.0408     7.9549     2.4525     0.1137     0.0534   -47.2567     9.3562     9.1020
 1073.0000     0.1497   100.4356     7.9204     2.4561     0.1165     0.0474   -47.5390     9.3008     9.0191
 1073.5000     0.1495   100.6139     7.8852     2.4625     0.1193     0.0464   -47.8232     9.2358     8.9225
 1074.0000     0.1493   101.7735     7.8963     2.4660     0.1052     0.0513   -48.2292     9.1712     8.8266
 1074.5000     0.1505   105.2298     7.9521     2.4660     0.1073     0.0569   -48.8839     9.1071     8.7318
 1075.0000     0.1532   108.1832     7.9532     2.4674     0.1088     0.0587   -48.8922     9.0434     8.6380
 1075.5000     0.1559   107.5923     7.7833     2.4735     0.1027     0.0589   -48.7538     8.9801     8.5453
 1076.0000     0.1586   106.2535     7.6714     2.4793     0.0996     0.0591   -48.6119     8.9173     8.4535
 1076.5000     0.1614   102.4548     7.6741     2.4839     0.0996     0.0593   -48.4712     8.8518     8.3759
 1077.0000     0.1632   101.3477     7.6966     2.4875     0.0979     0.0595   -48.3298     8.7485     8.2908
 1077.5000     0.1644   104.1307     7.6836     2.4888     0.0942     0.0597   -48.1975     8.6409     8.2022
 1078.0000     0.1650   106.6599     7.7495     2.4883     0.0952     0.0600   -48.4294     8.5347     8.1144
 1078.5000     0.1656   108.1887     7.7996     2.4877     0.0904     0.0602   -48.6837     8.4298     8.0276
 1079.0000     0.1663   111.2559     7.8306     2.4872     0.0940     0.0603   -49.0223     8.3262     7.9417
 1079.5000     0.1669   116.7342     7.8750     2.4852     0.0924     0.0607   -49.0782     8.2238     7.8567
 1080.0000     0.1675   117.8534     7.9274     2.4825     0.0980     0.0632   -49.1423     8.1227     7.7727
 1080.5000     0.1680   113.7057     7.9208     2.4843     0.1016     0.0658   -49.2079     8.0229     7.6895
 1081.0000     0.1676   109.9491     7.8976     2.4915     0.0929     0.0682   -49.2731     7.9242     7.6073
 1081.5000     0.1672   107.0508     7.8788     2.4950     0.0864     0.0714   -49.3369     7.8268     7.5259
 1082.0000     0.1667   105.7707     7.9113     2.4929     0.0892     0.0743   -49.4132     7.7306     7.4454
 1082.5000     0.1660   109.3526     7.9455     2.4858     0.0927     0.0679   -49.7277     7.6356     7.3657
 1083.0000     0.1642   118.5222     7.9510     2.4796     0.0962     0.0606   -50.0423     7.5417     7.2869
 1083.5000     0.1603   123.1526     7.9401     2.4785     0.0996     0.0537   -50.1999     7.4490     7.2089
 1084.0000     0.1592   119.5987     7.9289     2.4784     0.1003     0.0493   -50.1997     7.3574     7.1318
 1084.5000     0.1586   118.9511     7.9178     2.4789     0.1001     0.0507   -50.1998     7.2670     7.0555
 1085.0000     0.1584   118.9516     7.9062     2.4755     0.1015     0.0536   -50.1996     7.1619     6.9668
 1085.5000     0.1581   118.8441     7.8818     2.4759     0.1050     0.0508   -50.1996     7.1730     6.9775
 1086.0000     0.1561   116.9695     7.8115     2.4806     0.1011     0.0449   -50.1996     7.1863     6.9906
 1086.5000     0.1544   115.2722     7.7925     2.4839     0.0960     0.0402   -50.1996     7.1997     7.0035
 1087.0000     0.1533   115.5725     7.8162     2.4828     0.0948     0.0391   -50.1995     7.2130     7.0164
 1087.5000     0.1523   116.3015     7.8863     2.4819     0.0970     0.0379   -50.1989     7.2282     7.0307
 1088.0000     0.1513   114.6939     7.9737     2.4810     0.0990     0.0367   -50.2034     7.4311     7.2114
 1088.5000     0.1505   111.5763     7.9351     2.4819     0.0997     0.0355   -50.2892     7.6628     7.4168
 1089.0000     0.1505   110.5774     7.8888     2.4829     0.0992     0.0343   -50.3744     7.9017     7.6279
 1089.5000     0.1521   110.5169     7.8426     2.4840     0.0988     0.0333   -50.4580     8.1481     7.8451
 1090.0000     0.1537   110.7560     7.8023     2.4870     0.0946     0.0340   -50.5419     8.4022     8.0684
 1090.5000     0.1552   109.7139     7.8695     2.4870     0.0931     0.0379   -50.6892     8.6642     8.2991
 1091.0000     0.1568   107.0754     7.9390     2.4870     0.0959     0.0419   -51.3013     8.7724     8.2714
 1091.5000     0.1584   109.7788     7.9325     2.4870     0.0916     0.0422   -51.8588     8.7807     8.2418
 1092.0000     0.1600   115.0394     7.8304     2.4868     0.0924     0.0419   -52.1424     8.7892     8.2129
 1092.5000     0.1611   120.3465     7.7574     2.4817     0.0956     0.0415   -52.4362     8.7975     8.1843
 1093.0000     0.1617   123.2010     7.6936     2.4782     0.0988     0.0411   -52.8914     8.8059     8.1559
 1093.5000     0.1608   118.6624     7.6646     2.4825     0.1004     0.0407   -53.5711     8.8143     8.1275
 1094.0000     0.1600  -999.2500     7.6776     2.4870     0.0945     0.0415   -54.2472     8.8228     8.0992
 1094.5000     0.1595  -999.2500     7.6977     2.4847     0.0918     0.0510   -54.9245     8.8312     8.0711
