~VERSION INFORMATION
 VERS.                2.0:   CWLS LOG ASCII STANDARD - VERSION 2.0
 WRAP.                 NO:   ONE LINE PER DEPTH STEP
~WELL INFORMATION
#MNEM.UNIT      DATA TYPE    INFORMATION
#----------   ------------   ------------------------------
 STRT.F           30.0000:   START DEPTH
 STOP.F          526.0000:   STOP DEPTH
 STEP.F            0.5000:   STEP LENGTH
 NULL.          -999.2500:   NO VALUE
 COMP. FENIX & SCISSON INC:   COMPANY
 WELL.       NPR #37-SX-3:   WELL
 FLD .             TEAPOT:   FIELD
 LOC .       S3 T38N R78W:   LOCATION
 CNTY.            NATRONA:   COUNTY
 STAT.            WYOMING:   STATE
 CTRY. UNITED STATES OF AMERICA:   COUNTRY
 SRVC.              Welex:   SERVICE COMPANY
 DATE.        10-MAR-1977:   LOGDATE
 API .       490251028600:   API NUMBER
~CURVE INFORMATION
#MNEM.UNIT       API CODE    CURVE DESCRIPTION
#----------   ------------   ------------------------------
 DEPT.F                  :   
 ILD .OHMM   07 120 46 00:   INDUCTION LOG DEEP
 ILM .OHMM   07 120 44 00:   INDUCTION LOG MEDIUM
 SPR .MV     07 010 01 00:   SPONTANEOUS POTENTIAL
 SGRD.OHMM   07 220 05 00:   SHALLOW RESISTIVITY
 GRD .GAPI   45 310 01 00:   GAMMA RAY FROM DENSITY LOG
 CALD.IN     45 280 60 00:   CALIPER
 CORR.G/C3   45 356 01 00:   DENSITY CORRECTION
 RHOB.G/C3   45 350 01 00:   BULK DENSITY
 DPOR.DEC    45 890 12 00:   DENSITY POROSITY SANDSTONE
~PARAMETER INFORMATION
#MNEM.UNIT          VALUE    DESCRIPTION
#----------   ------------   ------------------------------
 PD  .                 GL:   PERMANENT DATUM
 EPD .F              5232:   ELEVATION PERMANENT DATUM
 LMF .                 GL:   LOG MEASURED FROM
 DMF .                 GL:   DRILLING MEASURED FROM
 EGL .F              5232:   GROUND LEVEL
 DATE.            3-10-77:   RUN DATE
 RUN .                  1:   RUN NUMBER
 DD  .F               530:   DEPTH DRILLER
 DL  .F               528:   DEPTH LOGGER
 BLI .F               526:   BOTTOM LOG INTERVAL
 TLI .F                35:   TOP LOG INTERVAL
 CS  .IN            8.625:   CASING SIZE
 CBD .F                40:   CASING BOTTOM DRILLER
 CBL .F                42:   CASING BOTTOM LOGGER
 BS  .IN            7.875:   BIT SIZE
 BSD .F               530:   BIT SIZE AT DEPTH
 DFT .            KCL MUD:   DRILLING FLUID TYPE
 DFD .                8.8:   DRILLING FLUID DENSITY
 DFV .                 32:   DRILLING FLUID VISCOSITY
 DFPH.                  8:   DRILLING FLUID PH
 DFL .                7.7:   DRILLING FLUID LOSS
 MSS .            MUD PIT:   MUD SAMPLE SOURCE
 RMS .OHMM            .48:   RESISTIVITY MUD SAMPLE
 MST .F                47:   MUD SAMPLE TEMPERATURE
 RMF .OHMM            .43:   RESISTIVITY MUD FILTRATE SAMPLE
 MFST.F                47:   MUD FILTRATE SAMPLE TEMPERATURE
 RMC .OHMM            .52:   RESISTIVITY MUD CAKE
 MCST.F                47:   MUD CAKE SAMPLE TEMPERATURE
 MFSS.           FANN KIT:   MUD FILTRATE SAMPLE SOURCE
 MCSS.           FANN KIT:   MUD CAKE SAMPLE SOURCE
 RMB .OHMM            .41:   RESISTIVITY MUD AT BHT
 BHT .F                55:   BOTTOM HOLE TEMPERATURE
 TCS .HRS             1.5:   TIME CURCULATED STOPPED
 MRT .F                55:   MAXIMUM RECORDED TEMPERATURE
 LUN .               8611:   LOGGING UNIT NUMBER
 LUL .           GILLETTE:   LOGGING UNIT LOCATION
 ENGI.               DOAK:   RECORDING ENGINEER
 WITN.              BURKE:   WITNESSED BY
 CLNT.            A2DTECH:   CLIENT CODE
 ORIG.       2", 5" PRINT:   ORIGIN OF DATA
 UWI .       490251028600:   UNIQUE WELL ID
 DICO. A2D Technologies, Inc.:   DIGITIZING COMPANY
~OTHER INFORMATION
~A   DEPT      ILD        ILM        SPR       SGRD         GRD        CALD      CORR        RHOB     DPOR   
# ...
  322.0000     7.5176     9.9916   -45.8151    12.8061   130.9671     8.0020     0.0600     2.4990     1.0321
  322.5000     7.1909     9.8710   -45.9802    12.7577   132.9016     8.0020     0.0584     2.4864     1.0094
  323.0000     6.8788     9.7458   -46.1452    12.6906   132.9268     8.0020     0.0569     2.4778     0.9806
  323.5000     6.5800     9.6308   -46.3109    12.9855   133.3640     8.0020     0.0574     2.4731     0.9610
  324.0000     6.2944     8.0225   -46.4762    13.3527   135.4595     8.0020     0.0603     2.4622     0.9208
  324.5000     6.0212     6.7642   -46.6365     8.6770   137.7288     8.0020     0.0573     2.4331     0.8699
  325.0000     5.8014     5.7032   -46.5137     5.3601   139.2913     8.0020     0.0456     2.4035     0.8097
  325.5000     5.7567     6.3637   -46.0708     4.0218   135.2491     8.0020     0.0367     2.3946     0.8244
  326.0000     6.0240     7.1199   -45.6298    14.0390   128.0715     8.0020     0.0424     2.4172     0.8999
  326.5000     6.3536     8.0053   -45.1871    13.8704   120.1971     8.0020     0.0477     2.5040     0.9934
  327.0000     6.7038     8.5997   -44.7449    13.5422   117.6688     8.0020     0.0522     2.5003     1.0292
  327.5000     7.1773     9.4641   -44.3027    13.2857   118.3702     8.0020     0.0513     2.4955     1.0212
  328.0000     7.7648    10.3658   -43.8605    14.0726   117.6565     8.0020     0.0507     2.4853     1.0030
  328.5000     8.4004    10.4969   -43.4178    14.5648   117.1269     8.0020     0.0501     2.4796     0.9930
  329.0000     8.7002    10.6183   -42.9741    14.3797   121.8817     8.0020     0.0524     2.4913     1.0105
  329.5000     9.0400    10.7363   -42.5639    14.2369   120.0270     8.0020     0.0549     2.4978     1.0226
  330.0000     9.3931    10.8556   -42.5199    14.0956   117.8200     8.0025     0.0574     2.4907     1.0150
  330.5000     9.7599    10.9762   -42.4860    13.9557   118.7045     8.0030     0.0599     2.4873     1.0049
  331.0000    10.1410    11.0982   -42.4512    13.7919   117.5683     8.0035     0.0620     2.4842     0.9949
  331.5000    10.5368    11.3897   -42.4160    13.6152   116.9285     8.0040     0.0604     2.4783     0.9830
  332.0000    10.9532    11.8479   -42.3751    13.4034   116.1112     8.0045     0.0588     2.4775     0.9691
  332.5000    11.5227    12.3245   -42.1091    13.6039   108.5880     8.0050     0.0573     2.4611     0.9496
  333.0000    12.1301    12.9312   -41.5846    13.9106   101.2100     8.0056     0.0577     2.4548     0.9327
  333.5000    12.8986    13.9028   -41.0622    16.7016    94.3003     8.0061     0.0652     2.4490     0.9250
  334.0000    14.0415    14.9474   -40.5378    19.8170    88.2862     8.0066     0.0725     2.4382     0.9030
  334.5000    15.2856    16.0706   -40.0140    22.6424    84.9582     8.0071     0.0797     2.4199     0.8613
  335.0000    16.6400    17.2781   -39.4902    22.5455    83.7652     8.0076     0.0830     2.3918     0.8144
  335.5000    17.9938    18.5768   -38.9664    22.4352    81.2582     8.0081     0.0803     2.3637     0.7635
  336.0000    18.5442    19.9721   -38.4426    24.6214    80.1861     8.0086     0.0776     2.3488     0.7089
  336.5000    19.0696    21.4728   -37.9188    26.4720    80.9816     8.0091     0.0746     2.3491     0.7150
  337.0000    19.8804    22.3202   -37.3950    25.5530    81.7475     8.0096     0.0777     2.3530     0.7240
  337.5000    20.8080    22.9754   -36.8710    24.8223    82.4757     8.0101     0.0822     2.3571     0.7335
  338.0000    21.7774    23.6499   -36.3450    26.0999    81.0661     8.0106     0.0855     2.3610     0.7427
  338.5000    22.8034    24.3442   -35.8249    27.3802    79.3957     8.0111     0.0808     2.3561     0.7356
  339.0000    23.5226    25.0588   -35.5921    29.2834    79.1103     8.0116     0.0760     2.3504     0.7194
  339.5000    24.1472    25.7945   -35.3757    28.9445    79.7799     8.0121     0.0713     2.3547     0.7279
  340.0000    24.2257    26.5520   -35.3428    28.3367    80.2953     8.0126     0.0666     2.3645     0.7488
  340.5000    24.3032    27.3327   -35.8803    27.7170    78.4360     8.0132     0.0661     2.3776     0.7794
  341.0000    24.3702    28.1335   -36.3133    28.9460    76.6159     8.0137     0.0701     2.3839     0.7968
  341.5000    23.5333    28.7231   -36.5891    30.3660    75.3372     8.0142     0.0740     2.4075     0.8432
  342.0000    22.8219    29.2808   -36.8679    32.1084    79.9322     8.0147     0.0780     2.4422     0.9106
  342.5000    22.1319    28.1254   -37.1461    30.7425    83.7404     8.0152     0.0787     2.4374     0.8991
  343.0000    21.4628    26.3695   -37.4202    28.7327    87.2811     8.0157     0.0757     2.4301     0.8842
  343.5000    20.8134    24.7437   -37.5461    26.8543    89.5812     8.0162     0.0726     2.4307     0.8852
  344.0000    20.1847    23.4904   -37.3876    25.7520    91.9158     8.0167     0.0695     2.4341     0.8866
  344.5000    19.3668    23.8269   -37.2335    26.0372    91.2379     8.0172     0.0664     2.4176     0.8623
  345.0000    19.4287    24.1139   -37.0784    26.2298    89.7660     8.0177     0.0633     2.4009     0.8293
  345.5000    19.5238    24.4075   -36.9236    26.6191    89.6769     8.0182     0.0625     2.3899     0.8028
  346.0000    19.6195    24.5938   -36.7689    27.6712    90.5456     8.0187     0.0630     2.3874     0.7999
  346.5000    19.7156    24.3161   -36.6138    29.0206    90.5105     8.0192     0.0635     2.3791     0.7816
  347.0000    19.8122    24.1038   -36.4594    29.0206    89.3057     8.0197     0.0641     2.3688     0.7599
  347.5000    19.9092    23.9342   -36.2851    29.0206    88.1069     8.0203     0.0665     2.3725     0.7663
  348.0000    20.0068    25.3603   -36.1050    29.0182    87.3292     8.0208     0.0690     2.3792     0.7853
  348.5000    20.1046    26.7727   -35.9233    29.7884    89.0850     8.0213     0.0715     2.3860     0.8013
  349.0000    20.2038    28.2313   -35.7416    30.6340    90.6329     8.0218     0.0740     2.3911     0.8058
  349.5000    20.3216    28.1649   -35.5600    30.9520    88.1183     8.0216     0.0662     2.3793     0.7907
  350.0000    20.5063    28.1010   -35.3783    30.3314    86.7587     8.0212     0.0598     2.3455     0.7787
  350.5000    20.6915    28.0345   -35.1967    29.9094    88.4224     8.0208     0.0590     2.3458     0.7094
  351.0000    20.8783    27.9696   -35.0149    29.5591    91.0113     8.0204     0.0582     2.3502     0.7259
  351.5000    21.0669    27.9048   -34.8325    29.8311    93.5985     8.0200     0.0581     2.3546     0.7331
  352.0000    21.2575    27.8397   -34.6449    30.0679    96.1709     8.0197     0.0581     2.3589     0.7415
  352.5000    21.4508    27.7727   -34.7943    30.3841    96.5946     8.0192     0.0576     2.3613     0.7421
  353.0000    21.6253    27.7308   -34.9998    30.1862    96.7038     8.0189     0.0565     2.3613     0.7393
  353.5000    21.3580    27.2315   -35.2059    29.8829    95.6041     8.0184     0.0554     2.3613     0.7404
  354.0000    21.1155    26.7932   -35.4111    29.5847    93.9252     8.0181     0.0542     2.3633     0.7445
  354.5000    20.8758    26.3619   -35.6163    29.2914    93.1271     8.0177     0.0560     2.3681     0.7530
  355.0000    20.6388    25.9376   -35.8214    29.1914    94.9918     8.0173     0.0581     2.3728     0.7614
  355.5000    20.4045    25.5202   -36.0270    29.0573    96.4223     8.0169     0.0607     2.3767     0.7664
  356.0000    20.1728    25.1094   -36.2324    28.1261    97.8716     8.0165     0.0633     2.3765     0.7818
  356.5000    19.9438    24.7053   -36.4246    26.8161    99.2643     8.0161     0.0659     2.3912     0.8167
  357.0000    19.7173    24.4233   -36.5011    26.2358    99.1365     8.0157     0.0685     2.4127     0.8648
  357.5000    19.4935    24.1880   -36.5818    26.4720    98.1218     8.0153     0.0711     2.4126     0.8534
  358.0000    19.2722    23.9549   -36.6628    25.8587    97.0883     8.0149     0.0713     2.4046     0.8329
