~VERSION INFORMATION
 VERS.                2.0:   CWLS LOG ASCII STANDARD - VERSION 2.0
 WRAP.                 NO:   ONE LINE PER DEPTH STEP
~WELL INFORMATION
#MNEM.UNIT      DATA TYPE    INFORMATION
#----------   ------------   ------------------------------
 STRT.F           80.0000:   START DEPTH
 STOP.F          808.0000:   STOP DEPTH
 STEP.F            0.5000:   STEP LENGTH
 NULL.          -999.2500:   NO VALUE
 COMP.           U S NAVY:   COMPANY
 WELL.     NRP #3 #38-S-2:   WELL
 FLD .             TEAPOT:   FIELD
 LOC .       S2 T38N R78W:   LOCATION
 CNTY.            NATRONA:   COUNTY
 STAT.            WYOMING:   STATE
 CTRY. UNITED STATES OF AMERICA:   COUNTRY
 SRVC.       Schlumberger:   SERVICE COMPANY
 DATE.        18-JUN-1962:   LOGDATE
 API .       490250639100:   API NUMBER
~CURVE INFORMATION
#MNEM.UNIT       API CODE    CURVE DESCRIPTION
#----------   ------------   ------------------------------
 DEPT.F                  :   
 GR  .GAPI   30 310 01 00:   GAMMA RAY
 SPR .MV     05 010 01 00:   SPONTANEOUS POTENTIAL FROM RES.
 ASN .OHMM   05 041 16 00:   AMPLIFIED SHORT NORMAL 16"
 ILD .OHMM   05 120 46 00:   INDUCTION LOG DEEP
 CILD.MMHO   05 110 46 00:   CONDUCTIVITY INDUCTION LOG DEEP
 CALM.IN     15 280 01 00:   CALIPER FROM MICRO LOG
~PARAMETER INFORMATION
#MNEM.UNIT          VALUE    DESCRIPTION
#----------   ------------   ------------------------------
 PD  .                 GL:   PERMANENT DATUM
 EPD .F              5146:   ELEVATION PERMANENT DATUM
 LMF .                 KB:   LOG MEASURED FROM
 DAPD.F                 5:   FEET ABOVE PERMANENT DATUM
 DMF .                 KB:   DRILLING MEASURED FROM
 EKB .F              5151:   KELLING BUSHING
 EGL .F              5146:   GROUND LEVEL
 DATE.          6-18-1962:   RUN DATE
 RUN .                  1:   RUN NUMBER
 DD  .F              1000:   DEPTH DRILLER
 DL  .F               808:   DEPTH LOGGER
 BLI .F               807:   BOTTOM LOG INTERVAL
 TLI .F                80:   TOP LOG INTERVAL
 BS  .IN             8.75:   BIT SIZE
 BSD .F              1000:   BIT SIZE AT DEPTH
 DFT .       OIL EMULSION:   DRILLING FLUID TYPE
 DFD .                8.7:   DRILLING FLUID DENSITY
 DFV .                 58:   DRILLING FLUID VISCOSITY
 DFL .                  4:   DRILLING FLUID LOSS
 RMS .OHMM           3.77:   RESISTIVITY MUD SAMPLE
 MST .F                79:   MUD SAMPLE TEMPERATURE
 RMF .OHMM           2.47:   RESISTIVITY MUD FILTRATE SAMPLE
 MFST.F                79:   MUD FILTRATE SAMPLE TEMPERATURE
 RMC .OHMM           3.29:   RESISTIVITY MUD CAKE
 MCST.F                79:   MUD CAKE SAMPLE TEMPERATURE
 TCS .HRS               1:   TIME CURCULATED STOPPED
 LUN .               2503:   LOGGING UNIT NUMBER
 LUL .               CSPR:   LOGGING UNIT LOCATION
 ENGI.             DANNER:   RECORDING ENGINEER
 WITN.          JORGENSEN:   WITNESSED BY
 CLNT.            A2DTECH:   CLIENT CODE
 ORIG.   1", 2", 5" PRINT:   ORIGIN OF DATA
 UWI .       490250639100:   UNIQUE WELL ID
 DICO. A2D Technologies, Inc.:   DIGITIZING COMPANY
~OTHER INFORMATION
~A   DEPT       GR        SPR          ASN        ILD      CILD      CALM   
# ...
  756.0000  -999.2500   -64.9389     8.0086    11.0900   158.3597     8.0344
  756.5000  -999.2500   -65.0000     8.1814    11.2867   155.3175     8.0133
  757.0000  -999.2500   -65.2831     8.5853    11.6585   149.2857     7.9387
  757.5000  -999.2500   -65.6361     9.0612    12.0685   138.3783     7.6956
  758.0000  -999.2500   -65.9973     9.5393    12.4986   126.6265     7.4844
  758.5000  -999.2500   -65.9895     9.9221    12.9307   119.6246     7.9130
  759.0000  -999.2500   -65.8978    10.2213    13.3714   112.0698     8.0432
  759.5000  -999.2500   -65.7939    10.5136    13.5334   109.2729     8.0679
  760.0000  -999.2500   -65.6853    11.1011    13.6155   108.1780     8.0663
  760.5000  -999.2500   -65.5841    13.5223    13.6942   107.0832     8.0026
  761.0000  -999.2500   -65.3896    15.5786    13.7663   105.9883     7.7128
  761.5000  -999.2500   -65.1949    15.5740    13.7963   105.0501     7.4850
  762.0000  -999.2500   -64.9997    15.5730    13.8264   105.0515     7.9331
  762.5000  -999.2500   -64.8129    15.5721    13.8555   105.0534     8.4936
  763.0000  -999.2500   -64.8375    15.5699    13.8218   105.0542     8.6288
  763.5000  -999.2500   -64.8706    15.5598    13.7838   106.1185     8.6300
  764.0000  -999.2500   -64.9028    15.5496    13.7460   107.2377     8.6268
  764.5000  -999.2500   -64.9347    15.5394    13.7083   108.3570     8.6248
  765.0000  -999.2500   -64.9662    15.5293    13.6706   109.4762     8.6229
  765.5000  -999.2500   -65.0000    15.5191    13.6329   110.5903     8.6212
  766.0000  -999.2500   -64.8941    15.5109    13.5957   110.6067     8.6194
  766.5000  -999.2500   -64.7113    15.5029    13.5713   109.7699     8.6175
  767.0000  -999.2500   -64.5945    15.4739    13.6232   108.9317     8.6158
  767.5000  -999.2500   -64.5420    15.5736    13.7136   108.0939     8.6140
  768.0000  -999.2500   -64.4900    13.1740    13.8013   107.2545     8.6122
  768.5000  -999.2500   -64.4402    10.6949    13.9633   107.4525     8.6104
  769.0000  -999.2500   -64.4227    10.5528    13.9520   107.9562     8.6086
  769.5000  -999.2500   -64.5229    10.3017    13.8323   110.0241     8.6068
  770.0000  -999.2500   -64.6208     9.9924    13.5055   114.3239     8.6050
  770.5000  -999.2500   -64.7203     9.6829    13.1814   119.9201     8.6032
  771.0000  -999.2500   -64.7930     9.4705    12.8569   125.5162     8.6014
  771.5000  -999.2500   -64.4496     9.1235    12.5312   131.1905     8.5996
  772.0000  -999.2500   -64.1099     8.7264    12.1497   140.1295     8.5978
  772.5000  -999.2500   -63.7583     8.3265    11.6846   149.2857     8.5960
  773.0000  -999.2500   -63.5966     7.9265    10.9632   164.3651     8.5942
  773.5000  -999.2500   -63.5891     7.5267    10.1984   188.5138     8.5926
  774.0000  -999.2500   -63.5907     7.0376     9.4280   225.5270     8.5896
  774.5000  -999.2500   -63.7423     6.4715     8.6638   267.0631     8.5651
  775.0000  -999.2500   -64.0474     6.0037     7.9489   313.6508     8.5411
  775.5000  -999.2500   -64.3514     5.5372     7.5500   360.2385     8.5174
  776.0000  -999.2500   -64.6566     5.0742     7.1398   406.6402     8.4500
  776.5000  -999.2500   -64.8061     4.7113     6.7982   423.3823     8.2509
  777.0000  -999.2500   -64.8069     4.5043     6.8085   429.7619     7.9489
  777.5000  -999.2500   -64.8077     4.4588     6.8097   423.7302     7.7360
  778.0000  -999.2500   -64.8074     4.6820     6.8111   403.2624     7.7226
  778.5000  -999.2500   -64.8073     4.9460     7.0200   370.5462     7.9474
  779.0000  -999.2500   -64.8080     5.2116     7.5362   329.5291     8.2166
  779.5000  -999.2500   -64.8092     5.4963     8.0282   281.8148     8.0199
  780.0000  -999.2500   -64.8038     6.0903     8.8675   234.1005     8.0781
  780.5000  -999.2500   -64.6524     6.8563     9.7464   186.3862     8.1232
  781.0000  -999.2500   -64.1185     7.5442    10.6326   157.7906     8.1136
  781.5000  -999.2500   -63.6062     7.8834    11.5007   141.2744     8.1512
  782.0000  -999.2500   -63.5379     8.2269    12.1688   133.0996     8.2660
  782.5000  -999.2500   -63.4896     8.5449    12.5659   128.1962     8.3075
  783.0000  -999.2500   -63.4372     8.8209    12.6738   126.3072     8.3104
  783.5000  -999.2500   -63.3960     9.0375    12.7822   124.4940     8.3552
  784.0000  -999.2500   -63.7332     9.1721    12.8880   122.6809     8.3884
  784.5000  -999.2500   -64.0934     9.3060    12.9949   120.8678     8.3238
  785.0000  -999.2500   -64.4551     9.4384    13.0898   119.1417     8.1257
  785.5000  -999.2500   -64.5273     9.5174    12.9824   121.5824     8.3040
  786.0000  -999.2500   -64.4028     9.5259    12.8708   123.9233     8.1723
  786.5000  -999.2500   -64.2772     9.5347    12.7605   126.1619     7.9686
  787.0000  -999.2500   -64.2278     9.5429    12.6500   126.6738     7.8354
  787.5000  -999.2500   -64.3061     9.5496    12.5399   127.1612     8.0788
  788.0000  -999.2500   -64.3827     9.5931    12.5237   127.6486     8.2491
  788.5000  -999.2500   -64.4596     9.6406    12.5236   128.1360     7.8608
  789.0000  -999.2500   -64.5365     9.6882    12.5240   128.6234     8.0450
  789.5000  -999.2500   -64.6133     9.7248    12.5236   129.1108     8.2704
  790.0000  -999.2500   -64.6902     9.7251    12.5069   129.9003     8.5134
  790.5000  -999.2500   -64.7672     9.6572    12.4335   130.7398     8.3141
  791.0000  -999.2500   -64.8437     9.5577    12.3617   131.5792     8.0555
  791.5000  -999.2500   -64.9213     9.4574    12.2910   132.0565     8.0662
  792.0000  -999.2500   -65.0064     9.3527    12.2524   131.5319     8.0577
  792.5000  -999.2500   -64.7850     9.3528    12.3205   131.0091     8.0030
  793.0000  -999.2500   -64.5188     9.3942    12.3857   130.4829     7.9453
  793.5000  -999.2500   -64.2478     9.4829    12.4509   129.9579     8.1427
  794.0000  -999.2500   -63.9990     9.5785    12.5156   129.4333     8.5441
  794.5000  -999.2500   -64.2960     9.6769    12.5239   128.9087     8.4249
  795.0000  -999.2500   -64.6515     9.7303    12.5239   128.3840     8.2496
  795.5000  -999.2500   -65.0074     9.7586    12.5239   127.8594     8.1248
  796.0000  -999.2500   -65.3587     9.6753    12.5238   127.3348     8.0037
  796.5000  -999.2500   -65.5901     9.5941    12.5238   127.9713     7.8822
  797.0000  -999.2500   -65.4339     9.5210    12.5242   129.1536     7.8849
  797.5000  -999.2500   -65.2884     9.4560    12.5256   130.3309     7.8975
  798.0000  -999.2500   -65.1449     9.3911    12.5160   132.2238     7.7523
  798.5000  -999.2500   -65.0008     9.3260    12.3246   135.8689     7.6430
  799.0000  -999.2500   -64.7353     9.2609    12.1385   139.4916     8.0225
  799.5000  -999.2500   -64.4783     9.1379    11.9540   143.1143     8.3802
  800.0000  -999.2500   -64.2256     8.9569    11.7697   146.7371     8.5298
  800.5000  -999.2500   -64.1384     8.7061    11.5848   149.4770     8.5304
  801.0000  -999.2500   -64.0720     8.3987    11.4021   150.1224     8.5303
  801.5000  -999.2500   -64.0057     8.0898    11.3807   150.7677     8.5316
  802.0000  -999.2500   -63.9392     7.8740    11.3689   151.4130     8.4442
  802.5000  -999.2500   -63.8726     7.9776    11.3524   152.0578     8.3187
  803.0000  -999.2500   -63.8058     8.1322    11.3356   152.6996     8.2232
  803.5000  -999.2500   -63.7396     8.4047    11.3186   153.3008     8.1671
  804.0000  -999.2500   -63.6724     8.8186    11.3017   152.2366     8.1763
  804.5000  -999.2500   -63.5949     9.1171    11.2848   151.2410     8.2199
  805.0000  -999.2500   -63.9179     9.3880    11.2679   150.2407     8.2042
  805.5000  -999.2500   -64.3433     9.6557    11.2509   149.2405     8.0921
  806.0000  -999.2500   -64.7714     9.9251    11.2340   148.2804     7.9813
  806.5000  -999.2500   -65.1989    10.1689    11.2171   148.7357     7.8674
  807.0000  -999.2500  -999.2500  -999.2500    11.2004   149.1680  -999.2500
  807.5000  -999.2500  -999.2500  -999.2500  -999.2500   149.6009  -999.2500
