~VERSION INFORMATION
 VERS.                2.0:   CWLS LOG ASCII STANDARD - VERSION 2.0
 WRAP.                 NO:   ONE LINE PER DEPTH STEP
~WELL INFORMATION
#MNEM.UNIT      DATA TYPE    INFORMATION
#----------   ------------   ------------------------------
 STRT.F            0.0000:   START DEPTH
 STOP.F          984.0000:   STOP DEPTH
 STEP.F            0.5000:   STEP LENGTH
 NULL.          -999.2500:   NO VALUE
 COMP. LAWRENCE/ALLISON INC:   COMPANY
 WELL.     NPR 3 #51-X-11:   WELL
 FLD .             TEAPOT:   FIELD
 LOC .      S11 T38N R78W:   LOCATION
 CNTY.            NATRONA:   COUNTY
 STAT.            WYOMING:   STATE
 CTRY. UNITED STATES OF AMERICA:   COUNTRY
 SRVC.           Gearhart:   SERVICE COMPANY
 DATE.        22-AUG-1988:   LOGDATE
 API .       490251125400:   API NUMBER
~CURVE INFORMATION
#MNEM.UNIT       API CODE    CURVE DESCRIPTION
#----------   ------------   ------------------------------
 DEPT.F                  :   
 GRR .GAPI   07 310 01 00:   GAMMA RAY FROM RES. LOG.
 ILM .OHMM   07 120 44 00:   INDUCTION LOG MEDIUM
 ILD .OHMM   07 120 46 00:   INDUCTION LOG DEEP
~PARAMETER INFORMATION
#MNEM.UNIT          VALUE    DESCRIPTION
#----------   ------------   ------------------------------
 PD  .                 GL:   PERMANENT DATUM
 EPD .F              5187:   ELEVATION PERMANENT DATUM
 LMF .                 KB:   LOG MEASURED FROM
 DAPD.F                10:   FEET ABOVE PERMANENT DATUM
 DMF .                 KB:   DRILLING MEASURED FROM
 EKB .F              5197:   KELLING BUSHING
 EGL .F              5187:   GROUND LEVEL
 DATE.            8-22-88:   RUN DATE
 RUN .                  1:   RUN NUMBER
 DD  .F              1000:   DEPTH DRILLER
 DL  .F               992:   DEPTH LOGGER
 BLI .F             983.5:   BOTTOM LOG INTERVAL
 CS  .IN            9.625:   CASING SIZE
 CBD .F                49:   CASING BOTTOM DRILLER
 CBL .F                49:   CASING BOTTOM LOGGER
 BS  .IN             8.75:   BIT SIZE
 BSD .F              1000:   BIT SIZE AT DEPTH
 DFT .                AIR:   DRILLING FLUID TYPE
 BHT .F                70:   BOTTOM HOLE TEMPERATURE
 TLAB.HRS            0300:   TIME LOGGER AT BOTTOM
 MRT .F                70:   MAXIMUM RECORDED TEMPERATURE
 LUN .               7609:   LOGGING UNIT NUMBER
 LUL .           GILLETTE:   LOGGING UNIT LOCATION
 ENGI.          HUCKFELDT:   RECORDING ENGINEER
 WITN.             STRONG:   WITNESSED BY
 CLNT.            A2DTECH:   CLIENT CODE
 ORIG.      1" 2.5" PRINT:   ORIGIN OF DATA
 UWI .       490251125400:   UNIQUE WELL ID
 DICO. A2D Technologies, Inc.:   DIGITIZING COMPANY
~OTHER INFORMATION
~A    DEPT      GRR       ILM        ILD   
# ...
   91.0000    94.7814     6.0402     6.1510
   91.5000    94.5422     6.0161     6.2392
   92.0000    96.1800     5.9681     6.2804
   92.5000    98.5984     5.9205     6.1530
   93.0000   101.0080     5.8734     5.9891
   93.5000    98.9433     5.8282     5.8295
   94.0000    96.5665     5.6383     5.6741
   94.5000    95.5459     5.4606     5.5230
   95.0000    97.0785     5.2886     5.3758
   95.5000    97.4466     5.1220     5.3084
   96.0000    95.4700     4.9262     5.3084
   96.5000    93.1901     4.9309     5.3084
   97.0000    94.0182     4.9546     5.3084
   97.5000    96.0928     4.9785     5.3828
   98.0000    98.2301     5.0024     5.5050
   98.5000    98.4393     5.0687     5.6299
   99.0000    97.8932     5.2102     5.7575
   99.5000    97.3450     5.3731     5.8881
  100.0000    97.1450     5.5202     6.0480
  100.5000    97.1491     5.6713     6.1109
  101.0000    97.1590     5.8266     6.1899
  101.5000    97.1642     5.9861     6.2713
  102.0000    97.0925     6.1642     6.3521
  102.5000    97.7627     6.1434     6.4340
  103.0000    99.0775     6.1207     6.5195
  103.5000   100.2990     6.0982     6.4121
  104.0000   101.6635     6.0757     6.3031
  104.5000   101.4802     6.0501     6.1959
  105.0000   100.2744     5.9575     6.0906
  105.5000    99.8343     5.8512     5.9870
  106.0000   100.4828     5.7468     5.8642
  106.5000   101.0492     5.4871     5.7251
  107.0000    98.5214     5.1881     5.5893
  107.5000    95.7345     5.0191     5.5007
  108.0000    94.6197     5.0191     5.4767
  108.5000    94.7071     5.0191     5.4529
  109.0000    94.7234     5.0191     5.4291
  109.5000    94.7093     5.0191     5.4085
  110.0000    94.6465     5.0191     5.4085
  110.5000    95.4015     5.0537     5.4959
  111.0000    96.8051     5.1137     5.6520
  111.5000    98.1429     5.2749     5.8125
  112.0000    99.4901     5.4385     5.9776
  112.5000   100.3546     5.6073     6.1642
  113.0000   100.1267     5.7812     6.1642
  113.5000    99.9434     5.8287     6.1642
  114.0000    99.6928     5.8287     6.1642
  114.5000    99.7353     5.8286     6.1642
  115.0000   100.2293     5.8285     6.1642
  115.5000   100.1673     5.8284     6.1642
  116.0000    99.5469     5.8284     6.1642
  116.5000    98.9567     5.8284     6.1642
  117.0000    99.7537     5.8284     6.1642
  117.5000   101.2072     5.8282     6.1642
  118.0000   102.6632     5.8282     6.1642
  118.5000   102.9398     5.8797     6.1642
  119.0000   100.2682     5.9312     6.1642
  119.5000    97.3691     5.9832     6.2501
  120.0000    97.1676     6.0357     6.3801
  120.5000    96.8287     6.1108     6.5127
  121.0000    96.6158     6.1952     6.6481
  121.5000    96.2351     6.2804     6.7863
  122.0000    93.5618     6.3670     6.9016
  122.5000    92.2222     6.4546     6.9292
  123.0000    93.2303     6.5623     6.9570
  123.5000    93.8134     6.7215     6.9849
  124.0000    93.6843     6.8938     7.0129
  124.5000    89.9707     6.9106     7.0410
  125.0000    85.7364     6.9285     7.0693
  125.5000    83.8254     6.9468     7.0976
  126.0000    86.1658     6.9653     7.1260
  126.5000    91.2550     6.9838     7.1578
  127.0000    95.5635     7.0022     7.2191
  127.5000    98.1858     7.0235     7.2928
  128.0000   100.6022     6.9193     7.1174
  128.5000    99.7160     6.7263     6.9358
  129.0000    97.3296     6.5388     6.7588
  129.5000    97.3706     6.3565     6.5863
  130.0000    97.8024     6.1795     6.3988
  130.5000    98.3184     6.0074     6.3988
  131.0000    98.8400     5.8298     6.3988
  131.5000   101.1341     5.8472     6.3988
  132.0000   103.3477     5.8658     6.3988
  132.5000   105.8295     5.8844     6.3988
  133.0000   103.7209     5.9021     6.3988
  133.5000   100.9274     5.9210     6.3988
  134.0000    97.9457     5.9381     6.5630
  134.5000    97.4653     6.0650     6.7677
  135.0000    98.7345     6.1826     6.8231
  135.5000   100.0961     6.3025     6.8829
  136.0000    99.1191     6.4258     6.9433
  136.5000    98.7019     6.5556     7.0042
  137.0000   101.0259     6.6881     7.1467
  137.5000   102.1497     6.8232     7.3363
  138.0000    98.5719     6.9611     7.5310
  138.5000    93.5125     7.1018     7.7308
  139.0000    92.3174     7.2453     7.9058
  139.5000    93.8972     7.3917     8.0334
  140.0000    95.2883     7.5411     8.1579
  140.5000    92.8025     7.7132     8.1579
  141.0000    90.8864     7.7431     8.1579
  141.5000    90.0793     7.8053     8.1579
  142.0000    91.9264     7.8587     8.1579
  142.5000    94.1944     7.6031     8.0505
  143.0000    96.5805     7.3872     7.9112
  143.5000    98.6317     7.1774     7.7743
  144.0000   100.8861     7.0254     7.5716
  144.5000    97.8379     7.0254     7.5742
  145.0000    94.7049     7.0254     7.5854
  145.5000    94.8078     7.0254     7.5967
  146.0000    94.5357     7.0254     7.6081
  146.5000    96.0392     7.0254     7.6195
  147.0000    96.3169     7.0254     7.6308
  147.5000    96.3761     7.0254     7.6420
  148.0000    96.3185     7.0254     7.6534
  148.5000    96.2939     7.0407     7.6645
  149.0000    96.3934     7.0658     7.6753
  149.5000    96.5129     7.0904     7.6866
  150.0000   100.0313     7.1143     7.6994
  150.5000   103.8216     7.1386     7.7127
  151.0000   105.5623     7.1574     7.6652
  151.5000   105.6356     7.1564     7.5787
  152.0000   105.8369     7.1575     7.4944
  152.5000   106.2796     7.1590     7.4118
  153.0000   104.5685     7.1140     7.3301
  153.5000   101.9113     7.0444     7.2494
  154.0000    99.1461     6.9754     7.1588
  154.5000    99.7672     6.9070     7.1512
  155.0000   100.1973     6.8394     7.1424
  155.5000   101.0669     6.7726     7.1331
  156.0000   100.3677     6.7065     7.1245
  156.5000    98.6573     6.6411     7.1159
  157.0000    97.0901     6.5764     7.1073
  157.5000    96.3768     6.5198     7.0988
  158.0000    97.3462     6.5354     7.0902
  158.5000    99.5618     6.5493     7.0817
  159.0000   103.5520     6.5631     7.0731
  159.5000   105.6344     6.5769     7.0643
  160.0000   106.0006     6.5908     7.0560
  160.5000   104.6091     6.6047     7.0472
  161.0000   102.8224     6.6188     7.0376
  161.5000   102.0997     6.6332     7.0266
  162.0000   100.5914     6.7298     7.0607
  162.5000    97.9214     6.9609     7.1596
  163.0000    96.3202     7.2907     7.2595
  163.5000    96.5248     7.2587     7.3596
  164.0000    98.6620     7.0900     7.4615
  164.5000   100.5537     6.8936     7.5646
  165.0000   102.7879     6.8960     7.6690
  165.5000   102.3215     6.9287     7.7748
  166.0000   101.1871     7.0686     7.8821
  166.5000    98.5138     7.2118     8.0059
  167.0000    95.6060     8.0104     8.1086
  167.5000    92.9750     7.9891     8.2291
  168.0000    92.6442     7.9361     8.3516
  168.5000    93.9206     7.8609     8.4760
  169.0000    95.1207     7.9188     8.6020
  169.5000    96.5183     8.0440     8.7299
  170.0000    96.3758     8.1711     8.7923
  170.5000    93.8730     8.3100     8.7920
  171.0000    91.6998     8.2887     8.7913
  171.5000    90.8385     8.2675     8.7904
  172.0000    91.3760     8.2446     8.7895
  172.5000    92.5396     8.2218     8.7888
  173.0000    93.2062     8.1990     8.7939
  173.5000    93.5444     8.1764     8.5767
  174.0000    94.3578     8.1579     8.3997
  174.5000    96.2109     7.9914     8.2264
  175.0000    95.1909     7.8533     8.1009
  175.5000    94.7622     7.7166     8.0062
  176.0000    96.6375     7.5836     7.9125
  176.5000    99.0897     7.4527     7.8199
  177.0000   101.1290     7.3238     7.7132
  177.5000   102.6828     7.1969     7.5469
  178.0000   102.6653     7.0721     7.3521
  178.5000   100.0609     6.9494     7.1623
  179.0000    97.3817     6.7687     7.0305
  179.5000    94.4927     6.7740     7.0500
  180.0000    92.8605     6.7910     7.0695
  180.5000    94.0938     6.8082     7.0891
  181.0000    95.9143     6.8253     7.1088
  181.5000    97.1359     6.8423     7.1285
