~VERSION INFORMATION
 VERS.                2.0:   CWLS LOG ASCII STANDARD - VERSION 2.0
 WRAP.                 NO:   ONE LINE PER DEPTH STEP
~WELL INFORMATION
#MNEM.UNIT      DATA TYPE    INFORMATION
#----------   ------------   ------------------------------
 STRT.F           30.0000:   START DEPTH
 STOP.F          691.0000:   STOP DEPTH
 STEP.F            0.5000:   STEP LENGTH
 NULL.          -999.2500:   NO VALUE
 COMP. U.S. DEPARTMENT OF ENERGY:   COMPANY
 WELL. NAVAL PETROLEUM RESERVE #3 #77-S-34:   WELL
 FLD .        TEAPOT DOME:   FIELD
 LOC .      S34 T39N R78W:   LOCATION
 CNTY.            NATRONA:   COUNTY
 STAT.            WYOMING:   STATE
 CTRY. UNITED STATES OF AMERICA:   COUNTRY
 SRVC.              Welex:   SERVICE COMPANY
 DATE.        26-APR-1977:   LOGDATE
 API .       490251034700:   API NUMBER
~CURVE INFORMATION
#MNEM.UNIT       API CODE    CURVE DESCRIPTION
#----------   ------------   ------------------------------
 DEPT.F                  :   
 CALD.IN     45 280 60 00:   CALIPER FROM DENSITY LOG
 CORR.G/C3   45 356 01 00:   DENSITY CORRECTION
 DPHI.DEC    45 890 12 00:   DENSITY POROSITY SANDSTONE
 RHOB.G/C3   45 350 01 00:   BULK DENSITY
 GRD .GAPI   45 310 01 00:   GAMMA RAY FROM DENSITY LOG
 ILD .OHMM   07 120 46 00:   INDUCTION LOG DEEP
 ILM .OHMM   07 120 44 00:   INDUCTION LOG MEDIUM
 SGRD.OHMM   07 220 05 00:   SHALLOW GUARD RESISTIVITY
 SPR .MV     07 010 01 00:   SPONTANEOUS POTENTIAL FROM RES.
~PARAMETER INFORMATION
#MNEM.UNIT          VALUE    DESCRIPTION
#----------   ------------   ------------------------------
 PD  .                 GL:   PERMANENT DATUM
 EPD .F              5075:   ELEVATION PERMANENT DATUM
 LMF .                 GL:   LOG MEASURED FROM
 DMF .                 GL:   DRILLING MEASURED FROM
 EGL .F              5075:   GROUND LEVEL
 DATE.          4-26-1977:   RUN DATE
 RUN .                  1:   RUN NUMBER
 DD  .F               700:   DEPTH DRILLER
 DL  .F               693:   DEPTH LOGGER
 BLI .F               691:   BOTTOM LOG INTERVAL
 TLI .F                35:   TOP LOG INTERVAL
 CS  .IN            8.625:   CASING SIZE
 CBD .F                40:   CASING BOTTOM DRILLER
 CBL .F                39:   CASING BOTTOM LOGGER
 BS  .IN            7.875:   BIT SIZE
 BSD .F               700:   BIT SIZE AT DEPTH
 DFT .            KCL MUD:   DRILLING FLUID TYPE
 DFD .                9.5:   DRILLING FLUID DENSITY
 DFV .                 35:   DRILLING FLUID VISCOSITY
 DFPH.               10.5:   DRILLING FLUID PH
 DFL .                 12:   DRILLING FLUID LOSS
 MSS .           FLOWLINE:   MUD SAMPLE SOURCE
 RMS .OHMM            .32:   RESISTIVITY MUD SAMPLE
 MST .F                66:   MUD SAMPLE TEMPERATURE
 RMF .OHMM            .28:   RESISTIVITY MUD FILTRATE SAMPLE
 MFST.F                66:   MUD FILTRATE SAMPLE TEMPERATURE
 RMC .OHMM            .49:   RESISTIVITY MUD CAKE
 MCST.F                66:   MUD CAKE SAMPLE TEMPERATURE
 RMB .OHMM            .28:   RESISTIVITY MUD AT BHT
 BHT .F                74:   BOTTOM HOLE TEMPERATURE
 TCS .HRS             1.5:   TIME CURCULATED STOPPED
 MRT .F                74:   MAXIMUM RECORDED TEMPERATURE
 LUN .               8611:   LOGGING UNIT NUMBER
 LUL .           GILLETTE:   LOGGING UNIT LOCATION
 ENGI.            C. DOAK:   RECORDING ENGINEER
 WITN.       MR. ROB LYON:   WITNESSED BY
 CLNT.            A2DTECH:   CLIENT CODE
 ORIG.           5" PRINT:   ORIGIN OF DATA
 UWI .       490251034700:   UNIQUE WELL ID
 DICO. A2D Technologies, Inc.:   DIGITIZING COMPANY
~OTHER INFORMATION
~A   DEPT       CALD      CORR      DPHI         RHOB       GRD       ILD        ILM       SGRD        SPR   
# ...
  358.5000     7.9756     0.0100     0.1396     2.4465   115.9447     8.9275    10.1471    11.4345   -41.1061
  359.0000     7.9907     0.0115     0.1378     2.4458   113.8538     8.9275    10.2878    11.5950   -41.1061
  359.5000     7.9909     0.0129     0.1387     2.4473   112.3604     8.9275    10.4306    12.0858   -41.2556
  360.0000     7.9761     0.0159     0.1374     2.4503   111.0165     8.9275    10.4306    12.5975   -41.4051
  360.5000     7.9762     0.0189     0.1336     2.4547   111.1674     8.8053    10.4306    12.0708   -41.4051
  361.0000     7.9764     0.0219     0.1300     2.4615   112.8134     8.6847    10.2878    11.8432   -41.4051
  361.5000     7.9766     0.0218     0.1327     2.4585   114.1601     8.6201    10.1471    12.0925   -41.4051
  362.0000     7.9767     0.0233     0.1356     2.4473   115.5068     8.4485    10.0082    11.8467   -41.4051
  362.5000     7.9768     0.0218     0.1386     2.4473   116.7040     8.2755     9.9395    11.4341   -41.4051
  363.0000     7.9865     0.0202     0.1377     2.4495   117.1539     8.1061     9.8035    10.8351   -41.5546
  363.5000     7.9921     0.0187     0.1359     2.4503   115.9598     7.9906     9.6694    10.3974   -41.5546
  364.0000     7.9922     0.0162     0.1386     2.4465   114.9149     7.8857     9.4716    10.6896   -41.7040
  364.5000     7.9924     0.0141     0.1419     2.4420   113.8660     7.8315     9.2142    11.0700   -41.7040
  365.0000     7.9776     0.0141     0.1440     2.4383   112.3769     7.8857     9.0257    11.1436   -41.7040
  365.5000     7.9778     0.0126     0.1445     2.4361   111.1825     7.8857     8.8411    10.6941   -41.7040
  366.0000     7.9779     0.0126     0.1451     2.4353   110.2871     7.8857     8.6602    10.4764   -41.8535
  366.5000     7.9780     0.0095     0.1454     2.4353   109.6827     7.8857     8.6008    10.7731   -41.8535
  367.0000     7.9782     0.0095     0.1475     2.4346   108.7955     7.8315     8.5417    10.8467   -41.8535
  367.5000     7.9784     0.0095     0.1502     2.4286   108.0495     7.7732     8.5417    10.4811   -41.8535
  368.0000     7.9785     0.0094     0.1544     2.4159   107.0046     7.6712     8.5417    10.1276   -41.8535
  368.5000     7.9786     0.0094     0.1579     2.4084   105.9536     7.6712     8.5417    10.0594   -41.8535
  369.0000     7.9788     0.0094     0.1606     2.4054   106.8582     7.5661     8.6008    10.3421   -41.8535
  369.5000     7.9790     0.0093     0.1621     2.4069   109.6997     7.5099     8.5980    10.5594   -41.8535
  370.0000     7.9791     0.0093     0.1630     2.4076   111.7938     7.4625     8.6008    10.5608   -41.8535
  370.5000     7.9792     0.0108     0.1619     2.4084   112.8415     7.4113     8.6008    10.1345   -41.8535
  371.0000     7.9794     0.0092     0.1606     2.4091   112.8433     7.4113     8.5417     9.9971   -41.8535
  371.5000     7.9795     0.0092     0.1594     2.4114   113.8910     7.4113     8.4831     9.9298   -42.0030
  372.0000     7.9797     0.0077     0.1585     2.4129   114.3409     7.4625     8.3670     9.9314   -42.0030
  372.5000     7.9798     0.0046     0.1588     2.4084   113.8938     7.4625     8.3096    10.0705   -42.0030
  373.0000     7.9800     0.0016     0.1617     2.4016   113.2973     7.4625     8.2525    10.1417   -42.0030
  373.5000     7.9801     0.0016     0.1644     2.3972   112.9998     7.4113     8.1396     9.9356   -41.8535
  374.0000     7.9803     0.0046     0.1671     2.3934   113.0016     7.3603     8.0282     9.6665   -42.0030
  374.5000     7.9804     0.0105     0.1692     2.3927   113.0149     7.3603     7.9731    10.2158   -42.0030
  375.0000     7.9806     0.0150     0.1680     2.4009   113.6026     7.3098     7.8100    10.7219   -42.3019
  375.5000     7.9807     0.0150     0.1641     2.4091   114.3514     7.2554     7.6503     9.9411   -42.6009
  376.0000     7.9809     0.0150     0.1584     2.4159   115.2497     7.1110     7.4938    10.0803   -42.8998
  376.5000     7.9810     0.0119     0.1566     2.4129   116.3394     6.9654     7.3405     9.6070   -43.1988
  377.0000     7.9812     0.0104     0.1604     2.4054   117.9434     6.7294     7.1904     9.1559   -43.1988
  377.5000     7.9813     0.0089     0.1631     2.4039   116.0016     6.4977     7.0920     9.2207   -43.3483
  378.0000     7.9815     0.0088     0.1646     2.4054   113.6114     6.2811     7.0362     9.0957   -43.3483
  378.5000     7.9966     0.0103     0.1607     2.4129   111.7713     6.1525     6.9950     8.4913   -43.4978
  379.0000     7.9967     0.0118     0.1559     2.4188   110.4756     6.0683     6.9950     8.2552   -43.6472
  379.5000     7.9969     0.0132     0.1520     2.4233   110.1777     6.0683     7.0433     7.2993   -43.6472
  380.0000     7.9970     0.0162     0.1487     2.4263   110.4784     6.1103     7.0920     6.9086   -43.6472
  380.5000     7.9972     0.0207     0.1490     2.4278   111.8789     6.1103     7.1904     9.1019   -43.6472
  381.0000     7.9973     0.0252     0.1519     2.4263   114.5174     6.1525     7.1904     9.1660   -43.6472
  381.5000     7.9975     0.0296     0.1495     2.4338   116.6115     6.1987     7.1904     8.7359   -43.6472
  382.0000     7.9827     0.0326     0.1417     2.4443   118.7056     6.2811     7.1351     8.2686   -43.6472
  382.5000     7.9828     0.0356     0.1372     2.4518   119.3049     6.3246     7.0920     8.1562   -43.6472
  383.0000     7.9680     0.0356     0.1321     2.4600   118.8582     6.4124     7.0433     8.5089   -43.6472
  383.5000     7.9532     0.0295     0.1300     2.4607   118.7098     6.4161     7.0920     9.2998   -43.4978
  384.0000     7.9534     0.0250     0.1327     2.4570   118.8610     6.5014     7.1410    10.0332   -43.4978
  384.5000     7.9535     0.0189     0.1372     2.4495   118.0274     6.5916     7.1904     8.8643   -43.4978
  385.0000     7.9537     0.0174     0.1418     2.4428   113.9314     6.6832     7.2901     8.6841   -43.4978
  385.5000     7.9538     0.0189     0.1450     2.4383   111.5412     6.7799     7.3329     8.7456   -43.4978
  386.0000     7.9689     0.0219     0.1411     2.4458   113.9343     6.8779     7.4472     8.7467   -43.4978
  386.5000     7.9691     0.0263     0.1377     2.4510   116.9256     6.9654     7.5978     9.2435   -43.4978
  387.0000     7.9692     0.0308     0.1347     2.4555   119.6175     7.0136     7.7032     9.2451   -43.4978
  387.5000     7.9694     0.0323     0.1317     2.4570   121.7116     7.0176     7.8100     9.3101   -43.4978
  388.0000     7.9695     0.0323     0.1326     2.4570   122.1615     7.0621     7.8640     9.4405   -43.4978
  388.5000     7.9697     0.0307     0.1341     2.4540   120.9674     7.0621     7.9184     9.6389   -43.4978
  389.0000     7.9549     0.0322     0.1344     2.4547   122.4636     7.0621     7.9731     9.8414   -43.6472
  389.5000     7.9550     0.0322     0.1338     2.4570   124.7071     7.1110     7.9731     9.9110   -43.6472
  390.0000     7.9552     0.0306     0.1335     2.4570   125.0374     7.1602     7.9695     9.7767   -43.7967
  390.5000     7.9553     0.0276     0.1341     2.4533   123.2155     7.1602     7.9184     9.6439   -43.7967
  391.0000     7.9555     0.0246     0.1362     2.4473   122.1706     7.1110     7.8100     9.4481   -43.7967
  391.5000     7.9556     0.0215     0.1403     2.4428   121.8727     7.0621     7.7564     9.2564   -43.7967
  392.0000     7.9558     0.0215     0.1415     2.4413   123.0703     6.9654     7.7032     9.1309   -43.7967
  392.5000     7.9559     0.0230     0.1400     2.4458   124.4173     6.9654     7.6503     9.1321   -43.7967
  393.0000     7.9561     0.0229     0.1388     2.4503   124.8672     6.9175     7.5978     9.1333   -43.7967
  393.5000     7.9562     0.0229     0.1367     2.4518   124.8686     6.9175     7.5978     9.1348   -43.9462
  394.0000     7.9564     0.0214     0.1352     2.4533   124.4215     6.9175     7.5978     9.1991   -44.0957
  394.5000     7.9673     0.0183     0.1337     2.4533   123.5264     6.9654     7.6503     9.2003   -44.2451
