~VERSION INFORMATION
 VERS.                2.0:   CWLS LOG ASCII STANDARD - VERSION 2.0
 WRAP.                 NO:   ONE LINE PER DEPTH STEP
~WELL INFORMATION
#MNEM.UNIT      DATA TYPE    INFORMATION
#----------   ------------   ------------------------------
 STRT.F           28.0000:   START DEPTH
 STOP.F          693.0000:   STOP DEPTH
 STEP.F            0.5000:   STEP LENGTH
 NULL.          -999.2500:   NO VALUE
 COMP. FENIX & SCISSON INC:   COMPANY
 WELL.       NPR-3 #63-15:   WELL
 FLD .             TEAPOT:   FIELD
 LOC .      S15 T38N R78W:   LOCATION
 CNTY.            NATRONA:   COUNTY
 STAT.            WYOMING:   STATE
 CTRY. UNITED STATES OF AMERICA:   COUNTRY
 SRVC.            Unknown:   SERVICE COMPANY
 DATE.        10-JUN-1978:   LOGDATE
 API .       490251063800:   API NUMBER
~CURVE INFORMATION
#MNEM.UNIT       API CODE    CURVE DESCRIPTION
#----------   ------------   ------------------------------
 DEPT.F                  :   
 SPR .MV     05 010 01 00:   SPONTANEOUS POTENTIAL FROM RES.
 SN  .OHMM   05 040 16 00:   SHORT NORMAL 16"
 ILD .OHMM   05 120 46 00:   INDUCTION LOG DEEP
 CALD.IN     45 280 60 00:   CALIPER FROM DENSITY LOG
 GRD .GAPI   45 310 01 00:   GAMMA RAY FROM DENSITY LOG
 CORR.G/C3   45 356 01 00:   DENSITY CORRECTION
 DPHI.DEC    45 890 12 00:   DENSITY POROSITY SANDSTONE
 DEN .G/C3   45 350 01 00:   DENSITY
~PARAMETER INFORMATION
#MNEM.UNIT          VALUE    DESCRIPTION
#----------   ------------   ------------------------------
 PD  .                 GL:   PERMANENT DATUM
 EPD .F              5265:   ELEVATION PERMANENT DATUM
 LMF .                 KB:   LOG MEASURED FROM
 DAPD.F                 4:   FEET ABOVE PERMANENT DATUM
 DMF .                 KB:   DRILLING MEASURED FROM
 EKB .F              5269:   KELLING BUSHING
 EGL .F              5265:   GROUND LEVEL
 DATE.        10-JUN-1978:   RUN DATE
 RUN .                  1:   RUN NUMBER
 DD  .F               690:   DEPTH DRILLER
 DL  .F               697:   DEPTH LOGGER
 BLI .F               690:   BOTTOM LOG INTERVAL
 TLI .F                35:   TOP LOG INTERVAL
 CS  .IN            8.625:   CASING SIZE
 CBD .F                40:   CASING BOTTOM DRILLER
 CBL .F                35:   CASING BOTTOM LOGGER
 BS  .IN            7.875:   BIT SIZE
 BSD .F               690:   BIT SIZE AT DEPTH
 DFT .                KCL:   DRILLING FLUID TYPE
 DFD .                8.7:   DRILLING FLUID DENSITY
 DFV .                 34:   DRILLING FLUID VISCOSITY
 DFPH.                 10:   DRILLING FLUID PH
 DFL .               11.6:   DRILLING FLUID LOSS
 MSS .            MUD PIT:   MUD SAMPLE SOURCE
 RMS .OHMM            .32:   RESISTIVITY MUD SAMPLE
 MST .F                74:   MUD SAMPLE TEMPERATURE
 RMF .OHMM            .28:   RESISTIVITY MUD FILTRATE SAMPLE
 MFST.F                78:   MUD FILTRATE SAMPLE TEMPERATURE
 RMC .OHMM            .36:   RESISTIVITY MUD CAKE
 MCST.F                78:   MUD CAKE SAMPLE TEMPERATURE
 MFSS.               MEAS:   MUD FILTRATE SAMPLE SOURCE
 MCSS.               MEAS:   MUD CAKE SAMPLE SOURCE
 BHT .F                80:   BOTTOM HOLE TEMPERATURE
 TCS .HRS            0100:   TIME CURCULATED STOPPED
 MRT .F                80:   MAXIMUM RECORDED TEMPERATURE
 LUN .               2958:   LOGGING UNIT NUMBER
 LUL .               CASP:   LOGGING UNIT LOCATION
 ENGI.             MILLER:   RECORDING ENGINEER
 WITN.           MCGINLEY:   WITNESSED BY
 CLNT.            A2DTECH:   CLIENT CODE
 ORIG.           5" PRINT:   ORIGIN OF DATA
 UWI .       490251063800:   UNIQUE WELL ID
 DICO. A2D Technologies, Inc.:   DIGITIZING COMPANY
~OTHER INFORMATION
~A   DEPT      SPR         SN        ILD       CALD        GRD       CORR       DPHI        DEN   
# ...
  190.0000    -8.0523     7.8600     7.8420     7.6824    87.6020     0.0318     0.1003     2.5003
  190.5000    -8.0391     7.6426     7.6308     7.7140    89.4333     0.0214     0.1015     2.4974
  191.0000    -8.0258     7.5417     7.5289     7.7003    91.6479     0.0231     0.1009     2.4974
  191.5000    -8.0125     7.4938     7.4284     7.6567    93.7535     0.0232     0.1042     2.4952
  192.0000    -7.9992     7.4462     7.3802     7.6126    92.7249     0.0144     0.1066     2.4945
  192.5000    -7.9859     7.3989     7.3833     7.5382    89.1589     0.0070     0.1075     2.4947
  193.0000    -7.9726     7.4039     7.3863     7.5110    85.8914     0.0056     0.1086     2.4962
  193.5000    -7.9593     7.4594     7.4407     7.5277    83.6687     0.0058     0.1098     2.4955
  194.0000    -8.0958     7.4635     7.4961     7.5140    82.3375     0.0074     0.1101     2.4888
  194.5000    -7.9326     7.4675     7.5513     7.5153    85.4879     0.0060     0.1106     2.4858
  195.0000    -7.9192     7.4716     7.5544     7.5167    86.2543     0.0062     0.1115     2.4866
  195.5000    -7.9057     7.4757     7.5575     7.5180    87.0166     0.0048     0.1124     2.4807
  196.0000    -7.8896     7.4798     7.5606     7.3996    85.3751     0.0034     0.1151     2.4800
  196.5000    -7.8763     7.4839     7.5637     7.3856    82.4283     0.0005     0.1217     2.4801
  197.0000    -7.7133     7.4880     7.5668     7.4771    77.9645    -0.0008     0.1204     2.4711
  197.5000    -7.5503     7.4920     7.5699     7.5532    82.7567     0.0008     0.1186     2.4712
  198.0000    -7.5371     7.4961     7.6256     7.4947    89.3359     0.0100     0.1168     2.4743
  198.5000    -7.5238     7.5002     7.6287     7.4783    83.9829     0.0161     0.1146     2.4790
  199.0000    -7.5105     7.5043     7.6318     7.5423    82.3572     0.0193     0.1177     2.4826
  199.5000    -7.6469     7.5606     7.6350     7.6334    82.2200     0.0134     0.1271     2.4774
  200.0000    -7.6345     7.6172     7.6276     7.7096    82.9844     0.0068     0.1357     2.4615
  200.5000    -7.6196     7.5345     7.5881     7.6960    84.3870     0.0031     0.1381     2.4475
  201.0000    -7.6047     7.4518     7.5441     7.6674    86.8339     0.0063     0.1330     2.4453
  201.5000    -7.5895     7.3251     7.3939     7.6537    88.1083     0.0155     0.1278     2.4530
  202.0000    -7.5749     7.1786     7.1471     7.6252    87.6767     0.0291     0.1215     2.4718
  202.5000    -7.5599     7.0852     7.0049     7.5966    87.9954     0.0368     0.1143     2.4854
  203.0000    -7.5449     6.9944     6.9612     7.5819    88.4594     0.0627     0.1088     2.5065
  203.5000    -7.5272     6.9996     6.9660     7.5693    90.1174     0.0620     0.1172     2.4987
  204.0000    -7.5125     7.0048     7.0193     7.4961    90.8758     0.0223     0.1232     2.4731
  204.5000    -7.6476     7.0100     7.0251     7.5423    88.9557    -0.0016     0.1235     2.4677
  205.0000    -7.6329     7.0639     7.0787     7.6335    85.8376    -0.0015     0.1201     2.4701
  205.5000    -7.7716     7.0692     7.0834     7.6797    83.9135     0.0002     0.1195     2.4739
  206.0000    -7.7533     7.0746     7.0882     7.6960    84.0789     0.0003     0.1207     2.4762
  206.5000    -7.7386     7.1291     7.0930     7.7273    87.3787     0.0005     0.1205     2.4673
  207.0000    -7.7239     7.1355     7.1471     7.7435    87.9878     0.0036     0.1146     2.4711
  207.5000    -7.7093     7.1408     7.1520     7.7898    86.5155     0.0188     0.1049     2.4870
  208.0000    -7.6946     7.1462     7.2065     7.8207    87.1287     0.0234     0.0995     2.5006
  208.5000    -7.6796     7.2011     7.2616     7.7176    89.9382     0.0160     0.0968     2.5082
  209.0000    -7.5150     7.2065     7.2666     7.6740    92.5356     0.0252     0.0971     2.5045
  209.5000    -7.4973     7.2620     7.2726     7.6603    91.0592     0.0239     0.1000     2.4993
  210.0000    -7.4826     7.2674     7.2775     7.6617    90.4744     0.0180     0.1054     2.4941
  210.5000    -7.3182     7.2226     7.2824     7.6780    93.1812     0.0167     0.1102     2.4920
  211.0000    -7.1539     7.2280     7.2370     7.6624    96.0332     0.0138     0.1138     2.4861
  211.5000    -7.1392     7.2335     7.2419     7.6058    94.7061     0.0065     0.1185     2.4770
  212.0000    -7.1245     7.2390     7.1968     7.6523    94.5730     0.0021     0.1212     2.4682
  212.5000    -7.1099     7.2455     7.1520     7.6833    95.9453     0.0007     0.1227     2.4683
  213.0000    -7.0952     7.2509     7.1568     7.6247    95.5881    -0.0006     0.1238     2.4684
  213.5000    -7.0805     7.2563     7.1617     7.6111    91.4913    -0.0004     0.1253     2.4662
  214.0000    -7.0659     7.2617     7.1733     7.6277    92.1045    -0.0003     0.1262     2.4655
  214.5000    -7.0509     7.3684     7.4252     7.6739    92.7177    -0.0001     0.1226     2.4656
  215.0000    -7.0359     7.4766     7.5862     7.7052    93.3309     0.0015     0.1141     2.4680
  215.5000    -7.0182     7.5342     7.5914     7.6912    93.3471     0.0047     0.1123     2.4808
  216.0000    -7.0035     7.5921     7.6493     7.6629    90.9752     0.0123     0.1146     2.4854
  216.5000    -6.9889     7.6505     7.6545     7.6044    88.6034     0.0065     0.1158     2.4847
  217.0000    -6.9742     7.6563     7.7129     7.6057    88.7688     0.0021     0.1140     2.4855
  217.5000    -7.1129     7.7234     7.7717     7.6370    91.7701     0.0038     0.1122     2.4856
  218.0000    -7.0946     7.8843     7.8310     7.6533    92.9803     0.0069     0.1118     2.4842
  218.5000    -7.2333     8.0001     7.9456     7.6396    91.0562     0.0086     0.1145     2.4820
  219.0000    -7.2150     8.1177     8.0064     7.6110    87.4903     0.0102     0.1163     2.4829
  219.5000    -7.2003     8.1237     7.9577     7.5824    87.0214     0.0134     0.1144     2.4897
  220.0000    -7.1856     8.1298     7.9630     7.7338    90.3585     0.0090     0.1135     2.4928
  220.5000    -7.1707     8.0782     7.9684     7.8249    91.5687     0.0017     0.1126     2.4859
  221.0000    -7.1557     8.0857     8.0292     7.7963    91.7413    -0.0012     0.1147     2.4816
  221.5000    -7.1380     8.1479     8.0905     7.7377    94.9673     0.0005     0.1179     2.4788
  222.0000    -7.1233     8.1540     8.1522     7.6343    97.5874     0.0021     0.1172     2.4781
  222.5000    -7.1086     8.1602     8.2715     7.6053    92.3838     0.0053     0.1143     2.4812
  223.0000    -7.0940     8.1664     8.3346     7.5770    89.4149     0.0084     0.1076     2.4865
  223.5000    -7.2290     8.2305     8.4566     7.5334    88.2330     0.0116     0.1094     2.4911
  224.0000    -7.2143     8.4094     8.5805     7.5348    89.7458     0.0042     0.1139     2.4852
  224.5000    -7.1997     8.6519     8.6472     7.5361    90.3590     0.0029     0.1132     2.4830
  225.0000    -7.1850     8.8399     8.7132     7.5823    90.3752     0.0060     0.1090     2.4861
  225.5000    -7.1704     8.8465     8.7191     7.6136    90.2380     0.0122     0.1042     2.4945
  226.0000    -7.1557     8.9146     8.7856     7.6170    90.1090     0.0185     0.0984     2.5141
  226.5000    -7.1386     8.9832     8.9141     7.6615    87.8864     0.0125     0.0921     2.5227
  227.0000    -7.2773     9.1152     9.1074     7.7227    82.5295     0.0021     0.0972     2.5015
  227.5000    -7.2590     9.2491     9.3696     7.7240    82.9934     0.0068     0.1007     2.4933
  228.0000    -7.2443     9.3876     9.4410     7.7400    91.2186     0.0204     0.1028     2.4971
  228.5000    -7.2296     9.4659     9.5131     7.7263    91.9810     0.0146     0.1058     2.4987
  229.0000    -7.3647     9.5317     9.5195     7.7280    91.4002     0.0072     0.1097     2.4859
  229.5000    -7.3500     9.5388     9.3949     7.7443    89.0254     0.0074     0.1108     2.4853
  230.0000    -7.3353     9.4783     9.2719     7.7756    89.3731     0.0120     0.1109     2.4892
