~VERSION INFORMATION
 VERS.                2.0:   CWLS LOG ASCII STANDARD - VERSION 2.0
 WRAP.                 NO:   ONE LINE PER DEPTH STEP
~WELL INFORMATION
#MNEM.UNIT      DATA TYPE    INFORMATION
#----------   ------------   ------------------------------
 STRT.F            0.0000:   START DEPTH
 STOP.F         2660.0000:   STOP DEPTH
 STEP.F            0.5000:   STEP LENGTH
 NULL.          -999.2500:   NO VALUE
 COMP. FENIX & SCISSON INC:   COMPANY
 WELL.     101-20 #101-20:   WELL
 FLD .        TEAPOT DOME:   FIELD
 LOC .      S20 T39N R78W:   LOCATION
 CNTY.            NATRONA:   COUNTY
 STAT.            WYOMING:   STATE
 CTRY. UNITED STATES OF AMERICA:   COUNTRY
 SRVC.      NL McCullough:   SERVICE COMPANY
 DATE.        19-SEP-1965:   LOGDATE
 API .       490251022100:   API NUMBER
~CURVE INFORMATION
#MNEM.UNIT       API CODE    CURVE DESCRIPTION
#----------   ------------   ------------------------------
 DEPT.F                  :   
 GR  .GAPI   30 310 01 00:   GAMMA RAY
 CALI.IN     30 280 01 00:   CALIPER
~PARAMETER INFORMATION
#MNEM.UNIT          VALUE    DESCRIPTION
#----------   ------------   ------------------------------
 PD  .                 GL:   PERMANENT DATUM
 LMF .                 GL:   LOG MEASURED FROM
 DMF .                 GL:   DRILLING MEASURED FROM
 DATE.          9-19-1965:   RUN DATE
 RUN .                  1:   RUN NUMBER
 DD  .F              2661:   DEPTH DRILLER
 DL  .F              2659:   DEPTH LOGGER
 BLI .F              2657:   BOTTOM LOG INTERVAL
 TLI .F              2000:   TOP LOG INTERVAL
 CS  .IN              6.5:   CASING SIZE
 CBD .F              2619:   CASING BOTTOM DRILLER
 BSD .F              2661:   BIT SIZE AT DEPTH
 DFT .              WATER:   DRILLING FLUID TYPE
 TCS .HRS               1:   TIME CURCULATED STOPPED
 ENGI.        FITZSIMMONS:   RECORDING ENGINEER
 WITN.          JORGENSEN:   WITNESSED BY
 CLNT.            A2DTECH:   CLIENT CODE
 ORIG.           5" PRINT:   ORIGIN OF DATA
 UWI .       490251022100:   UNIQUE WELL ID
 DICO. A2D Technologies, Inc.:   DIGITIZING COMPANY
~OTHER INFORMATION
~A    DEPT      GR         CALI 
# ...
  121.5000  -999.2500     6.5627
  122.0000  -999.2500     6.5634
  122.5000  -999.2500     6.5641
  123.0000  -999.2500     6.5648
  123.5000  -999.2500     6.5656
  124.0000  -999.2500     6.5663
  124.5000  -999.2500     6.5664
  125.0000  -999.2500     6.5648
  125.5000  -999.2500     6.5624
  126.0000  -999.2500     6.5600
  126.5000  -999.2500     6.5577
  127.0000  -999.2500     6.5564
  127.5000  -999.2500     6.5564
  128.0000  -999.2500     6.5564
  128.5000  -999.2500     6.5564
  129.0000  -999.2500     6.5564
  129.5000  -999.2500     6.5564
  130.0000  -999.2500     6.5564
  130.5000  -999.2500     6.5564
  131.0000  -999.2500     6.5564
  131.5000  -999.2500     6.5563
  132.0000  -999.2500     6.5566
  132.5000  -999.2500     6.5649
  133.0000  -999.2500     6.5737
  133.5000  -999.2500     6.5824
  134.0000  -999.2500     6.5911
  134.5000  -999.2500     6.5999
  135.0000  -999.2500     6.6102
  135.5000  -999.2500     6.6268
  136.0000  -999.2500     6.6448
  136.5000  -999.2500     6.5855
  137.0000  -999.2500     6.5494
  137.5000  -999.2500     6.5447
  138.0000  -999.2500     6.5430
  138.5000  -999.2500     6.5414
  139.0000  -999.2500     6.5397
  139.5000  -999.2500     6.5379
  140.0000  -999.2500     6.5329
  140.5000  -999.2500     6.5065
  141.0000  -999.2500     6.4793
  141.5000  -999.2500     6.5028
  142.0000  -999.2500     6.5348
  142.5000  -999.2500     6.5366
  143.0000  -999.2500     6.5364
  143.5000  -999.2500     6.5363
  144.0000  -999.2500     6.5363
  144.5000  -999.2500     6.5394
  145.0000  -999.2500     6.5434
  145.5000  -999.2500     6.5475
  146.0000  -999.2500     6.5516
  146.5000  -999.2500     6.5557
  147.0000  -999.2500     6.5597
  147.5000  -999.2500     6.5638
  148.0000  -999.2500     6.5679
  148.5000  -999.2500     6.5720
  149.0000  -999.2500     6.5761
  149.5000  -999.2500     6.5801
  150.0000  -999.2500     6.5842
  150.5000  -999.2500     6.5883
  151.0000  -999.2500     6.5924
  151.5000  -999.2500     6.5963
  152.0000  -999.2500     6.5929
  152.5000  -999.2500     6.5892
  153.0000  -999.2500     6.5886
  153.5000  -999.2500     6.5984
  154.0000  -999.2500     6.6078
  154.5000  -999.2500     6.6172
  155.0000  -999.2500     6.6278
  155.5000  -999.2500     6.6546
  156.0000  -999.2500     6.5749
  156.5000  -999.2500     6.5569
  157.0000  -999.2500     6.5620
  157.5000  -999.2500     6.5666
  158.0000  -999.2500     6.5711
  158.5000  -999.2500     6.5755
  159.0000  -999.2500     6.5861
  159.5000  -999.2500     6.5947
  160.0000  -999.2500     6.5668
  160.5000  -999.2500     6.5693
  161.0000  -999.2500     6.5715
  161.5000  -999.2500     6.5738
  162.0000  -999.2500     6.5761
  162.5000  -999.2500     6.5772
  163.0000  -999.2500     6.5780
  163.5000  -999.2500     6.5789
  164.0000  -999.2500     6.5798
  164.5000  -999.2500     6.5807
  165.0000  -999.2500     6.5815
  165.5000  -999.2500     6.5824
  166.0000  -999.2500     6.5833
  166.5000  -999.2500     6.5842
  167.0000  -999.2500     6.5850
  167.5000  -999.2500     6.5859
  168.0000  -999.2500     6.5865
  168.5000  -999.2500     6.5865
  169.0000  -999.2500     6.5865
  169.5000  -999.2500     6.5865
  170.0000  -999.2500     6.5865
  170.5000  -999.2500     6.5865
  171.0000  -999.2500     6.5865
  171.5000  -999.2500     6.5865
  172.0000  -999.2500     6.5865
  172.5000  -999.2500     6.5865
  173.0000  -999.2500     6.5865
  173.5000  -999.2500     6.5865
  174.0000  -999.2500     6.5862
  174.5000  -999.2500     6.5961
  175.0000  -999.2500     6.6094
  175.5000  -999.2500     6.6216
  176.0000  -999.2500     6.6325
  176.5000  -999.2500     6.5668
  177.0000  -999.2500     6.5661
  177.5000  -999.2500     6.5663
  178.0000  -999.2500     6.5683
  178.5000  -999.2500     6.5707
  179.0000  -999.2500     6.5732
  179.5000  -999.2500     6.5756
  180.0000  -999.2500     6.5809
  180.5000  -999.2500     6.5866
  181.0000  -999.2500     6.5865
  181.5000  -999.2500     6.5865
  182.0000  -999.2500     6.5865
  182.5000  -999.2500     6.5865
  183.0000  -999.2500     6.5865
  183.5000  -999.2500     6.5865
  184.0000  -999.2500     6.5865
  184.5000  -999.2500     6.5865
  185.0000  -999.2500     6.5865
  185.5000  -999.2500     6.5865
  186.0000  -999.2500     6.5865
  186.5000  -999.2500     6.5865
  187.0000  -999.2500     6.5865
  187.5000  -999.2500     6.5865
  188.0000  -999.2500     6.5865
  188.5000  -999.2500     6.5865
  189.0000  -999.2500     6.5865
  189.5000  -999.2500     6.5873
  190.0000  -999.2500     6.5910
  190.5000  -999.2500     6.5946
  191.0000  -999.2500     6.5982
  191.5000  -999.2500     6.6018
  192.0000  -999.2500     6.6054
  192.5000  -999.2500     6.6090
  193.0000  -999.2500     6.6127
  193.5000  -999.2500     6.6163
  194.0000  -999.2500     6.6108
  194.5000  -999.2500     6.6092
  195.0000  -999.2500     6.6171
  195.5000  -999.2500     6.6248
  196.0000  -999.2500     6.6326
  196.5000  -999.2500     6.6364
  197.0000  -999.2500     6.6210
  197.5000  -999.2500     6.5750
  198.0000  -999.2500     6.5750
  198.5000  -999.2500     6.5739
  199.0000  -999.2500     6.5728
  199.5000  -999.2500     6.5716
  200.0000  -999.2500     6.5704
  200.5000  -999.2500     6.5693
  201.0000  -999.2500     6.5681
  201.5000  -999.2500     6.5669
  202.0000  -999.2500     6.5657
  202.5000  -999.2500     6.5646
  203.0000  -999.2500     6.5634
  203.5000  -999.2500     6.5622
  204.0000  -999.2500     6.5611
  204.5000  -999.2500     6.5599
  205.0000  -999.2500     6.5587
  205.5000  -999.2500     6.5575
  206.0000  -999.2500     6.5564
  206.5000  -999.2500     6.5564
  207.0000  -999.2500     6.5564
  207.5000  -999.2500     6.5564
  208.0000  -999.2500     6.5564
  208.5000  -999.2500     6.5564
  209.0000  -999.2500     6.5564
  209.5000  -999.2500     6.5564
  210.0000  -999.2500     6.5563
  210.5000  -999.2500     6.5591
  211.0000  -999.2500     6.5628
  211.5000  -999.2500     6.5664
  212.0000  -999.2500     6.5701
  212.5000  -999.2500     6.5737
  213.0000  -999.2500     6.5773
  213.5000  -999.2500     6.5810
  214.0000  -999.2500     6.5846
  214.5000  -999.2500     6.5919
  215.0000  -999.2500     6.6027
  215.5000  -999.2500     6.6136
  216.0000  -999.2500     6.6247
  216.5000  -999.2500     6.6365
  217.0000  -999.2500     6.5966
  217.5000  -999.2500     6.5659
  218.0000  -999.2500     6.5647
  218.5000  -999.2500     6.5630
  219.0000  -999.2500     6.5615
  219.5000  -999.2500     6.5599
  220.0000  -999.2500     6.5584
  220.5000  -999.2500     6.5568
  221.0000  -999.2500     6.5553
  221.5000  -999.2500     6.5537
  222.0000  -999.2500     6.5521
  222.5000  -999.2500     6.5506
  223.0000  -999.2500     6.5490
  223.5000  -999.2500     6.5475
  224.0000  -999.2500     6.5462
  224.5000  -999.2500     6.5456
  225.0000  -999.2500     6.5450
  225.5000  -999.2500     6.5444
  226.0000  -999.2500     6.5439
  226.5000  -999.2500     6.5433
  227.0000  -999.2500     6.5427
  227.5000  -999.2500     6.5421
  228.0000  -999.2500     6.5416
  228.5000  -999.2500     6.5410
  229.0000  -999.2500     6.5404
  229.5000  -999.2500     6.5398
  230.0000  -999.2500     6.5392
  230.5000  -999.2500     6.5387
  231.0000  -999.2500     6.5381
  231.5000  -999.2500     6.5375
  232.0000  -999.2500     6.5369
  232.5000  -999.2500     6.5364
  233.0000  -999.2500     6.5390
  233.5000  -999.2500     6.5416
  234.0000  -999.2500     6.5442
  234.5000  -999.2500     6.5474
  235.0000  -999.2500     6.5532
  235.5000  -999.2500     6.5590
  236.0000  -999.2500     6.5646
  236.5000  -999.2500     6.5926
  237.0000  -999.2500     6.6239
  237.5000  -999.2500     6.5772
  238.0000  -999.2500     6.5599
  238.5000  -999.2500     6.5462
  239.0000  -999.2500     6.5484
  239.5000  -999.2500     6.5503
  240.0000  -999.2500     6.5521
  240.5000  -999.2500     6.5539
  241.0000  -999.2500     6.5558
  241.5000  -999.2500     6.5576
  242.0000  -999.2500     6.5594
  242.5000  -999.2500     6.5613
