~VERSION INFORMATION
 VERS.                2.0:   CWLS LOG ASCII STANDARD - VERSION 2.0
 WRAP.                 NO:   ONE LINE PER DEPTH STEP
~WELL INFORMATION
#MNEM.UNIT      DATA TYPE    INFORMATION
#----------   ------------   ------------------------------
 STRT.F           20.0000:   START DEPTH
 STOP.F          678.0000:   STOP DEPTH
 STEP.F            0.5000:   STEP LENGTH
 NULL.          -999.2500:   NO VALUE
 COMP. FENIX & SCISSON INC:   COMPANY
 WELL. 27-42 SX 11 WO #27-11:   WELL
 FLD .        TEAPOT DOME:   FIELD
 LOC .      S11 T38N R78W:   LOCATION
 CNTY.            NATRONA:   COUNTY
 STAT.            WYOMING:   STATE
 CTRY. UNITED STATES OF AMERICA:   COUNTRY
 SRVC.      Dresser Atlas:   SERVICE COMPANY
 DATE.        13-AUG-1985:   LOGDATE
 API .       490251083800:   API NUMBER
~CURVE INFORMATION
#MNEM.UNIT       API CODE    CURVE DESCRIPTION
#----------   ------------   ------------------------------
 DEPT.F                  :   
 RHOB.G/C3   45 350 01 00:   BULK DENSITY
 CORR.G/C3   45 356 01 00:   DENSITY CORRECTION
 CALD.IN     45 280 60 00:   CALIPER
 GRD .GAPI   45 310 01 00:   GAMMA RAY FROM DENSITY LOG
 DPOR.DEC    45 890 12 00:   DENSITY POROSITY SANDSTONE
 NPOR.DEC    42 890 03 00:   NEUTRON POROSITY SANDSTONE
 SPR .MV     07 010 01 00:   SPONTANEOUS POTENTIAL
 SFL .OHMM   07 220 01 00:   SHALLOW FOCUSED LOG RESISTIVITY
 ILD .OHMM   07 120 46 00:   INDUCTION LOG DEEP
 ILM .OHMM   07 120 44 00:   INDUCTION LOG MEDIUM
~PARAMETER INFORMATION
#MNEM.UNIT          VALUE    DESCRIPTION
#----------   ------------   ------------------------------
 PD  .                 GL:   PERMANENT DATUM
 EPD .F              5188:   ELEVATION PERMANENT DATUM
 LMF .                 KB:   LOG MEASURED FROM
 DAPD.F                 5:   FEET ABOVE PERMANENT DATUM
 DMF .                 KB:   DRILLING MEASURED FROM
 EKB .F              5193:   KELLING BUSHING
 EGL .F              5188:   GROUND LEVEL
 DATE.          8-13-1985:   RUN DATE
 RUN .                  8:   RUN NUMBER
 DD  .F               632:   DEPTH DRILLER
 BLI .F               598:   BOTTOM LOG INTERVAL
 TLI .F               303:   TOP LOG INTERVAL
 CBL .F               303:   CASING BOTTOM LOGGER
 BS  .IN              .75:   BIT SIZE
 BSD .F               632:   BIT SIZE AT DEPTH
 DFT .          KCL WATER:   DRILLING FLUID TYPE
 LUN .            HL-6274:   LOGGING UNIT NUMBER
 LUL .           GILLETTE:   LOGGING UNIT LOCATION
 ENGI.             RAUTIO:   RECORDING ENGINEER
 WITN.            SCHULTE:   WITNESSED BY
 CLNT.            A2DTECH:   CLIENT CODE
 ORIG.           2" PRINT:   ORIGIN OF DATA
 UWI .       490251083800:   UNIQUE WELL ID
 DICO. A2D Technologies, Inc.:   DIGITIZING COMPANY
~OTHER INFORMATION
~A   DEPT     RHOB       CORR       CALD        GRD       DPOR       NPOR        SPR        SFL        ILD          ILM 
# ...
  288.0000     2.4671     0.0220     8.9712   112.6309     0.1292     0.3148    -8.1652     9.0276     8.2329     7.8572
  288.5000     2.4633     0.0246     8.9688   111.8434     0.1304     0.3184    -8.1681     9.1351     8.1811     7.8088
  289.0000     2.4637     0.0272     8.9713   111.0529     0.1271     0.3196    -8.1707     9.2438     8.1296     7.7607
  289.5000     2.4722     0.0298     8.9737   111.3682     0.1232     0.3167    -8.2828     9.3401     8.0785     7.7130
  290.0000     2.4802     0.0324     8.9762   108.8366     0.1172     0.3113    -8.4101     9.2502     8.0651     7.6655
  290.5000     2.4880     0.0349     8.9786   107.2271     0.1128     0.3068    -8.5407     9.1709     8.0651     7.6183
  291.0000     2.4940     0.0373     8.9811   109.6270     0.1113     0.2969    -8.6691     9.0923     7.9819     7.5714
  291.5000     2.5052     0.0397     8.9836   112.7791     0.0994     0.2876    -8.7970     9.0037     7.8793     7.5248
  292.0000     2.5158     0.0420     8.9860   111.9000     0.0995     0.2918    -8.9267     9.0034     7.7781     7.4785
  292.5000     2.5036     0.0438     8.9885   110.7800     0.1072     0.3012    -8.9678     9.0029     7.6782     7.4320
  293.0000     2.5048     0.0419     8.9910   110.4006     0.1040     0.3080    -8.9700     9.0026     7.6323     7.3862
  293.5000     2.5045     0.0395     8.9935   110.6650     0.1058     0.3156    -8.9091     8.8811     7.6324     7.3577
  294.0000     2.4951     0.0370     8.9960   108.6705     0.1108     0.3166    -8.7476     8.7769     7.6326     7.3579
  294.5000     2.4863     0.0346     8.9984   106.4241     0.1157     0.3172    -8.5901     8.6740     7.6327     7.3403
  295.0000     2.4759     0.0321     9.0008   105.4743     0.1207     0.3209    -8.4315     8.5720     7.6331     7.2998
  295.5000     2.4757     0.0296     9.0036   106.4012     0.1231     0.3244    -8.2726     8.5207     7.6331     7.2595
  296.0000     2.4834     0.0294     9.0057   107.1272     0.1160     0.3254    -8.1141     8.6893     7.6331     7.2195
  296.5000     2.4914     0.0354     9.0072   107.5011     0.1095     0.3212    -7.9543     8.8442     7.6331     7.1786
  297.0000     2.5022     0.0419     8.9949   106.7514     0.1056     0.3209    -7.7990     9.0006     7.6331     7.1388
  297.5000     2.4977     0.0395     8.9839   105.6522     0.1144     0.3228    -7.6366     8.7875     7.5427     7.0930
  298.0000     2.4870     0.0302     8.9722   106.6289     0.1187     0.3221    -7.4728     8.5807     7.4539     7.0420
  298.5000     2.4751     0.0234     8.9607   110.0891     0.1224     0.3204    -7.4697     8.3786     7.3581     6.9318
  299.0000     2.4793     0.0287     8.9492   110.2518     0.1168     0.3179    -7.7635     8.2144     7.2491     6.8232
  299.5000     2.4889     0.0401     8.9376   110.2510     0.1136     0.3153    -7.8820     8.3665     7.1307     6.7164
  300.0000     2.4836     0.0406     8.9261   111.0857     0.1199     0.3126    -8.0552     8.8399     7.0142     6.6113
  300.5000     2.4732     0.0329     8.9146   112.7201     0.1265     0.3100    -8.2188     8.5089     6.8997     6.5078
  301.0000     2.4631     0.0259     8.9032   114.3629     0.1330     0.3092    -8.3813     8.1155     6.7870     6.4059
  301.5000     2.4537     0.0195     8.8913   115.1654     0.1415     0.3112    -8.5475     7.7403     6.6762     6.3056
  302.0000     2.4439     0.0121     8.8911   114.4563     0.1393     0.3135    -8.7111     7.3825     6.5672     6.2069
  302.5000     2.4510     0.0145     8.9005   112.5173     0.1320     0.3156    -8.8747     7.2190     6.4599     6.1097
  303.0000     2.4682     0.0201     8.9096   110.6544     0.1264     0.3156    -9.0411     7.2285     6.3536     6.0134
  303.5000     2.4614     0.0150     8.9187   108.7695     0.1328     0.3156    -9.2016     7.3786     6.2381     6.0134
  304.0000     2.4466     0.0053     8.9278   106.8381     0.1367     0.3213    -9.3561     7.6476     6.2381     6.0134
  304.5000     2.4327    -0.0010     8.9369   106.2691     0.1559     0.3268    -9.3615     8.0615     6.2381     6.0134
  305.0000     2.4213     0.0039     8.9461   106.2938     0.1551     0.3252    -9.3654     7.9422     6.2711     6.0134
  305.5000     2.4269     0.0113     8.9552   107.5190     0.1476     0.3261    -9.3634     7.6962     6.3083     6.1034
  306.0000     2.4420     0.0172     8.9644   109.1479     0.1415     0.3243    -9.3634     7.4899     6.3458     6.1852
  306.5000     2.4572     0.0235     8.9735   110.6829     0.1312     0.3220    -9.3638     7.4983     6.4302     6.2681
  307.0000     2.4720     0.0296     8.9825   111.7691     0.1221     0.3242    -9.3650     7.6534     6.5283     6.3521
  307.5000     2.4829     0.0318     8.9918   112.8096     0.1160     0.3266    -9.3616     7.8094     6.6280     6.4372
  308.0000     2.4770     0.0283     9.0010   112.6831     0.1231     0.3275    -9.3590     7.9203     6.7291     6.5235
  308.5000     2.4749     0.0253     9.0063   111.2204     0.1231     0.3241    -9.2000     7.9162     6.8318     6.6109
  309.0000     2.4767     0.0221     8.9986   111.9356     0.1245     0.3204    -9.0087     7.9162     6.9361     6.6995
  309.5000     2.4696     0.0204     8.9911   113.1145     0.1291     0.3228    -8.8138     7.9164     7.0420     6.7893
  310.0000     2.4637     0.0222     8.9832   114.3283     0.1311     0.3275    -8.6228     7.9170     7.1495     6.8803
  310.5000     2.4705     0.0238     8.9755   114.6649     0.1265     0.3323    -8.4316     8.2159     7.2586     6.9725
  311.0000     2.4756     0.0256     8.9677   114.2726     0.1217     0.3370    -8.2351     8.5128     7.3581     7.0660
  311.5000     2.4852     0.0272     8.9600   113.8381     0.1169     0.3305    -8.1621     8.8399     7.3306     7.0930
  312.0000     2.4910     0.0290     8.9522   114.3049     0.1143     0.3241    -8.2057     8.7512     7.2921     7.0542
  312.5000     2.4891     0.0310     8.9445   115.0922     0.1154     0.3178    -8.2528     8.6575     7.2539     6.9843
  313.0000     2.4869     0.0300     8.9367   115.8566     0.1167     0.3148    -8.2987     8.5649     7.2158     6.9150
  313.5000     2.4767     0.0236     8.9290   116.6208     0.1224     0.3170    -8.3462     8.4732     7.1780     6.8464
  314.0000     2.4663     0.0176     8.9212   117.3138     0.1292     0.3201    -8.3933     8.3826     7.1403     6.7786
  314.5000     2.4554     0.0110     8.9135   117.8548     0.1359     0.3232    -8.4391     8.2929     7.1029     6.7113
  315.0000     2.4429     0.0074     8.9057   118.4110     0.1438     0.3268    -8.4867     8.2041     7.0656     6.6448
  315.5000     2.4515     0.0112     8.8981   119.0748     0.1324     0.3275    -8.5349     8.1163     7.0286     6.5911
  316.0000     2.4674     0.0214     8.8903   118.3898     0.1271     0.3240    -8.5394     8.0651     6.9918     6.5911
  316.5000     2.4774     0.0313     8.8916   117.0508     0.1223     0.3206    -8.4452     8.0651     6.9642     6.5960
  317.0000     2.4760     0.0307     8.8961   115.4859     0.1258     0.3173    -8.3500     8.0651     6.9642     6.6155
  317.5000     2.4624     0.0264     8.9006   115.0630     0.1326     0.3132    -8.2622     8.0651     6.9642     6.6350
  318.0000     2.4534     0.0217     8.9049   114.8721     0.1359     0.3153    -8.1778     8.1499     6.9640     6.6547
  318.5000     2.4537     0.0172     8.9093   114.6678     0.1327     0.3196    -8.3075     8.2461     6.9640     6.6744
  319.0000     2.4609     0.0164     8.9137   112.9468     0.1327     0.3185    -8.4386     8.3617     6.9640     6.6941
  319.5000     2.4674     0.0265     8.9181   110.9389     0.1248     0.3162    -8.5781     8.1682     6.9639     6.7128
  320.0000     2.4710     0.0320     8.9225   110.3647     0.1278     0.3138    -8.7161     8.0621     6.9640     6.7126
  320.5000     2.4608     0.0259     8.9269   110.3599     0.1337     0.3161    -8.8521     8.0634     6.9291     6.7141
  321.0000     2.4516     0.0204     8.9313   113.9034     0.1397     0.3195    -8.9622     8.1070     6.8899     6.7115
