~VERSION INFORMATION
 VERS.                2.0:   CWLS LOG ASCII STANDARD - VERSION 2.0
 WRAP.                 NO:   ONE LINE PER DEPTH STEP
~WELL INFORMATION
#MNEM.UNIT      DATA TYPE    INFORMATION
#----------   ------------   ------------------------------
 STRT.F           16.0000:   START DEPTH
 STOP.F          900.0000:   STOP DEPTH
 STEP.F            0.5000:   STEP LENGTH
 NULL.          -999.2500:   NO VALUE
 COMP. FENIX & SCISSON INC:   COMPANY
 WELL.    NPR-3 #65S15-15:   WELL
 FLD .             TEAPOT:   FIELD
 LOC .      S15 T38N R78W:   LOCATION
 CNTY.            NATRONA:   COUNTY
 STAT.            WYOMING:   STATE
 CTRY. UNITED STATES OF AMERICA:   COUNTRY
 SRVC.            Unknown:   SERVICE COMPANY
 DATE.        11-MAY-1978:   LOGDATE
 API .       490251062400:   API NUMBER
~CURVE INFORMATION
#MNEM.UNIT       API CODE    CURVE DESCRIPTION
#----------   ------------   ------------------------------
 DEPT.F                  :   
 RHOB.G/C3   45 350 01 00:   BULK DENSITY
 DPHI.DEC    45 890 12 00:   DENSITY POROSITY SANDSTONE
 CORR.G/C3   45 356 01 00:   DENSITY CORRECTION
 GRD .GAPI   45 310 01 00:   GAMMA RAY FROM DENSITY LOG
 CALD.IN     45 280 60 00:   CALIPER FROM DENSITY LOG
 SPR .MV     05 010 01 00:   SPONTANEOUS POTENTIAL FROM RES.
 SN  .OHMM   05 040 16 00:   SHORT NORMAL 16"
 IL  .OHMM   05 120 00 00:   INDUCTION LOG
~PARAMETER INFORMATION
#MNEM.UNIT          VALUE    DESCRIPTION
#----------   ------------   ------------------------------
 PD  .                 GL:   PERMANENT DATUM
 EPD .F              5289:   ELEVATION PERMANENT DATUM
 LMF .                 KB:   LOG MEASURED FROM
 DAPD.F                 4:   FEET ABOVE PERMANENT DATUM
 DMF .                 KB:   DRILLING MEASURED FROM
 EKB .F              5293:   KELLING BUSHING
 EDF .F                  :   DRILLING FLOOR
 EGL .F              5289:   GROUND LEVEL
 DATE.          5-11-1978:   RUN DATE
 RUN .                  1:   RUN NUMBER
 DD  .F               887:   DEPTH DRILLER
 DL  .F               889:   DEPTH LOGGER
 BLI .F               883:   BOTTOM LOG INTERVAL
 TLI .F                40:   TOP LOG INTERVAL
 CS  .IN            8.625:   CASING SIZE
 CBD .F                40:   CASING BOTTOM DRILLER
 CBL .F                40:   CASING BOTTOM LOGGER
 BS  .IN            7.875:   BIT SIZE
 BSD .F               887:   BIT SIZE AT DEPTH
 DFT .                KCL:   DRILLING FLUID TYPE
 DFD .                8.6:   DRILLING FLUID DENSITY
 DFV .                 30:   DRILLING FLUID VISCOSITY
 DFPH.                9.5:   DRILLING FLUID PH
 DFL .                  8:   DRILLING FLUID LOSS
 MSS .                   :   MUD SAMPLE SOURCE
 RMS .OHMM            .42:   RESISTIVITY MUD SAMPLE
 MST .F                68:   MUD SAMPLE TEMPERATURE
 RMF .OHMM            .38:   RESISTIVITY MUD FILTRATE SAMPLE
 MFST.F                68:   MUD FILTRATE SAMPLE TEMPERATURE
 RMC .OHMM            .68:   RESISTIVITY MUD CAKE
 MCST.F                66:   MUD CAKE SAMPLE TEMPERATURE
 MFSS.           MEASURED:   MUD FILTRATE SAMPLE SOURCE
 MCSS.                   :   MUD CAKE SAMPLE SOURCE
 RMB .OHMM               :   RESISTIVITY MUD AT BHT
 BHT .F                72:   BOTTOM HOLE TEMPERATURE
 TCS .HRS               2:   TIME CURCULATED STOPPED
 TLAB.HRS                :   TIME LOGGER AT BOTTOM
 MRT .F                72:   MAXIMUM RECORDED TEMPERATURE
 LUN .              CASP.:   LOGGING UNIT NUMBER
 LUL .               2958:   LOGGING UNIT LOCATION
 ENGI.             MILLER:   RECORDING ENGINEER
 WITN.           MCGINLEY:   WITNESSED BY
 CLNT.            A2DTECH:   CLIENT CODE
 ORIG.      2" & 5" PRINT:   ORIGIN OF DATA
 UWI .       490251062400:   UNIQUE WELL ID
 DICO. A2D Technologies, Inc.:   DIGITIZING COMPANY
 OS  .                   :   OTHER SERVICES
 PWI .                   :   PRIMARY WELL IDENTIFIER
 R1  .                   :   REMARKS 1
 R2  .                   :   REMARKS 2
~OTHER INFORMATION
~A   DEPT     RHOB       DPHI       CORR         GRD      CALD        SPR         SN         IL   
# ...
   56.5000     2.3849     0.1697     0.0183    70.9573     6.8372   -43.5250     4.6455     5.5611
   57.0000     2.3900     0.1657     0.0198    69.7998     6.8114   -43.5061     4.7012     5.5048
   57.5000     2.3956     0.1617     0.0214    67.1267     6.7857   -43.4889     4.7570     5.4490
   58.0000     2.3926     0.1588     0.0231    64.8285     6.7408   -43.4719     4.8134     5.3938
   58.5000     2.3879     0.1605     0.0240    63.3604     6.6197   -43.4549     4.8705     5.3392
   59.0000     2.4193     0.1623     0.0091    62.9489     6.4959   -43.4380     4.9282     5.2851
   59.5000     2.4397     0.1640    -0.0046    63.0421     6.4688   -43.4210     4.9867     5.2315
   60.0000     2.4210     0.1658     0.0108    65.3611     6.6359   -43.4040     5.0458     5.1785
   60.5000     2.4030     0.1675     0.0244    67.8504     6.8218   -43.3871     5.1056     5.1261
   61.0000     2.4011     0.1652     0.0318    69.4734     7.0105   -43.3701     5.1408     5.0742
   61.5000     2.4005     0.1611     0.0391    68.2185     7.0696   -43.3532     5.2019     5.0227
   62.0000     2.4060     0.1599     0.0487    66.1795     7.1306   -43.3363     5.2233     4.9719
   62.5000     2.4116     0.1587     0.0606    65.2883     7.2376   -43.3183     5.2448     4.9215
   63.0000     2.4148     0.1552     0.0725    65.0115     7.3442   -43.2780     5.2663     4.8717
   63.5000     2.4198     0.1401     0.0845    64.7520     7.4503   -43.2388     5.3337     4.8198
   64.0000     2.4371     0.1250     0.0969    64.4886     7.5677   -43.1995     5.3883     4.8618
   64.5000     2.4579     0.1132     0.0968    63.8629     7.7140   -43.1603     5.4463     4.9063
   65.0000     2.4785     0.1414     0.0479    61.0162     7.7477   -43.1327     5.5051     4.9513
   65.5000     2.4889     0.1464     0.0122    58.7734     7.7531   -43.1756     5.5643     4.9967
   66.0000     2.4475     0.1548     0.0270    60.6888     7.7576   -43.2177     5.5884     5.0425
   66.5000     2.4303     0.1665     0.0299    64.0742     7.7619   -43.2595     5.5949     5.0937
   67.0000     2.4088     0.1700     0.0264    66.8399     7.7418   -43.3014     5.6017     5.0777
   67.5000     2.3952     0.1753     0.0227    66.4690     7.6311   -43.3432     5.6085     5.0549
   68.0000     2.3860     0.1824     0.0206    66.0883     7.5239   -43.3850     5.6153     5.0323
   68.5000     2.3790     0.1897     0.0186    66.5547     7.4163   -43.4269     5.6220     5.0097
   69.0000     2.3743     0.1902     0.0215    67.6302     7.3485   -43.4687     5.6287     4.9873
   69.5000     2.3645     0.1873     0.0349    69.9127     7.3135   -43.5105     5.6368     4.9649
   70.0000     2.3585     0.1787     0.0508    72.3461     7.2626   -43.5524     5.5237     4.9427
   70.5000     2.3770     0.1702     0.0546    74.8057     7.1255   -43.5942     5.3527     4.9205
   71.0000     2.3939     0.1605     0.0494    74.6251     6.9896   -43.6361     5.3337     4.8985
   71.5000     2.4010     0.1661     0.0347    72.3580     6.8815   -43.6783     5.3337     4.8765
   72.0000     2.4005     0.1726     0.0206    69.2056     6.8727   -43.7220     5.3215     4.8547
   72.5000     2.3936     0.1785     0.0100    66.6656     6.8621   -43.6532     5.2418     4.8329
   73.0000     2.3862     0.1749     0.0093    66.5012     6.8515   -43.5700     5.1632     4.8198
   73.5000     2.3863     0.1745     0.0085    67.6449     6.8244   -43.4866     5.0857     4.8436
   74.0000     2.3867     0.1725     0.0116    70.6214     6.7822   -43.4035     5.0098     4.8608
   74.5000     2.3887     0.1708     0.0148    73.6020     6.7403   -43.3204     4.9548     4.8780
   75.0000     2.3909     0.1640     0.0181    75.2963     6.7074   -43.2373     5.1182     4.8953
   75.5000     2.3987     0.1535     0.0215    71.8918     6.7183   -43.1540     5.2506     4.9127
   76.0000     2.4100     0.1507     0.0238    67.1656     6.7285   -43.0702     5.3864     4.9301
   76.5000     2.4288     0.1491     0.0063    62.4792     6.7744   -42.9882     5.5851     4.9475
   77.0000     2.4534     0.1477     0.0012    61.7205     6.8182   -42.9762     5.5564     4.9651
   77.5000     2.4311     0.1572     0.0113    67.0589     6.9238   -43.1895     5.5075     4.9826
   78.0000     2.4261     0.1609     0.0197    71.2530     7.0337   -43.3910     5.4590     5.0003
   78.5000     2.4126     0.1557     0.0232    70.8225     7.1438   -43.5280     5.4329     5.0180
   79.0000     2.4156     0.1557     0.0269    70.7297     7.2537   -43.5252     5.4668     5.0358
   79.5000     2.4186     0.1545     0.0305    70.8706     7.3635   -43.4961     5.4904     5.0536
   80.0000     2.4227     0.1474     0.0342    71.0651     7.4739   -43.4174     5.5140     5.0715
   80.5000     2.4275     0.1416     0.0379    68.9432     7.5844   -43.3430     5.5377     5.0895
   81.0000     2.4323     0.1440     0.0370    67.0600     7.6604   -43.1549     5.5615     5.1490
   81.5000     2.4374     0.1456     0.0350    67.3426     7.6943   -42.9497     5.5854     5.2219
   82.0000     2.4327     0.1456     0.0330    68.2913     7.7287   -42.7391     5.6094     5.2957
   82.5000     2.4324     0.1465     0.0310    70.0495     7.7624   -42.7017     5.6335     5.3706
   83.0000     2.4316     0.1558     0.0290    71.4243     7.7208   -42.6748     5.6787     5.4466
   83.5000     2.4243     0.1589     0.0270    69.6241     7.6733   -42.6468     5.7421     5.5237
   84.0000     2.4172     0.1505     0.0251    67.3483     7.6221   -42.6185     5.8061     5.6018
   84.5000     2.4154     0.1513     0.0231    68.1739     7.4774   -42.5902     5.8709     5.6810
   85.0000     2.4200     0.1549     0.0211    69.1464     7.3295   -42.5620     5.9364     5.7944
   85.5000     2.4196     0.1553     0.0191    70.0273     7.2250   -42.5337     6.0026     5.7838
   86.0000     2.4179     0.1561     0.0171    70.0443     7.1298   -42.5054     6.0678     5.7638
   86.5000     2.4163     0.1594     0.0152    70.0388     7.0347   -42.4771     6.0379     5.7444
   87.0000     2.4112     0.1637     0.0132    70.0442     6.9395   -42.4489     6.0089     5.7250
   87.5000     2.4055     0.1677     0.0111    70.4275     6.8443   -42.4206     5.9800     5.7058
   88.0000     2.3997     0.1644     0.0122    71.6035     6.7491   -42.3923     5.9513     5.6866
   88.5000     2.3990     0.1609     0.0146    72.7799     6.6537   -42.3639     5.9228     5.6675
   89.0000     2.4014     0.1661     0.0112    73.0168     6.5580   -42.3352     5.8943     5.6484
   89.5000     2.4038     0.1645     0.0095    72.6693     6.4701   -42.3365     5.8660     5.6294
   90.0000     2.4061     0.1593     0.0130    73.2768     6.4981   -42.3438     5.8379     5.6105
   90.5000     2.4068     0.1601     0.0123    74.0424     6.5268   -42.3511     5.8099     5.5916
   91.0000     2.4076     0.1611     0.0084    74.5401     6.5335   -42.3583     5.7947     5.5851
   91.5000     2.4073     0.1622     0.0048    74.7613     6.5393   -42.3655     5.8719     5.6679
   92.0000     2.4063     0.1633     0.0111    75.0117     6.5443   -42.3728     5.9336     5.7255
   92.5000     2.4065     0.1562     0.0229    73.7410     6.5948   -42.3800     5.9961     5.7836
   93.0000     2.4118     0.1505     0.0325    72.0702     6.6719   -42.3872     6.0593     5.8424
   93.5000     2.4231     0.1493     0.0314    71.5153     6.8124   -42.3945     6.1239     5.9024
   94.0000     2.4314     0.1426     0.0303    72.1773     6.9938   -42.4017     6.2785     6.0120
   94.5000     2.4372     0.1390     0.0293    73.4596     7.2003   -42.4089     6.4389     6.1250
   95.0000     2.4490     0.1376     0.0287    74.6350     7.4763   -42.4161     6.6034     6.2400
   95.5000     2.4489     0.1339     0.0323    74.9666     7.6680   -42.4234     6.7720     6.3573
   96.0000     2.4491     0.1276     0.0452    75.1544     7.6935   -42.4306     6.9450     6.4768
   96.5000     2.4577     0.1212     0.0581    74.6282     7.7021   -42.4378     7.1224     6.5988
