~VERSION INFORMATION
 VERS.                2.0:   CWLS LOG ASCII STANDARD - VERSION 2.0
 WRAP.                 NO:   ONE LINE PER DEPTH STEP
~WELL INFORMATION
#MNEM.UNIT      DATA TYPE    INFORMATION
#----------   ------------   ------------------------------
 STRT.F           29.0000:   START DEPTH
 STOP.F          882.0000:   STOP DEPTH
 STEP.F            0.5000:   STEP LENGTH
 NULL.          -999.2500:   NO VALUE
 COMP. FENIX & SCISSON INC:   COMPANY
 WELL. NAVAL PETROLEUM RESERVE 3 S-14 #42-14:   WELL
 FLD .             TEAPOT:   FIELD
 LOC .      S14 T38N R78W:   LOCATION
 CNTY.            NATRONA:   COUNTY
 STAT.            WYOMING:   STATE
 CTRY. UNITED STATES OF AMERICA:   COUNTRY
 SRVC.              Welex:   SERVICE COMPANY
 DATE.        03-MAY-1977:   LOGDATE
 API .       490251035400:   API NUMBER
~CURVE INFORMATION
#MNEM.UNIT       API CODE    CURVE DESCRIPTION
#----------   ------------   ------------------------------
 DEPT.F                  :   
 CALD.IN     45 280 60 00:   CALIPER FROM DENSITY LOG
 GRD .GAPI   45 310 01 00:   GAMMA RAY FROM DENSITY LOG
 CORR.G/C3   45 356 01 00:   DENSITY CORRECTION
 DPHI.DEC    45 890 12 00:   DENSITY POROSITY SANDSTONE
 RHOB.G/C3   45 350 01 00:   BULK DENSITY
 SPR .MV     07 010 01 00:   SPONTANEOUS POTENTIAL
 ILD .OHMM   07 120 46 00:   INDUCTION LOG DEEP
 ILM .OHMM   07 120 44 00:   INDUCTION LOG MEDIUM
 SGRD.OHMM   07 221 05 00:   SHALLOW SHORT GUARD RESISTIVITY
~PARAMETER INFORMATION
#MNEM.UNIT          VALUE    DESCRIPTION
#----------   ------------   ------------------------------
 PD  .                 GL:   PERMANENT DATUM
 EPD .F              5206:   ELEVATION PERMANENT DATUM
 LMF .                 GL:   LOG MEASURED FROM
 DMF .                 GL:   DRILLING MEASURED FROM
 EGL .F              5206:   GROUND LEVEL
 DATE.        03-MAY-1977:   RUN DATE
 RUN .                  1:   RUN NUMBER
 DD  .F               855:   DEPTH DRILLER
 DL  .F               884:   DEPTH LOGGER
 BLI .F               882:   BOTTOM LOG INTERVAL
 TLI .F                28:   TOP LOG INTERVAL
 CS  .IN            8.625:   CASING SIZE
 BS  .IN               12:   BIT SIZE
 BSD .F               855:   BIT SIZE AT DEPTH
 DFT .            KCL MUD:   DRILLING FLUID TYPE
 DFD .                8.7:   DRILLING FLUID DENSITY
 BHT .F                75:   BOTTOM HOLE TEMPERATURE
 TCS .HRS            0130:   TIME CURCULATED STOPPED
 MRT .F                75:   MAXIMUM RECORDED TEMPERATURE
 ENGI.            C. DOAK:   RECORDING ENGINEER
 WITN.            R. LYON:   WITNESSED BY
 CLNT.            A2DTECH:   CLIENT CODE
 ORIG.           5" PRINT:   ORIGIN OF DATA
 UWI .       490251035400:   UNIQUE WELL ID
 DICO. A2D Technologies, Inc.:   DIGITIZING COMPANY
~OTHER INFORMATION
~A   DEPT       CALD      GRD       CORR       DPHI         RHOB      SPR        ILD        ILM       SGRD   
# ...
  503.5000     7.9718   111.4852     0.0313     0.1289     2.4594   -38.0656     8.0141     8.0166    11.8838
  504.0000     7.9742   110.2804     0.0253     0.1313     2.4556   -38.0759     7.8503     7.8505    12.2994
  504.5000     7.9765   106.8315     0.0193     0.1353     2.4481   -38.2336     7.6876     7.7411    11.9598
  505.0000     7.9788   105.1791     0.0208     0.1325     2.4458   -38.3912     7.5283     7.6333    11.6304
  505.5000     7.9811   107.1194     0.0238     0.1319     2.4561   -38.5488     7.4234     7.4702    11.5465
  506.0000     7.9835   108.7604     0.0283     0.1289     2.4704   -38.7064     7.3200     7.3706    11.3064
  506.5000     7.9842   106.8384     0.0312     0.1227     2.4749   -38.7154     7.2681     7.2679    10.9193
  507.0000     7.9838   102.4600     0.0327     0.1206     2.4733   -38.7257     7.2165     7.2164    10.9928
  507.5000     7.9836    98.5620     0.0342     0.1197     2.4755   -38.7343     7.2147     7.2149    11.0662
  508.0000     7.9833    99.4545     0.0342     0.1149     2.4852   -38.7429     7.2133     7.1638    10.9862
  508.5000     7.9829   103.1912     0.0327     0.1116     2.4919   -38.7515     7.2119     7.1623    10.6685
  509.0000     7.9826   105.7304     0.0297     0.1137     2.4814   -38.7601     7.2104     7.1606    10.5341
  509.5000     7.9823   108.2933     0.0282     0.1263     2.4739   -38.9181     7.2590     7.1098    10.9767
  510.0000     7.9971   111.8551     0.0266     0.1302     2.4604   -39.0774     7.2575     7.0108    10.8982
  510.5000     7.9967   112.8987     0.0251     0.1326     2.4521   -39.5331     7.3140     7.0094    10.7456
  511.0000     7.9964   112.8915     0.0296     0.1379     2.4446   -39.6907     7.4577     7.1055    10.7427
  511.5000     7.9961   114.6822     0.0371     0.1356     2.4423   -39.9974     7.4562     7.2037    10.8144
  512.0000     7.9958   118.8680     0.0386     0.1287     2.4602   -40.1550     7.5068     7.4036    11.2946
  512.5000     7.9955   122.4551     0.0385     0.1257     2.4647   -40.1657     7.5574     7.6093    12.8474
  513.0000     7.9952   124.6167     0.0385     0.1257     2.4624   -40.3233     7.5035     7.7137    12.9340
  513.5000     7.9949   126.7834     0.0385     0.1266     2.4661   -40.3319     7.4503     7.6591    11.3378
  514.0000     7.9797   124.9813     0.0385     0.1291     2.4616   -40.4895     7.3971     7.5524    10.6509
  514.5000     7.9794   119.2869     0.0400     0.1296     2.4578   -40.6472     7.2438     7.3958    10.2869
  515.0000     7.9940   117.7841     0.0445     0.1258     2.4690   -40.8048     6.9962     7.1299    10.7191
  515.5000     7.9937   120.4730     0.0474     0.1195     2.4734   -40.9645     6.6643     6.7570    10.9491
  516.0000     7.9934   120.6169     0.0369     0.1234     2.4637   -41.1221     6.4366     6.4811    10.7127
  516.5000     7.9931   117.7654     0.0324     0.1265     2.4644   -41.2798     6.1737     6.2596    10.2746
  517.0000     7.9928   116.1130     0.0324     0.1240     2.4658   -41.4374     5.8768     5.9627     9.8544
  517.5000     7.9925   115.3601     0.0309     0.1250     2.4666   -41.5950     5.6405     5.7589     9.5830
  518.0000     7.9922   117.0011     0.0294     0.1276     2.4665   -41.7526     5.5235     5.6006     9.2549
  518.5000     8.0069   115.1975     0.0279     0.1249     2.4657   -41.6122     5.4466     5.5224     8.0574
  519.0000     8.0065   114.1318     0.0279     0.1252     2.4657   -41.4717     5.4083     5.5596     7.8899
  519.5000     8.0063   114.8851     0.0294     0.1261     2.4627   -41.1844     5.4445     5.5970     9.6385
  520.0000     8.0060   119.5201     0.0308     0.1282     2.4574   -40.8949     5.5191     5.6350    10.1138
  520.5000     8.0057   123.4066     0.0353     0.1279     2.4633   -40.7523     5.6337     5.7517     9.9723
  521.0000     7.9904   123.8513     0.0413     0.1246     2.4678   -40.4650     5.8304     5.8732     9.6308
  521.5000     7.9901   121.7483     0.0413     0.1231     2.4722   -40.3245     5.9927     5.9930     9.7623
  522.0000     7.9898   117.5209     0.0413     0.1205     2.4730   -40.0351     6.1596     6.1170     9.9643
  522.5000     7.9895   114.5497     0.0412     0.1199     2.4714   -39.8968     6.3750     6.2443    10.1786
  523.0000     7.9892   117.5380     0.0457     0.1220     2.4721   -39.9053     6.5524     6.4179    10.4529
  523.5000     7.9740   120.3766     0.0487     0.1196     2.4751   -39.9139     6.6908     6.5060     9.7513
  524.0000     7.9886   122.1672     0.0457     0.1187     2.4795   -39.7735     6.8273     6.6416     9.8163
  524.5000     7.9733   121.8620     0.0412     0.1214     2.4735   -39.7842     6.8733     6.7321    10.2294
  525.0000     7.9730   119.1617     0.0352     0.1250     2.4623   -39.7928     6.9196     6.7775    10.8083
  525.5000     7.9728   115.8144     0.0307     0.1307     2.4547   -39.8014     6.9662     6.8228    10.4382
  526.0000     7.9725   114.5080     0.0307     0.1322     2.4495   -39.6588     7.0131     6.8688    10.0114
  526.5000     7.9722   113.4543     0.0304     0.1319     2.4539   -39.6695     7.0114     6.9154    10.5772
  527.0000     7.9719   112.7001     0.0306     0.1292     2.4643   -39.5291     7.1076     7.0099    10.8717
  527.5000     7.9716   112.3949     0.0321     0.1244     2.4628   -39.5398     7.1555     7.1061    11.0959
  528.0000     7.9712   113.1377     0.0336     0.1244     2.4620   -39.5484     7.2037     7.1540    11.4048
  528.5000     7.9710   115.6252     0.0396     0.1238     2.4702   -39.5570     7.2522     7.2522    10.9376
  529.0000     7.9707   121.0603     0.0425     0.1202     2.4747   -39.5655     7.3010     7.3011    10.7845
  529.5000     7.9704   119.1070     0.0440     0.1176     2.4828   -39.5741     7.3500     7.2992    10.7816
  530.0000     7.9701   118.2030     0.0410     0.1103     2.4918   -39.4337     7.3484     7.2978    10.7038
  530.5000     7.9695   119.5446     0.0365     0.1158     2.4902   -39.2932     7.2385     7.2963    10.2660
  531.0000     7.9545   121.9340     0.0320     0.1212     2.4685   -39.1549     7.0955     7.2442     9.7784
  531.5000     7.9542   123.4491     0.0290     0.1251     2.4625   -39.0123     7.0452     7.1929     9.6415
  532.0000     7.9539   125.0648     0.0275     0.1266     2.4655   -38.8719     6.9953     7.1419     9.7058
  532.5000     7.9536   127.0051     0.0260     0.1254     2.4647   -38.7314     6.9939     7.1405     9.8383
  533.0000     7.9533   127.5996     0.0349     0.1269     2.4564   -38.5931     6.9925     7.1390    10.0595
  533.5000     7.9531   126.0954     0.0424     0.1284     2.4556   -38.6039     7.0884     7.1871    10.5364
  534.0000     7.9528   124.8920     0.0439     0.1239     2.4706   -38.6125     7.1362     7.2858    10.9041
  534.5000     7.9524   126.5330     0.0439     0.1161     2.4840   -38.6210     7.1839     7.3854    10.7515
  535.0000     7.9521   124.4300     0.0439     0.1131     2.4907   -38.6296     7.1825     7.4871    10.5279
  535.5000     7.9518   124.7236     0.0483     0.1101     2.4973   -38.7872     7.1810     7.5376    10.4526
  536.0000     7.9515   125.6161     0.0498     0.1051     2.5063   -38.7958     7.1796     7.5357    10.4498
  536.5000     7.9513   124.4127     0.0483     0.1082     2.4883   -38.9556     7.1287     7.4816    10.3749
  537.0000     7.9510   122.4608     0.0483     0.1120     2.4860   -38.9642     7.0781     7.3777    10.3001
  537.5000     7.9507   119.9102     0.0528     0.1111     2.4927   -38.9728     6.9792     7.2749    10.2973
  538.0000     7.9503   117.4132     0.0557     0.1090     2.4949   -38.9813     6.9297     7.1241    10.2236
  538.5000     7.9500   115.5559     0.0587     0.1093     2.4896   -39.1390     6.8332     7.0249    10.1505
  539.0000     7.9497   117.1969     0.0540     0.1144     2.4784   -39.1475     6.7380     6.8793    10.0779
  539.5000     7.9645   121.3827     0.0497     0.1183     2.4686   -39.4563     6.6441     6.7367     9.7328
