~VERSION INFORMATION
 VERS.                2.0:   CWLS LOG ASCII STANDARD - VERSION 2.0
 WRAP.                 NO:   ONE LINE PER DEPTH STEP
~WELL INFORMATION
#MNEM.UNIT      DATA TYPE    INFORMATION
#----------   ------------   ------------------------------
 STRT.F           70.0000:   START DEPTH
 STOP.F         1072.0000:   STOP DEPTH
 STEP.F            0.5000:   STEP LENGTH
 NULL.          -999.2500:   NO VALUE
 COMP. LAWRENCE/ALLISON INC:   COMPANY
 WELL.    67-66 SX #11-11:   WELL
 FLD .             TEAPOT:   FIELD
 LOC .      S11 T38N R78W:   LOCATION
 CNTY.            NATRONA:   COUNTY
 STAT.            WYOMING:   STATE
 CTRY. UNITED STATES OF AMERICA:   COUNTRY
 SRVC.      Dresser Atlas:   SERVICE COMPANY
 DATE.        03-FEB-1986:   LOGDATE
 API .       490251105700:   API NUMBER
~CURVE INFORMATION
#MNEM.UNIT       API CODE    CURVE DESCRIPTION
#----------   ------------   ------------------------------
 DEPT.F                  :   
 RILD.OHMM   07 120 46 00:   RESISTIVITY INDUCTION LOG DEEP
 RILM.OHMM   07 120 44 00:   RESISTIVITY INDUCTION LOG MEDIUM
 GRD .GAPI   45 310 01 00:   GAMMA RAY FROM DENSITY LOG
 CALD.IN     45 280 60 00:   CALIPER FROM DENSITY LOG
 CORR.G/C3   45 356 01 00:   DENSITY CORRECTION
 PORD.DEC    45 890 12 00:   POROSITY DENSITY SANDSTONE
 DEN .G/C3   45 350 01 00:   COMPENSATED BULK DENSTIY
~PARAMETER INFORMATION
#MNEM.UNIT          VALUE    DESCRIPTION
#----------   ------------   ------------------------------
 PD  .                 GL:   PERMANENT DATUM
 EPD .F              5245:   ELEVATION PERMANENT DATUM
 LMF .                 GL:   LOG MEASURED FROM
 DMF .                 GL:   DRILLING MEASURED FROM
 EGL .F              5245:   GROUND LEVEL
 DATE.        03-FEB-1986:   RUN DATE
 RUN .                  1:   RUN NUMBER
 DD  .F              1120:   DEPTH DRILLER
 DL  .F              1074:   DEPTH LOGGER
 BLI .F              1068:   BOTTOM LOG INTERVAL
 TLI .F                86:   TOP LOG INTERVAL
 CS  .IN            8.625:   CASING SIZE
 CBD .F                86:   CASING BOTTOM DRILLER
 CBL .F                86:   CASING BOTTOM LOGGER
 BS  .IN             6.25:   BIT SIZE
 BSD .F              1120:   BIT SIZE AT DEPTH
 DFT .                AIR:   DRILLING FLUID TYPE
 TCS .HRS               2:   TIME CURCULATED STOPPED
 LUN .               6274:   LOGGING UNIT NUMBER
 LUL .           GILLETTE:   LOGGING UNIT LOCATION
 ENGI.             MILLER:   RECORDING ENGINEER
 WITN.           JENNINGS:   WITNESSED BY
 CLNT.            A2DTECH:   CLIENT CODE
 ORIG.           5" PRINT:   ORIGIN OF DATA
 UWI .       490251105700:   UNIQUE WELL ID
 DICO. A2D Technologies, Inc.:   DIGITIZING COMPANY
~OTHER INFORMATION
~A   DEPT     RILD       RILM        GRD       CALD       CORR       PORD        DEN   
# ...
  252.0000     8.3352     8.1778   121.1975     6.6058     0.0550     0.1089     2.5071
  252.5000     8.1753     8.0189   126.9080     6.6078     0.0476     0.1167     2.4763
  253.0000     7.8515     7.7551   131.4226     6.5649     0.0645     0.1265     2.4485
  253.5000     7.5404     7.5399   133.8446     6.5669     0.0737     0.1417     2.4328
  254.0000     7.3427     7.2951   135.0631     6.5688     0.0769     0.1492     2.4291
  254.5000     7.1978     7.1597   129.7198     6.5708     0.0530     0.1518     2.4240
  255.0000     7.1069     7.0693   130.3481     6.5574     0.0438     0.1542     2.4195
  255.5000     7.0658     7.0284   131.8732     6.5598     0.0368     0.1556     2.4173
  256.0000     7.0738     6.9877   133.3983     6.5618     0.0574     0.1532     2.4209
  256.5000     7.0329     6.9958   133.1221     6.5638     0.0857     0.1486     2.4289
  257.0000     7.0409     6.9535   132.4325     6.6275     0.1007     0.1477     2.4319
  257.5000     7.0488     6.9133   129.8057     6.6256     0.1084     0.1485     2.4312
  258.0000     6.9597     6.8734   127.1788     6.5692     0.1147     0.1497     2.4275
  258.5000     6.9175     6.8337   126.6664     6.5712     0.0967     0.1503     2.4276
  259.0000     6.9273     6.8434   129.3873     6.5731     0.0788     0.1502     2.4278
  259.5000     6.9352     6.8511   131.2113     6.5751     0.0655     0.1509     2.4270
  260.0000     6.9430     6.8588   130.9417     6.5771     0.0596     0.1533     2.4241
  260.5000     6.9508     6.9141   130.6727     6.5791     0.0614     0.1547     2.4212
  261.0000     7.0071     6.9204   130.4055     6.5960     0.0630     0.1519     2.4265
  261.5000     7.0637     6.9825   128.3431     6.5979     0.0617     0.1483     2.4326
  262.0000     7.0779     7.0811   128.0669     6.5845     0.0604     0.1473     2.4335
  262.5000     7.1270     7.0401   130.4964     6.5869     0.0606     0.1470     2.4336
  263.0000     7.0854     6.9993   131.7226     6.5889     0.0608     0.1463     2.4352
  263.5000     6.9960     6.9108   129.9592     6.5754     0.0565     0.1469     2.4360
  264.0000     6.9554     6.8238   131.4843     6.5779     0.0417     0.1496     2.4313
  264.5000     6.9155     6.7377   133.0094     6.5799     0.0524     0.1538     2.4224
  265.0000     6.8755     6.7453   133.0397     6.5815     0.0812     0.1576     2.4136
  265.5000     6.7867     6.7044   133.0700     6.5834     0.0920     0.1591     2.4122
  266.0000     6.7963     6.6657   133.0942     6.5854     0.0936     0.1597     2.4130
  266.5000     6.7085     6.6272   133.5007     6.5876     0.0676     0.1587     2.4139
  267.0000     6.6698     6.6366   134.6925     6.5898     0.0533     0.1578     2.4155
  267.5000     6.6792     6.6440   136.4823     6.5912     0.0656     0.1578     2.4148
  268.0000     6.6867     6.6515   138.8942     6.5633     0.0643     0.1595     2.4074
  268.5000     6.7392     6.6575   141.9140     6.5498     0.0600     0.1646     2.4014
  269.0000     6.7936     6.7111   142.8412     6.5523     0.0526     0.1652     2.4053
  269.5000     6.8484     6.7652   141.6757     6.5543     0.0513     0.1600     2.4151
  270.0000     6.8561     6.8197   138.4176     6.5563     0.0485     0.1546     2.4235
  270.5000     6.8638     6.8273   136.9531     6.5433     0.0426     0.1521     2.4259
  271.0000     6.9193     6.8350   136.3780     6.5452     0.0368     0.1515     2.4270
  271.5000     6.9753     6.8902   134.6221     6.5622     0.0416     0.1499     2.4300
  272.0000     7.0317     6.9940   134.0470     6.5641     0.0553     0.1469     2.4353
  272.5000     7.0886     7.0505   139.7650     6.5811     0.0646     0.1441     2.4405
  273.0000     7.2959     7.3067   142.1870     6.6129     0.0738     0.1406     2.4436
  273.5000     7.5093     7.4683   142.2173     6.6145     0.0845     0.1368     2.4527
  274.0000     7.7290     7.6863   139.5570     6.6014     0.0877     0.1338     2.4588
  274.5000     7.9550     7.8022   132.7114     6.5885     0.0879     0.1322     2.4596
  275.0000     8.0268     7.9197   129.8953     6.5904     0.0911     0.1349     2.4560
  275.5000     8.1434     7.9836   126.3885     6.5924     0.0944     0.1358     2.4568
  276.0000     8.2039     8.0463   122.5513     6.5794     0.1021     0.1297     2.4719
  276.5000     8.2140     8.1111   118.4753     6.5814     0.1053     0.1098     2.4991
  277.0000     8.2225     8.1764   120.8973     6.5834     0.1085     0.0980     2.5150
  277.5000     8.2890     8.1854   123.9172     6.5853     0.1102     0.0950     2.5181
  278.0000     8.4141     8.2515   125.7412     6.5873     0.1087     0.1064     2.4813
  278.5000     8.4236     8.3181   126.3695     6.5893     0.0924     0.1290     2.4611
  279.0000     8.4331     8.3275   126.0932     6.5913     0.0611     0.1470     2.4393
  279.5000     8.4426     8.3369   125.8322     6.5778     0.0628     0.1494     2.4273
  280.0000     8.4522     8.3462   124.6667     6.5803     0.0886     0.1471     2.4327
  280.5000     8.4617     8.3556   124.3905     6.5822     0.1083     0.1439     2.4396
  281.0000     8.4713     8.3650   124.7274     6.5842     0.1115     0.1414     2.4450
  281.5000     8.4200     8.3745   125.9535     6.5862     0.0892     0.1402     2.4487
  282.0000     8.3661     8.2687   128.0765     6.5877     0.0577     0.1389     2.4511
  282.5000     8.3220     8.2210   129.6016     6.6046     0.0534     0.1386     2.4519
  283.0000     8.1610     8.0613   131.7246     6.6066     0.0672     0.1389     2.4513
  283.5000     8.1135     7.9468   134.6219     6.6085     0.0779     0.1398     2.4483
  284.0000     7.9560     7.8568   137.5906     6.6105     0.0826     0.1415     2.4439
  284.5000     7.9078     7.7577   141.0756     6.5826     0.0723     0.1472     2.4387
  285.0000     7.7026     7.7129   137.1997     6.5695     0.0619     0.1526     2.4305
  285.5000     7.5007     7.6155   134.5592     6.5561     0.0456     0.1553     2.4223
  286.0000     7.3547     7.4673   136.0843     6.5586     0.0473     0.1546     2.4216
  286.5000     7.2597     7.2720   140.0010     6.5606     0.0535     0.1528     2.4255
  287.0000     7.1185     7.0796   142.7220     6.5625     0.0597     0.1515     2.4278
  287.5000     7.0285     6.9440   144.2470     6.5645     0.0664     0.1506     2.4287
  288.0000     6.9397     6.9020   145.4732     6.5665     0.0691     0.1509     2.4280
  288.5000     6.8952     6.8149   143.1119     6.5685     0.0617     0.1532     2.4255
  289.0000     6.7654     6.7307   140.1527     6.5550     0.0528     0.1562     2.4205
  289.5000     6.7730     6.7383   137.4924     6.5575     0.0426     0.1583     2.4169
  290.0000     6.7807     6.7459   140.8112     6.5590     0.0548     0.1589     2.4140
  290.5000     6.7883     6.8003   143.2332     6.5759     0.0671     0.1564     2.4171
  291.0000     6.7960     6.8065   142.0677     6.5779     0.0793     0.1515     2.4255
  291.5000     6.8037     6.8140   138.8095     6.5798     0.0855     0.1461     2.4338
  292.0000     6.8114     6.7744   140.6336     6.5818     0.0812     0.1424     2.4415
  292.5000     6.7720     6.7820   142.8600     6.5838     0.0679     0.1418     2.4438
  293.0000     6.6864     6.6503   144.6497     6.6455     0.0500     0.1436     2.4409
  293.5000     6.6459     6.5663   145.5002     6.6325     0.0517     0.1444     2.4387
  294.0000     6.5184     6.3944   143.1310     6.5598     0.0745     0.1441     2.4403
  294.5000     6.3824     6.2684   141.9734     6.5618     0.0867     0.1435     2.4404
  295.0000     6.2614     6.1483   142.0038     6.5787     0.0899     0.1452     2.4382
  295.5000     6.1427     6.0707   140.2404     6.5806     0.0766     0.1485     2.4338
  296.0000     5.9825     5.9118   134.5906     6.5522     0.0677     0.1518     2.4296
  296.5000     5.7855     5.7570   124.7554     6.5995     0.0589     0.1548     2.4218
  297.0000     5.6338     5.6062   124.1802     6.6314     0.0455     0.1580     2.4158
