~VERSION INFORMATION
 VERS.                2.0:   CWLS LOG ASCII STANDARD - VERSION 2.0
 WRAP.                 NO:   ONE LINE PER DEPTH STEP
~WELL INFORMATION
#MNEM.UNIT      DATA TYPE    INFORMATION
#----------   ------------   ------------------------------
 STRT.F           26.0000:   START DEPTH
 STOP.F          533.5000:   STOP DEPTH
 STEP.F            0.5000:   STEP LENGTH
 NULL.          -999.2500:   NO VALUE
 COMP. BROWN JOHN E&C INC:   COMPANY
 WELL.  NPR 3 #76-531-X-3:   WELL
 FLD .             TEAPOT:   FIELD
 LOC .       S3 T38N R78W:   LOCATION
 CNTY.            NATRONA:   COUNTY
 STAT.            WYOMING:   STATE
 CTRY. UNITED STATES OF AMERICA:   COUNTRY
 SRVC.       Schlumberger:   SERVICE COMPANY
 DATE.        20-SEP-1990:   LOGDATE
 API .       490251130500:   API NUMBER
~CURVE INFORMATION
#MNEM.UNIT       API CODE    CURVE DESCRIPTION
#----------   ------------   ------------------------------
 DEPT.F                  :   
 ILM .OHMM   07 120 44 00:   INDUCTION LOG MEDIUM
 ILD .OHMM   07 120 46 00:   INDUCTION LOG DEEP
 CALD.IN     45 280 60 00:   CALIPER FROM DENSITY LOG
 GRD .GAPI   45 310 01 00:   GAMMA RAY FROM DENSITY LOG
 DPHI.DEC    45 890 12 00:   DENSITY POROSITY SANDSTONE
 RHOB.G/C3   45 350 01 00:   BULK DENSITY
 DRHO.G/C3   45 356 01 00:   DENSITY CORRECTION
~PARAMETER INFORMATION
#MNEM.UNIT          VALUE    DESCRIPTION
#----------   ------------   ------------------------------
 PD  .                 GL:   PERMANENT DATUM
 EPD .F              5148:   ELEVATION PERMANENT DATUM
 LMF .                 KB:   LOG MEASURED FROM
 DAPD.F                10:   FEET ABOVE PERMANENT DATUM
 DMF .                 KB:   DRILLING MEASURED FROM
 EKB .F              5158:   KELLING BUSHING
 EDF .F              5157:   DRILLING FLOOR
 EGL .F              5148:   GROUND LEVEL
 DATE.            9-20-90:   RUN DATE
 RUN .                  1:   RUN NUMBER
 DD  .F               535:   DEPTH DRILLER
 DL  .F               536:   DEPTH LOGGER
 BLI .F               530:   BOTTOM LOG INTERVAL
 TLI .F                49:   TOP LOG INTERVAL
 CBD .F                40:   CASING BOTTOM DRILLER
 CBL .F                49:   CASING BOTTOM LOGGER
 BS  .IN            7.875:   BIT SIZE
 BSD .F               535:   BIT SIZE AT DEPTH
 DFT .                AIR:   DRILLING FLUID TYPE
 TCS .HRS            0315:   TIME CURCULATED STOPPED
 TLAB.HRS            0409:   TIME LOGGER AT BOTTOM
 LUN .               6882:   LOGGING UNIT NUMBER
 LUL .               CODY:   LOGGING UNIT LOCATION
 ENGI.          M. FISHER:   RECORDING ENGINEER
 WITN.          G. STRONG:   WITNESSED BY
 CLNT.            A2DTECH:   CLIENT CODE
 ORIG.   2" 2.5" 5" PRINT:   ORIGIN OF DATA
 UWI .       490251130500:   UNIQUE WELL ID
 DICO. A2D Technologies, Inc.:   DIGITIZING COMPANY
~OTHER INFORMATION
~A   DEPT      ILM        ILD       CALD         GRD      DPHI       RHOB       DRHO   
# ...
  253.5000     5.8266     5.9427     7.8136   138.1675     0.1116     2.4759    -0.0003
  254.0000     6.1842     6.3334     7.7952   140.6131     0.1114     2.4771    -0.0005
  254.5000     6.5689     6.6858     7.7746   141.6856     0.1109     2.4805    -0.0005
  255.0000     6.7130     6.9429     7.7782   141.7227     0.1100     2.4837    -0.0006
  255.5000     6.8124     6.9826     7.7814   141.1403     0.1111     2.4765    -0.0030
  256.0000     6.8785     7.0148     7.7848   140.5574     0.1139     2.4680    -0.0055
  256.5000     6.8785     7.0384     7.7882   140.2189     0.1170     2.4603    -0.0080
  257.0000     6.8785     7.0710     7.7914   139.5768     0.1170     2.4605    -0.0104
  257.5000     6.6534     6.8212     7.7927   138.6246     0.1163     2.4604    -0.0115
  258.0000     6.1821     6.4337     7.7903   138.1679     0.1181     2.4448    -0.0093
  258.5000     5.7223     6.0216     7.7879   141.2825     0.1236     2.4072    -0.0056
  259.0000     5.3357     5.5196     7.7855   144.4998     0.1405     2.3698    -0.0019
  259.5000     4.9561     5.2622     7.7831   146.2218     0.1515     2.3328     0.0018
  260.0000     4.7039     5.0493     7.7807   143.3672     0.1558     2.3069     0.0054
  260.5000     4.6737     4.9392     7.7783   140.4943     0.1490     2.3402     0.0089
  261.0000     4.7026     4.8315     7.7759   137.7729     0.1399     2.3765     0.0105
  261.5000     4.7591     4.7605     7.7735   136.6305     0.1332     2.3994     0.0101
  262.0000     4.8604     4.9051     7.7711   136.8597     0.1298     2.4090     0.0066
  262.5000     5.1435     5.1899     7.7687   136.8766     0.1278     2.4267     0.0032
  263.0000     5.4427     5.4650     7.7663   137.3458     0.1254     2.4400     0.0007
  263.5000     5.7599     5.8848     7.7638   138.8673     0.1217     2.4491    -0.0006
  264.0000     6.0952     6.3003     7.7614   139.9995     0.1181     2.4582    -0.0014
  264.5000     6.4494     6.5692     7.7590   139.2505     0.1144     2.4699    -0.0022
  265.0000     6.7871     6.9212     7.7566   137.8690     0.1095     2.4855    -0.0014
  265.5000     7.1418     7.2913     7.7540   136.4830     0.1043     2.5004     0.0003
  266.0000     7.4724     7.6059     7.7622   135.1005     0.1013     2.5136     0.0020
  266.5000     7.7507     7.9237     7.7746   133.7355     0.1004     2.5195     0.0038
  267.0000     8.0654     8.2010     7.7870   132.8488     0.1020     2.5133     0.0045
  267.5000     8.1925     8.2472     7.7995   133.8633     0.1030     2.5095     0.0045
  268.0000     8.1558     8.2937     7.8120   136.3826     0.1030     2.5105     0.0045
  268.5000     8.1259     8.3447     7.8112   139.3742     0.1030     2.5121     0.0045
  269.0000     8.0798     8.2588     7.8082   140.8969     0.1041     2.5078     0.0043
  269.5000     7.9671     8.1655     7.8052   140.1332     0.1053     2.5010     0.0027
  270.0000     7.8560     8.0731     7.8022   139.1033     0.1066     2.4953     0.0011
  270.5000     7.7464     7.9819     7.7993   138.0719     0.1081     2.4897    -0.0005
  271.0000     7.6384     7.8338     7.7963   137.0691     0.1092     2.4853    -0.0007
  271.5000     7.5323     7.6794     7.7936   136.0729     0.1096     2.4839    -0.0013
  272.0000     7.4257     7.5332     7.7936   135.0770     0.1101     2.4824    -0.0018
  272.5000     7.3019     7.3937     7.7936   134.0779     0.1121     2.4740    -0.0024
  273.0000     7.1288     7.2568     7.7936   133.0388     0.1148     2.4648    -0.0024
  273.5000     6.9603     7.1235     7.7937   132.9200     0.1145     2.4647    -0.0018
  274.0000     6.7961     6.9532     7.7887   135.3727     0.1122     2.4728    -0.0013
  274.5000     6.3766     6.5248     7.7826   139.8381     0.1106     2.4801    -0.0007
  275.0000     5.8973     6.1220     7.7765   142.5204     0.1108     2.4704     0.0014
  275.5000     5.5135     5.7340     7.7777   143.1892     0.1195     2.4473     0.0048
  276.0000     5.1899     5.4436     7.7854   144.3433     0.1314     2.4079     0.0082
  276.5000     4.8853     5.3656     7.7944   146.2521     0.1434     2.3647     0.0116
  277.0000     4.8045     5.3163     7.8288   148.1566     0.1486     2.3324     0.0149
  277.5000     4.9535     5.4014     7.8123   143.8022     0.1455     2.3600     0.0172
  278.0000     5.2193     5.4668     7.7864   138.5987     0.1335     2.4021     0.0195
  278.5000     5.5546     5.5156     7.7591   133.9192     0.1188     2.4452     0.0134
  279.0000     5.9849     5.8661     7.7713   134.5624     0.1142     2.4657     0.0064
  279.5000     6.4515     6.2916     7.7956   138.1105     0.1131     2.4689    -0.0003
  280.0000     6.7961     6.7481     7.8199   140.9452     0.1119     2.4752    -0.0013
  280.5000     7.1144     7.2103     7.8335   141.0307     0.1108     2.4825    -0.0020
  281.0000     7.4449     7.6843     7.8277   141.4109     0.1098     2.4841    -0.0024
  281.5000     7.7913     8.0431     7.8219   144.3343     0.1089     2.4891     0.0000
  282.0000     7.9225     8.0815     7.8161   146.5728     0.1059     2.5016     0.0023
  282.5000     7.9595     8.1274     7.8112   147.2144     0.1021     2.5141     0.0047
  283.0000     7.9966     8.1883     7.8067   144.2755     0.1010     2.5167     0.0065
  283.5000     8.0340     8.2496     7.8024   141.1172     0.1030     2.5124     0.0067
  284.0000     8.0715     8.3114     7.7979   140.0245     0.1030     2.5083     0.0049
  284.5000     8.1092     8.3736     7.7936   142.3341     0.1012     2.5175     0.0032
  285.0000     8.1470     8.4364     7.7892   144.9329     0.0987     2.5279     0.0014
  285.5000     8.1851     8.4997     7.7847   145.6680     0.0966     2.5355    -0.0004
  286.0000     8.2683     8.4821     7.7804   144.5381     0.0971     2.5291    -0.0015
  286.5000     8.2683     8.4645     7.7759   142.8027     0.0996     2.5224    -0.0014
  287.0000     8.2683     8.4469     7.7735   140.7738     0.1014     2.5173    -0.0011
  287.5000     8.2683     8.4294     7.7735   139.2790     0.1003     2.5210    -0.0008
  288.0000     8.2683     8.3764     7.7878   139.6370     0.0990     2.5261    -0.0005
  288.5000     8.2683     8.2968     7.7952   140.1344     0.0990     2.5280    -0.0013
  289.0000     8.2683     8.2477     7.7976   140.2014     0.0990     2.5268    -0.0022
  289.5000     8.2683     8.2159     7.7997   141.2132     0.0990     2.5215    -0.0031
  290.0000     8.2683     8.1842     7.8020   144.4639     0.1030     2.5119    -0.0080
  290.5000     8.2687     8.1525     7.8042   150.5932     0.1069     2.4955    -0.0140
  291.0000     8.2676     8.1210     7.8065   153.3791     0.1108     2.4792    -0.0153
  291.5000     8.2724     8.0897     7.8087   152.9783     0.1118     2.4769    -0.0150
  292.0000     8.0680     8.0584     7.8110   150.5637     0.1095     2.4848    -0.0110
  292.5000     7.6612     7.9822     7.8130   147.2018     0.1070     2.4956    -0.0069
  293.0000     7.3361     7.5115     7.8214   145.3112     0.1066     2.5007    -0.0039
  293.5000     6.7741     7.0710     7.8308   147.0775     0.1154     2.4486    -0.0003
  294.0000     6.2392     6.3214     7.8419   150.8792     0.1324     2.4078     0.0014
  294.5000     5.7466     6.1594     7.8530   154.1950     0.1437     2.3560     0.0008
  295.0000     5.5156     6.1222     7.8384   154.3264     0.1409     2.3705     0.0003
  295.5000     5.7398     6.0879     7.8218   154.6014     0.1317     2.4069    -0.0002
  296.0000     6.0021     6.0471     7.8056   154.9576     0.1203     2.4430    -0.0025
  296.5000     6.1766     6.1030     7.7945   151.8884     0.1126     2.4737    -0.0074
  297.0000     6.2738     6.0539     7.8001   148.1611     0.1135     2.4748    -0.0123
  297.5000     6.3318     6.0246     7.8052   147.6522     0.1175     2.4538    -0.0131
  298.0000     5.9362     5.9917     7.8107   150.3442     0.1235     2.4344    -0.0127
  298.5000     5.4278     5.6718     7.8321   152.5481     0.1364     2.3985    -0.0071
