~VERSION INFORMATION
 VERS.                2.0:   CWLS LOG ASCII STANDARD - VERSION 2.0
 WRAP.                 NO:   ONE LINE PER DEPTH STEP
~WELL INFORMATION
#MNEM.UNIT      DATA TYPE    INFORMATION
#----------   ------------   ------------------------------
 STRT.F           14.0000:   START DEPTH
 STOP.F          432.0000:   STOP DEPTH
 STEP.F            0.5000:   STEP LENGTH
 NULL.          -999.2500:   NO VALUE
 COMP.    FENIX & SCISSON:   COMPANY
 WELL.   NPR-3 #63SX10-10:   WELL
 FLD .             TEAPOT:   FIELD
 LOC .      S10 T38N R78W:   LOCATION
 CNTY.            NATRONA:   COUNTY
 STAT.            WYOMING:   STATE
 CTRY. UNITED STATES OF AMERICA:   COUNTRY
 SRVC.           BIRDWELL:   SERVICE COMPANY
 DATE.        10-FEB-1978:   LOGDATE
 API .       490251066800:   API NUMBER
~CURVE INFORMATION
#MNEM.UNIT       API CODE    CURVE DESCRIPTION
#----------   ------------   ------------------------------
 DEPT.F                  :   
 CALD.IN     45 280 60 00:   CALIPER FROM DENSITY LOG
 CORR.G/C3   45 356 01 00:   DENSITY CORRECTION
 DPHI.DEC    45 890 12 00:   DENSITY POROSITY SANDSTONE
 GRD .GAPI   45 310 01 00:   GAMMA RAY FROM DENSITY LOG
 RHOB.G/C3   45 350 01 00:   BULK DENSITY
 ILD .OHMM   05 120 46 00:   INDUCTION LOG DEEP
 SN  .OHMM   05 040 16 00:   SHORT NORMAL 16"
 SPR .MV     05 010 01 00:   SPONTANEOUS POTENTIAL FROM RES.
~PARAMETER INFORMATION
#MNEM.UNIT          VALUE    DESCRIPTION
#----------   ------------   ------------------------------
 PD  .                 GL:   PERMANENT DATUM
 EPD .F              5186:   ELEVATION PERMANENT DATUM
 LMF .                 KB:   LOG MEASURED FROM
 DAPD.F                 4:   FEET ABOVE PERMANENT DATUM
 DMF .                 KB:   DRILLING MEASURED FROM
 EKB .F              5190:   KELLING BUSHING
 EGL .F              5186:   GROUND LEVEL
 DATE.        10-FEB-1978:   RUN DATE
 RUN .                  1:   RUN NUMBER
 DD  .F               429:   DEPTH DRILLER
 DL  .F               432:   DEPTH LOGGER
 BLI .F               424:   BOTTOM LOG INTERVAL
 TLI .F                20:   TOP LOG INTERVAL
 CS  .IN            8.625:   CASING SIZE
 CBD .F                29:   CASING BOTTOM DRILLER
 CBL .F                29:   CASING BOTTOM LOGGER
 BS  .IN            7.875:   BIT SIZE
 BSD .F               429:   BIT SIZE AT DEPTH
 DFT .    LIGNO SULF/FULL:   DRILLING FLUID TYPE
 DFD .                8.6:   DRILLING FLUID DENSITY
 DFV .                 34:   DRILLING FLUID VISCOSITY
 DFPH.                9.8:   DRILLING FLUID PH
 DFL .                5.6:   DRILLING FLUID LOSS
 MSS .           FLOWLINE:   MUD SAMPLE SOURCE
 RMS .OHMM            1.2:   RESISTIVITY MUD SAMPLE
 MST .F                62:   MUD SAMPLE TEMPERATURE
 RMF .OHMM            1.4:   RESISTIVITY MUD FILTRATE SAMPLE
 MFST.F                62:   MUD FILTRATE SAMPLE TEMPERATURE
 RMC .OHMM            1.0:   RESISTIVITY MUD CAKE
 MCST.F                62:   MUD CAKE SAMPLE TEMPERATURE
 MFSS.               MEAS:   MUD FILTRATE SAMPLE SOURCE
 RMB .OHMM            1.2:   RESISTIVITY MUD AT BHT
 BHT .F                62:   BOTTOM HOLE TEMPERATURE
 TCS .HRS               4:   TIME CURCULATED STOPPED
 MRT .F                62:   MAXIMUM RECORDED TEMPERATURE
 LUN .               2958:   LOGGING UNIT NUMBER
 LUL .                CAS:   LOGGING UNIT LOCATION
 ENGI.            POINTER:   RECORDING ENGINEER
 WITN.          MC GINLEY:   WITNESSED BY
 CLNT.            A2DTECH:   CLIENT CODE
 ORIG.           5" PRINT:   ORIGIN OF DATA
 UWI .       490251066800:   UNIQUE WELL ID
 DICO. A2D Technologies, Inc.:   DIGITIZING COMPANY
~OTHER INFORMATION
~A   DEPT     CALD       CORR       DPHI         GRD      RHOB        ILD         SN        SPR   
# ...
   95.0000     7.5619     0.0550     0.1327    74.7201     2.4251     9.6310    10.2429   -42.6848
   95.5000     7.6080     0.0640     0.1285    74.8819     2.4408     9.6318    10.1736   -43.1373
   96.0000     7.6539     0.0779     0.1242    75.0417     2.4555     9.5659    10.1048   -43.5897
   96.5000     7.7148     0.0987     0.1200    75.6553     2.4702     9.4985     9.9675   -43.8914
   97.0000     7.7762     0.1183     0.1194    76.4589     2.4732     9.3062     9.8318   -44.0422
   97.5000     7.8521     0.1363     0.1197    77.6413     2.4717     9.0528     9.5592   -44.0422
   98.0000     7.9131     0.1604     0.1197    78.7088     2.4635     8.7455     9.1771   -44.0422
   98.5000     7.9589     0.1860     0.1191    79.1712     2.4560     8.5663     8.9278   -43.8914
   99.0000     8.0066     0.2086     0.1200    79.4844     2.4523     8.3332     8.8062   -43.4389
   99.5000     8.0508     0.2315     0.1218    79.7955     2.4553     8.2761     8.6863   -43.2881
  100.0000     8.0816     0.2538     0.1293    79.9553     2.4516     8.2196     8.6877   -43.1373
  100.5000     8.0822     0.2643     0.1337    79.9639     2.4486     8.2773     8.6888   -43.2881
  101.0000     8.0829     0.2734     0.1391    79.9745     2.4382     8.3354     8.6900   -43.2881
  101.5000     8.0532     0.2795     0.1388    79.9830     2.4214     8.3939     8.8123   -43.2800
  102.0000     8.0236     0.2795     0.1343    79.8382     2.4227     8.5114     8.8749   -42.8356
  102.5000     8.0091     0.2721     0.1328    79.5461     2.4315     8.5711     8.8760   -42.5339
  103.0000     7.9794     0.2615     0.1328    79.4035     2.4293     8.6312     8.9388   -42.3831
  103.5000     7.9499     0.2437     0.1340    78.9603     2.4346     8.6319     9.0021   -42.5339
  104.0000     7.9201     0.2272     0.1316    78.6663     2.4391     8.6325     9.1290   -42.6848
  104.5000     7.8736     0.2108     0.1303    78.2209     2.4346     8.6330     9.1302   -42.6848
  105.0000     7.7382     0.1853     0.1309    77.6243     2.4317     8.6935     9.1948   -42.5339
  105.5000     7.5445     0.1673     0.1327    76.8785     2.4371     8.6342     9.2652   -42.0814
  106.0000     7.4242     0.1479     0.1348    76.4311     2.4445     8.6348     9.3257   -41.9306
  106.5000     7.3795     0.1298     0.1354    76.4418     2.4467     8.6355     9.3916   -41.9306
  107.0000     7.3649     0.1090     0.1342    77.6627     2.4325     8.6360     9.1362   -42.0814
  107.5000     7.3656     0.1015     0.1306    79.9405     2.4288     8.6966     9.2891   -42.0814
  108.0000     7.3662     0.0941     0.1261    80.5542     2.4386     8.6972     9.3306   -42.2323
  108.5000     7.3819     0.0821     0.1224    80.4070     2.4521     8.8191     9.3969   -42.2323
  109.0000     7.4128     0.0717     0.1197    80.1174     2.4567     8.8196     9.3982   -42.3831
  109.5000     7.4436     0.0672     0.1170    80.5819     2.4417     8.8202     9.3994   -42.5339
  110.0000     7.5046     0.0673     0.1152    81.4982     2.4365     8.8208     9.4659   -42.5339
  110.5000     7.5969     0.0778     0.1113    83.6419     2.4515     8.8828     9.4674   -43.2881
  111.0000     7.7022     0.0899     0.1065    85.9046     2.4680     8.8834     9.4687   -43.5897
  111.5000     7.7783     0.1035     0.0981    88.6363     2.4771     8.8839     9.4043   -43.8914
  112.0000     7.8393     0.1205     0.0984    90.1577     2.4838     8.8845     9.4058   -43.8914
  112.5000     7.9155     0.1396     0.1001    90.6203     2.4884     8.8240     9.4074   -43.8914
  113.0000     7.9312     0.1547     0.1017    90.4773     2.4884     8.8245     9.3434   -43.8914
  113.5000     7.9620     0.1728     0.1052    88.6726     2.4824     8.8251     9.3449   -43.5676
  114.0000     7.9776     0.1999     0.1208    80.6629     2.4727     8.8257     9.3461   -42.8356
  114.5000     8.0086     0.2225     0.1241    77.6293     2.4557     8.8263     9.3477   -42.3831
  115.0000     8.0242     0.2435     0.1280    77.5030     2.4450     8.8269     9.3489   -41.9306
  115.5000     8.0399     0.2620     0.1340    78.1188     2.4443     8.8276     9.3501   -41.4781
  116.0000     8.0568     0.2752     0.1421    79.0350     2.4413     8.7673     9.3513   -41.4781
  116.5000     8.1016     0.2783     0.1424    80.1236     2.4331     8.7074     9.3528   -41.4781
  117.0000     8.1475     0.2798     0.1433    81.4748     2.4234     8.6480     9.3540   -41.3273
  117.5000     8.1632     0.2784     0.1447    82.5423     2.4167     8.6486     9.3553   -41.3273
  118.0000     8.1337     0.2784     0.1451    82.8674     2.4152     8.5894     9.2920   -41.3273
  118.5000     8.0738     0.2740     0.1408    81.8044     2.4145     8.4720     9.2212   -41.3273
  119.0000     7.9988     0.2677     0.1396    80.6026     2.4152     8.4727     9.1666   -41.4781
  119.5000     7.8786     0.2486     0.1390    85.1694     2.4198     8.4733     9.1046   -41.6290
  120.0000     7.6829     0.2216     0.1339    88.6379     2.4243     8.4153     9.1061   -42.0814
  120.5000     7.5475     0.1977     0.1285    86.3792     2.4273     8.3579     9.0445   -42.0814
  121.0000     7.4725     0.1767     0.1255    84.5723     2.4319     8.2436     8.9216   -41.4781
  121.5000     7.4429     0.1602     0.1230    80.9334     2.4372     8.1873     8.9228   -41.0256
  122.0000     7.4436     0.1378     0.1190    78.9939     2.4409     8.0754     8.8624   -41.0256
  122.5000     7.4744     0.1134     0.1131    73.1023     2.4447     7.9648     8.6814   -40.8748
  123.0000     7.5354     0.0959     0.1083    72.2031     2.4515     7.8524     8.5632   -41.0256
  123.5000     7.6116     0.0854     0.1041    72.3631     2.4718     7.7485     8.4466   -41.0256
  124.0000     7.6726     0.0795     0.1107    72.5249     2.4793     7.6956     8.2745   -41.3273
  124.5000     7.6883     0.0765     0.1128    73.1386     2.4763     7.5903     8.0499   -41.3273
  125.0000     7.7039     0.0766     0.1158    73.9035     2.4659     7.4866     7.9403   -41.3273
  125.5000     7.7197     0.0796     0.1160    74.3797     2.4599     7.3332     7.7781   -41.3273
  126.0000     7.7505     0.0858     0.1157    74.5257     2.4644     7.2329     7.6193   -41.1765
  126.5000     7.8115     0.0993     0.1142    74.3830     2.4667     7.1835     7.3614   -41.0256
  127.0000     7.8890     0.1159     0.1034    76.0578     2.4694     7.1346     7.3116   -41.0256
  127.5000     7.9487     0.1354     0.1034    79.1452     2.4870     7.1351     7.2619   -40.8748
  128.0000     7.9946     0.1565     0.1046    80.7668     2.4848     7.1852     7.3643   -40.8748
  128.5000     8.0556     0.1701     0.1055    81.2292     2.4811     7.1856     7.6248   -40.7240
  129.0000     8.0865     0.1882     0.1051    81.6916     2.4856     7.3368     7.7857   -40.4223
  129.5000     8.1022     0.2064     0.1045    81.7005     2.4871     7.5485     8.0053   -40.4223
  130.0000     8.0725     0.2183     0.1057    81.1057     2.4842     7.7556     8.0063   -40.2715
  130.5000     8.0254     0.2304     0.1069    79.7526     2.4835     7.8100     8.0076   -40.2715
  131.0000     7.9679     0.2410     0.1117    78.9783     2.4805     7.9193     8.0643   -40.2715
  131.5000     7.9837     0.2530     0.1225    82.3437     2.4573     7.9198     8.1214   -40.2715
  132.0000     7.9995     0.2606     0.1396    84.0163     2.4408     7.9205     8.1224   -40.7240
  132.5000     8.0001     0.2682     0.1406    83.5710     2.4273     7.9210     8.1801   -41.0256
  133.0000     8.0006     0.2727     0.1444    82.6718     2.4228     7.8668     8.1812   -41.3273
  133.5000     8.0012     0.2743     0.1441    81.7727     2.4184     7.8412     8.1823   -41.4781
  134.0000     8.0170     0.2654     0.1431    81.3295     2.4154     7.7599     8.1269   -41.4781
  134.5000     8.0025     0.2534     0.1434    81.7918     2.4139     7.7604     8.0719   -41.4781
  135.0000     7.9878     0.2400     0.1422    82.7081     2.4147     7.6542     8.0173   -41.4781
