~VERSION INFORMATION
 VERS.                2.0:   CWLS LOG ASCII STANDARD - VERSION 2.0
 WRAP.                 NO:   ONE LINE PER DEPTH STEP
~WELL INFORMATION
#MNEM.UNIT      DATA TYPE    INFORMATION
#----------   ------------   ------------------------------
 STRT.F           25.0000:   START DEPTH
 STOP.F          528.0000:   STOP DEPTH
 STEP.F            0.5000:   STEP LENGTH
 NULL.          -999.2500:   NO VALUE
 COMP. FENIX & SCISSON INC:   COMPANY
 WELL.       NPR #3 #11-3:   WELL
 FLD .             NPR #3:   FIELD
 LOC .       S3 T38N R78W:   LOCATION
 CNTY.            NATRONA:   COUNTY
 STAT.            WYOMING:   STATE
 CTRY. UNITED STATES OF AMERICA:   COUNTRY
 SRVC.       Schlumberger:   SERVICE COMPANY
 DATE.        01-MAR-1977:   LOGDATE
 API .       490251028300:   API NUMBER
~CURVE INFORMATION
#MNEM.UNIT       API CODE    CURVE DESCRIPTION
#----------   ------------   ------------------------------
 DEPT.F                  :   
 SPR .MV     07 010 01 00:   SPONTANEOUS POTENTIAL
 LL8 .OHMM   07 220 08 00:   LATEROLOG-8 RES.
 ILM .OHMM   07 120 44 00:   INDUCTION LOG MEDIUM
 ILD .OHMM   07 120 46 00:   INDUCTION LOG DEEP
 GRD .GAPI   45 310 01 00:   GAMMA RAY FROM DENSITY LOG
 CALD.IN     45 280 60 00:   CALIPER
 RHOB.G/C3   45 350 01 00:   BULK DENSITY
 CORR.G/C3   45 356 01 00:   DENSITY CORRECTION
 DPHI.DEC    45 890 12 00:   DENSITY POROSITY SANDSTONE
~PARAMETER INFORMATION
#MNEM.UNIT          VALUE    DESCRIPTION
#----------   ------------   ------------------------------
 PD  .                 GL:   PERMANENT DATUM
 EPD .F              5178:   ELEVATION PERMANENT DATUM
 LMF .                 GL:   LOG MEASURED FROM
 DMF .                 GL:   DRILLING MEASURED FROM
 EKB .F              5183:   KELLING BUSHING
 EGL .F              5178:   GROUND LEVEL
 DATE.           3-1-1977:   RUN DATE
 RUN .                  1:   RUN NUMBER
 DD  .F               535:   DEPTH DRILLER
 DL  .F               526:   DEPTH LOGGER
 BLI .F               520:   BOTTOM LOG INTERVAL
 TLI .F                30:   TOP LOG INTERVAL
 CS  .IN            8.625:   CASING SIZE
 CBD .F                40:   CASING BOTTOM DRILLER
 CBL .F                30:   CASING BOTTOM LOGGER
 BS  .IN            7.875:   BIT SIZE
 BSD .F               535:   BIT SIZE AT DEPTH
 DFT .                KCL:   DRILLING FLUID TYPE
 DFD .                8.7:   DRILLING FLUID DENSITY
 DFV .                 37:   DRILLING FLUID VISCOSITY
 DFPH.                  8:   DRILLING FLUID PH
 DFL .                7.2:   DRILLING FLUID LOSS
 MSS .                PIT:   MUD SAMPLE SOURCE
 RMS .OHMM           .495:   RESISTIVITY MUD SAMPLE
 MST .F                62:   MUD SAMPLE TEMPERATURE
 RMF .OHMM           .406:   RESISTIVITY MUD FILTRATE SAMPLE
 MFST.F                65:   MUD FILTRATE SAMPLE TEMPERATURE
 MFSS.                  M:   MUD FILTRATE SAMPLE SOURCE
 RMB .OHMM           .438:   RESISTIVITY MUD AT BHT
 BHT .F                70:   BOTTOM HOLE TEMPERATURE
 TCS .HRS            0800:   TIME CURCULATED STOPPED
 TLAB.HRS            1130:   TIME LOGGER AT BOTTOM
 MRT .F                70:   MAXIMUM RECORDED TEMPERATURE
 LUN .               5642:   LOGGING UNIT NUMBER
 LUL .               CSPR:   LOGGING UNIT LOCATION
 ENGI.             MARTIN:   RECORDING ENGINEER
 CLNT.            A2DTECH:   CLIENT CODE
 ORIG.       2", 5" PRINT:   ORIGIN OF DATA
 UWI .       490251028300:   UNIQUE WELL ID
 DICO. A2D Technologies, Inc.:   DIGITIZING COMPANY
~OTHER INFORMATION
~A   DEPT      SPR        LL8        ILM        ILD         GRD      CALD       RHOB       CORR       DPHI   
# ...
  280.5000   -59.2646     8.9861     8.5024     7.8962   112.6890     8.1422     2.4777     0.0113     0.1181
  281.0000   -61.5945     8.7737     8.2195     7.6680   116.2455     8.1394     2.4723     0.0043     0.1155
  281.5000   -62.2592     8.5662     7.9399     7.4802   116.8990     8.1385     2.4656    -0.0036     0.1182
  282.0000   -59.3377     8.3637     7.6698     7.2967   117.2337     8.1460     2.4778    -0.0018     0.1126
  282.5000   -56.3414     8.1660     7.4700     7.1175   118.1124     8.1534     2.4695     0.0025     0.1194
  283.0000   -56.7724     7.9639     7.1505     6.9373   116.9540     8.1608     2.4630     0.0066     0.1151
  283.5000   -60.4980     7.9306     6.7558     6.5512   114.3861     8.1682     2.4779     0.0109     0.1077
  284.0000   -60.7114     7.8962     6.3828     6.1749   112.1031     8.1756     2.4942     0.0110     0.1093
  284.5000   -56.6414     7.9190     6.0304     5.8202   110.3969     8.1830     2.4873     0.0069     0.1126
  285.0000   -53.1517     7.9724     5.6974     5.4859   108.6969     8.1904     2.4803     0.0079     0.1133
  285.5000   -54.4617     7.9737     5.3829     5.1707   107.7225     8.1968     2.4804     0.0107     0.1138
  286.0000   -57.2635     6.6874     5.0857     4.8737   108.8338     8.1968     2.4781     0.0092     0.1144
  286.5000   -59.7875     5.3085     4.7923     4.5937   111.2348     8.1968     2.4731     0.0117     0.1149
  287.0000   -60.4745     4.6233     4.6183     4.3691   113.5752     8.1968     2.4682     0.0142     0.1154
  287.5000   -58.3274     5.2423     4.7045     4.4548   116.0011     8.1968     2.4632     0.0166     0.1228
  288.0000   -56.6757     5.7968     5.0745     4.6795   116.4790     8.1968     2.4582     0.0137     0.1263
  288.5000   -55.9411     6.4098     5.4956     5.0316   116.8575     8.1968     2.4532     0.0088     0.1249
  289.0000   -57.7080     7.0876     5.9515     5.4267   117.2582     8.1968     2.4483     0.0073     0.1277
  289.5000   -58.8548     7.8372     6.4453     5.9517   117.6394     8.1968     2.4404     0.0118     0.1301
  290.0000   -56.8586     8.5024     6.9800     6.5277   115.0957     8.1968     2.4309     0.0165     0.1338
  290.5000   -54.1851     8.4200     7.5591     7.0682   112.0936     8.1968     2.4215     0.0212     0.1413
  291.0000   -52.6912     8.3097     7.9886     7.1703   109.0780     8.1968     2.4121     0.0164     0.1487
  291.5000   -53.7514     8.1937     8.0455     7.2806   106.1081     8.1968     2.4074     0.0214     0.1479
  292.0000   -56.2663     8.4418     8.1028     7.3935   104.0659     8.1968     2.4404     0.0272     0.1347
  292.5000   -58.3337     8.7159     8.1605     7.5081   105.7901     8.1968     2.4804     0.0218     0.1198
  293.0000   -55.9493     8.9273     8.2187     7.6244   108.3583     8.1968     2.5036     0.0363     0.1046
  293.5000   -52.2688     8.9963     8.2772     7.7426   111.0294     8.1968     2.4978     0.0140     0.1117
  294.0000   -50.4128     9.0657     8.3362     7.8626   111.5240     8.1968     2.5038     0.0105     0.0991
  294.5000   -52.9388     9.1357     8.3956     8.0435   111.5029     8.1968     2.4921     0.0141     0.1041
  295.0000   -55.6688     9.2062     8.4554     7.9315   112.6371     8.1968     2.4806     0.0111     0.1110
  295.5000   -56.5805     9.2773     8.5156     7.7209   114.0173     8.1968     2.4691     0.0032     0.1178
  296.0000   -55.1922     9.3262     8.5814     7.5495   115.0029     8.1957     2.4576    -0.0047     0.1245
  296.5000   -55.7579     9.1520     8.5340     7.6371   115.2216     8.1945     2.4519    -0.0045     0.1283
  297.0000   -56.7510     9.0219     8.4824     7.7515   115.4868     8.1933     2.4509    -0.0005     0.1275
  297.5000   -55.1957     8.8936     8.4312     7.7105   114.4257     8.1921     2.4530     0.0035     0.1240
  298.0000   -54.2251     8.7671     8.3803     7.6533   112.9507     8.1909     2.4620     0.0072     0.1197
  298.5000   -58.3569     8.6429     8.3297     7.5966   111.1354     8.1897     2.4708     0.0054     0.1155
  299.0000   -60.2305     8.5821     8.2794     7.5402   112.5338     8.1885     2.4794     0.0004     0.1133
  299.5000   -60.2016     8.6249     8.2295     7.4845   114.3266     8.1874     2.4844    -0.0049     0.1166
  300.0000   -58.6734     8.7106     8.1798     7.4016   115.8495     8.1862     2.4799    -0.0005     0.1202
  300.5000   -56.3656     8.7967     8.1304     7.4378   114.7722     8.1850     2.4755     0.0029     0.1196
  301.0000   -53.9536     8.8228     8.0813     7.5101   115.8421     8.1838     2.4713    -0.0008     0.1122
  301.5000   -52.1864     8.7416     8.0320     7.5835   117.4526     8.1826     2.4675    -0.0030     0.1149
  302.0000   -50.3915     8.6612     7.9831     7.6801   116.9303     8.1814     2.4691     0.0031     0.1198
  302.5000   -49.2770     8.6612     7.8771     7.4700   116.3976     8.1802     2.4818     0.0130     0.1095
  303.0000   -51.5286     9.2481     7.6975     7.1797   115.8710     8.1791     2.4943     0.0230     0.1002
  303.5000   -54.1487     9.9750     7.5220     6.9007   115.4142     8.1779     2.5088     0.0280     0.0862
  304.0000   -56.3608    10.5175     7.3501     6.6326   115.1419     8.1767     2.5040     0.0206     0.0891
  304.5000   -55.7620     5.8736     7.1325     6.3749   115.3906     8.1755     2.4954     0.0113     0.0950
  305.0000   -55.1254     6.3304     7.0832     6.1515   116.5285     8.1743     2.4866     0.0026     0.1009
  305.5000   -54.4990     6.8798     7.0288     6.1748   117.2649     8.1731     2.4790     0.0019     0.1062
  306.0000   -53.8739     7.5394     6.9748     6.2008   117.5565     8.1719     2.4699     0.0042     0.1043
  306.5000   -53.2305     7.4012     6.9213     6.2087   120.1878     8.1707     2.4647     0.0049     0.1040
  307.0000   -53.2560     7.7893     6.8734     6.0179   122.5079     8.1696     2.4486     0.0008     0.1156
  307.5000   -53.6282     8.3792     6.6545     5.8320   123.8282     8.1684     2.4331    -0.0031     0.1282
  308.0000   -52.2007     9.0138     6.3539     5.6519   125.0790     8.1672     2.4259    -0.0043     0.1371
  308.5000   -50.1916     9.7675     6.0668     5.4773   126.3280     8.1660     2.4342     0.0024     0.1323
  309.0000   -48.3194     7.2740     5.9281     5.3081   127.5377     8.1648     2.4271     0.0048     0.1409
  309.5000   -51.2551     5.2425     5.8724     5.1603   128.3091     8.1636     2.4175    -0.0047     0.1519
  310.0000   -53.7650     4.3691     5.8722     5.2439   124.7675     8.1624     2.4079    -0.0045     0.1419
  310.5000   -55.1087     5.2656     6.0218     5.3216   121.9444     8.1613     2.4521    -0.0011     0.1268
  311.0000   -54.1857     6.0786     6.2169     5.4015   119.0656     8.1601     2.4553     0.0017     0.1237
  311.5000   -53.2603     7.0171     6.4185     5.4583   117.4310     8.1589     2.4562    -0.0034     0.1202
  312.0000   -52.2808     7.6244     6.6545     5.9607   118.3837     8.1577     2.4534    -0.0041     0.1259
  312.5000   -50.3162     7.8045     6.8523     6.4545   119.6038     8.1565     2.4507     0.0080     0.1290
  313.0000   -48.2292     7.9881     7.0668     6.9373   120.8089     8.1553     2.4418     0.0122     0.1287
  313.5000   -47.7427     8.1191     7.2880     7.0388   121.8063     8.1541     2.4268     0.0133     0.1343
  314.0000   -49.6149     7.9818     7.5394     7.1325   120.5781     8.1530     2.4120     0.0136     0.1519
  314.5000   -51.6296     7.8235     7.6094     7.1987   119.4650     8.1518     2.4053     0.0050     0.1458
  315.0000   -52.3719     8.1738     7.3671     7.0668   118.7530     8.1506     2.4222    -0.0001     0.1368
  315.5000   -52.7727     8.9222     7.1859     6.5933   118.0988     8.1494     2.4353     0.0039     0.1321
  316.0000   -53.1623     9.7390     6.8245     6.1043   117.1406     8.1482     2.4486     0.0078     0.1317
  316.5000   -53.5420    10.9138     6.4075     5.6515   109.8949     8.1470     2.4557     0.0056     0.1215
