~VERSION INFORMATION
 VERS.                2.0:   CWLS LOG ASCII STANDARD - VERSION 2.0
 WRAP.                 NO:   ONE LINE PER DEPTH STEP
~WELL INFORMATION
#MNEM.UNIT      DATA TYPE    INFORMATION
#----------   ------------   ------------------------------
 STRT.F            0.0000:   START DEPTH
 STOP.F          978.0000:   STOP DEPTH
 STEP.F            0.5000:   STEP LENGTH
 NULL.          -999.2500:   NO VALUE
 COMP. FENIX & SCISSON INC:   COMPANY
 WELL. N.P.R #3 SX-14 #53:   WELL
 FLD .             TEAPOT:   FIELD
 LOC .      S14 T38N R78W:   LOCATION
 CNTY.            NATRONA:   COUNTY
 STAT.            WYOMING:   STATE
 CTRY. UNITED STATES OF AMERICA:   COUNTRY
 SRVC.              Welex:   SERVICE COMPANY
 DATE.        06-MAR-1977:   LOGDATE
 API .       490251029800:   API NUMBER
~CURVE INFORMATION
#MNEM.UNIT       API CODE    CURVE DESCRIPTION
#----------   ------------   ------------------------------
 DEPT.F                  :   
 SPR .MV     07 010 01 00:   SPONTANEOUS POTENTIAL
 SGRD.OHMM   07 220 05 00:   SHALLOW RESISTIVITY
 ILD .OHMM   07 120 46 00:   INDUCTION LOG DEEP
 ILM .OHMM   07 120 44 00:   INDUCTION LOG MEDIUM
 GRD .GAPI   45 310 01 00:   GAMMA RAY FROM DENSITY LOG
 CALD.IN     45 280 60 00:   CALIPER
 RHOB.G/C3   45 350 01 00:   BULK DENSITY
 DPHI.DEC    45 890 12 00:   DENSITY POROSITY SANDSTONE
 CORR.G/C3   45 356 01 00:   DENSITY CORRECTION
~PARAMETER INFORMATION
#MNEM.UNIT          VALUE    DESCRIPTION
#----------   ------------   ------------------------------
 PD  .                 GL:   PERMANENT DATUM
 EPD .F              5230:   ELEVATION PERMANENT DATUM
 LMF .                 GL:   LOG MEASURED FROM
 DMF .                 GL:   DRILLING MEASURED FROM
 EGL .F              5230:   GROUND LEVEL
 DATE.             3-6-77:   RUN DATE
 RUN .                  1:   RUN NUMBER
 DD  .F               989:   DEPTH DRILLER
 DL  .F               980:   DEPTH LOGGER
 BLI .F               978:   BOTTOM LOG INTERVAL
 TLI .F                50:   TOP LOG INTERVAL
 CS  .IN            8.625:   CASING SIZE
 CBD .F                42:   CASING BOTTOM DRILLER
 CBL .F                42:   CASING BOTTOM LOGGER
 BS  .IN            7.875:   BIT SIZE
 BSD .F               989:   BIT SIZE AT DEPTH
 DFT .            KCL MUD:   DRILLING FLUID TYPE
 DFD .                8.4:   DRILLING FLUID DENSITY
 DFV .                 30:   DRILLING FLUID VISCOSITY
 DFPH.                7.2:   DRILLING FLUID PH
 DFL .               14.4:   DRILLING FLUID LOSS
 MSS .            MUD PIT:   MUD SAMPLE SOURCE
 RMS .OHMM            .41:   RESISTIVITY MUD SAMPLE
 MST .F                48:   MUD SAMPLE TEMPERATURE
 RMF .OHMM            .39:   RESISTIVITY MUD FILTRATE SAMPLE
 MFST.F                48:   MUD FILTRATE SAMPLE TEMPERATURE
 RMC .OHMM            .55:   RESISTIVITY MUD CAKE
 MCST.F                48:   MUD CAKE SAMPLE TEMPERATURE
 MFSS.           FANN KIT:   MUD FILTRATE SAMPLE SOURCE
 MCSS.           FANN KIT:   MUD CAKE SAMPLE SOURCE
 RMB .OHMM            .34:   RESISTIVITY MUD AT BHT
 BHT .F                58:   BOTTOM HOLE TEMPERATURE
 TCS .HRS               2:   TIME CURCULATED STOPPED
 MRT .F                58:   MAXIMUM RECORDED TEMPERATURE
 LUN .               8611:   LOGGING UNIT NUMBER
 LUL .           GILLETTE:   LOGGING UNIT LOCATION
 ENGI.            C. DOAK:   RECORDING ENGINEER
 WITN.           S. BURKE:   WITNESSED BY
 CLNT.            A2DTECH:   CLIENT CODE
 ORIG.        2" 5" PRINT:   ORIGIN OF DATA
 UWI .       490251029800:   UNIQUE WELL ID
 DICO. A2D Technologies, Inc.:   DIGITIZING COMPANY
~OTHER INFORMATION
~A    DEPT     SPR       SGRD        ILD        ILM        GRD       CALD       RHOB       DPHI       CORR   
# ...
  949.0000   -39.8008    11.5153     7.7457     9.4891    87.6199     7.8409     2.4703     0.1061     0.0344
  949.5000   -39.7575    11.3083     7.6540     9.5060  -999.2500     7.8406     2.4741     0.1037     0.0366
  950.0000   -39.7203    11.1049     7.5634     9.3694  -999.2500     7.8403     2.4778     0.1014     0.0387
  950.5000   -39.6830    10.9053     7.4738     9.2427  -999.2500     7.8399     2.4816     0.0991     0.0409
  951.0000   -39.6457    10.7909     7.3853     9.1177  -999.2500     7.8396     2.4854     0.0968     0.0430
  951.5000   -39.6084    10.7539     7.2979     8.9934  -999.2500     7.8393     2.4892     0.0946     0.0446
  952.0000   -39.5711    10.7169     7.2115     8.9130  -999.2500     7.8390     2.4921     0.0931     0.0453
  952.5000   -39.5338    10.6801     7.1261     8.8999  -999.2500     7.8386     2.4920     0.0917     0.0459
  953.0000   -39.4965    10.6434     7.0418     8.8881  -999.2500     7.8383     2.4871     0.0962     0.0441
  953.5000   -39.4592    10.5476     6.9584     8.8760  -999.2500     7.8380     2.4788     0.1034     0.0392
  954.0000   -39.4219    10.1865     6.8760     8.8639  -999.2500     7.8377     2.4660     0.1106     0.0343
  954.5000   -39.3846    10.0445     6.7946     8.8519  -999.2500     7.8373     2.4532     0.1178     0.0294
  955.0000   -39.3473    10.3342     6.7141     8.8397  -999.2500     7.8370     2.4439     0.1219     0.0246
  955.5000   -39.3100    10.5452     6.6347     8.7895  -999.2500     7.8367     2.4515     0.1164     0.0254
  956.0000   -39.2727    10.7114     6.5561     8.6881  -999.2500     7.8364     2.4589     0.1125     0.0265
  956.5000   -39.2354    10.2600     6.4785     8.5878  -999.2500     7.8360     2.4650     0.1086     0.0275
  957.0000   -39.1981     9.9088     6.4018     8.4887  -999.2500     7.8357     2.4675     0.1062     0.0285
  957.5000   -39.1609     8.1635     6.3464     8.3592  -999.2500     7.8354     2.4701     0.1046     0.0295
  958.0000   -39.1236     7.2836     6.5440     8.4621  -999.2500     7.8351     2.4729     0.1031     0.0306
  958.5000   -39.0863    10.1809     6.7040     8.6163  -999.2500     7.8347     2.4792     0.1016     0.0316
  959.0000   -39.0490    10.5451     6.8679     8.7733  -999.2500     7.8344     2.4894     0.0957     0.0326
  959.5000   -39.0117    10.6860     7.0358     8.9332  -999.2500     7.8341     2.4995     0.0901     0.0337
  960.0000   -38.9744    10.8709     7.2077     9.0960  -999.2500     7.8338     2.5072     0.0846     0.0347
  960.5000   -38.9371    11.3525     7.3839     9.2618  -999.2500     7.8334     2.5067     0.0832     0.0357
  961.0000   -38.8998    11.8554     7.5644     9.4306  -999.2500     7.8331     2.5055     0.0838     0.0362
  961.5000   -38.8626    12.3110     7.7494     9.6025  -999.2500     7.8328     2.5019     0.0850     0.0355
  962.0000   -38.8263    12.4204     7.9388     9.7775  -999.2500     7.8325     2.4974     0.0892     0.0349
  962.5000   -38.7836    12.5307     8.0578     9.9557  -999.2500     7.8321     2.4976     0.0920     0.0347
  963.0000   -38.6122    12.6421     7.7910    10.1371  -999.2500     7.8318     2.4999     0.0904     0.0363
  963.5000   -38.4417    12.7531     7.6037    10.0335  -999.2500     7.8315     2.5022     0.0887     0.0379
  964.0000   -38.2725    12.6267     7.4210     9.9057  -999.2500     7.8312     2.5046     0.0872     0.0395
  964.5000   -38.0947    12.5029     7.2836     9.7796  -999.2500     7.8308     2.5069     0.0826     0.0411
  965.0000   -37.5087    12.3803     7.2619     9.6551  -999.2500     7.8305     2.5051     0.0813     0.0427
  965.5000   -36.2336    12.2590     7.2360     9.5322  -999.2500     7.8302     2.5024     0.0872     0.0444
  966.0000   -34.9483    12.1388     7.2170     9.4191  -999.2500     7.8299     2.5004     0.0851     0.0491
  966.5000   -32.6306    12.0198     7.6962     9.5285    57.2720     7.8295     2.5089     0.0810     0.0542
  967.0000   -28.7474    11.9591     8.2975     9.6319    66.2166     7.8292     2.5176     0.0761     0.0591
  967.5000   -19.7109    12.1030     8.8961     9.7365    86.1627     7.8289     2.5155     0.0796     0.0616
  968.0000    -6.1158    12.2019     9.8610     9.8423   106.0497     7.8286     2.5088     0.0838     0.0594
  968.5000    -1.2878    12.3019    12.5534     9.9492   112.4963     7.8282     2.5021     0.0881     0.0573
  969.0000    -0.5902    12.4066    18.3362    10.0572   111.4882     7.8279     2.4952     0.0923     0.0552
  969.5000    -0.5464    12.2406    34.5870    10.1664   112.2048     7.8276     2.4955     0.0922     0.0530
  970.0000    -0.4972    11.9411  -999.2500    10.2768   113.5691     7.8273     2.4973     0.0909     0.0544
  970.5000  -999.2500    11.6490  -999.2500    11.2222   114.8160     7.8269     2.4992     0.0896     0.0573
  971.0000  -999.2500    11.5021  -999.2500    13.4577   113.8566     7.8266     2.5011     0.0893     0.0603
  971.5000  -999.2500    11.4577  -999.2500    17.0743   112.7889     7.8263     2.5029     0.0886     0.0632
  972.0000  -999.2500    11.2885  -999.2500    40.1903   113.2857     7.8260     2.5041     0.0854     0.0662
  972.5000  -999.2500    10.6583  -999.2500    40.1903   113.7940     7.8256     2.5001     0.0883     0.0692
  973.0000  -999.2500    10.0633  -999.2500    40.1903   112.0228     7.8253     2.4945     0.0913     0.0723
  973.5000  -999.2500     9.5016  -999.2500    40.1903   111.5083     7.8250     2.4890     0.0942     0.0768
  974.0000  -999.2500     8.9711  -999.2500    40.1903   113.9021     7.8247     2.4858     0.0971     0.0816
  974.5000  -999.2500     8.4703  -999.2500    40.1903   116.3286     7.8243     2.4824     0.1034     0.0864
  975.0000  -999.2500     7.9975  -999.2500    40.1903   117.1311     7.8240     2.4632     0.1189     0.0896
  975.5000  -999.2500     7.5510  -999.2500    40.1903   115.8765     7.8237     2.4367     0.1344     0.0921
  976.0000  -999.2500     7.4186  -999.2500    40.1903   115.3882     7.8234     2.4006     0.1498     0.0944
  976.5000  -999.2500  -999.2500  -999.2500  -999.2500   116.2966     7.8231     2.3655     0.1653     0.0965
  977.0000  -999.2500  -999.2500  -999.2500  -999.2500   116.8558     7.8223     2.3417     0.1817     0.0978
  977.5000  -999.2500  -999.2500  -999.2500  -999.2500   116.1994     7.8076     2.3184     0.2000     0.1028
  978.0000  -999.2500  -999.2500  -999.2500  -999.2500   116.2434     7.8028     2.2924     0.2121     0.1092
