~VERSION INFORMATION
 VERS.                2.0:   CWLS LOG ASCII STANDARD - VERSION 2.0
 WRAP.                 NO:   ONE LINE PER DEPTH STEP
~WELL INFORMATION
#MNEM.UNIT      DATA TYPE    INFORMATION
#----------   ------------   ------------------------------
 STRT.F           32.0000:   START DEPTH
 STOP.F          501.0000:   STOP DEPTH
 STEP.F            0.5000:   STEP LENGTH
 NULL.          -999.2500:   NO VALUE
 COMP.    FENIX & SCISSON:   COMPANY
 WELL.    NPR "SX" #75-10:   WELL
 FLD .             TEAPOT:   FIELD
 LOC .      S10 T38N R78W:   LOCATION
 CNTY.            NATRONA:   COUNTY
 STAT.            WYOMING:   STATE
 CTRY. UNITED STATES OF AMERICA:   COUNTRY
 SRVC.              Welex:   SERVICE COMPANY
 DATE.        08-MAR-1977:   LOGDATE
 API .       490251029200:   API NUMBER
~CURVE INFORMATION
#MNEM.UNIT       API CODE    CURVE DESCRIPTION
#----------   ------------   ------------------------------
 DEPT.F                  :   
 SPR .MV     07 010 01 00:   SPONTANEOUS POTENTIAL
 ILD .OHMM   07 120 46 00:   INDUCTION LOG DEEP
 ILM .OHMM   07 120 44 00:   INDUCTION LOG MEDIUM
 SGRD.OHMM   07 221 05 00:   SHALLOW SHORT GUARD RESISTIVITY
 GRD .GAPI   45 310 01 00:   GAMMA RAY FROM DENSITY LOG
 CALD.IN     45 280 60 00:   CALIPER FROM DENSITY LOG
 CORR.G/C3   45 356 01 00:   DENSITY CORRECTION
 RHOB.G/C3   45 350 01 00:   BULK DENSITY
 DPHI.DEC    45 890 12 00:   DENSITY POROSITY SANDSTONE
~PARAMETER INFORMATION
#MNEM.UNIT          VALUE    DESCRIPTION
#----------   ------------   ------------------------------
 PD  .                 GL:   PERMANENT DATUM
 EPD .F              5184:   ELEVATION PERMANENT DATUM
 LMF .                 GL:   LOG MEASURED FROM
 DAPD.F                GL:   FEET ABOVE PERMANENT DATUM
 EGL .F              5184:   GROUND LEVEL
 DATE.          03-8-1977:   RUN DATE
 RUN .                  1:   RUN NUMBER
 DD  .F               510:   DEPTH DRILLER
 DL  .F               505:   DEPTH LOGGER
 BLI .F               503:   BOTTOM LOG INTERVAL
 TLI .F                35:   TOP LOG INTERVAL
 CS  .IN            8.625:   CASING SIZE
 CBD .F                42:   CASING BOTTOM DRILLER
 CBL .F                43:   CASING BOTTOM LOGGER
 BS  .IN            7.875:   BIT SIZE
 BSD .F               510:   BIT SIZE AT DEPTH
 DFT .            KCL MUD:   DRILLING FLUID TYPE
 DFD .                8.6:   DRILLING FLUID DENSITY
 DFV .                 36:   DRILLING FLUID VISCOSITY
 DFPH.                9.5:   DRILLING FLUID PH
 DFL .                  2:   DRILLING FLUID LOSS
 MSS .           FLOWLINE:   MUD SAMPLE SOURCE
 RMS .OHMM            .49:   RESISTIVITY MUD SAMPLE
 MST .F                56:   MUD SAMPLE TEMPERATURE
 RMF .OHMM            .42:   RESISTIVITY MUD FILTRATE SAMPLE
 MFST.F                56:   MUD FILTRATE SAMPLE TEMPERATURE
 RMC .OHMM            .62:   RESISTIVITY MUD CAKE
 MCST.F                56:   MUD CAKE SAMPLE TEMPERATURE
 MFSS.               MEAS:   MUD FILTRATE SAMPLE SOURCE
 MCSS.               MEAS:   MUD CAKE SAMPLE SOURCE
 RMB .OHMM            .44:   RESISTIVITY MUD AT BHT
 BHT .F                62:   BOTTOM HOLE TEMPERATURE
 TCS .HRS               2:   TIME CURCULATED STOPPED
 MRT .F                62:   MAXIMUM RECORDED TEMPERATURE
 LUN .               8611:   LOGGING UNIT NUMBER
 LUL .           GILLETTE:   LOGGING UNIT LOCATION
 ENGI.            C. DOAK:   RECORDING ENGINEER
 WITN.           S. BURNE:   WITNESSED BY
 CLNT.            A2DTECH:   CLIENT CODE
 ORIG.        2" 5" PRINT:   ORIGIN OF DATA
 UWI .       490251029200:   UNIQUE WELL ID
 DICO. A2D Technologies, Inc.:   DIGITIZING COMPANY
~OTHER INFORMATION
~A   DEPT      SPR        ILD        ILM       SGRD         GRD        CALD      CORR        RHOB     DPHI   
# ...
  360.5000   -35.3266    10.5194    15.6308    16.5924   105.1588     8.0215     0.0451     2.4257     0.1287
  361.0000   -35.4872    10.3003    14.4006    16.1351   108.0052     7.9949     0.0544     2.4393     0.1233
  361.5000   -35.4986    10.2969    14.7987    16.4715   108.3143     7.9987     0.0620     2.4656     0.1161
  362.0000   -35.5104    10.1524    15.3131    16.5760   105.9483     8.0457     0.0667     2.4671     0.1086
  362.5000   -35.5243    10.1490    15.3080    16.0069   105.6613     8.0902     0.0712     2.4619     0.1091
  363.0000   -35.6850    10.1526    15.0905    15.6736   105.0837     8.0921     0.0728     2.4680     0.1079
  363.5000   -35.6964    10.2833    14.7780    15.5606   105.6946     8.0944     0.0760     2.4695     0.1037
  364.0000   -35.5582    10.5669    14.7732    15.5555   105.4113     8.0810     0.0836     2.4748     0.1019
  364.5000   -35.4207    11.0865    14.9747    15.6568   101.2532     8.0834     0.0913     2.4704     0.1037
  365.0000   -35.1336    11.4721    15.3887    15.7601   100.9699     8.0853     0.0945     2.4660     0.1156
  365.5000   -34.9957    11.7922    16.2552    16.6530    96.0667     8.0872     0.0946     2.4305     0.1270
  366.0000   -34.7115    12.8026    17.5296    18.1757    89.8221     8.0892     0.0827     2.3918     0.1441
  366.5000   -34.4215    13.9039    19.4345    20.3259    87.0053     8.0757     0.0738     2.3468     0.1711
  367.0000   -33.9880    15.0999    21.8457    24.4831    86.1222     8.0627     0.0709     2.3349     0.1855
  367.5000   -33.5545    16.3989    24.5561    34.0919    85.2465     8.0353     0.0725     2.3388     0.1824
  368.0000   -33.1182    18.3082    28.1801    41.3497    85.2211     7.9921     0.0757     2.3372     0.1830
  368.5000   -32.6790    20.5064    31.5932    40.7518    86.7664     7.9647     0.0773     2.3440     0.1794
  369.0000   -32.0962    22.8179    34.3963    38.0332    88.2715     7.9219     0.0775     2.3516     0.1787
  369.5000   -31.8091    24.1058    35.3471    38.8164    87.3921     7.8786     0.0776     2.3500     0.1794
  370.0000   -31.5220    25.1170    36.0775    40.1665    88.5991     7.9406     0.0657     2.3399     0.1835
  370.5000   -31.2349    25.9907    35.8147    40.9970    88.4503     7.9873     0.0568     2.3289     0.1895
  371.0000   -30.9507    26.3494    34.3225    40.9801    86.5325     8.0339     0.0584     2.3248     0.1913
  371.5000   -30.8128    26.8836    31.8276    39.8475    85.1863     8.0657     0.0616     2.3301     0.1906
  372.0000   -30.5254    26.8747    30.3170    38.4827    85.0815     8.0676     0.0617     2.3264     0.1921
  372.5000   -30.5373    26.8659    32.2485    38.7365    86.7356     8.0844     0.0618     2.3212     0.1936
  373.0000   -30.5514    26.8570    34.3031    42.0687    86.3033     8.0714     0.0590     2.3258     0.1921
  373.5000   -30.5628    26.8481    36.0315    45.6876    87.2159     8.0585     0.0500     2.3265     0.1917
  374.0000   -30.5742    26.6543    36.7291    47.3949    89.0191     8.0450     0.0532     2.3304     0.1895
  374.5000   -30.5856    26.2782    35.9619    40.8790    90.5205     8.0474     0.0563     2.3334     0.1872
  375.0000   -30.5970    26.0888    33.0937    33.2202    88.0054     8.0642     0.0550     2.3290     0.1890
  375.5000   -30.6113    25.7225    32.4051    34.6138    86.3809     8.0662     0.0506     2.3200     0.1946
  376.0000   -30.6227    25.1869    33.0840    36.8208    86.9918     8.0681     0.0477     2.3231     0.1931
  376.5000   -30.6341    24.6624    33.9861    38.1198    88.1988     8.0700     0.0448     2.3261     0.1913
  377.0000   -30.4934    23.9808    33.5066    38.0858    89.9983     8.0421     0.0420     2.3262     0.1919
  377.5000   -30.5077    23.4814    30.6221    37.5512    87.3342     7.9994     0.0406     2.3277     0.1891
  378.0000   -30.5194    22.8343    31.4686    36.2650    86.7528     7.9561     0.0423     2.3330     0.1840
  378.5000   -30.5333    22.2049    30.7927    34.7819    87.6618     7.9734     0.0469     2.3436     0.1762
  379.0000   -30.5447    21.5930    25.0426    31.7598    88.4217     8.0350     0.0546     2.3646     0.1678
  379.5000   -30.5561    20.8316    21.6579    28.0594    88.4365     8.0816     0.0592     2.3827     0.1551
  380.0000   -30.5685    19.8613    22.4106    26.9141    89.4945     8.0984     0.0594     2.3895     0.1539
  380.5000   -30.5791    19.3139    23.8384    35.7059    90.4035     8.0407     0.0550     2.3715     0.1650
  381.0000   -30.7403    19.0428    24.4974    36.4441    90.7163     7.9831     0.0491     2.3543     0.1758
  381.5000   -30.7539    19.0365    23.8208    30.6539    88.7937     7.9254     0.0462     2.3476     0.1794
  382.0000   -30.9145    19.1620    23.0055    28.0128    87.7653     7.8528     0.0509     2.3515     0.1730
  382.5000   -30.9254    19.5550    21.4648    28.0017    88.3762     7.8100     0.0525     2.3635     0.1691
  383.0000   -30.9383    19.8204    21.0199    28.1887    89.1361     7.7970     0.0526     2.3618     0.1700
  383.5000   -30.8000    20.0893    22.8248    28.5689    89.1509     7.7841     0.0512     2.3412     0.1793
  384.0000   -30.8138    20.0827    21.1900    29.1574    90.6560     7.7558     0.0468     2.3274     0.1888
  384.5000   -30.6750    20.0761    19.4613    29.9864    93.5024     7.6978     0.0485     2.3397     0.1849
  385.0000   -30.6866    20.0678    20.5588    30.7926    93.5171     7.7471     0.0441     2.3368     0.1822
  385.5000   -30.6987    19.6499    24.2530    30.5682    93.9842     7.8838     0.0488     2.3421     0.1840
  386.0000   -30.7104    19.6434    25.4446    27.5517    93.9644     7.9741     0.0549     2.3534     0.1755
  386.5000   -30.7244    19.6369    25.9884    27.1649    91.6990     8.0193     0.0596     2.3654     0.1686
  387.0000   -30.7358    19.9034    27.8116    28.1570    91.0427     8.0361     0.0612     2.3782     0.1605
  387.5000   -30.7472    20.1735    29.9945    32.7074    93.7160     8.0081     0.0584     2.3850     0.1578
  388.0000   -30.7586    20.1652    30.6143    37.5413    96.8882     8.0129     0.0540     2.3716     0.1610
  388.5000   -30.7701    20.1585    28.5616    29.2674    98.8404     8.0572     0.0556     2.3641     0.1661
  389.0000   -30.7843    20.0132    26.4363    26.9314   100.6435     8.0740     0.0603     2.3829     0.1574
  389.5000   -30.7957    19.5965    24.6911    27.1091    99.4661     8.0908     0.0634     2.3875     0.1550
  390.0000   -30.8071    19.1884    24.3447    25.8194    97.8415     8.0928     0.0651     2.3853     0.1530
  390.5000   -30.9678    18.5297    25.3652    26.5336    99.7937     8.0947     0.0637     2.3959     0.1485
  391.0000   -30.9792    18.1438    25.8875    26.7109   100.5499     8.0668     0.0607     2.4019     0.1462
  391.5000   -31.1403    17.8891    25.5076    25.4401    98.1839     7.9793     0.0546     2.3952     0.1492
  392.0000   -31.3034    17.2764    24.1435    24.3997    96.4103     7.8471     0.0473     2.3870     0.1515
  392.5000   -31.4640    17.0338    23.4786    23.2166    98.0644     7.7447     0.0414     2.3728     0.1626
  393.0000   -31.4754    16.5528    22.6751    22.4430    99.5695     7.6572     0.0388     2.3766     0.1587
  393.5000   -31.4868    16.1065    22.2033    22.2813   100.9256     7.5846     0.0404     2.3812     0.1599
  394.0000   -31.6478    15.7711    22.0433    22.5836    99.1520     7.6462     0.0466     2.3796     0.1559
  394.5000   -31.8110    15.5497    22.0343    23.0487    96.7823     7.7375     0.0512     2.3880     0.1544
  395.0000   -31.8224    15.4376    22.1795    23.7025    97.6912     7.7842     0.0544     2.3933     0.1484
  395.5000   -32.1323    15.3263    22.6359    24.1740    99.7925     7.8010     0.0560     2.4039     0.1418
  396.0000   -32.1437    15.3200    23.4227    23.9978   101.5956     7.8178     0.0562     2.4099     0.1388
  396.5000   -32.1552    15.5292    23.9047    23.8249   102.9517     7.8198     0.0548     2.4045     0.1438
