~VERSION INFORMATION
 VERS.                2.0:   CWLS LOG ASCII STANDARD - VERSION 2.0
 WRAP.                 NO:   ONE LINE PER DEPTH STEP
~WELL INFORMATION
#MNEM.UNIT      DATA TYPE    INFORMATION
#----------   ------------   ------------------------------
 STRT.F           30.0000:   START DEPTH
 STOP.F         2423.0000:   STOP DEPTH
 STEP.F            0.5000:   STEP LENGTH
 NULL.          -999.2500:   NO VALUE
 COMP. DEPARTMENT OF ENERGY:   COMPANY
 WELL.   NPR-3 #35-1 X 10:   WELL
 FLD .        TEAPOT DOME:   FIELD
 LOC .      S10 T38N R78W:   LOCATION
 CNTY.            NATRONA:   COUNTY
 STAT.            WYOMING:   STATE
 CTRY. UNITED STATES OF AMERICA:   COUNTRY
 SRVC.       Schlumberger:   SERVICE COMPANY
 DATE.        15-JAN-1999:   LOGDATE
 API .       490252282200:   API NUMBER
~CURVE INFORMATION
#MNEM.UNIT       API CODE    CURVE DESCRIPTION
#----------   ------------   ------------------------------
 DEPT.F                  :   
 GRR .GAPI   06 310 01 00:   GAMMA RAY FROM RESISTIVITY
 SPR .MV     06 010 01 00:   SPONTANEOUS POTENTIAL FROM RES.
 HD  .IN     06 280 01 00:   HOLE DIAMETER
 AT90.OHMM   06 120 90 00:   90-IN. RESISTIVITY, 2-FT RESOLUTION
 AT30.OHMM   06 120 30 00:   30-IN. RESISTIVITY, 2-FT RESOLUTION
 AT10.OHMM   06 120 10 00:   10-IN. RESISTIVITY, 2-FT RESOLUTION
~PARAMETER INFORMATION
#MNEM.UNIT          VALUE    DESCRIPTION
#----------   ------------   ------------------------------
 PD  .                 GL:   PERMANENT DATUM
 EPD .F              5228:   ELEVATION PERMANENT DATUM
 LMF .                 KB:   LOG MEASURED FROM
 DAPD.F                10:   FEET ABOVE PERMANENT DATUM
 DMF .                 KB:   DRILLING MEASURED FROM
 EKB .F              5238:   KELLING BUSHING
 EDF .F              5237:   DRILLING FLOOR
 EGL .F              5228:   GROUND LEVEL
 DATE.        15-JAN-1999:   RUN DATE
 RUN .                  1:   RUN NUMBER
 DD  .F              2400:   DEPTH DRILLER
 DL  .F              2421:   DEPTH LOGGER
 BLI .F              2393:   BOTTOM LOG INTERVAL
 TLI .F                30:   TOP LOG INTERVAL
 CS  .IN            9.625:   CASING SIZE
 CBD .F               778:   CASING BOTTOM DRILLER
 CBL .F               773:   CASING BOTTOM LOGGER
 BS  .IN              8.5:   BIT SIZE
 BSD .F              2400:   BIT SIZE AT DEPTH
 DFT .            GEL/KCL:   DRILLING FLUID TYPE
 DFD .                8.9:   DRILLING FLUID DENSITY
 DFV .                 39:   DRILLING FLUID VISCOSITY
 DFPH.                  9:   DRILLING FLUID PH
 DFL .                8.8:   DRILLING FLUID LOSS
 MSS .            MUD PIT:   MUD SAMPLE SOURCE
 RMS .OHMM            .29:   RESISTIVITY MUD SAMPLE
 MST .F                65:   MUD SAMPLE TEMPERATURE
 RMF .OHMM            .22:   RESISTIVITY MUD FILTRATE SAMPLE
 MFST.F                65:   MUD FILTRATE SAMPLE TEMPERATURE
 RMC .OHMM            .43:   RESISTIVITY MUD CAKE
 MCST.F                65:   MUD CAKE SAMPLE TEMPERATURE
 MFSS.          MUD PRESS:   MUD FILTRATE SAMPLE SOURCE
 MCSS.         CALCULATED:   MUD CAKE SAMPLE SOURCE
 RMB .OHMM           .195:   RESISTIVITY MUD AT BHT
 BHT .F               100:   BOTTOM HOLE TEMPERATURE
 TCS .HRS            2015:   TIME CURCULATED STOPPED
 TLAB.HRS            2315:   TIME LOGGER AT BOTTOM
 MRT .F               100:   MAXIMUM RECORDED TEMPERATURE
 LUN .               2102:   LOGGING UNIT NUMBER
 LUL .             CASPER:   LOGGING UNIT LOCATION
 ENGI.    TISOVEC/PIERSON:   RECORDING ENGINEER
 WITN.           ESMERSON:   WITNESSED BY
 CLNT.            A2DTECH:   CLIENT CODE
 ORIG.       2", 5" PRINT:   ORIGIN OF DATA
 UWI .       490252282200:   UNIQUE WELL ID
 DICO. A2D Technologies, Inc.:   DIGITIZING COMPANY
~OTHER INFORMATION
~A   DEPT       GRR       SPR         HD       AT90       AT30       AT10   
# ...
 1642.0000   110.4898    -9.5155     8.7807     8.0587     7.9898     7.0539
 1642.5000   109.6154    -9.6955     8.7830     8.1886     7.7652     6.9473
 1643.0000   111.5145    -9.8769     8.7854     8.4343     7.9829     7.6197
 1643.5000   114.1145   -10.0552     8.7878     8.6795     8.2861     7.9843
 1644.0000   113.3622   -10.2417     8.7902     8.1338     7.9106     7.1433
 1644.5000   110.4198   -10.3793     8.7926     8.2327     8.0262     7.6070
 1645.0000   107.5827   -10.2186     8.7950     8.5993     8.2096     7.9843
 1645.5000   105.1965   -10.0372     8.7974     8.2861     8.0343     7.9106
 1646.0000   105.0033    -9.8568     8.7998     8.4413     7.8060     6.8736
 1646.5000   105.3070    -9.6780     8.8022     8.1504     7.5521     6.2734
 1647.0000   105.6254    -9.4970     8.8045     7.9106     7.7652     7.3531
 1647.5000   106.7413    -9.3187     8.8069    10.7434     9.8830     8.4413
 1648.0000   108.1312    -9.1364     8.8093     9.8688     8.5898     7.3963
 1648.5000   109.2549    -8.9816     8.8117     7.6935     7.0774     5.7710
 1649.0000   108.9444    -8.8499     8.8140     8.9537     8.1656     6.9835
 1649.5000   106.4719    -8.7317     8.8166    10.6442     9.3835     8.3633
 1650.0000   104.8376    -8.6125     8.8194     9.3536     8.5141     7.3917
 1650.5000   106.0977    -8.4951     8.8230     7.9843     7.5375     5.3583
 1651.0000   109.3301    -8.3742     8.8268     8.1338     7.5673     6.6630
 1651.5000   111.0283    -8.2594     8.8305     7.2757     6.5516     9.9072
 1652.0000   109.0674    -8.1336     8.8342     6.8832     6.5854    12.6955
 1652.5000   103.5455    -8.0316     8.8385     8.0587     7.3945     9.4280
 1653.0000   100.7221    -7.8496     8.8446     7.7629     7.2024     6.6196
 1653.5000   102.0631    -7.6086     8.8532     6.9897     6.4673     4.6210
 1654.0000   105.6543    -7.4008     8.8517     7.0142     6.0450     4.2503
 1654.5000   108.3740    -7.1716     8.7819    12.3486     7.3047     5.9820
 1655.0000   109.1826    -7.0010     8.7391    11.6150     9.0914     8.3415
 1655.5000   109.2739    -6.7918     8.7499    10.7199     8.5405     7.3519
 1656.0000   106.8665    -6.6605     8.7682    13.6589     7.5521     5.3332
 1656.5000   102.5316    -6.1659     8.7734    12.0985     8.1274     5.5259
 1657.0000    98.0510    -5.4141     8.8087     9.9242     9.0028     6.7628
 1657.5000    94.0896    -4.8026     8.8850    12.7848    10.1618     8.3008
 1658.0000    92.1578    -4.0663     9.6119    12.4743     6.2183     3.0526
 1658.5000    94.8748    -3.7034    11.4213     4.5112     2.5751     0.9564
 1659.0000   100.5504    -3.7481    11.0699     6.2870     2.5514     1.0322
 1659.5000   105.8386    -3.7262     9.7714    12.3338     6.4274     3.4138
 1660.0000   108.3351    -3.7390     9.0859    27.9479    20.7560    14.6700
 1660.5000   108.8269    -3.7328     9.0674    29.7441    17.2316    13.3195
 1661.0000   107.5622    -3.7370     9.1601    18.5270    11.0107     9.2197
 1661.5000   106.9460    -3.7361     9.1687     7.1433     6.3249     6.5122
 1662.0000   107.6692    -3.7370     9.0777     7.1909     6.5736     3.9090
 1662.5000   107.2037    -3.7374     8.9885     7.8773     6.8192     4.3363
 1663.0000   105.3524    -3.7372     9.0314     9.3480     7.0777     5.2700
 1663.5000   103.9181    -3.7273     9.0877     9.1762     7.3693     6.8832
 1664.0000   104.2117    -3.5925     9.1095    10.5459     6.8460     6.2982
 1664.5000   104.5930    -3.5431     9.0392     6.8196     5.8992     3.4013
 1665.0000   102.0487    -3.6707     8.9477     7.1359     6.1581     3.7181
 1665.5000    99.7593    -3.7717     9.1070     7.5089     5.6126     5.0214
 1666.0000    98.7586    -3.8868     9.9885     7.9843     6.0394     3.7182
 1666.5000    97.6988    -3.9864    11.0953     8.0587     6.8701     2.5278
 1667.0000    98.0765    -4.1078    10.7114     8.3773     8.3633     3.4602
 1667.5000    99.0779    -4.0882     9.9241     8.9243     8.1342     5.0561
 1668.0000   100.0247    -3.9617     9.2654     8.9243     7.5521     6.2180
 1668.5000   101.5013    -3.8591     9.3783    11.1367     9.1630     7.5769
 1669.0000   102.8333    -3.7436     9.7156    16.0086    12.5782     9.1641
 1669.5000   102.0835    -3.6378    10.4268    12.4621     7.2099     5.4020
 1670.0000   101.2148    -3.5218    10.2010     9.4351     7.5413     2.5467
 1670.5000   102.1435    -3.4202     9.7931    10.0835     9.0172     8.6444
 1671.0000   103.6524    -3.3171     9.4792    13.8007    10.5459     8.3659
 1671.5000   105.3135    -3.4901     9.6466    10.0873     6.4558     4.0174
 1672.0000   109.4738    -3.7871     9.6412    10.2499     4.2101     1.8717
 1672.5000   111.3953    -4.0566     9.1291     5.9338     4.1712     4.0036
 1673.0000   110.9200    -4.3230     8.9916    10.8435     8.0587     7.3449
 1673.5000   110.1621    -4.6834     9.2884     8.9275     7.3156     3.8372
 1674.0000   110.1531    -4.6575     9.6213     7.3449     6.7566     4.2738
 1674.5000   108.3899    -4.5361     9.4309     7.6225     7.3449     5.6649
 1675.0000   105.7075    -4.4385     8.9088     7.4824     7.2099     5.2598
 1675.5000   103.0480    -4.3304     8.6926    11.4641     6.9473     6.0450
 1676.0000   102.5973    -4.2287     8.7472    10.2084     9.0075     5.8791
 1676.5000   102.8196    -4.1255     8.7895     5.2598     4.2493     1.8961
 1677.0000   102.5995    -3.9658     8.9740     6.2032     4.4464     2.3510
 1677.5000   101.0651    -3.8091     9.5058     8.5275     5.1120     4.1369
 1678.0000    97.9850    -3.7098    10.8026    10.3521     5.8248     5.6126
 1678.5000    95.3948    -3.6775    11.1763     8.5724     5.5510     3.9220
 1679.0000    95.3890    -3.6288    11.2557     6.7566     5.3088     2.5991
 1679.5000    97.5937    -3.5945    11.2832     7.6176     5.2598     3.1236
 1680.0000   100.1856    -3.5406    11.0336     9.7532     5.2598     3.5959
 1680.5000   100.8468    -3.5981    10.6441     8.9081     5.4613     3.2774
 1681.0000   101.4584    -3.8458    10.2672    13.0424     8.0227     5.3404
 1681.5000   102.2372    -4.0966     9.8765    18.6325     7.8570     7.8376
 1682.0000   103.3785    -4.3428     9.6074    17.2080     7.3046     6.6408
 1682.5000   104.6541    -4.6079     9.6564    12.1696     6.7891     5.3088
 1683.0000   106.7647    -4.8034     9.8164     8.6168     6.3115     5.3656
 1683.5000   109.6072    -4.8907     9.9953     7.8383     5.8717     5.5095
 1684.0000   110.5692    -5.0193    10.7809     5.7357     5.4427     2.2826
 1684.5000   107.1695    -5.0990    10.9959     5.8248     5.4713     3.3289
 1685.0000   102.8892    -5.2814    10.6832     7.5488     6.5766     6.0405
 1685.5000    98.7542    -5.4552    10.2163    10.2373     7.9895     6.9286
 1686.0000    95.3926    -5.8746     9.7439    15.8608     9.7077     8.3092
 1686.5000    96.0918    -6.5544     9.3060    15.5693    12.6652    10.9445
 1687.0000    99.2661    -7.1248     8.8912    21.1446    11.8173    10.1618
 1687.5000   101.4741    -7.8208     8.6959    15.6090    10.3855     6.6325
 1688.0000   101.4084    -8.2657     8.7226    10.3521     9.1210     6.8462
 1688.5000   101.7113    -8.3709     8.7156     9.4545     8.0160     7.1433
 1689.0000   104.9696    -8.5358     8.7780     8.5215     7.5040     6.7885
 1689.5000   108.1303    -8.6878     8.8325     7.9843     7.4133     6.4231
 1690.0000   109.3535    -8.7265     8.9172     7.3950     6.6467     5.8277
 1690.5000   108.2600    -8.4773     9.0155     6.5073     5.9504     4.9729
 1691.0000   107.3272    -8.2338     9.0981     5.9338     5.6126     4.1712
 1691.5000   105.9787    -7.9802     9.0743     7.0153     6.9473     4.8862
 1692.0000   106.9314    -7.7337     9.0250     8.5993     6.3319     5.8786
 1692.5000   109.8692    -7.4825     9.0461     7.9106     6.5378     5.8126
 1693.0000   111.4255    -7.2361     9.1465     7.9106     7.1167     6.0890
 1693.5000   109.3372    -6.9798     9.2398     9.1762     7.8376     7.0728
