~VERSION INFORMATION
 VERS.                2.0:   CWLS LOG ASCII STANDARD - VERSION 2.0
 WRAP.                 NO:   ONE LINE PER DEPTH STEP
~WELL INFORMATION
#MNEM.UNIT      DATA TYPE    INFORMATION
#----------   ------------   ------------------------------
 STRT.F          748.0000:   START DEPTH
 STOP.F         2238.0000:   STOP DEPTH
 STEP.F            0.5000:   STEP LENGTH
 NULL.          -999.2500:   NO VALUE
 COMP. LAWRENCE/ALLISON INC:   COMPANY
 WELL. NPR 3 #36-2-SHX-10:   WELL
 FLD .             TEAPOT:   FIELD
 LOC .      S10 T38N R78W:   LOCATION
 CNTY.            NATRONA:   COUNTY
 STAT.            WYOMING:   STATE
 CTRY. UNITED STATES OF AMERICA:   COUNTRY
 SRVC.            Unknown:   SERVICE COMPANY
 DATE.        02-JUN-1984:   LOGDATE
 API .       490256012900:   API NUMBER
~CURVE INFORMATION
#MNEM.UNIT       API CODE    CURVE DESCRIPTION
#----------   ------------   ------------------------------
 DEPT.F                  :   
 ROP .MIN/FT 91 810 01 00:   RATE OF DRILLING PENETRATION
 TGAS.UNITS  91 830 01 00:   TOTAL GAS FROM HOTWIRE
~PARAMETER INFORMATION
#MNEM.UNIT          VALUE    DESCRIPTION
#----------   ------------   ------------------------------
 EKB .F              5223:   KELLING BUSHING
 EGL .F              5213:   GROUND LEVEL
 DATE.             6-2-84:   RUN DATE
 DD  .F              2238:   DEPTH DRILLER
 BLI .F              2238:   BOTTOM LOG INTERVAL
 TLI .F               740:   TOP LOG INTERVAL
 CS  .IN            8.625:   CASING SIZE
 CBD .F               717:   CASING BOTTOM DRILLER
 LUN .               T-83:   LOGGING UNIT NUMBER
 ENGI.            JOHNSON:   RECORDING ENGINEER
 WITN.           SCHERGER:   WITNESSED BY
 CLNT.            A2DTECH:   CLIENT CODE
 ORIG.           5" PRINT:   ORIGIN OF DATA
 UWI .       490256012900:   UNIQUE WELL ID
 DICO. A2D Technologies, Inc.:   DIGITIZING COMPANY
~OTHER INFORMATION
~A   DEPT        ROP     TGAS   
# ...
 1112.5000     1.0455     0.6480
 1113.0000     1.0448     0.4904
 1113.5000     1.0442     0.3328
 1114.0000     1.0435     1.7333
 1114.5000     1.0429     1.7163
 1115.0000     1.0422     1.6964
 1115.5000     1.0416     1.6765
 1116.0000     1.0409     1.6566
 1116.5000     1.0403     1.6367
 1117.0000     1.0396     1.6168
 1117.5000     1.0390     1.5969
 1118.0000     1.0383     1.5770
 1118.5000     1.0377     1.5571
 1119.0000     1.0370     1.5372
 1119.5000     1.0364     1.5173
 1120.0000     1.0357     1.4974
 1120.5000     1.0351     1.4775
 1121.0000     1.0344     1.4576
 1121.5000     1.0338     1.4377
 1122.0000     1.0331     1.4178
 1122.5000     1.0325     1.3979
 1123.0000     1.0318     1.3780
 1123.5000     1.0312     1.3581
 1124.0000     1.0305     1.3382
 1124.5000     1.0299     1.3183
 1125.0000     1.0292     1.2984
 1125.5000     1.0286     1.2785
 1126.0000     1.0279     1.2586
 1126.5000     1.0273     1.2387
 1127.0000     1.0266     1.2188
 1127.5000     1.0260     1.1989
 1128.0000     1.0253     1.1790
 1128.5000     1.0247     1.1591
 1129.0000     1.0240     1.1392
 1129.5000     1.0234     1.1193
 1130.0000     1.0228     1.0994
 1130.5000     1.0221     1.0795
 1131.0000     1.0215     1.0596
 1131.5000     1.0208     1.0397
 1132.0000     1.0202     1.0198
 1132.5000     1.0195     0.9999
 1133.0000     1.0189     0.9800
 1133.5000     1.0182     0.9601
 1134.0000     1.0176     0.9402
 1134.5000     1.0169     0.9203
 1135.0000     1.0163     0.9004
 1135.5000     1.0156     0.8805
 1136.0000     1.0150     0.8606
 1136.5000     1.0143     0.8407
 1137.0000     1.0137     0.8207
 1137.5000     1.0130     0.8008
 1138.0000     1.0124    10.0151
 1138.5000     1.0117    43.6757
 1139.0000     1.0111    77.3362
 1139.5000     1.0104    90.0000
 1140.0000     1.0098    90.0000
 1140.5000     1.0091    90.0000
 1141.0000     1.0089    90.0000
 1141.5000     1.0094    90.0000
 1142.0000     0.9285    10.4314
 1142.5000     0.8679    13.3643
 1143.0000     0.8479    13.5756
 1143.5000     0.8484    12.7404
 1144.0000     0.8488    11.2775
 1144.5000     0.8696     9.3958
 1145.0000     0.9310     6.2585
 1145.5000     1.0127     5.2137
 1146.0000     1.0944     4.3786
 1146.5000     1.1761     4.1714
 1147.0000     1.2578     3.5453
 1147.5000     1.3192     2.7108
 1148.0000     1.3399     2.7128
 1148.5000     1.3403     2.5050
 1149.0000     1.3407     2.0885
 1149.5000     1.2800     2.0913
 1150.0000     1.2399     2.5120
 1150.5000     1.0980     2.7233
 1151.0000     1.0170     2.7255
 1151.5000     0.9361     2.7091
 1152.0000     0.8756     2.6868
 1152.5000     1.0184     2.6644
 1153.0000     1.1204     2.6421
 1153.5000     1.2021     2.6198
 1154.0000     1.2025     2.5974
 1154.5000     1.1824     2.5751
 1155.0000     1.1220     2.5528
 1155.5000     1.0817     2.5304
 1156.0000     1.0414     2.5081
 1156.5000     0.9606     2.4858
 1157.0000     0.9406     2.4634
 1157.5000     0.9411     2.4411
 1158.0000     0.9415     2.4188
 1158.5000     1.0029     2.3964
 1159.0000     1.0440     2.3741
 1159.5000     1.1257     2.3517
 1160.0000     1.2074     2.3294
 1160.5000     1.2891     2.3071
 1161.0000     1.3708     2.2847
 1161.5000     1.4525     2.2624
 1162.0000     1.5139     2.2401
 1162.5000     1.4533     2.2177
 1163.0000     1.3318     2.1954
 1163.5000     1.1696     2.1731
 1164.0000     1.0480     2.1507
 1164.5000     1.0484     2.1284
 1165.0000     1.1302     2.1061
 1165.5000     1.2119     2.0837
 1166.0000     1.2346     2.0614
 1166.5000     1.2398     2.0391
 1167.0000     1.2451     2.0167
 1167.5000     1.2503     1.9944
 1168.0000     1.2555     1.9721
 1168.5000     1.2607    58.7562
 1169.0000     1.2659    87.4087
 1169.5000     1.2712    83.8107
 1170.0000     1.2562    92.5489
 1170.5000     1.1955   139.9389
 1171.0000     1.0334   187.3290
 1171.5000     0.9524   234.7190
 1172.0000     0.9529   282.1090
 1172.5000     0.9533   296.4875
 1173.0000     0.9537   295.4645
 1173.5000     1.0151   295.4998
 1174.0000     1.0358   294.4810
 1174.5000     1.0566   294.5100
 1175.0000     1.0570   291.4016
 1175.5000     1.0777   287.2702
 1176.0000     1.0983   286.2493
 1176.5000     1.0379   287.3220
 1177.0000     0.9976   289.4303
 1177.5000     0.8964   291.5406
 1178.0000     0.8154   294.6925
 1178.5000     0.7955   294.7174
 1179.0000     0.8367   294.7444
 1179.5000     0.8980   297.8943
 1180.0000     0.9798   297.9212
 1180.5000     1.0411   295.8586
 1181.0000     1.0618   294.8460
 1181.5000     1.0623   292.7896
 1182.0000     1.1033   289.6916
 1182.5000     1.0833   286.5853
 1183.0000     1.1651   282.4477
 1183.5000     1.2672   279.3517
 1184.0000     1.3082   278.3307
 1184.5000     1.1776   278.3640
 1185.0000     0.9867   275.2617
 1185.5000     0.7959   275.2908
 1186.0000     0.7000   274.2657
 1186.5000     0.6862   274.3010
 1187.0000     0.6972   274.3280
 1187.5000     0.7081   274.3528
 1188.0000     0.7190   274.3798
 1188.5000     0.8647   274.4047
 1189.0000     1.0277   274.4317
 1189.5000     1.1297   271.3295
 1190.0000     1.1248   267.1919
 1190.5000     1.1188   257.8418
 1191.0000     1.1128   237.0292
 1191.5000     1.1069   158.9373
 1192.0000     1.1009   128.7539
 1192.5000     1.0949   121.4850
 1193.0000     1.0889   116.3037
 1193.5000     1.0830   113.1994
 1194.0000     1.0770   112.1826
 1194.5000     1.0710   109.0846
 1195.0000     1.0650   108.0678
 1195.5000     1.0591   104.9719
 1196.0000     1.0531   103.9613
 1196.5000     1.0471   103.9862
 1197.0000     1.0411   104.0152
 1197.5000     1.0346   104.0401
 1198.0000     0.9739   101.9838
 1198.5000     0.9134   100.9587
 1199.0000     0.8934    99.9440
 1199.5000     0.8126    97.8939
 1200.0000     0.7926    91.6708
 1200.5000     0.8338    83.3644
 1201.0000     0.9155    71.9310
 1201.5000     0.9769    59.4559
 1202.0000     0.9163    57.3954
 1202.5000     0.8151    55.3349
 1203.0000     0.7139    55.3680
 1203.5000     0.5923    57.4783
 1204.0000     0.5723    58.5449
 1204.5000     0.6541    58.5719
 1205.0000     0.7358    59.6405
 1205.5000     0.8785    62.7904
 1206.0000     0.9805    62.8174
 1206.5000     0.8629    62.8422
 1207.0000     0.7418    62.8692
 1207.5000     0.6000    63.9358
 1208.0000     0.5196    63.9627
 1208.5000     0.5203    63.9876
 1209.0000     0.5414    66.0979
 1209.5000     0.6031    67.1665
 1210.0000     0.6851    71.3581
 1210.5000     0.7061    73.4684
 1211.0000     0.7678    75.5766
 1211.5000     0.8498    78.7286
 1212.0000     0.8708    79.7952
 1212.5000     0.9325    79.8221
 1213.0000     0.9333    80.8887
 1213.5000     0.9134    84.0406
 1214.0000     0.9347    85.1093
 1214.5000     0.9557    88.2592
 1215.0000     1.0987    89.3278
 1215.5000     1.1807    92.4777
 1216.0000     1.2627    95.6296
 1216.5000     1.2634    96.6962
 1217.0000     1.1826   100.8898
 1217.5000     1.0413   101.9564
 1218.0000     0.9606   105.1063
 1218.5000     0.9614   106.1770
 1219.0000     1.0028   109.3269
 1219.5000     1.0238   110.3955
 1220.0000     1.0855   113.5454
 1220.5000     1.0455   114.6140
 1221.0000     0.8837   117.7639
 1221.5000     0.6404   117.7909
 1222.0000     0.6818   118.8574
 1222.5000     0.7638   120.9677
 1223.0000     0.8865   120.9947
 1223.5000     0.9685   118.9280
 1224.0000     0.9692   118.9632
 1224.5000     0.8886   118.9860
 1225.0000     0.7877   117.9693
 1225.5000     0.6462   117.9962
 1226.0000     0.5452   114.8982
 1226.5000     0.6262   113.8752
 1227.0000     0.6952   110.7792
 1227.5000     0.7642   108.7270
 1228.0000     0.8332   105.6228
 1228.5000     0.9022   102.5268
 1229.0000     0.9711   101.5059
 1229.5000     1.0401    97.3662
 1230.0000     1.0577    94.2661
 1230.5000     1.0537   179.2965
 1231.0000     1.0497   246.4013
 1231.5000     1.0457   101.6366
 1232.0000     1.0415   102.7135
 1232.5000     1.1033   102.7384
 1233.0000     1.1853   105.8903
 1233.5000     1.3079   105.9152
