~VERSION INFORMATION
 VERS.                2.0:   CWLS LOG ASCII STANDARD - VERSION 2.0
 WRAP.                 NO:   ONE LINE PER DEPTH STEP
~WELL INFORMATION
#MNEM.UNIT      DATA TYPE    INFORMATION
#----------   ------------   ------------------------------
 STRT.F           28.0000:   START DEPTH
 STOP.F          791.0000:   STOP DEPTH
 STEP.F            0.5000:   STEP LENGTH
 NULL.          -999.2500:   NO VALUE
 COMP. LAWRENCE/ALLISON INC:   COMPANY
 WELL.    34-61 SX #11-11:   WELL
 FLD .             TEAPOT:   FIELD
 LOC .      S11 T38N R78W:   LOCATION
 CNTY.            NATRONA:   COUNTY
 STAT.            WYOMING:   STATE
 CTRY. UNITED STATES OF AMERICA:   COUNTRY
 SRVC.           Gearhart:   SERVICE COMPANY
 DATE.        29-JUL-1987:   LOGDATE
 API .       490251112500:   API NUMBER
~CURVE INFORMATION
#MNEM.UNIT       API CODE    CURVE DESCRIPTION
#----------   ------------   ------------------------------
 DEPT.F                  :   
 GRR .GAPI   07 310 01 00:   GAMMA RAY FROM RESISTIVITY
 RILD.OHMM   07 120 46 00:   RESISTIVITY INDUCTION LOG DEEP
 RILM.OHMM   07 120 44 00:   RESISTIVITY INDUCTION LOG MEDIUM
 RLL .OHMM   07 220 00 00:   RESISTIVITY LATEROLOG
~PARAMETER INFORMATION
#MNEM.UNIT          VALUE    DESCRIPTION
#----------   ------------   ------------------------------
 PD  .                 GL:   PERMANENT DATUM
 EPD .F              5172:   ELEVATION PERMANENT DATUM
 LMF .                 KB:   LOG MEASURED FROM
 DAPD.F                 7:   FEET ABOVE PERMANENT DATUM
 DMF .                 KB:   DRILLING MEASURED FROM
 EKB .F              5180:   KELLING BUSHING
 EDF .F              5178:   DRILLING FLOOR
 EGL .F              5172:   GROUND LEVEL
 DATE.        29-JUL-1987:   RUN DATE
 RUN .                  1:   RUN NUMBER
 DD  .F               793:   DEPTH DRILLER
 DL  .F               792:   DEPTH LOGGER
 BLI .F               791:   BOTTOM LOG INTERVAL
 TLI .F                30:   TOP LOG INTERVAL
 CS  .IN            8.625:   CASING SIZE
 CBL .F                50:   CASING BOTTOM LOGGER
 BS  .IN            7.875:   BIT SIZE
 BSD .F               793:   BIT SIZE AT DEPTH
 DFT .                MUD:   DRILLING FLUID TYPE
 DFD .                0.5:   DRILLING FLUID DENSITY
 MSS .           FLOWLINE:   MUD SAMPLE SOURCE
 RMS .OHMM           1.92:   RESISTIVITY MUD SAMPLE
 MST .F                71:   MUD SAMPLE TEMPERATURE
 RMF .OHMM            1.4:   RESISTIVITY MUD FILTRATE SAMPLE
 MFST.F                72:   MUD FILTRATE SAMPLE TEMPERATURE
 RMC .OHMM            2.2:   RESISTIVITY MUD CAKE
 MCST.F                72:   MUD CAKE SAMPLE TEMPERATURE
 MFSS.              CHART:   MUD FILTRATE SAMPLE SOURCE
 MCSS.              CHART:   MUD CAKE SAMPLE SOURCE
 TCS .HRS            2200:   TIME CURCULATED STOPPED
 MRT .F                60:   MAXIMUM RECORDED TEMPERATURE
 LUN .               7397:   LOGGING UNIT NUMBER
 LUL .           GILLETTE:   LOGGING UNIT LOCATION
 ENGI.         WEATHERMON:   RECORDING ENGINEER
 WITN.             STRONG:   WITNESSED BY
 CLNT.            A2DTECH:   CLIENT CODE
 ORIG.           5" PRINT:   ORIGIN OF DATA
 UWI .       490251112500:   UNIQUE WELL ID
 DICO. A2D Technologies, Inc.:   DIGITIZING COMPANY
~OTHER INFORMATION
~A   DEPT      GRR       RILD       RILM        RLL   
# ...
  539.0000    96.9419     5.1556     4.9492     6.0950
  539.5000    99.6942     5.1545     4.7125     5.7900
  540.0000   101.5291     5.2641     4.6450     5.4817
  540.5000    98.1651     5.4143     4.7104     5.3272
  541.0000    93.5780     5.5295     4.8449     5.4407
  541.5000    88.9908     5.7277     5.1266     5.8396
  542.0000    86.2385     5.9330     5.4246     6.3123
  542.5000    86.9521     6.1081     6.0751     6.7751
  543.0000    92.9257     6.3817     6.4283     7.2204
  543.5000    97.8593     6.7834     6.7540     7.4796
  544.0000    99.3884     7.0765     7.1008     7.7585
  544.5000    94.1896     7.3822     7.4030     7.9290
  545.0000    90.8257     7.6587     7.7228     8.0247
  545.5000    89.2966     7.9633     7.9433     8.0226
  546.0000    89.9083     8.2678     8.0555     8.0784
  546.5000    91.4861     8.3205     8.0534     8.0764
  547.0000    88.6769     8.3184     8.1094     8.1326
  547.5000    88.0734     8.3167     8.1073     8.1888
  548.0000    90.2141     8.2562     8.1634     8.2450
  548.5000    91.7431     8.1944     8.1616     8.3020
  549.0000    90.8257     8.1933     8.2254     8.3594
  549.5000    88.9908     8.1997     8.2748     8.4171
  550.0000    87.6719     8.4266     8.2902     8.4829
  550.5000    87.1586     8.3657     8.3905     8.4140
  551.0000    89.3029     8.2468     8.3305     8.2357
  551.5000    92.0581     8.1875     8.3299     8.1761
  552.0000    95.1199     8.1864     8.3294     8.2335
  552.5000    95.4279     8.3018     8.3881     8.3497
  553.0000    93.2908     8.4192     8.6287     8.4680
  553.5000    90.8472     8.4782     8.8136     8.6489
  554.0000    88.6972     8.5370     9.0665     8.8335
  554.5000    84.7376     8.3561     9.1955     9.0866
  555.0000    81.9882     7.7285     9.1947     9.3470
  555.5000    79.5446     6.8506     8.5041     9.4796
  556.0000    79.1968     6.3362     7.3793     9.3392
  556.5000    82.0549     6.0716     6.5409     8.3401
  557.0000    86.5877     5.9430     5.6356     7.3391
  557.5000    91.7894     5.9002     4.9250     6.5042
  558.0000    97.9085     5.8994     4.5551     5.8884
  558.5000   101.5811     5.8986     4.6199     5.9730
  559.0000    97.4002     6.0674     5.1745     6.6413
  559.5000    89.3552     6.6516     5.8785     7.4917
  560.0000    85.6884     7.2409     6.6783     8.6329
  560.5000    84.7732     7.8267     7.8605     9.3989
  561.0000    84.7768     8.6416     8.5580     9.9465
  561.5000    82.9456     9.3421     9.2516    10.1591
  562.0000    81.1136     9.8839     9.7217    10.2301
  562.5000    79.5875    10.0239     9.9300    10.3746
  563.0000    79.2838    10.1652     9.9292    10.3732
  563.5000    79.2875    10.2365     9.9992    10.4456
  564.0000    80.8201    10.3827    10.0698    10.4439
  564.5000    83.8811    10.6774    10.2129    10.4424
  565.0000    85.4131    10.9053    10.5058    10.4410
  565.5000    84.1928    11.2970    11.0395    10.4396
  566.0000    82.9398    11.7860    11.6004    10.6628
  566.5000    79.6122    12.3038    12.2766    11.0711
  567.0000    75.6395    13.1967    12.9005    12.3724
  567.5000    71.0553    14.3658    13.9459    13.8580
  568.0000    66.1652    15.8616    15.5096    15.5221
  568.5000    61.4547    17.5132    17.2489    17.3859
  569.0000    56.3858    19.3701    18.9131    18.9855
  569.5000    53.0248    21.8082    20.4458    20.6075
  570.0000    50.2754    22.2744    21.9467    21.6540
  570.5000    49.3609    21.3438    22.1013    22.2744
  571.0000    51.3862    20.4527    21.3297    22.9126
  571.5000    57.6243    20.1622    20.7319    23.4228
  572.0000    57.9323    20.4465    20.4386    23.7336
  572.5000    55.7953    20.8829    20.7291    23.8994
  573.0000    55.4903    21.0293    21.1730    23.8954
  573.5000    57.9425    21.1753    21.4739    23.5555
  574.0000    59.4744    21.0228    21.3207    22.5535
  574.5000    60.3948    20.7236    21.0191    21.0210
  575.0000    61.0093    20.4293    20.7218    19.4400
  575.5000    61.9297    19.7156    20.2839    18.2349
  576.0000    61.9333    19.1621    19.7154    17.4724
  576.5000    60.7129    18.4927    19.1628    17.0912
  577.0000    59.7977    17.9730    18.6257    16.7391
  577.5000    59.1896    17.7177    18.2325    16.5010
  578.0000    58.8868    17.5903    17.8472    16.6162
  578.5000    58.5839    17.4637    17.5947    16.6140
  579.0000    58.8933    17.4770    17.7187    16.6117
  579.5000    59.2020    17.7076    17.7175    16.6089
  580.0000    59.5107    17.8311    17.9694    16.7255
  580.5000    60.1692    17.9560    18.3541    16.7227
  581.0000    61.0463    18.2092    18.4838    17.0802
  581.5000    61.6609    18.4666    18.7462    17.4523
  582.0000    61.0522    18.7276    19.0126    17.9451
  582.5000    59.2202    18.9916    19.2829    18.4586
  583.0000    58.6115    19.1247    19.5569    19.1227
  583.5000    58.6151    19.3944    19.8349    19.8106
  584.0000    56.7832    19.6678    20.1168    20.3782
  584.5000    54.0338    19.9458    20.4027    20.6667
  585.0000    53.7309    20.0856    20.6924    19.9429
  585.5000    54.9577    20.3695    20.9861    18.8398
  586.0000    57.7129    20.6567    20.9847    17.9245
  586.5000    60.7739    20.8007    20.9833    17.4176
  587.0000    64.1408    20.7972    20.9819    17.1721
  587.5000    65.3669    20.6476    20.9805    17.4158
  588.0000    62.0066    20.4991    20.8305    17.7875
  588.5000    59.5631    20.3516    20.6819    18.0399
  589.0000    58.6478    20.0619    20.3893    18.0360
  589.5000    61.0979    19.9176    20.2439    17.5292
  590.0000    64.2407    19.6347    19.9575    17.4029
  590.5000    65.3851    19.0835    19.3978    17.0340
  591.0000    63.5538    18.5469    18.9883    16.7917
  591.5000    62.9444    18.1546    18.4560    16.4358
  592.0000    62.9480    17.8968    18.0664    15.9732
  592.5000    63.8691    17.5181    17.8108    15.7459
  593.0000    64.1778    17.2693    17.4345    15.5220
  593.5000    64.4865    17.0240    17.3101    15.3012
  594.0000    65.4069    16.9009    17.1867    15.1909
  594.5000    66.6403    16.8987    17.0641    15.0810
  595.0000    66.0250    16.7777    16.9424    15.0789
  595.5000    64.8040    16.8947    16.9410    15.0769
  596.0000    65.4192    16.8918    16.9398    15.1822
  596.5000    66.9512    17.1306    17.0595    15.2883
  597.0000    67.8939    17.2501    17.3017    15.3950
  597.5000    66.6519    17.2471    17.4236    15.3924
  598.0000    64.5141    17.2448    17.4221    15.3903
  598.5000    62.0706    17.3651    17.5452    15.3883
  599.0000    61.1554    17.4856    17.6686    15.3862
  599.5000    61.1591    17.6081    17.6674    15.3840
  600.0000    61.4679    17.6053    17.7919    15.3772
  600.5000    61.7768    17.7269    17.8936    15.3167
  601.0000    62.0862    17.7223    18.0410    15.2687
  601.5000    63.0066    17.7186    18.0379    15.2666
  602.0000    64.2328    17.7150    18.0354    15.2644
  602.5000    65.7648    17.7113    17.9055    15.2618
  603.0000    67.2969    17.5826    17.9030    15.1518
  603.5000    68.8289    17.4549    17.6485    15.0426
  604.0000    69.4435    17.2057    17.3976    14.9342
  604.5000    69.1345    16.9601    17.1503    14.8265
  605.0000    67.5333    16.7180    16.9064    14.8245
  605.5000    64.5602    16.4793    16.6656    14.6136
  606.0000    63.3392    16.3588    16.4286    14.4057
  606.5000    66.4010    16.1253    16.1951    14.2964
  607.0000    70.0737    16.0082    15.9648    14.0983
  607.5000    73.7464    15.7797    15.7379    13.8973
  608.0000    74.0544    15.5544    15.5141    13.6995
  608.5000    69.4710    15.2242    15.2936    13.6008
  609.0000    67.6149    15.0069    15.0761    13.5028
  609.5000    66.4188    14.7926    14.9671    13.4054
  610.0000    66.4226    14.8947    15.0720    13.4036
  610.5000    66.7313    14.9975    15.0694    13.4972
  611.0000    67.0401    15.1010    15.2825    13.5927
  611.5000    67.9605    15.2053    15.3892    13.8819
