~VERSION INFORMATION
 VERS.                2.0:   CWLS LOG ASCII STANDARD - VERSION 2.0
 WRAP.                 NO:   ONE LINE PER DEPTH STEP
~WELL INFORMATION
#MNEM.UNIT      DATA TYPE    INFORMATION
#----------   ------------   ------------------------------
 STRT.F          131.0000:   START DEPTH
 STOP.F         1085.0000:   STOP DEPTH
 STEP.F            0.5000:   STEP LENGTH
 NULL.          -999.2500:   NO VALUE
 COMP. U S NAVY-INTEX OIL:   COMPANY
 WELL.     UPR #3 #66-S-2:   WELL
 FLD .             TEAPOT:   FIELD
 LOC .       S2 T38N R78W:   LOCATION
 CNTY.            NATRONA:   COUNTY
 STAT.            WYOMING:   STATE
 CTRY. UNITED STATES OF AMERICA:   COUNTRY
 SRVC.       Schlumberger:   SERVICE COMPANY
 DATE.        18-JUL-1964:   LOGDATE
 API .       490250641300:   API NUMBER
~CURVE INFORMATION
#MNEM.UNIT       API CODE    CURVE DESCRIPTION
#----------   ------------   ------------------------------
 DEPT.F                  :   
 ASN .OHMM   05 041 16 00:   AMPLIFIED SHORT NORMAL 16"
 CILD.MMHO   05 110 46 00:   CONDUCTIVITY INDUCTION LOG DEEP
 ILD .OHMM   05 120 46 00:   INDUCTION LOG DEEP
 SPR .MV     05 010 01 00:   SPONTANEOUS POTENTIAL FROM RES.
 GR  .GAPI   30 310 01 00:   GAMMA RAY
 CALS.IN     60 280 50 00:   CALIPER FROM SONIC LOG
 DT  .US/F   60 520 33 00:   INTERVAL TRANSIT TIME
~PARAMETER INFORMATION
#MNEM.UNIT          VALUE    DESCRIPTION
#----------   ------------   ------------------------------
 PD  .                 GL:   PERMANENT DATUM
 EPD .F              5204:   ELEVATION PERMANENT DATUM
 LMF .                 KB:   LOG MEASURED FROM
 DAPD.F                 5:   FEET ABOVE PERMANENT DATUM
 DMF .                 KB:   DRILLING MEASURED FROM
 EKB .F              5209:   KELLING BUSHING
 EGL .F              5204:   GROUND LEVEL
 DATE.          7-18-1964:   RUN DATE
 RUN .                  1:   RUN NUMBER
 DD  .F              1085:   DEPTH DRILLER
 DL  .F              1086:   DEPTH LOGGER
 BLI .F              1085:   BOTTOM LOG INTERVAL
 TLI .F               131:   TOP LOG INTERVAL
 CS  .IN            8.625:   CASING SIZE
 CBD .F                10:   CASING BOTTOM DRILLER
 BS  .IN             6.75:   BIT SIZE
 BSD .F              5204:   BIT SIZE AT DEPTH
 DFT .                GEL:   DRILLING FLUID TYPE
 DFD .                9.5:   DRILLING FLUID DENSITY
 DFV .                 47:   DRILLING FLUID VISCOSITY
 DFL .                 10:   DRILLING FLUID LOSS
 MSS .           FLOWLINE:   MUD SAMPLE SOURCE
 RMS .OHMM           2.58:   RESISTIVITY MUD SAMPLE
 MST .F                93:   MUD SAMPLE TEMPERATURE
 RMF .OHMM           2.27:   RESISTIVITY MUD FILTRATE SAMPLE
 MFST.F                93:   MUD FILTRATE SAMPLE TEMPERATURE
 MFSS.                 FP:   MUD FILTRATE SAMPLE SOURCE
 TCS .HRS             1.5:   TIME CURCULATED STOPPED
 LUN .               3527:   LOGGING UNIT NUMBER
 LUL .              CSPR.:   LOGGING UNIT LOCATION
 ENGI.            WINKLER:   RECORDING ENGINEER
 WITN.          JORGENSEN:   WITNESSED BY
 CLNT.            A2DTECH:   CLIENT CODE
 ORIG.    1" , 2.5" PRINT:   ORIGIN OF DATA
 UWI .       490250641300:   UNIQUE WELL ID
 DICO. A2D Technologies, Inc.:   DIGITIZING COMPANY
~OTHER INFORMATION
~A   DEPT      ASN       CILD        ILD        SPR         GR       CALS         DT   
# ...
  540.5000    17.2685    52.8023    16.9077   -47.2009    56.5884     6.4062    94.2212
  541.0000    17.5439    51.2809    17.0595   -47.2262    57.8124     6.5301    94.4404
  541.5000    17.5444    51.2522    17.2113   -47.8933    58.5819     6.6081    95.7881
  542.0000    17.5448    51.2234    17.2143   -49.1290    57.0707     6.7012    99.5438
  542.5000    17.5453    51.1940    17.3666   -49.9703    56.9390     6.7335   101.0420
  543.0000    17.4646    51.1642    17.2202   -50.5873    57.5599     6.7506   102.1701
  543.5000    17.2495    52.6296    17.2235   -51.2043    58.1779     6.7070   103.1535
  544.0000    17.2499    52.9951    17.2263   -51.5238    55.4625     6.6784   104.1808
  544.5000    17.1019    54.5697    17.0804   -51.6533    54.7168     6.6348   104.4016
  545.0000    16.9540    55.5224    17.0759   -51.6516    55.4862     6.6216   104.2428
  545.5000    16.9545    55.4925    16.9373   -51.6502    56.8618     6.6236   104.1609
  546.0000    16.8065    55.4627    16.9405   -51.6487    54.9039     6.6563   104.3065
  546.5000    16.8070    56.9202    16.9435   -51.3497    52.1886     6.6582   104.4503
  547.0000    16.6590    58.3840    16.9464   -51.0417    51.7459     6.6602   104.4421
  547.5000    16.6595    58.3552    16.9494   -50.4216    49.6366     6.6469   103.9840
  548.0000    16.6599    58.3264    17.0298   -49.8016    48.7394     6.6331   103.3754
  548.5000    16.6604    56.8051    17.1047   -49.1816    48.4482     6.6199   102.9925
  549.0000    16.8092    56.7515    17.2564   -48.9613    48.6909     6.6066   103.0612
  549.5000    16.6612    55.2537    17.2593   -49.0853    52.8689     6.6090   103.1298
  550.0000    16.8101    55.2239    17.2621   -50.0000    59.5474     6.5804   103.1215
  550.5000    16.9589    55.1940    17.1162   -50.6170    62.8927     6.5828   103.4193
  551.0000    16.9593    56.6613    16.9702   -51.0387    64.2835     6.5691   103.4894
  551.5000    16.7264    58.1250    16.6654   -50.4418    74.2457     6.5715   104.0096
  552.0000    16.2185    60.9748    16.3373   -50.1427    78.0848     6.5583   108.4439
  552.5000    15.6254    65.6468    15.6548   -49.5461    81.4266     6.5602   105.4952
  553.0000    13.6971    71.4572    14.7182   -49.5446    82.6507     6.5318   102.9898
  553.5000    11.9171    77.3986    13.3706   -48.3383    82.6627     6.4577   102.4086
  554.0000    10.4338    84.8325    11.6547   -46.9723    82.6747     6.2165   102.8538
  554.5000     9.8408    96.7440    10.3405   -43.8170    82.6867     5.9905   103.6010
  555.0000     9.6929   119.1033     8.8101   -40.1884    77.5471     5.9164   103.3701
  555.5000     9.3736   131.0148     7.9201   -38.0125    74.8319     5.9492   102.9887
  556.0000     8.6224   141.8306     7.1789   -37.3690    75.4499     5.9811   103.6608
  556.5000     8.0032   152.4849     6.7353   -37.0342    76.3680     5.9527   103.5051
  557.0000     7.5665   160.2535     6.2918   -36.9127    71.8345     5.9242   103.4260
  557.5000     7.1827   167.5869     6.1458   -36.7334    74.7283     5.9110   104.1719
  558.0000     6.9360   171.7113     6.1359   -36.4343    74.4373     6.0046   104.8440
  558.5000     6.8474   174.1194     6.0027   -36.4329    72.7826     6.1433   104.8498
  559.0000     6.8775   174.0896     6.1548   -36.4315    72.7946     6.1908   104.4574
  559.5000     6.9373   172.5613     6.1577   -36.4300    72.5036     6.1928   103.9255
  560.0000     6.9970   171.0400     6.3095   -37.0634    71.6065     6.2099   103.2330
  560.5000     7.0276   168.0261     6.3125   -37.6177    71.1639     6.2423   102.6153
  561.0000     7.1166   167.9974     6.3983   -37.2520    66.1759     6.1986   102.1781
  561.5000     7.1519   166.4760     6.6166   -37.0193    63.3091     6.1398   102.0976
  562.0000     7.1397   166.4473     6.6195   -36.6071    61.6364     6.1417   103.0706
  562.5000     7.0388   166.4179     6.6223   -36.2847    60.7573     6.2196   103.7427
  563.0000     6.8862   166.3880     6.7740   -35.8244    61.2435     6.3584   104.1137
  563.5000     6.7928   167.8535     6.7769   -35.5250    61.1849     6.5916   104.4848
  564.0000     6.7165   167.8209     6.7798   -35.2260    60.0357     6.7726   105.3073
  564.5000     6.7043   167.7910     6.7827   -35.2245    62.1719     6.7264   105.3786
  565.0000     6.8235   167.7612     6.7857   -35.2231    62.3324     6.5946   104.6950
  565.5000     6.9129   166.9975     6.8276   -35.2217    61.7384     6.4902   104.0878
  566.0000     7.0321   165.3631     6.9405   -34.9226    65.5412     6.5073   103.6312
  566.5000     7.1215   163.1889     6.9435   -34.9211    64.1896     6.5700   103.3250
  567.0000     7.1829   160.1750     6.9464   -34.9196    62.8379     6.6784   103.2446
  567.5000     7.2411   157.1612     6.9494   -35.2160    69.0620     6.7411   103.6331
  568.0000     7.2415   157.1324     6.9529   -35.6071    69.9831     6.6367   104.2124
  568.5000     7.2036   158.5970     6.9557   -35.9266    70.1466     6.4106   104.0555
  569.0000     7.1423   161.6021     6.9586   -35.8065    73.3404     6.0934   104.1268
  569.5000     7.0811   164.6443     6.8125   -35.8051    74.5616     5.8826   104.4966
  570.0000     7.0198   167.4651     6.6667   -35.2081    70.0311     6.2037   105.0934
  570.5000     6.9470   169.2860     6.6696   -35.2066    72.7704     6.4488   105.0882
  571.0000     6.8882   170.3926     6.6726   -34.9076    73.8430     6.6483   105.0830
  571.5000     6.8292   171.8564     6.6756   -34.9062    73.2489     6.8040   105.5293
  572.0000     6.7407   172.5175     6.6786   -35.2023    76.4427     6.8024   106.0508
  572.5000     6.6818   173.2836     6.6815   -35.4985    76.1517     6.7095   106.1964
  573.0000     6.6525   171.7557     6.6845   -35.7947    75.5565     6.5958   105.5138
  573.5000     6.7475   170.2344     6.6875   -36.0909    76.4843     6.5826   104.2294
  574.0000     6.9011   170.2056     6.6911   -36.3871    80.2000     6.5845   103.1649
  574.5000     7.0250   168.6843     6.6939   -36.6833    83.3773     6.5708   102.4738
  575.0000     7.1489   168.6555     6.6968   -36.9792    83.7874     6.4972   102.0316
  575.5000     7.2185   165.6417     6.8485   -36.8304    72.8933     6.4683   102.2511
  576.0000     7.1893   160.9355     7.0001   -36.5079    73.5113     6.4707   103.2993
  576.5000     7.1898   154.9230     7.0030   -35.7840    72.1597     6.4878   104.4981
  577.0000     7.1903   152.1194     7.1642   -35.4849    70.1990     6.5202   104.7199
  577.5000     7.3094   152.0896     7.3065   -34.8883    71.1231     6.5525   103.2838
  578.0000     7.4285   152.0597     7.4911   -34.5892    71.4351     6.5714   102.1500
  578.5000     7.5476   152.0298     7.6101   -34.8854    69.9349     6.5260   101.0914
  579.0000     7.6964   150.4576     7.6131   -35.1945    67.2196     6.4368   100.4090
  579.5000     7.6953   144.5016     7.6161   -35.7754    68.2922     6.3585   100.1794
  580.0000     7.6676   141.4877     7.7679   -35.7738    69.3648     6.0770   100.9253
  580.5000     7.7104   139.9664     7.7714   -35.7723    69.0738     5.6224   101.5222
  581.0000     7.8430   139.9377     7.7743   -35.7708    64.5403     5.3356   101.2155
  581.5000     8.0250   141.4014     7.7771   -36.0670    63.1887     5.3219   100.9850
  582.0000     7.8799   144.3577     7.6310   -36.3631    62.4431     5.8562   101.2164
  582.5000     7.7569   145.8829     7.4852   -36.3613    62.1515     5.7214   101.7258
  583.0000     7.6111   147.4575     7.3388   -36.6575    61.2550     5.1762   101.6454
  583.5000     7.4928   148.7490     7.1813   -36.3585    62.4791     5.0262   101.4911
  584.0000     7.3745   150.2128     7.0474   -36.3570    62.7941     4.9673   101.7856
  584.5000     7.2563   151.6766     6.9014   -36.0580    64.3212     4.9693   102.2319
  585.0000     7.1677   153.7562     6.9519   -36.0565    64.8133     5.1384   102.6029
  585.5000     7.1384   154.5970     7.0565   -35.7574    66.3149     5.4747   102.8248
