~VERSION INFORMATION
 VERS.                2.0:   CWLS LOG ASCII STANDARD - VERSION 2.0
 WRAP.                 NO:   ONE LINE PER DEPTH STEP
~WELL INFORMATION
#MNEM.UNIT      DATA TYPE    INFORMATION
#----------   ------------   ------------------------------
 STRT.F           29.0000:   START DEPTH
 STOP.F          462.0000:   STOP DEPTH
 STEP.F            0.5000:   STEP LENGTH
 NULL.          -999.2500:   NO VALUE
 COMP.    FENIX & SCISSON:   COMPANY
 WELL.      NPR #71-SX-10:   WELL
 FLD .             TEAPOT:   FIELD
 LOC .      S10 T38N R78W:   LOCATION
 CNTY.            NATRONA:   COUNTY
 STAT.            WYOMING:   STATE
 CTRY. UNITED STATES OF AMERICA:   COUNTRY
 SRVC.              Welex:   SERVICE COMPANY
 DATE.        01-APR-1977:   LOGDATE
 API .       490251032300:   API NUMBER
~CURVE INFORMATION
#MNEM.UNIT       API CODE    CURVE DESCRIPTION
#----------   ------------   ------------------------------
 DEPT.F                  :   
 SPR .MV     07 010 01 00:   SPONTANEOUS POTENTIAL
 ILD .OHMM   07 120 46 00:   INDUCTION LOG DEEP
 ILM .OHMM   07 120 44 00:   INDUCTION LOG MEDIUM
 SGRD.OHMM   07 221 05 00:   SHALLOW SHORT GUARD RESISTIVITY
 CALD.IN     45 280 60 00:   CALIPER FROM DENSITY LOG
 GRD .GAPI   45 310 01 00:   GAMMA RAY FROM DENSITY LOG
 CORR.G/C3   45 356 01 00:   DENSITY CORRECTION
 RHOB.G/C3   45 350 01 00:   BULK DENSITY
 DPHI.DEC    45 890 12 00:   DENSITY POROSITY SANDSTONE
~PARAMETER INFORMATION
#MNEM.UNIT          VALUE    DESCRIPTION
#----------   ------------   ------------------------------
 PD  .                 GL:   PERMANENT DATUM
 EPD .F              5157:   ELEVATION PERMANENT DATUM
 LMF .                 GL:   LOG MEASURED FROM
 DMF .                 GL:   DRILLING MEASURED FROM
 EGL .F              5157:   GROUND LEVEL
 DATE.        01-APR-1977:   RUN DATE
 RUN .                  1:   RUN NUMBER
 DD  .F               475:   DEPTH DRILLER
 DL  .F               466:   DEPTH LOGGER
 BLI .F               463:   BOTTOM LOG INTERVAL
 TLI .F                30:   TOP LOG INTERVAL
 CS  .IN            8.625:   CASING SIZE
 BS  .IN            7.875:   BIT SIZE
 BSD .F               475:   BIT SIZE AT DEPTH
 DFT .                KCL:   DRILLING FLUID TYPE
 DFD .                8.5:   DRILLING FLUID DENSITY
 TCS .HRS               3:   TIME CURCULATED STOPPED
 MRT .F                67:   MAXIMUM RECORDED TEMPERATURE
 ENGI.            C. DOAK:   RECORDING ENGINEER
 WITN.   R. B. HARRINGTON:   WITNESSED BY
 CLNT.            A2DTECH:   CLIENT CODE
 ORIG.           5" PRINT:   ORIGIN OF DATA
 UWI .       490251032300:   UNIQUE WELL ID
 DICO. A2D Technologies, Inc.:   DIGITIZING COMPANY
~OTHER INFORMATION
~A   DEPT      SPR        ILD        ILM       SGRD         CALD      GRD       CORR       RHOB       DPHI   
# ...
  102.0000   -32.5777     9.6649    11.4943    13.7959     8.4830    96.7896     0.0089     2.4968     0.1040
  102.5000   -32.4400    10.0121    11.6634    14.5908     8.4846    96.6538     0.0106     2.4991     0.0958
  103.0000   -32.3655    10.2292    11.9998    15.4316     8.4708    96.3777     0.0153     2.4984     0.0931
  103.5000   -32.2393    10.3789    12.3460    14.6090     8.4725    95.2016     0.0200     2.4954     0.0955
  104.0000   -32.2245    10.5308    12.7904    14.5150     8.4586    92.9807     0.0247     2.4962     0.0940
  104.5000   -32.2097    10.7591    14.2001    19.1626     8.4603    95.5359     0.0263     2.4978     0.0916
  105.0000   -32.1949    10.8413    14.6070    17.2827     8.4616    99.1360     0.0249     2.4978     0.0948
  105.5000   -32.0317    10.9241    13.5493    16.9379     8.4630   103.1837     0.0221     2.4971     0.1032
  106.0000   -32.0169    11.0076    13.0985    15.3824     8.4643   105.2912     0.0192     2.4919     0.1065
  106.5000   -32.0021    11.0917    12.7506    15.0732     8.4656   105.9062     0.0148     2.4762     0.1128
  107.0000   -31.9872    11.0228    12.4119    15.4016     8.4670   105.6211     0.0105     2.4658     0.1143
  107.5000   -31.9724    10.8788    12.0822    15.4112     8.4683   105.0465     0.0061     2.4658     0.1142
  108.0000   -32.1060    10.6626    11.7084    14.8936     8.4696   103.2734     0.0017     2.4681     0.1175
  108.5000   -32.0912    10.4508    11.1839    15.0088     8.4710   101.2018    -0.0027     2.4561     0.1178
  109.0000   -32.2284    10.1725    10.9101    15.6553     8.4723   100.7719    -0.0056     2.4509     0.1196
  109.5000   -32.3620     9.6982    10.6246    14.9238     8.4736   100.3421    -0.0070     2.4390     0.1226
  110.0000   -32.3435     9.4397    10.4866    15.3525     8.4750    99.6137    -0.0068     2.4090     0.1339
  110.5000   -32.3287     9.4465    10.4947    14.7368     8.4763    97.2436    -0.0066     2.4241     0.1333
  111.0000   -32.4629     9.5186    10.5027    14.4406     8.4776    96.2123    -0.0050     2.4263     0.1306
  111.5000   -32.4474     9.5913    10.5837    14.2530     8.4790    99.8168    -0.0048     2.4166     0.1342
  112.0000   -32.4326     9.3359    10.5976    14.1613     8.4803   103.2675    -0.0047     2.4227     0.1312
  112.5000   -32.4178     9.0873    10.6734    15.1885     8.4816   104.7780    -0.0045     2.4422     0.1251
  113.0000   -32.4030     8.8454    10.7622    15.4075     8.4830   103.9004    -0.0089     2.4348     0.1254
  113.5000   -32.5365     8.6098    10.9139    13.9947     8.4843   101.8288    -0.0103     2.4326     0.1284
  114.0000   -32.6701     8.4388    10.9980    14.8012     8.4856    96.4735    -0.0101     2.4349     0.1278
  114.5000   -32.8042     8.4446    11.0064    15.2263     8.4870    95.8945    -0.0085     2.4379     0.1268
  115.0000   -32.9372     8.5096    11.0148    15.2358     8.4883    94.5691    -0.0083     2.4455     0.1241
  115.5000   -32.9224     8.5741    10.9470    15.3513     8.4896    93.0945    -0.0082     2.4545     0.1202
  116.0000   -33.0564     8.5208    10.9555    17.5209     8.4910    94.6050    -0.0050     2.4508     0.1184
  116.5000   -33.1899     8.5267    10.7384    15.3704     8.4923    97.7572    -0.0033     2.4359     0.1229
  117.0000   -33.3234     8.5326    10.5908    14.2497     8.4936    99.4169    -0.0032     2.4224     0.1303
  117.5000   -33.3082     8.5385    10.4529    14.1623     8.4950   102.2707    -0.0015     2.4247     0.1333
  118.0000   -33.4421     8.5444    10.1833    13.5006     8.4963   102.8811     0.0017     2.4352     0.1279
  118.5000   -33.5753     8.5503     9.9734    12.7809     8.4976   102.4513     0.0049     2.4383     0.1255
  119.0000   -33.5605     8.3778     9.7757    13.3315     8.4990   102.9215     0.0080     2.4406     0.1243
  119.5000   -33.5457     8.3896     9.6569    13.5258     8.5003   103.5364     0.0112     2.4459     0.1224
  120.0000   -33.6795     8.6956     9.5976    13.7230     8.4868   102.0618     0.0114     2.4482     0.1212
  120.5000   -33.6645     9.1250     9.6051    13.6367     8.4881   100.4379     0.0085     2.4400     0.1218
  121.0000   -33.6497     9.1313     9.6124    13.3647     8.4743    99.4111     0.0056     2.4310     0.1254
  121.5000   -33.4865     9.1375     9.6865    13.0980     8.4759    98.9812    -0.0003     2.4205     0.1341
  122.0000   -33.4717     9.0117     9.7612    12.6601     8.4621    98.8454    -0.0092     2.4101     0.1391
  122.5000   -33.4569     8.9003     9.8468    12.6680     8.4639    98.4201    -0.0166     2.4026     0.1430
  123.0000   -33.5905     8.7766     9.9918    12.7640     8.4651    97.8365    -0.0210     2.3997     0.1487
  123.5000   -33.7240     8.6693    10.1390    12.6818     8.4513    98.1574    -0.0209     2.4012     0.1502
  124.0000   -33.7091     8.6155    10.2769    13.2301     8.4529    98.0261    -0.0192     2.4035     0.1481
  124.5000   -33.8427     8.6214    10.2848    13.6081     8.4543    97.5963    -0.0160     2.4081     0.1456
  125.0000   -33.8279     8.5679    10.2926    13.2466     8.4556    96.8679    -0.0144     2.4119     0.1429
  125.5000   -33.8131     8.5147    10.2291    12.6277     8.4569    96.1396    -0.0112     2.4149     0.1408
  126.0000   -33.7982     8.5208    10.2372    12.3738     8.4583    96.7545    -0.0095     2.4180     0.1393
  126.5000   -33.7834     8.5152    10.2450    12.2960     8.4596   100.9515    -0.0063     2.4120     0.1383
  127.0000   -33.7685     8.4735    10.2528    12.3056     8.4458   105.1486    -0.0062     2.4143     0.1365
  127.5000   -33.7538     8.4808    10.1838    12.3133     8.4619   106.8083    -0.0045     2.4248     0.1344
  128.0000   -33.8874     8.5456    10.0571    13.2044     8.4484   104.5874    -0.0029     2.4309     0.1317
  128.5000   -34.0277     8.5515    10.0651    12.2435     8.4501   101.7650    -0.0012     2.4377     0.1272
  129.0000   -34.1545     8.5574    10.0728    12.0808     8.4514   103.2755     0.0005     2.4445     0.1238
  129.5000   -34.2881     8.5042    10.0804    12.6907     8.4676   102.1039     0.0021     2.4498     0.1205
  130.0000   -34.4313     8.4514    10.0896    12.8737     8.4689   101.0770     0.0038     2.4543     0.1190
  130.5000   -34.7035     8.3975    10.0258    12.4433     8.4703    99.9009     0.0024     2.4551     0.1193
  131.0000   -34.8487     8.2878    10.0353    14.2020     8.4716    98.4263     0.0011     2.4484     0.1202
  131.5000   -35.4412     8.2363    10.0430    12.4607     8.4729    97.1009    -0.0018     2.4372     0.1225
  132.0000   -36.1563     8.1301     9.9125    11.9592     8.4743   100.7010    -0.0077     2.4320     0.1264
  132.5000   -36.4247     8.0782     9.6492    11.8859     8.4756   103.4054    -0.0106     2.4425     0.1267
  133.0000   -36.5583     7.9741     9.3929    11.4885     8.4769   103.8667    -0.0120     2.4561     0.1228
  133.5000   -36.6918     7.8157     9.2069    10.6525     8.4783   102.9935    -0.0118     2.4666     0.1164
  134.0000   -36.8254     7.6075     9.0246    10.0831     8.4796   100.7727    -0.0116     2.4644     0.1152
  134.5000   -36.8093     7.4551     9.0315    10.8896     8.4809    96.4622    -0.0115     2.4300     0.1293
  135.0000   -36.7952     7.4088     9.0384    11.3587     8.4823    98.8682    -0.0098     2.4195     0.1323
  135.5000   -36.7596     7.4152     9.0452    11.4448     8.4836   101.5727    -0.0082     2.4158     0.1341
  136.0000   -36.6172     7.4203     9.0521    11.5315     8.4849   107.7100    -0.0080     2.4234     0.1322
  136.5000   -36.4540     7.4254     8.6307    11.3014     8.4863   111.4593    -0.0109     2.4354     0.1268
  137.0000   -36.4154     7.4822     8.2860    11.1526     8.4876   114.0145    -0.0138     2.4437     0.1220
  137.5000   -36.2760     7.4873     8.2923    10.9301     8.4889   116.4205    -0.0166     2.4557     0.1187
  138.0000   -36.2611     7.5445     8.4142    10.9009     8.4903   116.7325    -0.0133     2.4678     0.1124
