~VERSION INFORMATION
 VERS.                2.0:   CWLS LOG ASCII STANDARD - VERSION 2.0
 WRAP.                 NO:   ONE LINE PER DEPTH STEP
~WELL INFORMATION
#MNEM.UNIT      DATA TYPE    INFORMATION
#----------   ------------   ------------------------------
 STRT.F          520.5000:   START DEPTH
 STOP.F         2062.0000:   STOP DEPTH
 STEP.F            0.5000:   STEP LENGTH
 NULL.          -999.2500:   NO VALUE
 COMP. LAWRENCE-ALLISON &AS:   COMPANY
 WELL.     NPR 3 #18-X-28:   WELL
 FLD .             TEAPOT:   FIELD
 LOC .      S28 T39N R78W:   LOCATION
 CNTY.            NATRONA:   COUNTY
 STAT.            WYOMING:   STATE
 CTRY. UNITED STATES OF AMERICA:   COUNTRY
 SRVC.            Unknown:   SERVICE COMPANY
 DATE.        08-DEC-1987:   LOGDATE
 API .       490251119700:   API NUMBER
~CURVE INFORMATION
#MNEM.UNIT       API CODE    CURVE DESCRIPTION
#----------   ------------   ------------------------------
 DEPT.F                  :   
 ROP .MIN/FT 91 810 01 00:   RAT OF DRILLING PENETRATION
 TGAS.UNITS  91 830 01 00:   TOTAL GAS FROM HOTWIRE
~PARAMETER INFORMATION
#MNEM.UNIT          VALUE    DESCRIPTION
#----------   ------------   ------------------------------
 EKB .F              5090:   KELLING BUSHING
 EGL .F              5080:   GROUND LEVEL
 DATE.            12-8-87:   RUN DATE
 DD  .F              2062:   DEPTH DRILLER
 CS  .IN                7:   CASING SIZE
 CBD .F               513:   CASING BOTTOM DRILLER
 TCS .HRS            1000:   TIME CURCULATED STOPPED
 TLAB.HRS            0432:   TIME LOGGER AT BOTTOM
 ENGI.              TOWER:   RECORDING ENGINEER
 WITN.               HUSK:   WITNESSED BY
 CLNT.            A2DTECH:   CLIENT CODE
 ORIG.           5" PRINT:   ORIGIN OF DATA
 UWI .       490251119700:   UNIQUE WELL ID
 DICO. A2D Technologies, Inc.:   DIGITIZING COMPANY
~OTHER INFORMATION
~A   DEPT      ROP         TGAS 
# ...
  885.0000     0.2937     0.0004
  885.5000     0.3035     0.0004
  886.0000     0.3028     0.0004
  886.5000     0.3125     0.0004
  887.0000     0.3117     0.0004
  887.5000     0.3111     0.0004
  888.0000     0.3210     0.0004
  888.5000     0.3202     0.0004
  889.0000     0.3196     0.0004
  889.5000     0.3189     0.0004
  890.0000     0.3183     0.0004
  890.5000     0.3177     0.0004
  891.0000     0.3170     0.0004
  891.5000     0.3163     0.0004
  892.0000     0.3156     0.0004
  892.5000     0.3150     0.0004
  893.0000     0.3144     0.0004
  893.5000     0.3137     0.0004
  894.0000     0.3027     0.0004
  894.5000     0.3021     0.0004
  895.0000     0.3015     0.0004
  895.5000     0.3008     0.0004
  896.0000     0.3002     0.0004
  896.5000     0.2996     0.0004
  897.0000     0.2884     0.0004
  897.5000     0.2878     0.0004
  898.0000     0.2872     0.0004
  898.5000     0.2865     0.0004
  899.0000     0.2964     0.0004
  899.5000     0.2853     0.0004
  900.0000     0.2847     0.0004
  900.5000     0.2840     0.0004
  901.0000     0.2834     0.0004
  901.5000     0.2827     0.0004
  902.0000     0.2820     0.0004
  902.5000     0.2918     0.0004
  903.0000     0.2911     0.0004
  903.5000     0.2904     0.0004
  904.0000     0.2898     0.0004
  904.5000     0.2892     0.0004
  905.0000     0.2885     0.0004
  905.5000     0.2878     0.0004
  906.0000     0.2873     0.0004
  906.5000     0.2970     0.1293
  907.0000     0.2963     0.5888
  907.5000     0.2956     0.6296
  908.0000     0.2949     1.0891
  908.5000     0.2943     1.5488
  909.0000     0.2937     1.5907
  909.5000     0.2930     1.6404
  910.0000     0.2924     1.6812
  910.5000     0.2918     1.2933
  911.0000     0.3015     0.9155
  911.5000     0.3112     0.9665
  912.0000     0.3106     0.5786
  912.5000     0.3098     0.6296
  913.0000     0.3197     0.6705
  913.5000     0.3189     0.2927
  914.0000     0.3182     0.3349
  914.5000     0.3176     0.0004
  915.0000     0.3170     0.0068
  915.5000     0.3269     0.0004
  916.0000     0.3261     0.0004
  916.5000     0.3254     0.0004
  917.0000     0.3248     0.0004
  917.5000     0.3345     0.0004
  918.0000     0.3234     0.0004
  918.5000     0.3228     0.0004
  919.0000     0.3118     0.0004
  919.5000     0.3111     0.0004
  920.0000     0.3105     0.0038
  920.5000     0.2792     0.0497
  921.0000     0.2790     0.0004
  921.5000     0.2787     0.0004
  922.0000     0.2681     0.0004
  922.5000     0.2678     0.0004
  923.0000     0.2779     0.0004
  923.5000     0.2777     0.0004
  924.0000     0.2774     0.0004
  924.5000     0.2772     0.0093
  925.0000     0.2769     0.0552
  925.5000     0.2870     0.1010
  926.0000     0.2867     0.1469
  926.5000     0.2865     0.1936
  927.0000     0.2759     0.0004
  927.5000     0.2860     0.0004
  928.0000     0.2857     0.0004
  928.5000     0.2855     0.0004
  929.0000     0.2852     0.0149
  929.5000     0.2849     0.0607
  930.0000     0.2847     0.1066
  930.5000     0.2844     0.0004
  931.0000     0.2842     0.0004
  931.5000     0.2839     0.0004
  932.0000     0.2836     0.0004
  932.5000     0.2730     0.3473
  933.0000     0.2727     0.3931
  933.5000     0.2725     0.4390
  934.0000     0.2722     0.4848
  934.5000     0.2720     0.9493
  935.0000     0.2614     0.9951
  935.5000     0.2611     1.0413
  936.0000     0.2505     1.0884
  936.5000     0.2502     1.1442
  937.0000     0.2500     1.1900
  937.5000     0.2497     1.2359
  938.0000     0.2495     1.2817
  938.5000     0.2596     1.3276
  939.0000     0.2593     0.9548
  939.5000     0.3108     1.0007
  940.0000     0.4037     1.0465
  940.5000     0.4034     1.0936
  941.0000     0.3928     1.1497
  941.5000     0.3822     1.1955
  942.0000     0.3820     1.2414
  942.5000     0.3713     1.2872
  943.0000     0.3711     1.3331
  943.5000     0.3708     1.3789
  944.0000     0.3602     1.0062
  944.5000     0.3600     1.0520
  945.0000     0.3494     1.0988
  945.5000     0.3491     1.1552
  946.0000     0.3488     1.2010
  946.5000     0.3486     1.2469
  947.0000     0.3483     0.8627
  947.5000     0.3481     0.9200
  948.0000     0.3478     0.5472
  948.5000     0.3476     0.5931
  949.0000     0.3473     0.6389
  949.5000     0.3470     0.2662
  950.0000     0.3468     0.3140
  950.5000     0.3465     0.0004
  951.0000     0.3463     0.0004
  951.5000     0.3460     0.0004
  952.0000     0.3458     0.0004
  952.5000     0.3455     0.0004
  953.0000     0.3556     0.0004
  953.5000     0.3553     0.0004
  954.0000     0.3550     0.0004
  954.5000     0.3652     0.0004
  955.0000     0.3649     0.0004
  955.5000     0.3750     0.0021
  956.0000     0.3747     0.0480
  956.5000     0.3848     0.0938
  957.0000     0.3845     0.1397
  957.5000     0.3843     0.0004
  958.0000     0.3840     0.0004
  958.5000     0.3838     0.0004
  959.0000     0.3835     0.0004
  959.5000     0.3832     0.0004
  960.0000     0.3726     0.0076
  960.5000     0.3721     0.0157
  961.0000     0.3612     0.0345
  961.5000     0.3504     0.0498
  962.0000     0.3499     0.0652
  962.5000     0.3597     0.0805
  963.0000     0.3489     0.0958
  963.5000     0.3483     0.1111
  964.0000     0.3478     0.1265
  964.5000     0.3472     0.1418
  965.0000     0.3467     0.1571
  965.5000     0.3567     0.1727
  966.0000     0.3561     0.1884
  966.5000     0.3556     0.2070
  967.0000     0.3655     0.2223
  967.5000     0.3649     0.2376
  968.0000     0.3644     0.6716
  968.5000     0.3639     0.6869
  969.0000     0.3633     0.7022
  969.5000     0.3627     0.7175
  970.0000     0.3727     0.7329
  970.5000     0.3721     0.7483
  971.0000     0.3716     0.7640
  971.5000     0.3711     0.7827
  972.0000     0.3810     0.7980
  972.5000     0.3804     0.8134
  973.0000     0.3799     0.8287
  973.5000     0.3794     0.8440
  974.0000     0.3788     0.8594
  974.5000     0.3783     0.8747
  975.0000     0.3778     0.8900
  975.5000     0.3773     0.9053
  976.0000     0.3768     0.9209
  976.5000     0.3763     0.5174
  977.0000     0.3758     0.5366
  977.5000     0.3753     0.5519
  978.0000     0.3851     0.5672
  978.5000     0.3845     0.5826
  979.0000     0.3943     0.5979
  979.5000     0.3938     0.6132
  980.0000     0.3933     0.6285
  980.5000     0.3928     0.6439
  981.0000     0.4028     0.6593
  981.5000     0.4022     0.6750
  982.0000     0.4016     0.6937
  982.5000     0.4011     0.7090
  983.0000     0.4110     0.7244
  983.5000     0.4104     0.7397
  984.0000     0.4203     0.7550
  984.5000     0.4197     0.7704
  985.0000     0.4192     0.7857
  985.5000     0.3773     0.8010
  986.0000     0.3354     0.8163
  986.5000     0.3349     0.4131
  987.0000     0.3344     0.4291
  987.5000     0.3339     0.4476
  988.0000     0.3333     0.4629
  988.5000     0.3432     0.4782
  989.0000     0.3426     0.4936
  989.5000     0.3421     0.5089
  990.0000     0.3416     0.5242
  990.5000     0.3411     0.5395
  991.0000     0.3510     0.5549
  991.5000     0.3504     0.5703
  992.0000     0.3499     0.5860
  992.5000     0.3494     0.6047
  993.0000     0.3488     0.6200
  993.5000     0.3483     0.6354
  994.0000     0.3478     0.2283
  994.5000     0.3472     0.2474
  995.0000     0.3467     0.2627
  995.5000     0.3462     0.2781
  996.0000     0.3457     0.2934
  996.5000     0.3452     0.3087
  997.0000     0.3447     0.3244
  997.5000     0.3457     0.0004
  998.0000     0.3541     0.0004
  998.5000     0.3534     0.0004
  999.0000     0.3736     0.0004
  999.5000     0.3731     0.0004
 1000.0000     0.3519     0.0004
 1000.5000     0.3409     0.0004
 1001.0000     0.3403     0.0004
 1001.5000     0.3501     0.0004
 1002.0000     0.3804     0.0004
 1002.5000     0.4005     0.0004
 1003.0000     0.4206     0.0004
 1003.5000     0.4303     0.0004
 1004.0000     0.4295     0.0004
 1004.5000     0.4289     0.0004
 1005.0000     0.4282     0.0004
 1005.5000     0.4276     0.0004
 1006.0000     0.4375     0.0004
