~VERSION INFORMATION
 VERS.                2.0:   CWLS LOG ASCII STANDARD - VERSION 2.0
 WRAP.                 NO:   ONE LINE PER DEPTH STEP
~WELL INFORMATION
#MNEM.UNIT      DATA TYPE    INFORMATION
#----------   ------------   ------------------------------
 STRT.F           20.5000:   START DEPTH
 STOP.F          725.0000:   STOP DEPTH
 STEP.F            0.5000:   STEP LENGTH
 NULL.          -999.2500:   NO VALUE
 COMP. FENIX & SCISSON INC:   COMPANY
 WELL.       NPR 3 #67-27:   WELL
 FLD .             TEAPOT:   FIELD
 LOC .      S27 T39N R78W:   LOCATION
 CNTY.            NATRONA:   COUNTY
 STAT.            WYOMING:   STATE
 CTRY. UNITED STATES OF AMERICA:   COUNTRY
 SRVC.           BIRDWELL:   SERVICE COMPANY
 DATE.        15-SEP-1978:   LOGDATE
 API .       490251069400:   API NUMBER
~CURVE INFORMATION
#MNEM.UNIT       API CODE    CURVE DESCRIPTION
#----------   ------------   ------------------------------
 DEPT.F                  :   
 CALD.IN     45 280 60 00:   CALIPER
 GRD .GAPI   45 310 01 00:   GAMMA RAY FROM DENSITY LOG
 RHOB.G/C3   45 350 01 00:   BULK DENSITY
 DPHI.DEC    45 890 12 00:   DENSITY POROSITY SANDSTONE
 CORR.G/C3   45 356 01 00:   DENSITY CORRECTION
 SPR .MV     05 010 01 00:   SPONTANEOUS POTENTIAL FROM RES.
 ILD .OHMM   05 120 46 00:   INDUCTION LOG DEEP
 SN  .OHMM   05 040 16 00:   SHORT NORMAL 16"
~PARAMETER INFORMATION
#MNEM.UNIT          VALUE    DESCRIPTION
#----------   ------------   ------------------------------
 PD  .                 GL:   PERMANENT DATUM
 EPD .F              5027:   ELEVATION PERMANENT DATUM
 LMF .                 KB:   LOG MEASURED FROM
 DAPD.F                 4:   FEET ABOVE PERMANENT DATUM
 DMF .                 KB:   DRILLING MEASURED FROM
 EKB .F              5031:   KELLING BUSHING
 EGL .F              5027:   GROUND LEVEL
 DATE.            9-15-78:   RUN DATE
 RUN .                  1:   RUN NUMBER
 DD  .F               728:   DEPTH DRILLER
 DL  .F               719:   DEPTH LOGGER
 BLI .F               713:   BOTTOM LOG INTERVAL
 TLI .F                30:   TOP LOG INTERVAL
 CS  .IN            8.625:   CASING SIZE
 CBD .F                34:   CASING BOTTOM DRILLER
 CBL .F                34:   CASING BOTTOM LOGGER
 BS  .IN            7.875:   BIT SIZE
 BSD .F               728:   BIT SIZE AT DEPTH
 DFT .            KCL MUD:   DRILLING FLUID TYPE
 DFD .                  9:   DRILLING FLUID DENSITY
 DFV .                 46:   DRILLING FLUID VISCOSITY
 DFPH.                  9:   DRILLING FLUID PH
 DFL .                7.6:   DRILLING FLUID LOSS
 MSS .          FLOW LINE:   MUD SAMPLE SOURCE
 RMS .OHMM            .34:   RESISTIVITY MUD SAMPLE
 MST .F                68:   MUD SAMPLE TEMPERATURE
 RMF .OHMM             .3:   RESISTIVITY MUD FILTRATE SAMPLE
 MFST.F                68:   MUD FILTRATE SAMPLE TEMPERATURE
 RMC .OHMM            .38:   RESISTIVITY MUD CAKE
 MCST.F                70:   MUD CAKE SAMPLE TEMPERATURE
 MFSS.               MEAS:   MUD FILTRATE SAMPLE SOURCE
 MCSS.               MEAS:   MUD CAKE SAMPLE SOURCE
 RMB .OHMM            .32:   RESISTIVITY MUD AT BHT
 BHT .F                72:   BOTTOM HOLE TEMPERATURE
 TCS .HRS               2:   TIME CURCULATED STOPPED
 MRT .F                72:   MAXIMUM RECORDED TEMPERATURE
 LUN .               2958:   LOGGING UNIT NUMBER
 LUL .               CASP:   LOGGING UNIT LOCATION
 ENGI.           REYNOLDS:   RECORDING ENGINEER
 WITN.           DINSMORE:   WITNESSED BY
 CLNT.            A2DTECH:   CLIENT CODE
 ORIG.           5" PRINT:   ORIGIN OF DATA
 UWI .       490251069400:   UNIQUE WELL ID
 DICO. A2D Technologies, Inc.:   DIGITIZING COMPANY
~OTHER INFORMATION
~A   DEPT     CALD        GRD       RHOB       DPHI       CORR        SPR        ILD         SN   
# ...
  547.0000     8.0503    79.6383     2.3624     0.1626     0.0996   -22.7227    16.3129    14.8663
  547.5000     8.0606    80.1170     2.3867     0.1548     0.1204   -20.8639    16.8276    15.4496
  548.0000     8.0836    81.8895     2.4247     0.1486     0.1373   -19.8605    17.3549    15.4077
  548.5000     8.0726    84.1672     2.4800     0.1122     0.1438   -19.7075    17.5703    15.3602
  549.0000     8.0522    86.4492     2.5350     0.0505     0.1503   -19.5549    17.7454    15.3078
  549.5000     7.9830    86.5664     2.5855     0.0426     0.1569   -19.4061    17.9053    15.8071
  550.0000     7.9078    85.7947     2.6164     0.0397     0.1641   -19.2979    20.7483    16.3859
  550.5000     7.8292    84.3573     2.6330     0.0397     0.1416   -19.2999    24.0497    16.9860
  551.0000     7.8031    82.9106     2.6142     0.0645     0.1203   -19.3007    24.2725    17.4169
  551.5000     7.7920    82.9611     2.5559     0.0932     0.1000   -19.2998    24.1041    17.3763
  552.0000     7.8025    83.6163     2.4945     0.1268     0.0504   -19.2916    23.6310    17.2962
  552.5000     7.8200    84.2733     2.4096     0.1643     0.0226   -18.8480    22.7555    16.9018
  553.0000     7.8380    84.9250     2.3652     0.2023     0.0211   -17.9397    21.1732    16.2251
  553.5000     7.8768    85.5032     2.3349     0.2203     0.0268   -17.0381    19.5613    15.5755
  554.0000     7.9656    85.3693     2.3045     0.2423     0.0343   -16.1439    18.0721    14.9522
  554.5000     7.9732    85.2458     2.2768     0.2513     0.0418   -15.4093    16.3283    14.3485
  555.0000     7.9776    85.1234     2.2751     0.2530     0.0477   -15.1020    16.4927    13.8899
  555.5000     7.9823    85.0030     2.2829     0.2482     0.0521   -14.7919    16.5182    13.6591
  556.0000     7.9872    85.0102     2.2947     0.2336     0.0564   -14.4826    16.5436    13.4356
  556.5000     7.9921    85.9115     2.3056     0.2309     0.0585   -14.1716    16.5690    13.2158
  557.0000     7.9970    86.7233     2.3063     0.2317     0.0554   -13.9215    16.5944    12.9996
  557.5000     8.0019    86.5696     2.3071     0.2345     0.0524   -14.4847    16.6301    12.7869
  558.0000     8.0066    86.2593     2.3083     0.2334     0.0494   -15.0303    16.5473    12.6588
  558.5000     8.0067    86.2780     2.3194     0.2149     0.0463   -15.2696    16.3866    12.5615
  559.0000     7.9962    87.5762     2.3315     0.2059     0.0433   -15.1692    16.2281    12.4652
  559.5000     7.9858    88.7221     2.3345     0.2239     0.0401   -15.0666    16.0309    12.3692
  560.0000     7.9755    88.1264     2.3233     0.2275     0.0393   -14.9747    16.0553    12.2692
  560.5000     7.9651    87.5044     2.3198     0.2212     0.0481   -15.2174    16.0884    12.2761
  561.0000     7.9547    86.8649     2.3551     0.2040     0.0598   -16.5809    16.1225    12.2854
  561.5000     7.9443    87.5769     2.3809     0.1859     0.0715   -16.7983    16.1570    12.2947
  562.0000     7.9340    88.4876     2.4023     0.1750     0.0832   -16.8421    16.1783    12.3040
  562.5000     7.9236    89.4025     2.4138     0.1634     0.0950   -17.4160    16.0451    12.3134
  563.0000     7.9133    90.3097     2.4241     0.1555     0.0982   -17.9660    15.9463    12.3227
  563.5000     7.9029    91.1307     2.4329     0.1541     0.0940   -18.5080    15.8721    12.3320
  564.0000     7.8922    90.7454     2.4371     0.1527     0.0863   -18.9075    15.8416    12.3414
  564.5000     7.8900    90.2720     2.4415     0.1476     0.0715   -18.8990    15.8111    12.3507
  565.0000     7.8900    89.8047     2.4462     0.1427     0.0567   -18.9002    15.7807    12.3600
  565.5000     7.8900    89.5823     2.4443     0.1483     0.0419   -18.9000    15.7504    12.3694
  566.0000     7.8900    90.1636     2.4389     0.1518     0.0348   -18.9000    15.5037    12.3779
  566.5000     7.8900    90.7286     2.4226     0.1643     0.0280   -18.9000    15.0932    12.3828
  567.0000     7.8901    91.1557     2.4056     0.1887     0.0213   -18.9002    14.6952    12.1681
  567.5000     7.8900    91.1293     2.3885     0.1845     0.0144   -18.8985    14.3070    12.0129
  568.0000     7.8847    90.8985     2.3815     0.1749     0.0115   -18.9104    14.2194    11.8250
  568.5000     7.8508    90.9010     2.3933     0.1890     0.0115   -18.3504    14.2194    11.8511
  569.0000     7.8174    90.6629     2.3754     0.1840     0.0115   -17.5962    14.2194    11.8968
  569.5000     7.7939    89.1847     2.3558     0.2054     0.0115   -16.8478    14.2194    11.9336
  570.0000     7.8235    87.7060     2.3368     0.2114     0.0115   -16.2092    14.2194    11.6479
  570.5000     7.8523    87.1092     2.3343     0.2146     0.0137   -15.6369    14.2194    11.5008
  571.0000     7.8786    87.1583     2.3382     0.2043     0.0161   -15.3348    14.2194    11.5030
  571.5000     7.9007    87.2600     2.3497     0.1969     0.0184   -15.1050    14.2195    11.5021
  572.0000     7.9232    87.2892     2.3644     0.1998     0.0207   -14.8975    14.2094    11.4527
  572.5000     7.9451    86.9644     2.3605     0.2027     0.0230   -14.9759    14.1927    11.3673
  573.0000     8.0146    86.9336     2.3559     0.2031     0.0270   -15.0502    14.1759    11.2829
  573.5000     8.1221    87.1261     2.3590     0.1972     0.0315   -15.2001    14.1591    11.1991
  574.0000     8.2278    87.3187     2.3669     0.1920     0.0361   -15.6050    14.1424    11.1160
  574.5000     8.1209    87.5122     2.3725     0.1904     0.0407   -15.9949    14.1255    11.0335
  575.0000     7.9932    87.6857     2.3766     0.1887     0.0403   -16.4009    14.1088    10.9842
  575.5000     7.9541    87.4081     2.3807     0.1851     0.0377   -16.4988    14.0922    11.0351
  576.0000     7.9140    87.1111     2.3847     0.1820     0.0333   -16.4993    13.9689    11.0715
  576.5000     7.8918    86.8131     2.3886     0.1802     0.0290   -16.4888    13.8208    11.1832
  577.0000     7.9038    86.7337     2.3877     0.1807     0.0241   -16.8859    13.6743    11.3458
  577.5000     7.9152    86.9287     2.3838     0.1848     0.0174   -17.3149    13.5293    11.5107
  578.0000     7.9267    87.6910     2.3827     0.1866     0.0108   -17.7068    13.3307    11.6090
  578.5000     7.9382    88.4771     2.3821     0.1853     0.0075   -17.6118    13.3712    11.6090
  579.0000     7.9496    89.1666     2.3815     0.1843     0.0192   -17.5149    13.4375    11.6911
  579.5000     7.9611    89.1171     2.3799     0.1925     0.0259   -17.8361    13.5042    11.7928
  580.0000     7.9702    88.8976     2.3771     0.1939     0.0268   -18.3002    13.5712    11.9343
  580.5000     7.9700    88.9896     2.3741     0.1857     0.0257   -18.7637    13.6385    11.9152
  581.0000     7.9700    89.2072     2.3781     0.1832     0.0246   -19.0640    13.7046    11.8821
  581.5000     7.9704    89.4067     2.3858     0.1835     0.0234   -18.8826    13.7825    11.8499
  582.0000     7.9445    89.5991     2.3901     0.1798     0.0224   -18.7168    13.8592    11.8258
  582.5000     7.9051    89.3165     2.3852     0.1771     0.0235   -18.5410    13.9365    11.8414
  583.0000     7.8454    89.0521     2.3775     0.1865     0.0324   -18.5755    14.0137    11.8548
  583.5000     7.7747    88.9014     2.3718     0.1939     0.0403   -18.6784    14.0889    11.8681
  584.0000     7.7520    88.9737     2.3707     0.1943     0.0483   -18.7852    13.8389    11.8815
  584.5000     7.7929    89.0454     2.3737     0.1937     0.0433   -18.8954    13.6012    11.8949
  585.0000     7.8349    89.1174     2.3766     0.1923     0.0340   -18.8635    13.3307    11.9084
  585.5000     7.8769    89.1888     2.3797     0.1683     0.0247   -18.8211    13.4942    11.9217
  586.0000     7.9184    89.2584     2.3946     0.1683     0.0215   -18.7780    13.7533    11.9383
  586.5000     7.9498    89.2005     2.4015     0.1751     0.0319   -18.7328    14.0174    12.0585
  587.0000     7.9447    88.9726     2.3962     0.1803     0.0472   -18.7306    14.2194    12.1784
