~VERSION INFORMATION
 VERS.                2.0:   CWLS LOG ASCII STANDARD - VERSION 2.0
 WRAP.                 NO:   ONE LINE PER DEPTH STEP
~WELL INFORMATION
#MNEM.UNIT      DATA TYPE    INFORMATION
#----------   ------------   ------------------------------
 STRT.F           34.0000:   START DEPTH
 STOP.F          614.0000:   STOP DEPTH
 STEP.F            0.5000:   STEP LENGTH
 NULL.          -999.2500:   NO VALUE
 COMP. FENIX & SCISSON INC:   COMPANY
 WELL.      71-SX-3 #71-3:   WELL
 FLD .             TEAPOT:   FIELD
 LOC .       S3 T38N R78W:   LOCATION
 CNTY.            NATRONA:   COUNTY
 STAT.            WYOMING:   STATE
 CTRY. UNITED STATES OF AMERICA:   COUNTRY
 SRVC.              Welex:   SERVICE COMPANY
 DATE.        10-MAR-1977:   LOGDATE
 API .       490251028900:   API NUMBER
~CURVE INFORMATION
#MNEM.UNIT       API CODE    CURVE DESCRIPTION
#----------   ------------   ------------------------------
 DEPT.F                  :   
 CALD.IN     45 280 60 00:   CALIPER
 GRD .GAPI   45 310 01 00:   GAMMA RAY FROM DENSITY LOG
 RHOB.G/C3   45 350 01 00:   BULK DENSITY
 DPHI.DEC    45 890 12 00:   DENSITY POROSITY SANDSTONE
 CORR.G/C3   45 356 01 00:   DENSITY CORRECTION
 SGRD.OHMM   07 220 05 00:   SHALLOW RESISTIVITY
 ILD .OHMM   07 120 46 00:   INDUCTION LOG DEEP
 ILM .OHMM   07 120 44 00:   INDUCTION LOG MEDIUM
 SPR .MV     07 010 01 00:   SPONTANEOUS POTENTIAL
~PARAMETER INFORMATION
#MNEM.UNIT          VALUE    DESCRIPTION
#----------   ------------   ------------------------------
 PD  .                 GL:   PERMANENT DATUM
 EPD .F              5117:   ELEVATION PERMANENT DATUM
 LMF .                 GL:   LOG MEASURED FROM
 DMF .                 GL:   DRILLING MEASURED FROM
 EGL .F              5117:   GROUND LEVEL
 DATE.          3-10-1977:   RUN DATE
 RUN .                  1:   RUN NUMBER
 DD  .F               630:   DEPTH DRILLER
 DL  .F               619:   DEPTH LOGGER
 BLI .F               617:   BOTTOM LOG INTERVAL
 TLI .F                34:   TOP LOG INTERVAL
 CS  .IN            8.625:   CASING SIZE
 CBD .F                40:   CASING BOTTOM DRILLER
 CBL .F                41:   CASING BOTTOM LOGGER
 BS  .IN            7.875:   BIT SIZE
 BSD .F               630:   BIT SIZE AT DEPTH
 DFT .            KCL MUD:   DRILLING FLUID TYPE
 DFD .                  9:   DRILLING FLUID DENSITY
 DFV .                 33:   DRILLING FLUID VISCOSITY
 MSS .            MUD PIT:   MUD SAMPLE SOURCE
 RMS .OHMM           2.33:   RESISTIVITY MUD SAMPLE
 MST .F                57:   MUD SAMPLE TEMPERATURE
 RMF .OHMM           1.83:   RESISTIVITY MUD FILTRATE SAMPLE
 MFST.F                57:   MUD FILTRATE SAMPLE TEMPERATURE
 RMC .OHMM           2.53:   RESISTIVITY MUD CAKE
 MCST.F                57:   MUD CAKE SAMPLE TEMPERATURE
 MFSS.           FANN KIT:   MUD FILTRATE SAMPLE SOURCE
 MCSS.           FANN KIT:   MUD CAKE SAMPLE SOURCE
 RMB .OHMM            2.1:   RESISTIVITY MUD AT BHT
 BHT .F                63:   BOTTOM HOLE TEMPERATURE
 TCS .HRS             1.5:   TIME CURCULATED STOPPED
 MRT .F                63:   MAXIMUM RECORDED TEMPERATURE
 LUN .               8611:   LOGGING UNIT NUMBER
 LUL .           GILLETTE:   LOGGING UNIT LOCATION
 ENGI.               DOAK:   RECORDING ENGINEER
 WITN.              BURKE:   WITNESSED BY
 CLNT.            A2DTECH:   CLIENT CODE
 ORIG.       2", 5" PRINT:   ORIGIN OF DATA
 UWI .       490251028900:   UNIQUE WELL ID
 DICO. A2D Technologies, Inc.:   DIGITIZING COMPANY
~OTHER INFORMATION
~A   DEPT     CALD        GRD       RHOB       DPHI       CORR       SGRD        ILD        ILM        SPR   
# ...
   70.5000     7.7619    54.7188     2.3975     0.1517     0.0658    14.5648    11.4907    12.9244    -6.2521
   71.0000     7.7375    56.3240     2.3905     0.1548     0.0649    14.7141    11.5646    12.9244    -5.8803
   71.5000     7.7130    58.8390     2.3886     0.1579     0.0639    14.8754    11.6387    13.0542    -6.1299
   72.0000     7.6887    61.3605     2.3879     0.1582     0.0653    15.0384    11.7133    13.3026    -6.3674
   72.5000     7.6641    63.9732     2.3900     0.1554     0.0673    15.2032    11.7883    13.5557    -6.2524
   73.0000     7.6561    62.9992     2.3950     0.1526     0.0693    15.2917    11.8639    13.7836    -6.0287
   73.5000     7.6605    61.0403     2.3996     0.1498     0.0713    15.3502    11.9399    13.6961    -5.8668
   74.0000     7.6651    59.2024     2.4042     0.1470     0.0711    15.4016    12.0248    13.6022    -6.1852
   74.5000     7.6697    61.6184     2.4088     0.1432     0.0697    15.5026    12.1799    13.4126    -6.4296
   75.0000     7.6684    64.3067     2.4134     0.1391     0.0683    15.8012    12.3370    13.6258    -7.0600
   75.5000     7.6397    65.1240     2.4216     0.1350     0.0669    16.1930    12.4962    13.8706    -7.7722
   76.0000     7.6116    60.4397     2.4336     0.1311     0.0654    16.5948    12.6573    14.1197    -8.4807
   76.5000     7.5826    55.0816     2.4405     0.1277     0.0640    16.9878    12.8061    14.2995    -9.0195
   77.0000     7.6123    49.7561     2.4448     0.1243     0.0639    17.5043    13.2063    14.3723    -9.0777
   77.5000     7.6722    47.3405     2.4557     0.1208     0.0639    17.4081    13.5850    14.5789    -9.1456
   78.0000     7.7339    51.4157     2.4672     0.1177     0.0639    17.1855    13.9746    15.1154    -8.8853
   78.5000     7.7397    54.6279     2.4313     0.1295     0.0639    17.8769    14.3753    15.6717    -8.2585
   79.0000     7.7189    57.8586     2.4079     0.1426     0.0639    19.4284    14.7876    16.2484    -7.6303
   79.5000     7.7579    61.0930     2.3833     0.1558     0.0628    21.1146    15.2116    16.6093    -6.9683
   80.0000     7.8210    64.3177     2.3778     0.1620     0.0617    22.9471    15.5328    16.7046    -6.3159
   80.5000     7.8855    67.3829     2.3780     0.1638     0.0605    24.8223    15.7348    17.0182    -5.8141
   81.0000     7.9521    68.1756     2.3787     0.1640     0.0594    25.0515    16.0823    17.6629    -5.8248
   81.5000     7.8895    68.4531     2.3688     0.1677     0.0583    20.6425    15.8456    17.5821    -5.7889
   82.0000     7.8000    68.4059     2.3600     0.1728     0.0551    19.5456    15.5354    17.4054    -6.7778
   82.5000     7.7100    66.3583     2.3548     0.1779     0.0511    19.5456    15.2314    17.1004    -8.2150
   83.0000     7.6206    64.2877     2.3535     0.1788     0.0471    19.1002    14.9333    16.5611   -10.0632
   83.5000     7.5316    62.1638     2.3538     0.1791     0.0449    18.5827    14.6410    16.1240   -13.3202
   84.0000     7.5621    62.3387     2.3523     0.1802     0.0434    17.9938    14.3544    15.8073   -17.3227
   84.5000     7.7495    64.4771     2.3473     0.1816     0.0419    18.3377    14.0735    15.4970   -21.2416
   85.0000     7.9268    66.8030     2.3460     0.1828     0.0404    18.8400    13.7982    15.1927   -24.2390
   85.5000     7.9770    69.1190     2.3502     0.1806     0.0399    18.4396    13.5325    14.8964   -25.5928
   86.0000     7.9921    71.3377     2.3543     0.1780     0.0399    17.9049    13.4334    14.6068   -26.2467
   86.5000     8.0098    74.4499     2.3587     0.1755     0.0399    17.2274    13.3365    14.2933   -26.9105
   87.0000     8.0281    77.7967     2.3641     0.1711     0.0413    17.4257    13.2404    14.4021   -26.9554
   87.5000     8.0166    81.1625     2.3718     0.1663     0.0433    17.8291    13.1642    14.5221   -26.6334
   88.0000     7.9903    84.5340     2.3804     0.1615     0.0428    17.2932    13.0046    14.6993   -26.4349
   88.5000     7.9640    87.0692     2.3857     0.1582     0.0405    16.7735    12.8077    14.3481   -27.0293
   89.0000     7.9398    84.8648     2.3891     0.1556     0.0382    16.2693    12.5078    13.7760   -28.4405
   89.5000     7.8380    83.6776     2.3949     0.1529     0.0360    15.7803    12.1690    13.2267   -29.8584
   90.0000     7.7301    90.1918     2.4032     0.1503     0.0350    15.3907    11.8982    12.6889   -31.5774
   90.5000     7.6461    94.7358     2.4115     0.1418     0.0395    15.6536    11.0699    12.4328   -33.6253
   91.0000     7.7306    99.3369     2.4198     0.1382     0.0436    15.5819    10.2840    12.1768   -34.0089
   91.5000     7.8163   103.9942     2.4256     0.1345     0.0476    15.3322     9.5539    11.8067   -34.4525
   92.0000     7.9015   104.0824     2.4310     0.1313     0.0517    15.0865     8.8756    10.9785   -34.9025
   92.5000     7.9760    97.4444     2.4375     0.1282     0.0557    14.8351     8.2455     9.7416   -35.3481
   93.0000     7.9699    91.9002     2.4445     0.1251     0.0597    13.0992     7.6601     8.6442   -35.7959
   93.5000     7.9619    86.3450     2.4515     0.1220     0.0638     9.4645     7.1163     7.6703   -36.2511
   94.0000     7.9541    80.8103     2.4585     0.1191     0.0678     7.1766     6.6111     7.1391   -36.9402
   94.5000     7.9463    77.2310     2.4655     0.1169     0.0718     7.1478     6.1417     6.7294   -37.8665
   95.0000     7.9382    73.9640     2.4727     0.1151     0.0750     7.1094     5.9082     6.5537   -38.7693
   95.5000     7.9136    79.7630     2.4657     0.1160     0.0772     7.0712     5.7525     6.3100   -39.6741
   96.0000     7.8627    86.8590     2.4531     0.1213     0.0763     7.0459     5.6510     6.4906   -40.5757
   96.5000     7.8119    87.4359     2.4404     0.1269     0.0742     8.3137     5.6926     6.8426   -41.2220
   97.0000     7.7608    84.3822     2.4294     0.1295     0.0721    12.6889     5.7239     7.2429   -41.2967
   97.5000     7.7135    83.1939     2.4327     0.1291     0.0746    11.7569     5.7555     7.0459   -41.3763
   98.0000     7.7541    88.0991     2.4371     0.1297     0.0778     9.1401     5.7872     6.8384   -41.1025
   98.5000     7.7943    91.5371     2.4311     0.1322     0.0810     8.0604     5.8090     6.6381   -40.7934
   99.0000     7.8344    94.9870     2.4237     0.1354     0.0779     8.0135     5.7336     6.4434   -40.4696
   99.5000     7.8749    98.4404     2.4163     0.1388     0.0723     7.6874     5.6768     6.2511   -40.6654
  100.0000     7.8488   101.4879     2.4102     0.1422     0.0666     7.3435     5.6206     6.2258   -41.0372
  100.5000     7.7442   101.1021     2.4058     0.1457     0.0609     7.1110     5.5481     6.2002   -41.3939
  101.0000     7.6419    99.7858     2.4046     0.1481     0.0553     7.2736     5.5890     6.1747   -41.7397
  101.5000     7.6615   100.0167     2.4096     0.1425     0.0496     7.6143     5.6483     6.1359   -42.0068
  102.0000     7.7284   102.8496     2.4229     0.1356     0.0488     7.9709     5.7083     6.1951   -42.1015
  102.5000     7.7972   104.8902     2.4365     0.1287     0.0499     8.0875     5.7689     6.3255   -42.1976
  103.0000     7.8650   102.1592     2.4424     0.1261     0.0510     7.9620     5.8627     6.5215   -42.3027
  103.5000     7.8910    99.4117     2.4269     0.1307     0.0503     7.8654     5.8428     6.7294   -42.6150
  104.0000     7.9156    96.6454     2.4281     0.1316     0.0469     7.7941     5.8010     6.6066   -43.6232
  104.5000     7.9405    98.7902     2.4374     0.1283     0.0470     8.0125     5.7594     6.4276   -44.6059
  105.0000     7.9658   100.9020     2.4467     0.1249     0.0494     7.8419     5.7182     6.1951   -45.5880
  105.5000     7.9704    99.4565     2.4558     0.1216     0.0517     7.6522     5.6773     6.2342   -46.6124
  106.0000     7.9656   101.3490     2.4649     0.1186     0.0539     7.5184     5.6367     6.3218   -46.9652
  106.5000     7.9605   104.7521     2.4702     0.1155     0.0520     7.3927     5.5964     6.4296   -47.0634
