~VERSION INFORMATION
 VERS.                2.0:   CWLS LOG ASCII STANDARD - VERSION 2.0
 WRAP.                 NO:   ONE LINE PER DEPTH STEP
~WELL INFORMATION
#MNEM.UNIT      DATA TYPE    INFORMATION
#----------   ------------   ------------------------------
 STRT.F            7.0000:   START DEPTH
 STOP.F          690.0000:   STOP DEPTH
 STEP.F            0.5000:   STEP LENGTH
 NULL.          -999.2500:   NO VALUE
 COMP. FENIX & SCISSON INC:   COMPANY
 WELL.  NPR#3 #26-46 SX11:   WELL
 FLD .             TEAPOT:   FIELD
 LOC .      S11 T38N R78W:   LOCATION
 CNTY.            NATRONA:   COUNTY
 STAT.            WYOMING:   STATE
 CTRY. UNITED STATES OF AMERICA:   COUNTRY
 SRVC.      Dresser Atlas:   SERVICE COMPANY
 DATE.        13-AUG-1985:   LOGDATE
 API .       490251083600:   API NUMBER
~CURVE INFORMATION
#MNEM.UNIT       API CODE    CURVE DESCRIPTION
#----------   ------------   ------------------------------
 DEPT.F                  :   
 DPHI.DEC    45 890 12 00:   DENSITY POROSITY SANDSTONE
 NPHI.DEC    42 890 03 00:   NEUTRON POROSITY SANDSTONE
 RHOB.G/C3   45 350 01 00:   BULK DENSITY
 CORR.G/C3   45 356 01 00:   DENSITY CORRECTION
 CALD.IN     45 280 60 00:   CALIPER
 SPR .MV     07 010 01 00:   SPONTANEOUS POTENTIAL
 ILD .OHMM   07 120 46 00:   INDUCTION LOG DEEP
 ILM .OHMM   07 120 44 00:   INDUCTION LOG MEDIUM
 SFL .OHMM   07 220 01 00:   SHALLOW FOCUSED LOG RESISTIVITY
 GRR .GAPI   07 310 01 00:   GAMMA RAY FROM RES. LOG.
~PARAMETER INFORMATION
#MNEM.UNIT          VALUE    DESCRIPTION
#----------   ------------   ------------------------------
 PD  .                 GL:   PERMANENT DATUM
 EPD .F              5193:   ELEVATION PERMANENT DATUM
 LMF .                 KB:   LOG MEASURED FROM
 DAPD.F                 5:   FEET ABOVE PERMANENT DATUM
 DMF .                 KB:   DRILLING MEASURED FROM
 EKB .F              5198:   KELLING BUSHING
 EGL .F              5193:   GROUND LEVEL
 DATE.          8-13-1985:   RUN DATE
 RUN .                  8:   RUN NUMBER
 DD  .F               664:   DEPTH DRILLER
 BLI .F               635:   BOTTOM LOG INTERVAL
 TLI .F               340:   TOP LOG INTERVAL
 CBL .F               340:   CASING BOTTOM LOGGER
 BS  .IN             8.75:   BIT SIZE
 BSD .F               664:   BIT SIZE AT DEPTH
 DFT .          KPC WATER:   DRILLING FLUID TYPE
 LUN .           HL- 6274:   LOGGING UNIT NUMBER
 LUL .           GILLETTE:   LOGGING UNIT LOCATION
 ENGI.             RAUTIO:   RECORDING ENGINEER
 WITN.            SCHULTE:   WITNESSED BY
 CLNT.            A2DTECH:   CLIENT CODE
 ORIG.        2" 5" PRINT:   ORIGIN OF DATA
 UWI .       490251083600:   UNIQUE WELL ID
 DICO. A2D Technologies, Inc.:   DIGITIZING COMPANY
~OTHER INFORMATION
~A    DEPT    DPHI       NPHI       RHOB       CORR       CALD         SPR       ILD        ILM        SFL        GRR   
# ...
  275.0000  -999.2500  -999.2500  -999.2500  -999.2500  -999.2500   -24.4219     6.6591     6.4692     8.2723    79.4730
  275.5000  -999.2500  -999.2500  -999.2500  -999.2500  -999.2500   -25.6034     6.7810     6.5699     8.0431    77.2487
  276.0000  -999.2500  -999.2500  -999.2500  -999.2500  -999.2500   -30.1172     6.9159     6.6710     8.2534    76.9032
  276.5000  -999.2500  -999.2500  -999.2500  -999.2500  -999.2500   -31.0483     7.0960     6.8615     8.6111    76.6438
  277.0000  -999.2500  -999.2500  -999.2500  -999.2500  -999.2500   -28.4605     7.2808     7.0761     8.9356    77.1371
  277.5000  -999.2500  -999.2500  -999.2500  -999.2500  -999.2500   -25.8609     7.4704     7.2979     9.0978    78.4696
  278.0000  -999.2500  -999.2500  -999.2500  -999.2500  -999.2500   -23.9367     7.6650     7.5061     9.2631    80.2138
  278.5000  -999.2500  -999.2500  -999.2500  -999.2500  -999.2500   -25.6144     7.8647     7.6515     9.4304    82.6058
  279.0000  -999.2500  -999.2500  -999.2500  -999.2500  -999.2500   -27.4054     8.0411     7.7997     9.5594    83.3399
  279.5000  -999.2500  -999.2500  -999.2500  -999.2500  -999.2500   -28.1453     8.2161     7.9509     9.7564    82.0396
  280.0000  -999.2500  -999.2500  -999.2500  -999.2500  -999.2500   -27.5233     8.3948     8.1049     9.6733    80.7285
  280.5000  -999.2500  -999.2500  -999.2500  -999.2500  -999.2500   -23.7250     8.5775     8.2620     9.5796    80.4554
  281.0000  -999.2500  -999.2500  -999.2500  -999.2500  -999.2500   -21.9560     8.7641     8.4220    10.1092    80.7783
  281.5000  -999.2500  -999.2500  -999.2500  -999.2500  -999.2500   -22.4520     8.9548     8.5852    10.6327    78.7848
  282.0000  -999.2500  -999.2500  -999.2500  -999.2500  -999.2500   -25.2818     9.1499     8.7394    10.7969    76.8776
  282.5000  -999.2500  -999.2500  -999.2500  -999.2500  -999.2500   -25.5563     9.3492     9.0141    10.6917    74.9493
  283.0000  -999.2500  -999.2500  -999.2500  -999.2500  -999.2500   -24.5296     9.4923     9.2813    10.6212    74.4535
  283.5000  -999.2500  -999.2500  -999.2500  -999.2500  -999.2500   -23.5098     9.4754     9.5796    10.6000    74.6679
  284.0000  -999.2500  -999.2500  -999.2500  -999.2500  -999.2500   -22.5006     9.4625    10.2170    10.6462    77.7519
  284.5000  -999.2500  -999.2500  -999.2500  -999.2500  -999.2500   -21.7069     9.4494    10.1938    11.0862    82.1044
  285.0000  -999.2500  -999.2500  -999.2500  -999.2500  -999.2500   -22.4673     9.4366    10.1683    11.5152    80.1999
  285.5000  -999.2500  -999.2500  -999.2500  -999.2500  -999.2500   -22.4563     9.4237    10.1429    11.2491    77.0703
  286.0000  -999.2500  -999.2500  -999.2500  -999.2500  -999.2500   -21.5099     9.4107    10.1175    10.7969    74.8010
  286.5000  -999.2500  -999.2500  -999.2500  -999.2500  -999.2500   -21.0453     9.3673    10.0923    10.9966    73.2265
  287.0000  -999.2500  -999.2500  -999.2500  -999.2500  -999.2500   -20.3727     9.2973    10.0670    10.9142    71.6907
  287.5000  -999.2500  -999.2500  -999.2500  -999.2500  -999.2500   -21.3253     9.2277    10.0419    10.7580    70.3392
  288.0000  -999.2500  -999.2500  -999.2500  -999.2500  -999.2500   -22.1664     9.1587     9.9916    10.6000    72.7035
  288.5000  -999.2500  -999.2500  -999.2500  -999.2500  -999.2500   -22.3554     9.0903     9.8821    10.6000    76.2854
  289.0000  -999.2500  -999.2500  -999.2500  -999.2500  -999.2500   -22.4641     9.0223     9.7738    10.6000    76.1013
  289.5000  -999.2500  -999.2500  -999.2500  -999.2500  -999.2500   -22.3517     8.9549     9.6667    10.5576    75.9689
  290.0000  -999.2500  -999.2500  -999.2500  -999.2500  -999.2500   -22.3264     8.8874     9.5796    10.3161    75.0720
  290.5000  -999.2500  -999.2500  -999.2500  -999.2500  -999.2500   -21.3963     8.8192     9.4359    10.1868    74.1219
  291.0000  -999.2500  -999.2500  -999.2500  -999.2500  -999.2500   -20.6036     8.7512     9.2341    10.1085    73.1605
  291.5000  -999.2500  -999.2500  -999.2500  -999.2500  -999.2500   -21.2170     8.6575     9.2755    10.0308    73.1142
  292.0000  -999.2500  -999.2500  -999.2500  -999.2500  -999.2500   -21.3245     8.6876     9.3185     9.9388    73.6415
  292.5000  -999.2500  -999.2500  -999.2500  -999.2500  -999.2500   -22.2305     8.7381     9.2189     9.9667    74.1906
  293.0000  -999.2500  -999.2500  -999.2500  -999.2500  -999.2500   -23.1519     8.7887     9.1479    10.0307    74.4363
  293.5000  -999.2500  -999.2500  -999.2500  -999.2500  -999.2500   -22.4230     8.8397     9.0654     9.9734    72.4995
  294.0000  -999.2500  -999.2500  -999.2500  -999.2500  -999.2500   -21.3849     8.8998     9.0982     9.8478    69.9721
  294.5000  -999.2500  -999.2500  -999.2500  -999.2500  -999.2500   -19.4485     8.8270     9.1383     9.9440    67.0930
  295.0000  -999.2500  -999.2500  -999.2500  -999.2500  -999.2500   -18.0413     8.7399     9.1786    10.0986    64.4161
  295.5000  -999.2500  -999.2500  -999.2500  -999.2500  -999.2500   -17.8970     8.6536     9.2335    10.2170    64.3963
  296.0000  -999.2500  -999.2500  -999.2500  -999.2500  -999.2500   -17.6687     8.5682     9.1583    10.0227    65.4863
  296.5000  -999.2500  -999.2500  -999.2500  -999.2500  -999.2500   -17.7991     8.4836     9.0434     9.9388    66.5766
  297.0000  -999.2500  -999.2500  -999.2500  -999.2500  -999.2500   -18.5558     8.4085     8.9299     9.9915    67.5862
  297.5000  -999.2500  -999.2500  -999.2500  -999.2500  -999.2500   -17.9574     8.3579     8.8180    10.0297    68.4652
  298.0000  -999.2500  -999.2500  -999.2500  -999.2500  -999.2500   -17.6341     8.3076     8.7164     9.5473    69.3540
  298.5000  -999.2500  -999.2500  -999.2500  -999.2500  -999.2500   -17.4672     8.2576     8.6399     9.1490    71.1012
  299.0000  -999.2500  -999.2500  -999.2500  -999.2500  -999.2500   -17.3912     8.2079     8.5641     9.0651    73.8457
  299.5000  -999.2500  -999.2500  -999.2500  -999.2500  -999.2500   -18.5004     8.1251     8.4889     9.4509    75.8018
  300.0000  -999.2500  -999.2500  -999.2500  -999.2500  -999.2500   -19.5642     8.0283     8.3447     9.6694    74.4433
  300.5000  -999.2500  -999.2500  -999.2500  -999.2500  -999.2500   -19.9108     7.9327     8.1853     9.5476    71.7114
  301.0000  -999.2500  -999.2500  -999.2500  -999.2500  -999.2500   -18.4975     7.8382     8.0941     9.3078    70.6120
  301.5000  -999.2500  -999.2500  -999.2500  -999.2500  -999.2500   -18.9795     7.7448     8.0040     9.1181    73.4701
  302.0000  -999.2500  -999.2500  -999.2500  -999.2500  -999.2500   -19.7612     7.6574     7.9149     9.0115    73.5974
  302.5000  -999.2500  -999.2500  -999.2500  -999.2500  -999.2500   -19.7256     7.5783     7.8268     8.9297    73.8965
  303.0000  -999.2500  -999.2500  -999.2500  -999.2500  -999.2500   -20.4782     7.5012     7.7389     8.8573    76.1264
  303.5000  -999.2500  -999.2500  -999.2500  -999.2500  -999.2500   -20.6660     7.4245     7.6710     8.7841    77.6809
  304.0000  -999.2500  -999.2500  -999.2500  -999.2500  -999.2500   -19.6692     7.3926     7.6388     8.7382    75.8629
  304.5000  -999.2500  -999.2500  -999.2500  -999.2500  -999.2500   -18.6639     7.3771     7.6111     9.0397    74.2352
  305.0000  -999.2500  -999.2500  -999.2500  -999.2500  -999.2500   -18.8472     7.3616     7.6111     9.1489    75.3550
  305.5000  -999.2500  -999.2500  -999.2500  -999.2500  -999.2500   -19.7455     7.3462     7.6111     8.9740    76.8600
  306.0000  -999.2500  -999.2500  -999.2500  -999.2500  -999.2500   -18.1813     7.3361     7.6111     8.8183    75.0682
  306.5000  -999.2500  -999.2500  -999.2500  -999.2500  -999.2500   -17.3785     7.3622     7.6111     8.8558    72.8858
  307.0000  -999.2500  -999.2500  -999.2500  -999.2500  -999.2500   -18.3121     7.3817     7.6111     8.8886    71.5638
  307.5000  -999.2500  -999.2500  -999.2500  -999.2500  -999.2500   -18.4362     7.4012     7.6111     8.9215    71.5861
  308.0000  -999.2500  -999.2500  -999.2500  -999.2500  -999.2500   -16.7861     7.4208     7.6110     8.9545    71.9843
