~VERSION INFORMATION
 VERS.                2.0:   CWLS LOG ASCII STANDARD - VERSION 2.0
 WRAP.                 NO:   ONE LINE PER DEPTH STEP
~WELL INFORMATION
#MNEM.UNIT      DATA TYPE    INFORMATION
#----------   ------------   ------------------------------
 STRT.F           35.0000:   START DEPTH
 STOP.F          977.0000:   STOP DEPTH
 STEP.F            0.5000:   STEP LENGTH
 NULL.          -999.2500:   NO VALUE
 COMP. FENIX & SCISSON INC:   COMPANY
 WELL.  NPR-3 "SX" #52-14:   WELL
 FLD .             TEAPOT:   FIELD
 LOC .      S14 T38N R78W:   LOCATION
 CNTY.            NATRONA:   COUNTY
 STAT.            WYOMING:   STATE
 CTRY. UNITED STATES OF AMERICA:   COUNTRY
 SRVC.            Unknown:   SERVICE COMPANY
 DATE.        13-MAR-1978:   LOGDATE
 API .       490251059900:   API NUMBER
~CURVE INFORMATION
#MNEM.UNIT       API CODE    CURVE DESCRIPTION
#----------   ------------   ------------------------------
 DEPT.F                  :   
 CALD.IN     45 280 60 00:   CALIPER FROM DENSITY LOG
 GRD .GAPI   45 310 01 00:   GAMMA RAY FROM DENSITY LOG
 CORR.G/C3   45 356 01 00:   DENSITY CORRECTION
 RHOB.G/C3   45 350 01 00:   BULK DENSITY
 DPHI.DEC    45 890 12 00:   DENSITY POROSITY SANDSTONE
 SPR .MV     07 010 01 00:   SPONTANEOUS POTENTIAL FROM RES. LOG
 ILD .OHMM   07 120 46 00:   INDUCTION LOG DEEP
 SN  .OHMM   07 040 16 00:   SHORT NORMAL 16'
~PARAMETER INFORMATION
#MNEM.UNIT          VALUE    DESCRIPTION
#----------   ------------   ------------------------------
 PD  .                 GL:   PERMANENT DATUM
 EPD .F              5223:   ELEVATION PERMANENT DATUM
 LMF .                 KB:   LOG MEASURED FROM
 DAPD.F                 4:   FEET ABOVE PERMANENT DATUM
 DMF .                 KB:   DRILLING MEASURED FROM
 EKB .F              5227:   KELLING BUSHING
 EGL .F              5223:   GROUND LEVEL
 DATE.            3-13-78:   RUN DATE
 RUN .                  1:   RUN NUMBER
 DD  .F               975:   DEPTH DRILLER
 DL  .F               977:   DEPTH LOGGER
 BLI .F               971:   BOTTOM LOG INTERVAL
 TLI .F                50:   TOP LOG INTERVAL
 CS  .IN            8.625:   CASING SIZE
 CBD .F                40:   CASING BOTTOM DRILLER
 CBL .F                40:   CASING BOTTOM LOGGER
 BS  .IN            7.875:   BIT SIZE
 BSD .F               975:   BIT SIZE AT DEPTH
 DFT .                KCL:   DRILLING FLUID TYPE
 DFD .                8.6:   DRILLING FLUID DENSITY
 DFV .                 33:   DRILLING FLUID VISCOSITY
 DFPH.               10.5:   DRILLING FLUID PH
 DFL .               11.6:   DRILLING FLUID LOSS
 MSS .          FLOW LINE:   MUD SAMPLE SOURCE
 RMS .OHMM            .34:   RESISTIVITY MUD SAMPLE
 MST .F                60:   MUD SAMPLE TEMPERATURE
 RMF .OHMM            .36:   RESISTIVITY MUD FILTRATE SAMPLE
 MFST.F                62:   MUD FILTRATE SAMPLE TEMPERATURE
 RMC .OHMM            .75:   RESISTIVITY MUD CAKE
 MCST.F                59:   MUD CAKE SAMPLE TEMPERATURE
 MFSS.               MEAS:   MUD FILTRATE SAMPLE SOURCE
 MCSS.               MEAS:   MUD CAKE SAMPLE SOURCE
 RMB .OHMM            .27:   RESISTIVITY MUD AT BHT
 BHT .F                75:   BOTTOM HOLE TEMPERATURE
 TCS .HRS               4:   TIME CURCULATED STOPPED
 MRT .F                75:   MAXIMUM RECORDED TEMPERATURE
 LUN .               2958:   LOGGING UNIT NUMBER
 LUL .               CASP:   LOGGING UNIT LOCATION
 ENGI.             MILLER:   RECORDING ENGINEER
 WITN.            RHOADES:   WITNESSED BY
 CLNT.            A2DTECH:   CLIENT CODE
 ORIG.       2", 5" PRINT:   ORIGIN OF DATA
 UWI .       490251059900:   UNIQUE WELL ID
 DICO. A2D Technologies, Inc.:   DIGITIZING COMPANY
~OTHER INFORMATION
~A   DEPT     CALD         GRD      CORR       RHOB       DPHI        SPR        ILD         SN   
# ...
  399.5000     8.0525    73.5104     0.0307     2.3916     0.1546   -40.4621    16.3741    14.5669
  400.0000     8.0543    76.9962     0.0316     2.3780     0.1603   -40.5243    16.6261    14.5390
  400.5000     8.0562    79.1036     0.0324     2.3644     0.1649   -40.5865    16.5779    14.5112
  401.0000     8.0581    76.7533     0.0273     2.3603     0.1676   -40.6487    16.5396    14.4834
  401.5000     8.0600    76.9856     0.0217     2.3566     0.1710   -40.7110    16.5021    14.2754
  402.0000     8.0619    77.7982     0.0163     2.3480     0.1767   -40.7728    16.4020    13.9899
  402.5000     8.0638    76.8855     0.0131     2.3332     0.1824   -40.8196    16.1405    13.7101
  403.0000     8.0657    75.3486     0.0176     2.3285     0.1849   -40.8184    15.8848    13.4360
  403.5000     8.0676    73.7940     0.0260     2.3379     0.1768   -40.8176    15.6331    13.1672
  404.0000     8.0695    73.0223     0.0293     2.3457     0.1729   -40.8125    15.3854    13.0077
  404.5000     8.0714    73.0095     0.0327     2.3491     0.1698   -40.8352    15.2143    12.9043
  405.0000     8.0732    76.6342     0.0411     2.3538     0.1696   -41.5882    15.0839    12.8017
  405.5000     8.0751    80.6711     0.0368     2.3677     0.1717   -42.2721    14.9546    12.6998
  406.0000     8.0759    82.1627     0.0274     2.3610     0.1737   -42.9705    14.8264    12.5988
  406.5000     8.0753    74.5697     0.0246     2.3512     0.1714   -42.9086    14.6990    12.4986
  407.0000     8.0747    69.5288     0.0245     2.3506     0.1693   -42.9971    14.5727    12.3992
  407.5000     8.0741    70.6885     0.0245     2.3594     0.1700   -43.9187    14.4607    12.3006
  408.0000     8.0735    76.9433     0.0245     2.3603     0.1709   -44.8244    14.3979    12.2028
  408.5000     8.0729    79.3193     0.0239     2.3685     0.1586   -45.4744    14.3354    12.1058
  409.0000     8.0723    80.0061     0.0232     2.3732     0.1573   -46.0497    14.2728    12.0095
  409.5000     8.0717    80.6457     0.0237     2.3762     0.1552   -46.3666    14.2097    11.9139
  410.0000     8.0711    83.1321     0.0304     2.3959     0.1466   -46.2346    13.7713    11.8192
  410.5000     8.0705    91.6216     0.0274     2.4163     0.1381   -46.7337    13.3413    11.7252
  411.0000     8.0700    94.4367     0.0169     2.4255     0.1287   -47.6238    12.6743    11.4575
  411.5000     8.0694    94.7840     0.0132     2.4317     0.1200   -48.6895    11.6461    11.1461
  412.0000     8.0688    92.8044     0.0142     2.4408     0.1205   -50.2278    10.7012    10.5580
  412.5000     8.0682    92.6604     0.0152     2.4382     0.1199   -51.7780     9.8331     9.9172
  413.0000     8.0676    92.4730     0.0163     2.4338     0.1172   -53.3280     9.0354     9.2060
  413.5000     8.0670    93.1487     0.0145     2.4396     0.1179   -52.9912     8.3020     8.4628
  414.0000     8.0664    94.4402     0.0119     2.4433     0.1170   -52.6455     7.6278     7.8621
  414.5000     8.0658    95.5719     0.0092     2.4433     0.1148   -52.9774     7.0085     7.8246
  415.0000     8.0652    95.0463     0.0067     2.4419     0.1208   -52.9085     6.7495     7.7873
  415.5000     8.0646    94.8620     0.0114     2.4305     0.1199   -52.7399     6.6841     7.7501
  416.0000     8.0640    96.3885     0.0167     2.4366     0.1176   -52.5998     6.6197     7.7131
  416.5000     8.0634    96.7127     0.0180     2.4410     0.1182   -53.0177     6.5962     7.6763
  417.0000     8.0628    97.9946     0.0172     2.4390     0.1192   -53.4849     6.5899     7.6397
  417.5000     8.0622    99.7071     0.0167     2.4365     0.1171   -53.9448     6.5836     7.6033
  418.0000     8.0616    99.1504     0.0241     2.4476     0.1099   -54.0218     6.5773     7.5670
  418.5000     8.0611    96.0157     0.0247     2.4541     0.1064   -53.3452     6.5710     7.5309
  419.0000     8.0605    92.0228     0.0162     2.4574     0.1106   -53.1830     6.5647     7.5069
  419.5000     8.0599    89.7592     0.0106     2.4517     0.1145   -53.4079     6.5584     7.4961
  420.0000     8.0593    90.8066     0.0118     2.4460     0.1172   -53.4632     6.5521     7.4854
  420.5000     8.0587    89.2638     0.0129     2.4418     0.1148   -53.5218     6.5459     7.4746
  421.0000     8.0581    87.9897     0.0141     2.4419     0.1132   -53.5786     6.5400     7.4639
  421.5000     8.0575    88.8303     0.0152     2.4503     0.1122   -53.6348     6.5399     7.4532
  422.0000     8.0569    89.1895     0.0164     2.4587     0.1138   -53.6909     6.5399     7.4425
  422.5000     8.0563    88.5437     0.0155     2.4658     0.1185   -53.7495     6.5400     7.4318
  423.0000     8.0570    88.2112     0.0143     2.4636     0.1236   -53.8824     6.5400     7.4212
  423.5000     8.0583    88.3135     0.0131     2.4448     0.1244   -54.3132     6.5398     7.4106
  424.0000     8.0596    88.2510     0.0119     2.4300     0.1220   -54.7405     6.5316     7.3999
  424.5000     8.0609    87.3890     0.0105     2.4357     0.1189   -55.1664     6.4917     7.3894
  425.0000     8.0622    86.6240     0.0150     2.4401     0.1174   -55.5703     6.4520     7.3785
  425.5000     8.0635    86.7527     0.0208     2.4416     0.1181   -55.0291     6.4125     7.3654
  426.0000     8.0648    88.2426     0.0278     2.4462     0.1111   -53.6310     6.3733     7.3510
  426.5000     8.0661    90.7800     0.0346     2.4536     0.1040   -53.5458     6.3342     7.3363
  427.0000     8.0674    91.0208     0.0382     2.4610     0.1060   -53.5154     6.3024     7.3219
  427.5000     8.0687    90.8653     0.0401     2.4670     0.1072   -53.4789     6.3166     7.3069
  428.0000     8.0700    91.2935     0.0383     2.4583     0.1114   -53.4406     6.3313     7.3985
  428.5000     8.0712    89.7984     0.0367     2.4491     0.1159   -53.3988     6.3459     7.4940
  429.0000     8.0725    87.6777     0.0350     2.4416     0.1204   -53.4938     6.3612     7.5910
  429.5000     8.0738    89.3379     0.0360     2.4354     0.1159   -53.6250     6.4310     7.6892
  430.0000     8.0751    92.0973     0.0383     2.4469     0.1084   -53.7625     6.5053     7.7948
  430.5000     8.0757    92.3160     0.0308     2.4601     0.1093   -53.6993     6.5804     7.8238
  431.0000     8.0734    90.0505     0.0211     2.4563     0.1097   -53.6319     6.6564     7.8548
  431.5000     8.0710    87.7956     0.0118     2.4496     0.1089   -53.9211     6.7332     7.8860
  432.0000     8.0688    89.2679     0.0109     2.4463     0.1160   -54.2124     6.8109     7.9173
  432.5000     8.0665    91.1324     0.0114     2.4575     0.1147   -54.5117     6.8896     7.9486
  433.0000     8.0641    91.3985     0.0121     2.4474     0.1105   -54.3352     6.9691     7.9802
  433.5000     8.0619    86.9465     0.0153     2.4509     0.1063   -53.8412     7.0496     8.0118
  434.0000     8.0596    83.7528     0.0251     2.4594     0.1022   -53.6231     7.1069     8.0436
  434.5000     8.0573    84.6037     0.0346     2.4687     0.0996   -54.1810     7.1069     8.0755
  435.0000     8.0550    85.5058     0.0231     2.4729     0.1051   -54.1939     7.1069     8.1077
  435.5000     8.0527    82.5955     0.0105     2.4697     0.1068   -54.1833     7.1069     8.1400
  436.0000     8.0504    82.2922     0.0153     2.4412     0.1068   -54.6998     7.1069     8.1632
  436.5000     8.0481    84.5571     0.0221     2.4423     0.1068   -55.3782     7.1069     8.1316
  437.0000     8.0458    85.5176     0.0242     2.4591     0.1080   -54.7929     7.1069     8.1067
  437.5000     8.0435    86.4037     0.0173     2.4610     0.1093   -54.0967     7.1069     8.0820
  438.0000     8.0412    88.8876     0.0099     2.4488     0.1191   -53.9933     7.0939     8.0573
  438.5000     8.0389    90.1373     0.0069     2.4440     0.1196   -53.9264     7.0413     8.0326
  439.0000     8.0366    88.4437     0.0074     2.4454     0.1160   -53.8288     6.9891     8.0081
  439.5000     8.0343    86.7920     0.0080     2.4446     0.1212   -53.7304     6.9373     7.9836
