~VERSION INFORMATION
 VERS.                2.0:   CWLS LOG ASCII STANDARD - VERSION 2.0
 WRAP.                 NO:   ONE LINE PER DEPTH STEP
~WELL INFORMATION
#MNEM.UNIT      DATA TYPE    INFORMATION
#----------   ------------   ------------------------------
 STRT.F           80.0000:   START DEPTH
 STOP.F          744.0000:   STOP DEPTH
 STEP.F            0.5000:   STEP LENGTH
 NULL.          -999.2500:   NO VALUE
 COMP.               NAVY:   COMPANY
 WELL. RES 3 TEAPOT DOM #44-S-11:   WELL
 FLD .             TEAPOT:   FIELD
 LOC .      S11 T38N R78W:   LOCATION
 CNTY.            NATRONA:   COUNTY
 STAT.            WYOMING:   STATE
 CTRY. UNITED STATES OF AMERICA:   COUNTRY
 SRVC.       Schlumberger:   SERVICE COMPANY
 DATE.        09-JUL-1962:   LOGDATE
 API .       490250634600:   API NUMBER
~CURVE INFORMATION
#MNEM.UNIT       API CODE    CURVE DESCRIPTION
#----------   ------------   ------------------------------
 DEPT.F                  :   
 SPR .MV     05 010 01 00:   SPONTANEOUS POTENTIAL FROM RES.
 ASN .OHMM   05 041 16 00:   AMPLIFIED SHORT NORMAL 16"
 ILD .OHMM   05 120 46 00:   INDUCTION LOG DEEP
 CILD.MMHO   05 110 46 00:   CONDUCTIVITY INDUCTION LOG DEEP
 GR  .GAPI   30 310 01 00:   GAMMA RAY
~PARAMETER INFORMATION
#MNEM.UNIT          VALUE    DESCRIPTION
#----------   ------------   ------------------------------
 PD  .                 KB:   PERMANENT DATUM
 EPD .F              5182:   ELEVATION PERMANENT DATUM
 EKB .F              5182:   KELLING BUSHING
 EGL .F              5177:   GROUND LEVEL
 DATE.        09-JUL-1962:   RUN DATE
 RUN .                  1:   RUN NUMBER
 DD  .F               745:   DEPTH DRILLER
 DL  .F               745:   DEPTH LOGGER
 BLI .F               744:   BOTTOM LOG INTERVAL
 TLI .F                90:   TOP LOG INTERVAL
 BS  .IN             6.75:   BIT SIZE
 BSD .F               745:   BIT SIZE AT DEPTH
 DFT .           OIL EMUL:   DRILLING FLUID TYPE
 DFD .               10.3:   DRILLING FLUID DENSITY
 DFV .                 50:   DRILLING FLUID VISCOSITY
 DFL .                3.4:   DRILLING FLUID LOSS
 RMS .OHMM            7.0:   RESISTIVITY MUD SAMPLE
 MST .F                73:   MUD SAMPLE TEMPERATURE
 RMF .OHMM            4.5:   RESISTIVITY MUD FILTRATE SAMPLE
 MFST.F                73:   MUD FILTRATE SAMPLE TEMPERATURE
 RMC .OHMM           13.5:   RESISTIVITY MUD CAKE
 MCST.F                73:   MUD CAKE SAMPLE TEMPERATURE
 MFSS.               MEAS:   MUD FILTRATE SAMPLE SOURCE
 MCSS.               MEAS:   MUD CAKE SAMPLE SOURCE
 TCS .HRS            0030:   TIME CURCULATED STOPPED
 LUN .               2503:   LOGGING UNIT NUMBER
 LUL .               CSPR:   LOGGING UNIT LOCATION
 ENGI.           ELLERMAN:   RECORDING ENGINEER
 WITN.          JORGENSON:   WITNESSED BY
 CLNT.            A2DTECH:   CLIENT CODE
 ORIG.           5" PRINT:   ORIGIN OF DATA
 UWI .       490250634600:   UNIQUE WELL ID
 DICO. A2D Technologies, Inc.:   DIGITIZING COMPANY
~OTHER INFORMATION
~A   DEPT      SPR        ASN        ILD       CILD         GR   
# ...
  202.0000   -62.1748    11.5296    11.8178    80.7289  -999.2500
  202.5000   -61.5708    11.6806    11.8892    83.0248  -999.2500
  203.0000   -60.9714    11.8316    11.8847    83.8147  -999.2500
  203.5000   -60.9803    11.9826    11.7984    84.6045  -999.2500
  204.0000   -61.7527    12.1334    11.8704    83.8792  -999.2500
  204.5000   -62.2326    12.2086    11.9410    83.1630  -999.2500
  205.0000   -62.6870    12.2839    11.9345    81.7018  -999.2500
  205.5000   -62.6979    12.2830    12.0053    80.2339  -999.2500
  206.0000   -62.2466    12.3583    12.0759    78.7647  -999.2500
  206.5000   -62.1051    12.5071    12.2224    78.0485  -999.2500
  207.0000   -61.6561    12.5821    12.2296    76.5886  -999.2500
  207.5000   -61.5101    12.6609    12.3638    75.1102  -999.2500
  208.0000   -61.3664    12.7320    12.5103    74.3940  -999.2500
  208.5000   -61.2227    12.8827    12.5810    74.4401  -999.2500
  209.0000   -61.2340    12.9576    12.6516    74.4769  -999.2500
  209.5000   -61.2429    13.0329    12.6451    74.5138  -999.2500
  210.0000   -61.4046    13.0317    12.7171    74.5507  -999.2500
  210.5000   -61.8972    13.0308    12.7878    73.0798  -999.2500
  211.0000   -62.1863    13.1058    12.8573    72.3653  -999.2500
  211.5000   -61.8918    13.1049    12.9279    72.4022  -999.2500
  212.0000   -61.9007    13.2558    12.9985    72.4397  -999.2500
  212.5000   -62.0624    13.3310    13.1450    71.7229  -999.2500
  213.0000   -62.5294    13.4816    13.3798    71.0159  -999.2500
  213.5000   -63.4544    13.6324    13.8162    69.5375  -999.2500
  214.0000   -64.6847    13.8592    14.2662    69.5836  -999.2500
  214.5000   -66.0677    14.0882    14.5658    67.3614  -999.2500
  215.0000   -66.3821    14.5251    15.0145    65.1392  -999.2500
  215.5000   -66.4035    15.2981    15.2382    62.9170  -999.2500
  216.0000   -65.9420    15.2969    15.1559    62.2009  -999.2500
  216.5000   -65.3278    15.5995    15.3024    59.9787  -999.2500
  217.0000   -65.0439    16.0539    15.6007    57.0035  -999.2500
  217.5000   -66.7345    16.3565    16.0507    54.7813  -999.2500
  218.0000   -69.0336    16.5076    16.5008    54.0652  -999.2500
  218.5000   -72.0960    16.3547    16.3311    52.6052  -999.2500
  219.0000   -70.8836    16.0503    16.0222    53.3951  -999.2500
  219.5000   -68.9078    15.7459    15.8010    54.1849  -999.2500
  220.0000   -66.3214    15.4415    15.7958    55.7278  -999.2500
  220.5000   -64.8014    15.1371    15.6388    58.0237  -999.2500
  221.0000   -66.1866    14.9086    15.1025    60.3196  -999.2500
  221.5000   -66.3483    14.7553    14.6421    63.3685  -999.2500
  222.0000   -65.5939    14.5973    14.6369    66.4174  -999.2500
  222.5000   -64.6868    14.3634    14.4799    67.2072  -999.2500
  223.0000   -64.5431    14.0702    14.3989    67.2441  -999.2500
  223.5000   -65.4704    13.9176    14.1661    68.0347  -999.2500
  224.0000   -65.9374    13.9167    13.8574    69.5783  -999.2500
  224.5000   -66.7097    13.9917    13.9280    69.6229  -999.2500
  225.0000   -66.1080    13.9908    13.9226    69.6598  -999.2500
  225.5000   -64.7429    13.9899    13.9163    68.1906  -999.2500
  226.0000   -63.6832    13.9131    13.9111    67.4652  -999.2500
  226.5000   -63.2319    13.9122    13.9831    67.5113  -999.2500
  227.0000   -62.4798    13.8355    13.9007    67.5481  -999.2500
  227.5000   -62.0307    13.7587    13.8196    66.8228  -999.2500
  228.0000   -62.1924    13.3784    13.6627    68.3748  -999.2500
  228.5000   -62.3542    12.6947    13.2023    73.6828  -999.2500
  229.0000   -62.3634    11.8455    12.2107    80.5578  -999.2500
  229.5000   -62.2193    10.6146    11.1433    89.9128  -999.2500
  230.0000   -61.6198    10.1121    10.0000   103.9230  -999.2500
  230.5000   -60.2547     9.6561     8.9135   113.7490  -999.2500
  231.0000   -58.4317     8.5767     7.9914   124.3281  -999.2500
  231.5000   -57.0666     7.9956     7.1758   134.1541  -999.2500
  232.0000   -56.0046     7.4982     7.0947   143.2271  -999.2500
  232.5000   -55.5578     7.1639     7.0895   152.3001  -999.2500
  233.0000   -55.4137     7.1628     7.0843   157.6080  -999.2500
  233.5000   -55.4231     7.1467     7.0033   157.6449  -999.2500
  234.0000   -55.4336     7.1307     6.9980   156.1747  -999.2500
  234.5000   -55.4418     7.1146     6.9170   155.4593  -999.2500
  235.0000   -55.4508     7.0985     6.9118   155.4970  -999.2500
  235.5000   -55.7651     7.0521     6.9066   154.7802  -999.2500
  236.0000   -56.0794     6.9754     6.9014   153.3111  -999.2500
  236.5000   -56.2412     6.8834     6.8961   152.6041  -999.2500
  237.0000   -56.5558     6.7763     6.8908   152.6409  -999.2500
  237.5000   -56.5666     6.7299     6.9603   151.9156  -999.2500
  238.0000   -56.5755     6.7442     6.9551   150.4556  -999.2500
  238.5000   -56.4318     6.7593     7.0271   149.7303  -999.2500
  239.0000   -56.1355     6.8885     7.0978   149.0233  -999.2500
  239.5000   -56.1444     7.1358     7.1671   148.3071  -999.2500
  240.0000   -56.1534     7.1197     7.0861   147.5910  -999.2500
  240.5000   -56.3151     7.1342     7.0050   146.8748  -999.2500
  241.0000   -56.4767     7.1485     6.9239   146.1587  -999.2500
  241.5000   -56.6384     7.1474     6.9187   146.9577  -999.2500
  242.0000   -56.4947     7.0706     6.8376   146.9946  -999.2500
  242.5000   -56.1983     6.9938     6.8323   150.7965  -999.2500
  243.0000   -55.8769     6.9474     6.8270   154.5984  -999.2500
  243.5000   -55.6055     6.8555     6.8207   157.6473  -999.2500
  244.0000   -55.4618     6.7939     6.8155   158.4372  -999.2500
  244.5000   -55.1677     6.7626     6.8103   159.2270  -999.2500
  245.0000   -55.1767     6.7613     6.8823   159.2639  -999.2500
  245.5000   -55.1857     6.7609     6.9530   158.5477  -999.2500
  246.0000   -55.1946     6.7767     6.9465   156.3255  -999.2500
  246.5000   -55.0487     6.8072     7.0176   154.8120  -999.2500
  247.0000   -55.0599     6.8490     7.0880   153.2784  -999.2500
  247.5000   -55.0689     6.8938     7.1580   149.5180  -999.2500
  248.0000   -55.0779     6.9686     7.2296   147.3006  -999.2500
  248.5000   -55.0997     7.0284     7.2997   144.3268  -999.2500
  249.0000   -55.9105     7.2120     7.3709   142.8528  -999.2500
  249.5000   -56.9391     7.2108     7.4411   140.6484  -999.2500
  250.0000   -56.9481     7.2247     7.5105   138.9376  -999.2500
  250.5000   -56.8044     7.2705     7.5053   137.4866  -999.2500
  251.0000   -56.6607     7.3598     7.5773   136.0357  -999.2500
  251.5000   -56.3620     7.4852     7.6480   134.5848  -999.2500
  252.0000   -55.5184     7.6269     7.7173   133.1339  -999.2500
  252.5000   -55.6835     7.7162     7.7893   131.6829  -999.2500
  253.0000   -56.4645     7.7754     7.8589   130.2320  -999.2500
  253.5000   -57.0655     7.7742     7.9294   128.7811  -999.2500
  254.0000   -57.0746     7.7881     7.9241   127.6116  -999.2500
  254.5000   -56.7753     7.8324     7.9179   127.6955  -999.2500
  255.0000   -56.4779     7.9214     7.8368   127.0045  -999.2500
  255.5000   -56.1805     7.9655     7.7556   127.0733  -999.2500
  256.0000   -55.8831     7.9643     7.5227   127.9070  -999.2500
  256.5000   -55.5876     7.8877     7.3657   130.2345  -999.2500
  257.0000   -55.2902     7.7206     7.2846   131.9112  -999.2500
  257.5000   -55.6264     7.5987     7.2034   134.2915  -999.2500
  258.0000   -55.7879     7.4618     7.1223   137.2593  -999.2500
  258.5000   -55.9494     7.4003     7.1170   138.8393  -999.2500
  259.0000   -56.2633     7.3385     7.1118   138.8000  -999.2500
  259.5000   -56.7297     7.2923     7.1837   138.5815  -999.2500
  260.0000   -57.1960     7.2911     7.1771   138.3630  -999.2500
  260.5000   -56.4429     7.3352     7.1718   138.1446  -999.2500
  261.0000   -55.9923     7.3491     7.2438   137.9261  -999.2500
  261.5000   -56.0036     7.3929     7.2372   137.7076  -999.2500
  262.0000   -55.8580     7.3766     7.2319   137.4891  -999.2500
  262.5000   -55.4120     7.3301     7.2266   137.2706  -999.2500
