~VERSION INFORMATION
 VERS.                2.0:   CWLS LOG ASCII STANDARD - VERSION 2.0
 WRAP.                 NO:   ONE LINE PER DEPTH STEP
~WELL INFORMATION
#MNEM.UNIT      DATA TYPE    INFORMATION
#----------   ------------   ------------------------------
 STRT.F            0.0000:   START DEPTH
 STOP.F          530.0000:   STOP DEPTH
 STEP.F            0.5000:   STEP LENGTH
 NULL.          -999.2500:   NO VALUE
 COMP.   LAWRENCE-ALLISON:   COMPANY
 WELL. NPR 3 #51-56SX10 OB3:   WELL
 FLD .             TEAPOT:   FIELD
 LOC .      S10 T38N R78W:   LOCATION
 CNTY.            NATRONA:   COUNTY
 STAT.            WYOMING:   STATE
 CTRY. UNITED STATES OF AMERICA:   COUNTRY
 SRVC.           Gearhart:   SERVICE COMPANY
 DATE.        28-JUN-1987:   LOGDATE
 API .       490251100800:   API NUMBER
~CURVE INFORMATION
#MNEM.UNIT       API CODE    CURVE DESCRIPTION
#----------   ------------   ------------------------------
 DEPT.F                  :   
 CALD.IN     45 280 60 00:   CALIPER ROM DENSITY LOG
 CNC .DEC    45 890 03 00:   NEUTRON POROSITY SANDSTONE
 CORR.G/C3   45 356 01 00:   DENSITY CORRECTION
 DEN .G/C3   45 350 01 00:   COMPENSATED BULK DENSTIY
 PORD.DEC    45 890 12 00:   POROSITY DENSITY SANDSTONE
 GRR .GAPI   07 310 01 00:   GAMMA RAY
 ILD .OHMM   07 120 46 00:   INDUCTION LOG DEEP
 ILM .OHMM   07 120 44 00:   INDUCTION LOG MEDIUM
 LL  .OHMM   07 220 00 00:   LATEROLOG RESISTIVITY
 SPR .MV     07 010 01 00:   SPONTANEOUS POTENTIAL
 DT  .US/F   60 520 00 00:   INTERVAL TRANSIT TIME
~PARAMETER INFORMATION
#MNEM.UNIT          VALUE    DESCRIPTION
#----------   ------------   ------------------------------
 PD  .                 GL:   PERMANENT DATUM
 EPD .F              5198:   ELEVATION PERMANENT DATUM
 LMF .                 KB:   LOG MEASURED FROM
 DAPD.F                 8:   FEET ABOVE PERMANENT DATUM
 DMF .                 KB:   DRILLING MEASURED FROM
 EKB .F              5206:   KELLING BUSHING
 EDF .F              5204:   DRILLING FLOOR
 EGL .F              5198:   GROUND LEVEL
 DATE.        28-JUN-1987:   RUN DATE
 RUN .                  1:   RUN NUMBER
 DD  .F               535:   DEPTH DRILLER
 DL  .F               536:   DEPTH LOGGER
 BLI .F               533:   BOTTOM LOG INTERVAL
 BS  .IN             7.87:   BIT SIZE
 BSD .F               535:   BIT SIZE AT DEPTH
 DFT .                MUD:   DRILLING FLUID TYPE
 RMS .OHMM           0.84:   RESISTIVITY MUD SAMPLE
 MST .F                57:   MUD SAMPLE TEMPERATURE
 RMF .OHMM           0.63:   RESISTIVITY MUD FILTRATE SAMPLE
 MFST.F                57:   MUD FILTRATE SAMPLE TEMPERATURE
 RMC .OHMM           1.05:   RESISTIVITY MUD CAKE
 MCST.F                57:   MUD CAKE SAMPLE TEMPERATURE
 MFSS.               CALC:   MUD FILTRATE SAMPLE SOURCE
 MCSS.               CALC:   MUD CAKE SAMPLE SOURCE
 RMB .OHMM           0.59:   RESISTIVITY MUD AT BHT
 BHT .F                80:   BOTTOM HOLE TEMPERATURE
 TCS .HRS            1200:   TIME CURCULATED STOPPED
 TLAB.HRS            1322:   TIME LOGGER AT BOTTOM
 LUN .               7650:   LOGGING UNIT NUMBER
 LUL .           GILLETTE:   LOGGING UNIT LOCATION
 ENGI. JOHNSTON/HUCKFELDT:   RECORDING ENGINEER
 WITN.             STRONG:   WITNESSED BY
 CLNT.            A2DTECH:   CLIENT CODE
 ORIG.      2.5" 5" PRINT:   ORIGIN OF DATA
 UWI .       490251100800:   UNIQUE WELL ID
 DICO. A2D Technologies, Inc.:   DIGITIZING COMPANY
~OTHER INFORMATION
~A    DEPT    CALD        CNC       CORR        DEN       PORD         GRR         ILD        ILM       LL        SPR         DT   
# ...
  396.5000     6.3609     0.2999     0.0337     2.4640     0.1451    72.6518    18.0207    16.9781    13.9612   -30.0508   101.8737
  397.0000     6.3469     0.2933     0.0303     2.4128     0.1683    71.4536    18.3899    17.4097    14.3539   -19.5374   108.0762
  397.5000     6.3329     0.2806     0.0384     2.3774     0.1800    70.2553    18.6490    18.0615    15.5939   -19.8348   109.5168
  398.0000     6.3040     0.2778     0.0339     2.3767     0.1803    69.6177    18.9117    18.6043    18.1502   -21.7037   107.6317
  398.5000     6.2900     0.2716     0.0359     2.4377     0.1367    67.8587    19.7143    19.6990    19.9920   -24.9179   103.1010
  399.0000     6.2760     0.2587     0.0477     2.4822     0.1125    67.1412    20.8363    20.2721    20.8391   -29.8499    96.0005
  399.5000     6.2771     0.2579     0.0417     2.4996     0.1100    65.3023    19.7222    19.4539    20.5564   -29.2613    91.6966
  400.0000     6.2780     0.2596     0.0381     2.4981     0.1099    66.8067    18.6677    18.8356    18.9404   -26.1261    91.4269
  400.5000     6.2782     0.2623     0.0314     2.4991     0.1088    69.8195    18.1969    18.0683    17.2703   -26.1414    91.9567
  401.0000     6.2785     0.2629     0.0330     2.5005     0.1078    73.0389    17.7261    17.3010    15.6781   -27.0370    92.6181
  401.5000     6.2936     0.2662     0.0361     2.5050     0.1050    76.3033    17.2111    16.7021    13.7749   -24.2191    92.3203
  402.0000     6.3088     0.2671     0.0452     2.5111     0.1023    75.5956    16.5214    16.2427    13.6238   -15.0551    91.7202
  402.5000     6.2942     0.2649     0.0484     2.5111     0.1011    74.0839    16.5292    15.7958    13.4444   -14.3704    91.4981
  403.0000     6.3094     0.2700     0.0454     2.4991     0.1063    70.3231    16.0872    15.3613    13.2675   -20.6663    91.4259
  403.5000     6.3097     0.2736     0.0271     2.4885     0.1144    70.7398    15.8633    15.1461    13.2760   -22.4609    91.4317
  404.0000     6.3100     0.2663     0.0034     2.4841     0.1160    73.6737    15.6418    14.8160    13.0224   -17.5335    91.4363
  404.5000     6.3103     0.2542     0.0125     2.4865     0.1163    76.6187    15.4571    14.8221    12.7521   -18.0151    91.2141
  405.0000     6.3254     0.2479     0.0111     2.4872     0.1148    76.9670    15.4192    14.6252    12.6630   -21.2912    90.8283
  405.5000     6.3406     0.2512     0.0052     2.4872     0.1142    77.2953    15.0508    14.5137    12.5913   -24.8339    90.0907
  406.0000     6.3409     0.2548     0.0037     2.4827     0.1165    77.5856    14.9916    14.2402    12.5994   -24.7448    89.4906
  406.5000     6.3263     0.2565     0.0114     2.4835     0.1174    76.9956    14.7823    14.0509    12.6062   -16.9983    89.0417
  407.0000     6.2820     0.2505     0.0130     2.4843     0.1165    76.4024    14.4894    14.0565    12.6130   -14.8874    88.2148
  407.5000     6.2823     0.2465     0.0161     2.4942     0.1062    74.6108    14.1755    13.8696    12.6197   -17.2810    87.6903
  408.0000     6.2827     0.2452     0.0568     2.5153     0.0975    72.2172    13.8901    13.6852    12.4536   -17.5736    87.4670
  408.5000     6.2680     0.2406     0.0720     2.5176     0.0995    71.6246    13.7066    13.6908    12.1214   -18.1643    87.3214
  409.0000     6.2535     0.2395     0.0585     2.5116     0.1049    71.6342    13.7143    13.5086    11.7980   -22.6600    87.2506
  409.5000     6.2538     0.2461     0.0345     2.5018     0.1091    71.6430    13.9112    13.5142    11.6427   -17.2457    87.2553
  410.0000     6.2690     0.2554     0.0150     2.4966     0.1094    72.2524    13.9177    13.5198    11.6493   -21.1408    87.2600
  410.5000     6.2543     0.2521     0.0271     2.4959     0.1090    75.3003    13.9243    13.5254    11.6557   -21.1320    87.2656
  411.0000     6.2695     0.2493     0.0408     2.4982     0.1078    80.7547    13.9308    13.5310    11.8241   -19.9059    87.2702
  411.5000     6.2847     0.2505     0.0499     2.4997     0.1057    81.8889    13.9374    13.5366    11.8306   -18.0230    87.8039
  412.0000     6.2850     0.2502     0.0576     2.5028     0.1054    81.1051    13.9439    13.5422    11.8371   -15.6277    87.9596
  412.5000     6.2853     0.2465     0.0637     2.5043     0.1053    78.6536    13.9506    13.5478    11.8436   -14.4895    87.8875
  413.0000     6.2856     0.2408     0.0584     2.5035     0.1077    76.9569    13.9573    13.4816    11.8502   -14.5445    87.7421
  413.5000     6.2710     0.2438     0.0172     2.4909     0.1161    76.3363    13.9641    13.3733    11.7780   -15.7508    87.5199
  414.0000     6.2565     0.2558    -0.0024     2.4841     0.1161    75.9264    13.9708    13.3789    11.7008   -16.4485    87.3734
  414.5000     6.2568     0.2579     0.0038     2.4841     0.1161    75.9369    13.9776    13.3844    11.5482   -17.8809    87.3781
  415.0000     6.2519     0.2545     0.0219     2.4842     0.1161    76.2162    13.9843    13.2066    11.3951   -19.2510    87.6861
  415.5000     6.2425     0.2534     0.0431     2.4842     0.1160    78.3533    13.9911    13.2130    11.4023   -19.7768    88.4465
  416.0000     6.2428     0.2353     0.0613     2.4865     0.1112    80.1682    13.9978    13.2183    11.4084   -23.4354    88.5267
  416.5000     6.2283     0.2370     0.0750     2.4971     0.1066    79.5766    13.9122    13.2236    11.4145   -22.5015    88.3801
  417.0000     6.2286     0.2390     0.0359     2.5047     0.1039    78.9850    13.7179    13.2289    11.7400   -20.4344    88.0068
  417.5000     6.2289     0.2456     0.0375     2.5070     0.1027    78.9954    13.6368    13.0527    11.9094   -16.7919    87.5579
  418.0000     6.2292     0.2552     0.0571     2.5078     0.1050    79.6048    13.2734    12.8795    11.9158   -18.8949    87.5625
  418.5000     6.2475     0.2549     0.0617     2.5003     0.1080    80.2141    13.0978    12.8847    11.7478   -14.6805    87.8701
  419.0000     6.2594     0.2558     0.0468     2.4995     0.1086    82.6253    12.9238    12.8900    11.4314   -15.8729    88.2609
  419.5000     6.2598     0.2579     0.0454     2.4996     0.1077    88.0396    12.9306    12.8953    11.0749   -17.9662    88.8624
  420.0000     6.2601     0.2626     0.0545     2.4996     0.1067    88.6887    12.7595    12.9006    10.3754   -19.1586    89.0182
  420.5000     6.2603     0.2596     0.0787     2.5004     0.1061    87.4565    12.5907    12.9060    10.2664   -19.1498    89.0983
  421.0000     6.2606     0.2496     0.0727     2.5036     0.1034    85.0270    12.5966    12.9113    10.2728   -19.1410    89.3297
  421.5000     6.2609     0.2505     0.0665     2.5097     0.1009    81.4214    12.6026    12.9166    10.3306   -19.1322    89.7878
  422.0000     6.2464     0.2677     0.0501     2.5126     0.1009    80.8763    12.6087    12.9220    10.6333   -19.7558    90.9262
  422.5000     6.2318     0.2718     0.0308     2.5126     0.1012    85.0901    12.7899    12.9273    10.7951   -20.7657    91.2331
  423.0000     6.2321     0.2689     0.0279     2.5119     0.1021    84.0960    12.7961    12.9327    10.8792   -25.7640    91.3133
  423.5000     6.2324     0.2560     0.0355     2.5089     0.1029    79.9770    12.8023    12.7609    11.0364   -25.1030    91.5448
  424.0000     6.2327     0.2461     0.0462     2.5082     0.1032    77.7177    12.7547    12.7661    10.8913   -25.9951    91.6260
  424.5000     6.2434     0.2485     0.0553     2.5083     0.1029    75.8959    12.6381    12.9498    10.6017   -24.0110    91.8574
  425.0000     6.2481     0.2614     0.0644     2.5128     0.0980    75.7758    12.6453    12.9550    10.4622   -23.8739    92.0131
  425.5000     6.2484     0.2632     0.0721     2.5294     0.0836    77.0150    12.6514    12.9602    10.4678   -23.3364    92.1689
  426.0000     6.2440     0.2626     0.0706     2.5430     0.0790    79.1631    12.6575    12.7873    10.6188   -20.0878    92.3247
  426.5000     6.2342     0.2689     0.0632     2.5491     0.0793    81.0321    12.6636    12.7930    10.6245   -25.0480    92.8584
