~VERSION INFORMATION
 VERS.                2.0:   CWLS LOG ASCII STANDARD - VERSION 2.0
 WRAP.                 NO:   ONE LINE PER DEPTH STEP
~WELL INFORMATION
#MNEM.UNIT      DATA TYPE    INFORMATION
#----------   ------------   ------------------------------
 STRT.F            4.0000:   START DEPTH
 STOP.F          674.0000:   STOP DEPTH
 STEP.F            0.5000:   STEP LENGTH
 NULL.          -999.2500:   NO VALUE
 COMP. LAWRENCE/ALLISON INC:   COMPANY
 WELL.         21X #10-10:   WELL
 FLD .             TEAPOT:   FIELD
 LOC .      S10 T38N R78W:   LOCATION
 CNTY.            NATRONA:   COUNTY
 STAT.            WYOMING:   STATE
 CTRY. UNITED STATES OF AMERICA:   COUNTRY
 SRVC.           Gearhart:   SERVICE COMPANY
 DATE.        17-AUG-1987:   LOGDATE
 API .       490251118400:   API NUMBER
~CURVE INFORMATION
#MNEM.UNIT       API CODE    CURVE DESCRIPTION
#----------   ------------   ------------------------------
 DEPT.F                  :   
 GRR .GAPI   07 310 01 00:   GAMMA RAY FROM RESISTIVITY
 ILD .OHMM   07 120 46 00:   INDUCTION LOG DEEP
 ILM .OHMM   07 120 44 00:   INDUCTION LOG MEDIUM
~PARAMETER INFORMATION
#MNEM.UNIT          VALUE    DESCRIPTION
#----------   ------------   ------------------------------
 PD  .                 GL:   PERMANENT DATUM
 EPD .F              5253:   ELEVATION PERMANENT DATUM
 LMF .                 KB:   LOG MEASURED FROM
 DAPD.F                12:   FEET ABOVE PERMANENT DATUM
 DMF .                 KB:   DRILLING MEASURED FROM
 EKB .F              5265:   KELLING BUSHING
 EDF .F              5263:   DRILLING FLOOR
 EGL .F              5253:   GROUND LEVEL
 DATE.        17-AUG-1987:   RUN DATE
 RUN .                  1:   RUN NUMBER
 DD  .F               690:   DEPTH DRILLER
 DL  .F               682:   DEPTH LOGGER
 BLI .F               674:   BOTTOM LOG INTERVAL
 TLI .F                60:   TOP LOG INTERVAL
 CS  .IN            8.625:   CASING SIZE
 CBD .F                50:   CASING BOTTOM DRILLER
 CBL .F                60:   CASING BOTTOM LOGGER
 BS  .IN             7.87:   BIT SIZE
 BSD .F               690:   BIT SIZE AT DEPTH
 DFT .               FOAM:   DRILLING FLUID TYPE
 TCS .HRS            1500:   TIME CURCULATED STOPPED
 TLAB.HRS            1609:   TIME LOGGER AT BOTTOM
 LUN .               7597:   LOGGING UNIT NUMBER
 LUL .           GILLETTE:   LOGGING UNIT LOCATION
 ENGI.           JOHNSTON:   RECORDING ENGINEER
 WITN.             STRONG:   WITNESSED BY
 CLNT.            A2DTECH:   CLIENT CODE
 ORIG.       2", 5" PRINT:   ORIGIN OF DATA
 UWI .       490251118400:   UNIQUE WELL ID
 DICO. A2D Technologies, Inc.:   DIGITIZING COMPANY
~OTHER INFORMATION
~A    DEPT      GRR       ILD        ILM   
# ...
  368.0000   126.8217     5.1075     4.3197
  368.5000   127.7602     5.1439     4.3503
  369.0000   127.4829     5.2170     4.4426
  369.5000   126.8541     5.2910     4.5108
  370.0000   122.3757     5.8751     5.3644
  370.5000   121.4838     5.9584     5.9567
  371.0000   121.5171     6.2573     6.2553
  371.5000   124.5833     7.0950     6.9946
  372.0000   128.8653     7.4508     7.2434
  372.5000   130.7156     7.7162     7.3971
  373.0000   131.9581     7.8804     7.3976
  373.5000   132.5927     7.9924     7.5546
  374.0000   132.2433     7.9935     7.6613
  374.5000   128.7012     7.9946     7.7156
  375.0000   126.6002     7.9957     7.7701
  375.5000   125.7083     7.9967     7.8251
  376.0000   125.4310     7.9978     7.9356
  376.5000   125.4643     7.9989     7.9917
  377.0000   126.7068     8.0000     7.9365
  377.5000   129.1650     8.0011     7.8820
  378.0000   130.4075     7.8914     7.8277
  378.5000   129.8024     7.7293     7.7670
  379.0000   128.9477     7.6764     7.6666
  379.5000   128.6637     7.6777     7.6138
  380.0000   131.1286     7.7325     7.6678
  380.5000   132.0671     7.7335     7.6683
  381.0000   132.0938     7.7887     7.7225
  381.5000   133.6402     7.7898     7.7231
  382.0000   134.5787     7.7908     7.7236
  382.5000   134.9093     7.7919     7.7241
  383.0000   133.6961     7.7930     7.6709
  383.5000   130.9676     7.7943     7.7253
  384.0000   131.3484     7.7953     7.6720
  384.5000   132.8948     7.7420     7.6191
  385.0000   133.8333     7.5303     7.4618
  385.5000   133.8600     7.2733     7.2066
  386.0000   133.5760     7.0251     7.0087
  386.5000   133.2987     6.9287     6.9604
  387.0000   134.5478     6.8815     6.7198
  387.5000   136.3982     6.8825     6.4396
  388.0000   136.4248     6.6943     6.2265
  388.5000   134.0265     6.4209     6.2270
  389.0000   133.4386     6.3769     6.2274
  389.5000   134.0798     6.2460     6.0564
  390.0000   135.3223     5.7455     5.7280
  390.5000   135.9568     5.3967     5.4935
  391.0000   135.9834     5.4352     5.0526
  391.5000   136.3141     5.5123     4.6447
  392.0000   135.7328     5.5136     4.5830
  392.5000   134.5035     5.5524     4.6803
  393.0000   132.0345     5.5533     4.9150
  393.5000   128.8218     5.7112     5.1975
  394.0000   128.5445     6.0819     5.8117
  394.5000   128.2672     6.5219     6.1458
  395.0000   127.9899     6.8970     6.6365
  395.5000   127.1114     7.0437     6.9692
  396.0000   123.4906     7.0447     7.0676
  396.5000   123.8212     7.0456     7.0682
  397.0000   123.8478     6.9976     7.0687
  397.5000   122.2746     6.8466     6.8746
  398.0000   119.9498     6.4830     6.5018
  398.5000   120.5910     6.0895     5.8971
  399.0000   122.7453     5.8408     5.6953
  399.5000   125.2035     5.6023     5.3118
  400.0000   127.8950     5.3733     4.9721
  400.5000   131.0206     5.3361     4.7850
  401.0000   131.6435     5.3361     4.8232
  401.5000   130.4427     5.4110     5.0036
  402.0000   126.2024     5.7614     5.2052
  402.5000   125.6057     5.9658     5.4665
  403.0000   126.2324     6.0919     5.9447
  403.5000   124.7276     6.6235     6.2868
  404.0000   122.0071     7.0525     6.9329
  404.5000   120.1984     7.3027     7.0806
  405.0000   120.8213     7.5618     7.2820
  405.5000   124.1798     7.7252     7.6475
  406.0000   126.6264     7.8373     7.8650
  406.5000   127.5533     7.9955     7.9767
  407.0000   126.9503     8.0515     8.0336
  407.5000   124.4428     8.3371     8.0910
  408.0000   120.8713     8.4542     8.2633
  408.5000   120.9270     8.4542     8.3817
  409.0000   120.9451     8.3954     8.4995
  409.5000   121.2641     8.3954     8.5007
  410.0000   121.2791     8.3371     8.5021
  410.5000   120.9902     8.2792     8.5033
  411.0000   121.3091     8.1645     8.5044
  411.5000   122.8439     8.0515     8.2715
  412.0000   123.7708     8.0515     8.0449
  412.5000   124.0897     8.0515     7.9898
  413.0000   124.4049     8.1116     8.0472
  413.5000   119.5605     8.2792     8.2761
  414.0000   118.6599     8.4542     8.4523
  414.5000   120.5023     8.5729     8.5722
  415.0000   122.3410     8.5729     8.6335
  415.5000   122.6950     8.3589     8.6346
  416.0000   120.2434     8.1645     8.6963
  416.5000   116.0031     8.0515     8.6975
  417.0000   115.1063     7.8848     8.7596
  417.5000   114.8173     7.7756     8.7670
  418.0000   114.8328     7.1819     8.3567
  418.5000   115.2077     6.3405     6.8169
  419.0000   120.3372     6.2642     6.3583
  419.5000   132.5103     6.3080     5.3041
  420.0000   138.2966     6.4414     5.0520
  420.5000   137.0996     6.4864     5.3056
  421.0000   126.1723     6.5318     5.9746
  421.5000   115.2451     6.6235     6.5428
  422.0000   111.3050     7.0525     7.3166
  422.5000   111.0160     8.6329     7.8464
  423.0000   112.8585     9.1281     8.4146
  423.5000   115.3051     9.6517     9.2148
  424.0000   115.9281    10.0640     9.8134
  424.5000   114.1194    10.2053     9.9527
  425.0000   109.5751    10.2053     9.9540
  425.5000   108.6423    10.4989     9.6814
  426.0000   110.2130    10.8969     9.6991
  426.5000   111.4438    11.8972     9.9582
  427.0000   112.3707    12.5796    10.1705
  427.5000   109.4985    13.5824    11.6953
  428.0000   102.4314    14.8710    14.0235
  428.5000    95.0607    15.8340    15.1444
  429.0000    81.4314    16.7423    17.2936
  429.5000    74.7595    18.7182    19.7479
  430.0000    60.1849    19.9304    21.4756
  430.5000    57.1604    20.4941    22.2411
  431.0000    56.8677    20.6374    22.3999
  431.5000    56.8864    20.7818    22.0925
  432.0000    59.6370    20.4941    20.6064
  432.5000    65.1231    19.9304    19.4903
  433.0000    73.6488    19.1050    18.4347
  433.5000    78.8310    18.0435    17.6765
  434.0000    79.4539    17.4576    17.3174
  434.5000    78.5570    17.4576    17.7210
  435.0000    77.0523    17.8266    18.1899
  435.5000    75.5476    18.0769    18.3198
  436.0000    70.0914    18.2034    18.4506
  436.5000    67.6748    18.2034    18.3248
  437.0000    67.9939    17.9513    18.0727
  437.5000    68.6677    17.8266    17.8253
  438.0000    72.4825    17.5797    17.5807
  438.5000    77.2138    17.4576    17.4603
  439.0000    78.6959    17.2158    17.3413
  439.5000    79.9267    17.0962    17.1033
  440.0000    84.5010    17.0962    16.8686
  440.5000    87.8595    17.1042    16.6377
  441.0000    89.3942    17.2158    16.4093
  441.5000    88.8013    17.3363    16.2975
  442.0000    87.9045    17.5797    16.2998
  442.5000    85.7918    17.9513    16.3020
  443.0000    81.2476    18.2034    16.3043
  443.5000    79.7428    18.4590    16.3070
  444.0000    79.4501    18.7182    16.5385
  444.5000    82.5084    19.1138    17.0089
  445.0000    82.5234    19.3822    17.3711
  445.5000    81.6266    19.6544    17.8652
  446.0000    79.5139    19.7919    18.3734
  446.5000    77.7052    19.7919    18.5046
  447.0000    75.5826    19.7919    18.6367
  447.5000    74.9997    19.6544    18.9012
  448.0000    77.2240    19.5178    19.1694
  448.5000    79.3414    19.3643    19.3063
  449.0000    79.9117    18.9810    19.1746
  449.5000    79.9267    18.7182    18.9116
  450.0000    81.0825    18.1721    18.3944
  450.5000    83.3040    17.9484    18.1445
  451.0000    82.6687    17.8388    17.7722
  451.5000    81.8307    17.9713    17.4100
  452.0000    83.0674    17.8525    17.1723
  452.5000    84.6080    17.7330    17.0576
  453.0000    84.6289    17.6174    17.0634
  453.5000    83.1300    17.4995    17.0681
  454.0000    81.6311    17.6294    17.0727
  454.5000    80.4309    17.7589    17.0775
  455.0000    80.7609    17.8892    16.8453
  455.5000    82.3015    18.0206    16.8511
  456.0000    86.5777    18.0267    16.8557
  456.5000    87.5106    17.9075    17.0972
  457.0000    87.5319    18.1653    17.3423
  457.5000    88.1653    18.3116    17.7139
  458.0000    88.4901    18.5622    18.0936
  458.5000    88.8149    18.6998    18.0985
