~VERSION INFORMATION
 VERS.                2.0:   CWLS LOG ASCII STANDARD - VERSION 2.0
 WRAP.                 NO:   ONE LINE PER DEPTH STEP
~WELL INFORMATION
#MNEM.UNIT      DATA TYPE    INFORMATION
#----------   ------------   ------------------------------
 STRT.F           52.5000:   START DEPTH
 STOP.F         2929.0000:   STOP DEPTH
 STEP.F            0.5000:   STEP LENGTH
 NULL.          -999.2500:   NO VALUE
 COMP.   FLUOR DANIEL INC:   COMPANY
 WELL. NAVAL PETROLEUM RESERVE 3 X-23 #52-23:   WELL
 FLD .            WILDCAT:   FIELD
 LOC .      S23 T38N R78W:   LOCATION
 CNTY.            NATRONA:   COUNTY
 STAT.            WYOMING:   STATE
 CTRY. UNITED STATES OF AMERICA:   COUNTRY
 SRVC.            Unknown:   SERVICE COMPANY
 DATE.        23-APR-1995:   LOGDATE
 API .       490252271500:   API NUMBER
~CURVE INFORMATION
#MNEM.UNIT       API CODE    CURVE DESCRIPTION
#----------   ------------   ------------------------------
 DEPT.F                  :   
 ROP .MIN/FT 91 810 01 00:   RAT OF DRILLING PENETRATION
 TGAS.UNITS  91 830 01 00:   TOTAL GAS FROM HOTWIRE
~PARAMETER INFORMATION
#MNEM.UNIT          VALUE    DESCRIPTION
#----------   ------------   ------------------------------
 EKB .F              5344:   KELLING BUSHING
 EGL .F              5334:   GROUND LEVEL
 DATE.            4-23-95:   RUN DATE
 DD  .F              2929:   DEPTH DRILLER
 CS  .IN            9.625:   CASING SIZE
 CBD .F                53:   CASING BOTTOM DRILLER
 BS  .IN             8.75:   BIT SIZE
 BSD .F              2929:   BIT SIZE AT DEPTH
 ENGI.              TOWER:   RECORDING ENGINEER
 WITN.               HUSK:   WITNESSED BY
 CLNT.            A2DTECH:   CLIENT CODE
 ORIG.           5" PRINT:   ORIGIN OF DATA
 UWI .       490252271500:   UNIQUE WELL ID
 DICO. A2D Technologies, Inc.:   DIGITIZING COMPANY
~OTHER INFORMATION
~A   DEPT        ROP     TGAS   
# ...
  660.0000     0.5439     1.6780
  660.5000     0.5437     1.6632
  661.0000     0.5434     1.6484
  661.5000     0.5432     1.6336
  662.0000     0.5429     1.6188
  662.5000     0.5427     1.6040
  663.0000     0.5424     1.5892
  663.5000     0.5422     1.5744
  664.0000     0.5419     1.5596
  664.5000     0.5417     1.5448
  665.0000     0.5414     1.5300
  665.5000     0.5411     1.5152
  666.0000     0.5409     2.2769
  666.5000     0.5406     2.9338
  667.0000     0.5404     3.5886
  667.5000     0.5401     4.2434
  668.0000     0.5399     4.4686
  668.5000     0.5396     4.9087
  669.0000     0.5394     5.3504
  669.5000     0.5391     5.3608
  670.0000     0.5389     5.3712
  670.5000     0.5386     5.5964
  671.0000     0.5384     5.8217
  671.5000     0.5381     5.8338
  672.0000     0.5379     6.0590
  672.5000     0.5376     6.0694
  673.0000     0.5373     6.0798
  673.5000     0.5371     6.0903
  674.0000     0.5368     6.1007
  674.5000     0.5366     6.1128
  675.0000     0.5363     6.1232
  675.5000     0.5361     5.9171
  676.0000     0.5358     6.1441
  676.5000     0.5356     6.1545
  677.0000     0.5353     6.1666
  677.5000     0.5351     6.1770
  678.0000     0.5348     6.4023
  678.5000     0.5346     6.4127
  679.0000     0.5343     6.4231
  679.5000     0.5340     6.8648
  680.0000     0.5338     6.6570
  680.5000     0.5349     6.0247
  681.0000     0.5370     5.3925
  681.5000     0.5391     4.7585
  682.0000     0.5412     4.3393
  682.5000     0.5433     4.1367
  683.0000     0.5454     3.9288
  683.5000     0.5475     3.5114
  684.0000     0.5496     3.3070
  684.5000     0.6348     3.1026
  685.0000     0.6353     2.6869
  685.5000     0.6357     2.4825
  686.0000     0.6361     2.2764
  686.5000     0.6366     2.2886
  687.0000     0.6370     2.2990
  687.5000     0.6375     2.3111
  688.0000     0.6379     2.3215
  688.5000     0.6383     2.3320
  689.0000     0.6388     2.3424
  689.5000     0.6392     2.3528
  690.0000     0.6397     2.3722
  690.5000     0.6401     2.3951
  691.0000     0.6405     2.4181
  691.5000     0.6410     2.4411
  692.0000     0.6414     2.4641
  692.5000     0.6419     2.4871
  693.0000     0.6423     2.5101
  693.5000     0.6428     2.5330
  694.0000     0.6432     2.5560
  694.5000     0.6436     2.5776
  695.0000     0.6441     2.5267
  695.5000     0.6445     2.4789
  696.0000     0.6450     2.4310
  696.5000     0.6454     2.3832
  697.0000     0.6458     2.3353
  697.5000     0.6463     2.2875
  698.0000     0.6467     2.2396
  698.5000     0.6472     2.1918
  699.0000     0.6476     2.1480
  699.5000     0.6480     2.1480
  700.0000     0.6485     2.1480
  700.5000     0.6490     2.1480
  701.0000     0.6496     2.1480
  701.5000     0.6501     2.1480
  702.0000     0.6506     2.1480
  702.5000     0.6511     2.1480
  703.0000     0.6517     2.1480
  703.5000     0.6185     2.1480
  704.0000     0.5376     2.1480
  704.5000     0.6009     2.5776
  705.0000     0.6015     3.2220
  705.5000     0.6020     3.6516
  706.0000     0.6025     3.8663
  706.5000     0.6030     3.0072
  707.0000     0.6036     2.7924
  707.5000     0.6041     2.5776
  708.0000     0.6046     2.3628
  708.5000     0.6051     2.1648
  709.0000     0.6056     2.2163
  709.5000     0.6062     2.2679
  710.0000     0.6067     2.3194
  710.5000     0.6072     2.3709
  711.0000     0.6077     2.4225
  711.5000     0.6083     2.4740
  712.0000     0.6088     2.5255
  712.5000     0.6093     2.5776
  713.0000     0.6098     2.5598
  713.5000     0.6104     2.5418
  714.0000     0.6109     2.5238
  714.5000     0.6114     2.5058
  715.0000     0.6119     2.4878
  715.5000     0.6124     2.4698
  716.0000     0.6130     2.4519
  716.5000     0.6135     2.4339
  717.0000     0.6140     2.4159
  717.5000     0.6145     2.3979
  718.0000     0.6151     2.3799
  718.5000     0.6156     2.3619
  719.0000     0.6161     2.3440
  719.5000     0.6166     2.3260
  720.0000     0.6171     2.3080
  720.5000     0.6168     2.2900
  721.0000     0.6166     2.2720
  721.5000     0.6163     2.2540
  722.0000     0.6161     2.2361
  722.5000     0.6158     2.2181
  723.0000     0.6155     2.2001
  723.5000     0.6153     2.1821
  724.0000     0.6150     2.1641
  724.5000     0.6148     2.1480
  725.0000     0.6145     2.1758
  725.5000     0.6143     2.2011
  726.0000     0.6140     2.2263
  726.5000     0.6137     2.2516
  727.0000     0.6135     2.2768
  727.5000     0.6132     2.3021
  728.0000     0.6130     2.3274
  728.5000     0.6127     2.3526
  729.0000     0.6124     2.3779
  729.5000     0.6122     2.4031
  730.0000     0.6119     2.4284
  730.5000     0.6117     2.4536
  731.0000     0.6114     2.4789
  731.5000     0.6112     2.5042
  732.0000     0.6109     2.5294
  732.5000     0.6106     2.5547
  733.0000     0.6104     2.5776
  733.5000     0.6101     2.5210
  734.0000     0.6099     2.4693
  734.5000     0.6096     2.4176
  735.0000     0.6093     2.3659
  735.5000     0.6091     2.3142
  736.0000     0.6088     2.2625
  736.5000     0.6086     2.2108
  737.0000     0.6083     2.1591
  737.5000     0.6081     2.1074
  738.0000     0.6078     2.0557
  738.5000     0.6075     2.0040
  739.0000     0.6073     1.9523
  739.5000     0.6070     1.9006
  740.0000     0.6067     1.8489
  740.5000     0.6060     1.7972
  741.0000     0.6051     1.7455
  741.5000     0.6043     1.7184
  742.0000     0.6035     1.7184
  742.5000     0.6026     1.7184
  743.0000     0.6018     1.7184
  743.5000     0.6010     1.7184
  744.0000     0.6001     1.7184
  744.5000     0.5993     1.7184
  745.0000     0.5985     1.7184
  745.5000     0.5976     1.7375
  746.0000     0.5968     1.7764
  746.5000     0.5960     1.8153
  747.0000     0.5951     1.8541
  747.5000     0.5943     1.8930
  748.0000     0.5732     1.9332
  748.5000     0.4901     1.9440
  749.0000     0.4906     1.9551
  749.5000     0.4911     1.9663
  750.0000     0.4916     1.9775
  750.5000     0.4922     1.9886
  751.0000     0.4927     1.9998
  751.5000     0.4932     2.0110
  752.0000     0.4937     2.0221
  752.5000     0.4942     2.0333
  753.0000     0.4948     2.0445
  753.5000     0.4953     2.0556
  754.0000     0.4958     2.0668
  754.5000     0.4963     2.0780
  755.0000     0.4969     2.0891
  755.5000     0.4974     2.1003
  756.0000     0.4979     2.1115
  756.5000     0.4984     2.1226
  757.0000     0.4990     2.1338
  757.5000     0.4995     2.1450
  758.0000     0.5000     2.1360
  758.5000     0.5005     2.1195
  759.0000     0.5010     2.1031
  759.5000     0.5016     2.0867
  760.0000     0.5021     2.0702
  760.5000     0.5024     2.0538
  761.0000     0.5027     2.0373
  761.5000     0.5029     2.0209
  762.0000     0.5031     2.0045
  762.5000     0.5034     1.9880
  763.0000     0.5036     1.9716
  763.5000     0.5038     1.9551
  764.0000     0.5041     1.9387
  764.5000     0.5043     1.9223
  765.0000     0.5045     1.9058
  765.5000     0.5048     1.8894
  766.0000     0.5050     1.8730
  766.5000     0.5052     1.8565
  767.0000     0.5055     1.8401
  767.5000     0.5057     1.8236
  768.0000     0.5059     1.8072
  768.5000     0.5062     1.7908
  769.0000     0.5064     1.7743
  769.5000     0.5066     1.7579
  770.0000     0.5069     1.7414
  770.5000     0.5071     1.7250
  771.0000     0.5073     1.7835
  771.5000     0.5075     1.8926
  772.0000     0.5078     2.0017
  772.5000     0.5080     2.1108
  773.0000     0.5082     2.2199
  773.5000     0.5085     2.3290
  774.0000     0.5087     2.3495
  774.5000     0.5089     2.3304
  775.0000     0.5092     2.3112
  775.5000     0.5094     2.2920
  776.0000     0.5096     2.2728
  776.5000     0.5099     2.2537
  777.0000     0.5101     2.2345
  777.5000     0.5103     2.2153
  778.0000     0.5106     2.1962
  778.5000     0.5110     2.1770
  779.0000     0.4906     2.1578
  779.5000     0.4911     2.1387
  780.0000     0.4707     2.1195
  780.5000     0.4712     2.1003
  781.0000     0.4613     2.0811
