~VERSION INFORMATION
 VERS.                2.0:   CWLS LOG ASCII STANDARD - VERSION 2.0
 WRAP.                 NO:   ONE LINE PER DEPTH STEP
~WELL INFORMATION
#MNEM.UNIT      DATA TYPE    INFORMATION
#----------   ------------   ------------------------------
 STRT.F           32.0000:   START DEPTH
 STOP.F          812.0000:   STOP DEPTH
 STEP.F            0.5000:   STEP LENGTH
 NULL.          -999.2500:   NO VALUE
 COMP. FENIX & SCISSON INC:   COMPANY
 WELL.       75 SX #15-15:   WELL
 FLD .             TEAPOT:   FIELD
 LOC .      S15 T38N R78W:   LOCATION
 CNTY.            NATRONA:   COUNTY
 STAT.            WYOMING:   STATE
 CTRY. UNITED STATES OF AMERICA:   COUNTRY
 SRVC.              Welex:   SERVICE COMPANY
 DATE.        28-FEB-1977:   LOGDATE
 API .       490251030100:   API NUMBER
~CURVE INFORMATION
#MNEM.UNIT       API CODE    CURVE DESCRIPTION
#----------   ------------   ------------------------------
 DEPT.F                  :   
 SPR .MV     07 010 01 00:   SPONTANEOUS POTENTIAL
 ILD .OHMM   07 120 46 00:   INDUCTION LOG DEEP
 SGRD.OHMM   07 220 05 00:   SHALLOW RESISTIVITY
 ILM .OHMM   07 120 44 00:   INDUCTION LOG MEDIUM
 GRD .GAPI   45 310 01 00:   GAMMA RAY FROM DENSITY LOG
 CALD.IN     45 280 60 00:   CALIPER FROM DENSITY LOG
 RHOB.G/C3   45 350 01 00:   BULK DENSITY
 DPHI.DEC    45 890 12 00:   DENSITY POROSITY SANDSTONE
 CORR.G/C3   45 356 01 00:   DENSITY CORRECTION
~PARAMETER INFORMATION
#MNEM.UNIT          VALUE    DESCRIPTION
#----------   ------------   ------------------------------
 PD  .                 GL:   PERMANENT DATUM
 EPD .F              5264:   ELEVATION PERMANENT DATUM
 LMF .                 GL:   LOG MEASURED FROM
 DMF .                 GL:   DRILLING MEASURED FROM
 EGL .F              5264:   GROUND LEVEL
 DATE.          2-28-1977:   RUN DATE
 RUN .                  1:   RUN NUMBER
 DD  .F               830:   DEPTH DRILLER
 DL  .F               814:   DEPTH LOGGER
 BLI .F               812:   BOTTOM LOG INTERVAL
 TLI .F                42:   TOP LOG INTERVAL
 CS  .IN            8.625:   CASING SIZE
 CBD .F                40:   CASING BOTTOM DRILLER
 CBL .F                42:   CASING BOTTOM LOGGER
 BS  .IN            7.875:   BIT SIZE
 BSD .F               830:   BIT SIZE AT DEPTH
 DFT .           CHEM-GEL:   DRILLING FLUID TYPE
 DFD .                9.3:   DRILLING FLUID DENSITY
 DFV .                 38:   DRILLING FLUID VISCOSITY
 DFPH.               10.5:   DRILLING FLUID PH
 DFL .               16.2:   DRILLING FLUID LOSS
 MSS .          FLOW LINE:   MUD SAMPLE SOURCE
 RMS .OHMM           0.44:   RESISTIVITY MUD SAMPLE
 MST .F                62:   MUD SAMPLE TEMPERATURE
 RMF .OHMM            .38:   RESISTIVITY MUD FILTRATE SAMPLE
 MFST.F                62:   MUD FILTRATE SAMPLE TEMPERATURE
 RMC .OHMM           0.79:   RESISTIVITY MUD CAKE
 MCST.F                62:   MUD CAKE SAMPLE TEMPERATURE
 MFSS.           MEASURED:   MUD FILTRATE SAMPLE SOURCE
 MCSS.           MEASURED:   MUD CAKE SAMPLE SOURCE
 RMB .OHMM           .368:   RESISTIVITY MUD AT BHT
 BHT .F                74:   BOTTOM HOLE TEMPERATURE
 TCS .HRS               3:   TIME CURCULATED STOPPED
 MRT .F                74:   MAXIMUM RECORDED TEMPERATURE
 LUN .               8611:   LOGGING UNIT NUMBER
 LUL .           GILLETTE:   LOGGING UNIT LOCATION
 ENGI.               DOAK:   RECORDING ENGINEER
 WITN.               JAPP:   WITNESSED BY
 CLNT.            A2DTECH:   CLIENT CODE
 ORIG.       2", 5" PRINT:   ORIGIN OF DATA
 UWI .       490251030100:   UNIQUE WELL ID
 DICO. A2D Technologies, Inc.:   DIGITIZING COMPANY
~OTHER INFORMATION
~A   DEPT      SPR        ILD       SGRD        ILM         GRD        CALD       RHOB       DPHI      CORR  
   32.0000  -999.2500  -999.2500  -999.2500  -999.2500    92.8429     7.8191     2.1579     0.2906    -0.4074
   32.5000  -999.2500  -999.2500  -999.2500  -999.2500    99.4036     7.8191     2.1579     0.2917    -0.4042
   33.0000  -999.2500  -999.2500  -999.2500  -999.2500    96.4513     7.8191     2.1524     0.2941    -0.4008
   33.5000  -999.2500  -999.2500  -999.2500  -999.2500    98.8871     7.8274     2.1512     0.2959    -0.3980
   34.0000  -999.2500  -999.2500  -999.2500  -999.2500    95.3793     7.8439     2.1415     0.2982    -0.3945
   34.5000  -999.2500  -999.2500  -999.2500  -999.2500    90.9411     7.8605     2.1355     0.2994    -0.3911
   35.0000  -999.2500  -999.2500  -999.2500  -999.2500    91.3409     7.8771     2.1294     0.2995    -0.3878
   35.5000  -999.2500  -999.2500  -999.2500  -999.2500    92.0127     7.8937     2.1246     0.2995    -0.3846
   36.0000  -999.2500  -999.2500  -999.2500  -999.2500    89.8825     7.9103     2.1300     0.2996    -0.3742
   36.5000  -999.2500  -999.2500  -999.2500  -999.2500    89.8059     7.9267     2.1337     0.2996    -0.3609
   37.0000  -999.2500  -999.2500  -999.2500  -999.2500    90.2236     7.9360     2.1323     0.2997    -0.3476
   37.5000  -999.2500  -999.2500  -999.2500  -999.2500    88.0967     7.9266     2.1312     0.2998    -0.3344
   38.0000  -999.2500  -999.2500  -999.2500  -999.2500    85.9070     7.9176     2.1456     0.2998    -0.3210
   38.5000  -999.2500  -999.2500  -999.2500  -999.2500    85.8576     7.9085     2.1619     0.2897    -0.2905
   39.0000  -999.2500  -999.2500  -999.2500  -999.2500    88.1978     7.8995     2.1782     0.2785    -0.2580
   39.5000  -999.2500  -999.2500  -999.2500  -999.2500    90.0568     7.8905     2.1944     0.2673    -0.2253
   40.0000  -100.2994     1.4556     4.8198     2.6487    91.9126     7.8814     2.2103     0.2562    -0.1805
   40.5000  -100.2994     1.4556     4.8198     2.6487    94.0000     7.8724     2.2522     0.2307    -0.1341
   41.0000  -100.2994     1.4556     4.8198     2.6487    96.2621     7.8634     2.3043     0.1991    -0.0877
   41.5000   -92.5004     1.4573     4.8278     2.6526   101.7481     7.8543     2.3565     0.1715    -0.0413
   42.0000   -79.0399     1.4532     4.8198     2.6487   108.5104     7.8453     2.4086     0.1526     0.0053
   42.5000   -66.5486     1.4631     7.8196     2.6530   115.2660     7.8362     2.4116     0.1428     0.0204
   43.0000   -57.1314     0.7945     8.2897     2.6787   122.1196     7.8271     2.4093     0.1420     0.0225
   43.5000   -50.0380     0.4772     8.9337     2.5353   124.0653     7.8192     2.4127     0.1412     0.0246
   44.0000   -45.4269     0.3411     8.9198     4.3475   122.9547     7.8352     2.4157     0.1404     0.0266
   44.5000   -40.7722     0.2570     8.8934     4.6241   121.3555     7.8534     2.4146     0.1398     0.0287
   45.0000   -36.5039     0.2571     8.8671     4.5397   119.7590     7.8715     2.4135     0.1407     0.0308
   45.5000   -32.6472     0.4361     8.8518     4.5189   118.0999     7.8896     2.4123     0.1419     0.0328
   46.0000   -30.6427     0.6034     8.9963     4.6470   120.5083     7.8920     2.4112     0.1431     0.0349
   46.5000   -28.7118     1.3062     9.2487     4.8052   124.5219     7.8787     2.4109     0.1420     0.0370
   47.0000   -26.7250     3.0077     9.5286     4.9688   123.3358     7.8654     2.4110     0.1408     0.0388
   47.5000   -25.6865     4.6196     9.5286     5.0470   121.4242     7.8521     2.4047     0.1450     0.0384
   48.0000   -24.6695     4.7358     9.5286     5.0359   119.5065     7.8388     2.3960     0.1496     0.0379
   48.5000   -23.7389     4.8549     9.5286     5.0277   117.5871     7.8255     2.3873     0.1542     0.0375
   49.0000   -23.2401     4.9771     9.5286     5.0195   115.9988     7.8122     2.3829     0.1584     0.0371
   49.5000   -22.7324     5.0965     9.5308     5.0112   117.1157     7.7990     2.3894     0.1577     0.0366
   50.0000   -22.2245     5.6373     9.5253     5.0029   118.9275     7.7857     2.4002     0.1479     0.0362
   50.5000   -21.7164     6.2086    10.1663     5.0007   120.5108     7.7818     2.4111     0.1409     0.0358
   51.0000   -21.2083     6.6239    10.1613     5.0007   120.3931     7.7892     2.4193     0.1368     0.0353
   51.5000   -20.7002     6.7158    10.1233     5.0002   120.2936     7.7966     2.4257     0.1336     0.0349
   52.0000   -20.1921     6.6265    10.0646     5.0370   121.3036     7.8040     2.4318     0.1305     0.0375
   52.5000   -19.6840     6.5400    10.2667     5.0943   122.9176     7.8114     2.4398     0.1273     0.0406
   53.0000   -19.1758     6.7230    11.4075     5.0934   122.2577     7.8188     2.4479     0.1241     0.0437
   53.5000   -18.6671     6.9411    12.4460     5.0487   119.6666     7.8262     2.4551     0.1209     0.0467
   54.0000   -18.1474     7.1599    11.3676     5.0011   117.0342     7.8337     2.4441     0.1246     0.0459
   54.5000   -18.1882     6.6187     9.9777     4.9541   114.8568     7.8411     2.4324     0.1296     0.0450
   55.0000   -18.3442     6.1185    10.0584     4.9075   117.5779     7.8485     2.4277     0.1320     0.0440
   55.5000   -18.5049     5.6390    10.1632     4.8614   120.2031     7.8559     2.4293     0.1319     0.0431
   56.0000   -18.6462     5.5538    10.0764     4.8157   120.6503     7.8574     2.4305     0.1317     0.0422
   56.5000   -18.0714     5.4711    10.0005     4.7704   120.9987     7.8552     2.4250     0.1332     0.0412
   57.0000   -17.4634     5.3882     9.9249     4.7256   121.3527     7.8530     2.4192     0.1366     0.0403
   57.5000   -17.0278     5.3063     9.8861     4.6812   121.7275     7.8507     2.4135     0.1399     0.0394
   58.0000   -16.6041     5.2364     9.8861     4.6372   120.8801     7.8485     2.4078     0.1433     0.0385
   58.5000   -16.1803     5.2509     9.8862     4.5936   120.8282     7.8462     2.4021     0.1467     0.0375
   59.0000   -15.7474     5.2637     9.8862     4.5504   121.6681     7.8439     2.3964     0.1500     0.0361
   59.5000   -15.6678     5.2765     9.8862     4.5076   122.5025     7.8417     2.3907     0.1534     0.0328
   60.0000   -15.6688     5.2894     9.7412     4.4774   122.0239     7.8395     2.3850     0.1568     0.0296
   60.5000   -15.6619     5.3022     9.6061     4.4926   118.7386     7.8362     2.3793     0.1602     0.0265
   61.0000   -15.5203     5.3152     9.4728     4.5095   114.1522     7.8328     2.3741     0.1635     0.0232
   61.5000   -15.3810     5.3281     9.3414     4.5265   111.5082     7.8293     2.3782     0.1584     0.0264
   62.0000   -15.1108     5.3411     9.2714     4.5436   113.8187     7.8258     2.3899     0.1521     0.0305
   62.5000   -14.2428     5.3542    10.3482     4.5607   116.0521     7.8222     2.4014     0.1458     0.0346
   63.0000   -13.3827     5.3672    10.2833     4.5778   117.5385     7.8201     2.4129     0.1394     0.0387
   63.5000   -12.5123     5.3831    10.1942     4.5951   118.5925     7.8446     2.4246     0.1337     0.0409
   64.0000   -12.4680     5.3253    10.0700     4.6124   118.9318     7.8696     2.4225     0.1345     0.0403
   64.5000   -12.4749     5.2529    10.0955     4.6297   117.7614     7.8945     2.4150     0.1381     0.0362
   65.0000   -12.4731     5.1815    10.1366     4.6437   118.5635     7.9174     2.4074     0.1417     0.0320
   65.5000   -12.6465     5.1111    10.1659     4.6157   118.9889     7.9021     2.3998     0.1452     0.0278
   66.0000   -12.9025     5.0416     9.3506     4.5887   118.7666     7.8854     2.3959     0.1488     0.0255
   66.5000   -13.1620     4.9731     8.6891     4.5619   118.5731     7.8690     2.3986     0.1505     0.0283
   67.0000   -13.4212     4.9055     8.2236     4.5352   116.8374     7.8526     2.4071     0.1446     0.0309
   67.5000   -13.6801     4.8389     8.3786     4.5087   114.6359     7.8362     2.4153     0.1396     0.0334
   68.0000   -13.9390     4.7728     8.5046     4.4823   114.5599     7.8198     2.4167     0.1392     0.0339
