~VERSION INFORMATION
 VERS.                2.0:   CWLS LOG ASCII STANDARD - VERSION 2.0
 WRAP.                 NO:   ONE LINE PER DEPTH STEP
~WELL INFORMATION
#MNEM.UNIT      DATA TYPE    INFORMATION
#----------   ------------   ------------------------------
 STRT.F            0.0000:   START DEPTH
 STOP.F          618.0000:   STOP DEPTH
 STEP.F            0.5000:   STEP LENGTH
 NULL.          -999.2500:   NO VALUE
 COMP.   FLUOR DANIEL INC:   COMPANY
 WELL. NAVAL PETROLEUM RESERVE 3 SX-3 #2-33:   WELL
 FLD .             TEAPOT:   FIELD
 LOC .      S33 T39N R78W:   LOCATION
 CNTY.            NATRONA:   COUNTY
 STAT.            WYOMING:   STATE
 CTRY. UNITED STATES OF AMERICA:   COUNTRY
 SRVC.      Western Atlas:   SERVICE COMPANY
 DATE.        07-JAN-1995:   LOGDATE
 API .       490252267200:   API NUMBER
~CURVE INFORMATION
#MNEM.UNIT       API CODE    CURVE DESCRIPTION
#----------   ------------   ------------------------------
 DEPT.F                  :   
 GRR .GAPI   07 310 01 00:   GAMMA RAY FROM RES. LOG.
 RILD.OHMM   07 120 46 00:   INDUCTION LOG DEEP RESISTIVITY
 RILM.OHMM   07 120 44 00:   INDUCTION LOG MEDIUM RESISTIVITY
~PARAMETER INFORMATION
#MNEM.UNIT          VALUE    DESCRIPTION
#----------   ------------   ------------------------------
 PD  .                 GL:   PERMANENT DATUM
 EPD .F              5158:   ELEVATION PERMANENT DATUM
 LMF .                 KB:   LOG MEASURED FROM
 DAPD.F                10:   FEET ABOVE PERMANENT DATUM
 DMF .                 KB:   DRILLING MEASURED FROM
 EKB .F              5168:   KELLING BUSHING
 EDF .F              5167:   DRILLING FLOOR
 EGL .F              5158:   GROUND LEVEL
 DATE.         7-JAN-1995:   RUN DATE
 RUN .                  1:   RUN NUMBER
 DD  .F               625:   DEPTH DRILLER
 DL  .F               626:   DEPTH LOGGER
 BLI .F               618:   BOTTOM LOG INTERVAL
 CS  .IN            9.625:   CASING SIZE
 CBD .F                53:   CASING BOTTOM DRILLER
 CBL .F                54:   CASING BOTTOM LOGGER
 BS  .IN             8.75:   BIT SIZE
 BSD .F               625:   BIT SIZE AT DEPTH
 DFT .                AIR:   DRILLING FLUID TYPE
 MRT .F                89:   MAXIMUM RECORDED TEMPERATURE
 LUN .            HL 6530:   LOGGING UNIT NUMBER
 LUL .             CASPER:   LOGGING UNIT LOCATION
 ENGI.        VERN RAUTIO:   RECORDING ENGINEER
 WITN.        GARY STRONG:   WITNESSED BY
 CLNT.            A2DTECH:   CLIENT CODE
 ORIG.           5" PRINT:   ORIGIN OF DATA
 UWI .       490252267200:   UNIQUE WELL ID
 DICO. A2D Technologies, Inc.:   DIGITIZING COMPANY
~OTHER INFORMATION
~A    DEPT      GRR      RILD       RILM   
# ...
  455.0000    87.8266    17.0367    16.5429
  455.5000    90.9062    17.0224    16.4929
  456.0000    90.4031    17.0104    16.4430
  456.5000    88.7810    16.9242    16.3933
  457.0000    88.8475    16.8494    16.3438
  457.5000    90.9402    16.7739    16.2944
  458.0000    93.0782    16.7032    16.2451
  458.5000    93.1383    16.6327    16.1960
  459.0000    92.3709    16.5626    16.1470
  459.5000    91.9493    16.4928    16.0982
  460.0000    93.1173    16.4232    16.0495
  460.5000    94.0202    16.3540    16.0010
  461.0000    93.0550    16.2850    15.9527
  461.5000    93.2497    16.2164    15.9044
  462.0000    95.4921    16.1480    15.8564
  462.5000    97.7052    16.0799    15.8084
  463.0000    97.3592    16.0121    15.7606
  463.5000    94.9417    15.9446    15.7130
  464.0000    92.9430    15.8774    15.6655
  464.5000    93.8816    15.8104    15.6181
  465.0000    95.9367    15.7438    15.5709
  465.5000    96.6951    15.6774    15.5242
  466.0000    94.0977    15.5899    15.4460
  466.5000    91.4942    15.4832    15.3406
  467.0000    90.6184    15.3773    15.2355
  467.5000    91.7761    15.2721    15.1312
  468.0000    92.4397    15.1676    15.0277
  468.5000    89.5824    15.0638    14.9249
  469.0000    87.1661    14.9607    14.8227
  469.5000    86.0893    14.8584    14.7213
  470.0000    88.5582    14.7567    14.6206
  470.5000    91.8667    14.6557    14.5205
  471.0000    94.7901    14.5554    14.4212
  471.5000    93.0215    14.4558    14.3225
  472.0000    89.8000    14.3569    14.2245
  472.5000    89.5931    14.2587    14.1272
  473.0000    93.3446    14.1611    14.0305
  473.5000    97.4810    14.0642    13.9343
  474.0000   101.1405    13.9680    13.8392
  474.5000   101.3207    13.8700    13.7421
  475.0000   100.1793    13.9936    13.8645
  475.5000    98.2343    14.1215    13.9913
  476.0000    97.9957    14.2507    14.1192
  476.5000    97.8527    14.3810    14.2483
  477.0000    96.4357    14.5125    14.3786
  477.5000    94.8853    14.6452    14.5101
  478.0000    93.2895    14.7793    14.6428
  478.5000    92.9847    14.9142    14.7767
  479.0000    93.7707    15.0506    14.9118
  479.5000    95.8863    15.2166    15.0763
  480.0000    95.5679    15.0484    14.9095
  480.5000    94.0568    14.9127    14.7752
  481.0000    92.5005    14.7783    14.6420
  481.5000    92.1713    14.6297    14.4947
  482.0000    92.9140    14.3845    14.2518
  482.5000    94.1476    14.1434    14.0129
  483.0000    96.2039    13.9064    13.7781
  483.5000    97.0461    13.6733    13.5472
  484.0000    96.2098    13.4442    13.3202
  484.5000    95.3865    13.2189    13.0969
  485.0000    94.9907    12.9972    12.8774
  485.5000    95.3428    12.7779    12.6616
  486.0000    96.4797    12.6404    12.5260
  486.5000    97.7958    12.6426    12.5231
  487.0000   100.0137    12.6426    12.5166
  487.5000   102.2071    12.7602    12.6272
  488.0000   103.8572    13.0113    12.8790
  488.5000   103.8324    13.2114    13.0877
  489.0000   103.4327    13.4528    13.3292
  489.5000   100.2060    13.8451    13.7174
  490.0000    95.2673    14.5332    14.3992
  490.5000    87.4394    15.2555    15.1148
  491.0000    83.3991    16.0137    15.8660
  491.5000    80.1468    16.8096    16.6545
  492.0000    80.3992    17.6450    17.4823
  492.5000    81.6956    18.5220    18.3511
  493.0000    82.9402    19.4425    19.2632
  493.5000    84.1079    20.4088    20.2206
  494.0000    81.7687    21.4231    21.2255
  494.5000    78.6715    21.8403    21.6389
  495.0000    75.7264    22.4560    22.2488
  495.5000    74.7628    22.6736    22.4560
  496.0000    74.4826    22.3738    22.0105
  496.5000    75.2914    22.0474    21.5090
  497.0000    76.4209    21.7232    21.0190
  497.5000    77.5548    21.4043    20.5401
  498.0000    78.6726    21.0900    20.0721
  498.5000    80.4820    20.7803    19.6148
  499.0000    82.4379    20.4753    19.3618
  499.5000    84.4126    20.1746    19.3723
  500.0000    86.4854    19.8784    19.2366
  500.5000    88.0495    19.5863    19.1019
  501.0000    84.6338    19.2975    18.9682
  501.5000    80.7965    19.0065    18.8310
  502.0000    77.9699    19.0227    18.7389
  502.5000    80.0528    19.0397    18.6440
  503.0000    82.0416    19.0567    18.5497
  503.5000    84.0258    19.0738    18.4558
  504.0000    86.0039    19.0908    18.3624
  504.5000    87.8848    19.1079    18.3147
  505.0000    88.4631    19.1250    18.3882
  505.5000    87.5570    19.1422    18.4383
  506.0000    86.2254    19.1590    18.4884
  506.5000    84.8860    19.1832    18.5387
  507.0000    83.5742    19.0822    18.5894
  507.5000    81.5816    18.9135    18.6564
  508.0000    79.8157    18.7463    18.5261
  508.5000    82.0126    18.5806    18.3178
  509.0000    85.8657    18.4164    18.1135
  509.5000    89.8071    18.2536    17.9115
  510.0000    89.0811    18.0923    17.7117
  510.5000    87.1423    17.9324    17.5140
  511.0000    85.1662    17.7739    17.3189
  511.5000    83.4025    17.6483    17.1689
  512.0000    84.3434    17.8545    17.1551
  512.5000    85.3393    18.0616    17.3328
  513.0000    86.3286    18.2717    17.6469
  513.5000    87.3270    18.4840    18.0292
  514.0000    87.5800    18.6987    18.4227
  514.5000    86.9247    18.9163    18.8208
  515.0000    82.0404    19.1374    19.0103
  515.5000    78.3781    19.3618    18.9417
  516.0000    77.5406    19.1579    18.5671
  516.5000    82.8146    18.8177    18.2021
  517.0000    87.4177    18.4836    17.8438
  517.5000    90.1498    18.1554    17.4932
  518.0000    92.8771    17.8329    17.1492
  518.5000    92.6512    17.5163    16.8494
  519.0000    90.5268    17.2053    16.8494
  519.5000    90.0700    16.9921    16.8354
  520.0000    90.5342    16.9519    16.7956
  520.5000    90.9128    16.9118    16.7559
  521.0000    89.9514    16.8718    16.7162
  521.5000    88.9943    16.7283    16.5651
  522.0000    89.3717    16.4543    16.2736
  522.5000    91.3573    16.1848    15.9872
  523.0000    92.0442    15.9196    15.7058
  523.5000    91.3559    15.6588    15.4294
  524.0000    90.2145    15.4023    15.1893
  524.5000    91.4852    15.1500    14.9639
  525.0000    94.9331    14.9018    14.7418
  525.5000    96.3527    14.6629    14.5276
  526.0000    95.2683    14.5484    14.4139
  526.5000    92.8720    14.4371    14.3039
  527.0000    89.1744    14.3267    14.1945
  527.5000    87.1457    14.2171    14.0860
  528.0000    86.8312    14.1083    13.9782
  528.5000    87.8903    14.0004    13.8714
  529.0000    90.3129    13.8934    13.7647
  529.5000    92.6759    13.8306    13.7032
  530.0000    95.0264    13.7803    13.6532
  530.5000    96.7628    13.7302    13.6036
  531.0000    94.8094    13.6803    13.5541
  531.5000    92.9021    13.6306    13.5049
  532.0000    91.9905    13.5810    13.4558
  532.5000    92.2466    13.5316    13.4068
  533.0000    93.1505    13.4890    13.3643
  533.5000    96.8543    13.4898    13.3655
  534.0000    98.7391    13.4898    13.3653
  534.5000    96.4248    13.4897    13.3653
  535.0000    94.2516    13.4897    13.3653
  535.5000    94.3267    13.4897    13.3653
  536.0000    95.2851    13.4897    13.3653
  536.5000    96.2433    13.4898    13.3654
  537.0000    97.9353    13.4897    13.3653
  537.5000    99.2380    13.4897    13.3653
  538.0000    96.4770    13.4469    13.3232
  538.5000    94.4124    13.3707    13.2475
  539.0000    97.8008    13.2950    13.1724
  539.5000   102.0511    13.2197    13.0977
  540.0000   102.3749    13.1447    13.0235
  540.5000   100.7750    13.0703    12.9497
  541.0000    99.1895    12.9962    12.8764
  541.5000    98.9588    12.9226    12.8034
  542.0000   100.8809    12.8494    12.7309
  542.5000   103.9776    12.7766    12.6587
  543.0000   105.0516    12.7463    12.6287
  543.5000   105.0236    12.7283    12.6109
  544.0000   104.2048    12.7103    12.5931
  544.5000   102.1259    12.6923    12.5753
  545.0000   100.0535    12.6744    12.5575
  545.5000   100.4527    12.6565    12.5398
