~VERSION INFORMATION
 VERS.                2.0:   CWLS LOG ASCII STANDARD - VERSION 2.0
 WRAP.                 NO:   ONE LINE PER DEPTH STEP
~WELL INFORMATION
#MNEM.UNIT      DATA TYPE    INFORMATION
#----------   ------------   ------------------------------
 STRT.F           92.0000:   START DEPTH
 STOP.F          810.0000:   STOP DEPTH
 STEP.F            0.5000:   STEP LENGTH
 NULL.          -999.2500:   NO VALUE
 COMP. U S NAVY/INTEX OIL CO:   COMPANY
 WELL. NPR #3 #86 S 34-34:   WELL
 FLD .        EAST TEAPOT:   FIELD
 LOC .      S34 T39N R78W:   LOCATION
 CNTY.            NATRONA:   COUNTY
 STAT.            WYOMING:   STATE
 CTRY. UNITED STATES OF AMERICA:   COUNTRY
 SRVC. Schlumberger Well Surveying Corp:   SERVICE COMPANY
 DATE.        22-JUL-1962:   LOGDATE
 API .       490250652900:   API NUMBER
~CURVE INFORMATION
#MNEM.UNIT       API CODE    CURVE DESCRIPTION
#----------   ------------   ------------------------------
 DEPT.F                  :   
 GR  .GAPI   30 310 01 00:   GAMMA RAY
 SPR .MV     05 010 01 00:   SPONTANEOUS POTENTIAL FROM RES.
 CILD.MMHO   05 110 46 00:   CONDUCTIVITY INDUCTION LOG DEEP
 ASN .OHMM   05 041 16 00:   AMPLIFIED SHORT NORMAL 16"
 ILD .OHMM   05 120 46 00:   INDUCTION LOG DEEP
 CALM.IN     15 280 01 00:   CALIPER FROM MICRO LOG
~PARAMETER INFORMATION
#MNEM.UNIT          VALUE    DESCRIPTION
#----------   ------------   ------------------------------
 PD  .                 GL:   PERMANENT DATUM
 EPD .F              5094:   ELEVATION PERMANENT DATUM
 LMF .                 KB:   LOG MEASURED FROM
 DAPD.F                 5:   FEET ABOVE PERMANENT DATUM
 DMF .                 KB:   DRILLING MEASURED FROM
 EKB .F              5099:   KELLING BUSHING
 EGL .F              5094:   GROUND LEVEL
 DATE.            7-22-62:   RUN DATE
 RUN .                  1:   RUN NUMBER
 DD  .F               810:   DEPTH DRILLER
 DL  .F               811:   DEPTH LOGGER
 BLI .F               810:   BOTTOM LOG INTERVAL
 TLI .F               100:   TOP LOG INTERVAL
 BS  .IN             6.75:   BIT SIZE
 BSD .F               810:   BIT SIZE AT DEPTH
 DFT .                GEL:   DRILLING FLUID TYPE
 DFD .               10.3:   DRILLING FLUID DENSITY
 DFV .                 43:   DRILLING FLUID VISCOSITY
 RMS .OHMM              4:   RESISTIVITY MUD SAMPLE
 MST .F                75:   MUD SAMPLE TEMPERATURE
 RMF .OHMM            2.9:   RESISTIVITY MUD FILTRATE SAMPLE
 MFST.F                75:   MUD FILTRATE SAMPLE TEMPERATURE
 RMC .OHMM            3.8:   RESISTIVITY MUD CAKE
 MCST.F                75:   MUD CAKE SAMPLE TEMPERATURE
 TCS .HRS               1:   TIME CURCULATED STOPPED
 LUN .               2503:   LOGGING UNIT NUMBER
 ENGI.           ELLERMAN:   RECORDING ENGINEER
 WITN.          JORGENSON:   WITNESSED BY
 CLNT.            A2DTECH:   CLIENT CODE
 ORIG.   1", 2", 5" PRINT:   ORIGIN OF DATA
 UWI .       490250652900:   UNIQUE WELL ID
 DICO. A2D Technologies, Inc.:   DIGITIZING COMPANY
~OTHER INFORMATION
~A   DEPT       GR        SPR       CILD        ASN        ILD       CALM   
# ...
  144.0000  -999.2500   -41.6987   202.2436     4.8707     5.6536  -999.2500
  144.5000  -999.2500   -41.5399   197.8193     4.8703     5.6344  -999.2500
  145.0000  -999.2500   -41.6158   199.1070     4.8701     5.6072  -999.2500
  145.5000  -999.2500   -41.6947   201.5265     4.8695     5.5808  -999.2500
  146.0000  -999.2500   -41.3809   204.1407     4.8963     5.5546  -999.2500
  146.5000  -999.2500   -41.2316   206.0134     4.9281     5.5285  -999.2500
  147.0000  -999.2500   -41.1435   205.4859     4.9326     5.5023  -999.2500
  147.5000  -999.2500   -41.0536   205.9882     4.9098     5.4771  -999.2500
  148.0000  -999.2500   -40.9587   209.4773     4.8418     5.4592  -999.2500
  148.5000  -999.2500   -40.8917   215.7674     4.6665     5.2044  -999.2500
  149.0000  -999.2500   -40.9557   233.2295     4.5092     4.9192  -999.2500
  149.5000  -999.2500   -41.0177   265.2574     4.3545     4.6331  -999.2500
  150.0000  -999.2500   -41.0823   299.9610     4.1682     4.3477  -999.2500
  150.5000  -999.2500   -41.0746   334.6647     3.8524     4.0621  -999.2500
  151.0000  -999.2500   -41.0432   369.3683     3.5488     3.7749  -999.2500
  151.5000  -999.2500   -41.0112   392.2707     3.2732     3.4896  -999.2500
  152.0000  -999.2500   -40.9791   394.0810     3.2545     3.4452  -999.2500
  152.5000  -999.2500   -40.9466   392.4910     3.4402     3.4135  -999.2500
  153.0000  -999.2500   -40.9154   389.1205     3.4725     3.3793  -999.2500
  153.5000  -999.2500   -40.9407   385.9918     3.3284     3.4164  -999.2500
  154.0000  -999.2500   -41.2212   375.9348     3.1967     3.4606  -999.2500
  154.5000  -999.2500   -41.4964   344.2742     3.5660     3.8467  -999.2500
  155.0000  -999.2500   -41.7706   303.5693     3.9592     4.2803  -999.2500
  155.5000  -999.2500   -42.0499   263.3840     4.1424     4.7179  -999.2500
  156.0000  -999.2500   -42.0519   231.1859     4.2370     5.0182  -999.2500
  156.5000  -999.2500   -41.9398   216.8536     4.3139     5.2041  -999.2500
  157.0000  -999.2500   -41.8243   216.6189     4.3303     5.2219  -999.2500
  157.5000  -999.2500   -41.7090   221.4953     4.3375     5.1556  -999.2500
  158.0000  -999.2500   -41.5940   228.5428     4.3573     5.0891  -999.2500
  158.5000  -999.2500   -41.4790   233.1257     4.3773     5.0230  -999.2500
  159.0000  -999.2500   -41.3639   231.7965     4.3950     4.9571  -999.2500
  159.5000  -999.2500   -41.2489   230.4751     4.3162     4.8920  -999.2500
  160.0000  -999.2500   -41.1339   236.2410     4.2238     4.8208  -999.2500
  160.5000  -999.2500   -41.0188   245.9964     4.1312     4.6167  -999.2500
  161.0000  -999.2500   -40.9036   254.9088     4.0389     4.4142  -999.2500
  161.5000  -999.2500   -40.7883   284.6151     3.9300     4.2127  -999.2500
  162.0000  -999.2500   -40.6843   313.8525     3.7217     4.0114  -999.2500
  162.5000  -999.2500   -40.6831   351.8125     3.5055     3.8100  -999.2500
  163.0000  -999.2500   -40.6824   390.9657     3.3622     3.6086  -999.2500
  163.5000  -999.2500   -40.6032   415.8315     3.2345     3.4065  -999.2500
  164.0000  -999.2500   -40.5153   426.2721     3.1049     3.1998  -999.2500
  164.5000  -999.2500   -40.4269   412.7726     3.1334     3.2597  -999.2500
  165.0000  -999.2500   -40.3388   398.5368     3.2760     3.3740  -999.2500
  165.5000  -999.2500   -40.2942   384.6021     3.3719     3.4884  -999.2500
  166.0000  -999.2500   -40.5169   360.5667     3.2833     3.6036  -999.2500
  166.5000  -999.2500   -40.8800   334.0339     3.3528     3.7909  -999.2500
  167.0000  -999.2500   -41.1334   299.9161     3.7722     4.3077  -999.2500
  167.5000  -999.2500   -41.3768   260.7766     4.3485     4.7867  -999.2500
  168.0000  -999.2500   -41.3649   222.4181     4.5571     5.2621  -999.2500
  168.5000  -999.2500   -41.0475   197.3912     4.6747     5.6985  -999.2500
  169.0000  -999.2500   -41.0827   193.3699     4.7687     5.8613  -999.2500
  169.5000  -999.2500   -41.4585   192.6272     4.8318     5.8341  -999.2500
  170.0000  -999.2500   -41.5859   194.1848     4.8712     5.7991  -999.2500
  170.5000  -999.2500   -41.1557   197.9602     4.9071     5.7543  -999.2500
  171.0000  -999.2500   -40.7395   201.7357     4.9283     5.5027  -999.2500
  171.5000  -999.2500   -40.4949   212.4714     4.8137     5.2486  -999.2500
  172.0000  -999.2500   -40.6321   228.3281     4.6988     4.9960  -999.2500
  172.5000  -999.2500   -40.7635   245.5175     4.5063     4.7426  -999.2500
  173.0000  -999.2500   -40.8951   273.7072     4.2325     4.3794  -999.2500
  173.5000  -999.2500   -41.0242   301.8113     3.9597     3.9133  -999.2500
  174.0000  -999.2500   -40.9831   330.7373     3.6813     3.8904  -999.2500
  174.5000  -999.2500   -40.7304   335.1986     3.5218     3.7945  -999.2500
  175.0000  -999.2500   -40.4796   339.0446     3.5749     3.7890  -999.2500
  175.5000  -999.2500   -40.2391   339.9256     3.6640     3.7917  -999.2500
  176.0000  -999.2500   -40.2159   334.7779     3.6082     3.8861  -999.2500
  176.5000  -999.2500   -40.3517   328.6604     3.5398     4.1141  -999.2500
  177.0000  -999.2500   -40.4326   308.1174     3.6162     4.3402  -999.2500
  177.5000  -999.2500   -40.5160   280.5417     3.8725     4.5668  -999.2500
  178.0000  -999.2500   -40.6004   253.6584     4.0541     4.7935  -999.2500
  178.5000  -999.2500   -40.6819   235.2596     4.1671     5.0195  -999.2500
  179.0000  -999.2500   -40.7123   227.3313     4.2797     5.2470  -999.2500
  179.5000  -999.2500   -40.7405   220.6646     4.4230     5.3270  -999.2500
  180.0000  -999.2500   -40.7688   220.2732     4.5938     5.2726  -999.2500
  180.5000  -999.2500   -40.7973   219.8666     4.6615     5.2170  -999.2500
  181.0000  -999.2500   -40.8258   219.6262     4.6633     5.1612  -999.2500
  181.5000  -999.2500   -40.8544   221.7913     4.6589     5.1055  -999.2500
  182.0000  -999.2500   -40.8868   223.7798     4.5898     5.0499  -999.2500
  182.5000  -999.2500   -40.7416   227.8297     4.5296     4.9950  -999.2500
  183.0000  -999.2500   -40.5389   231.0488     4.3655     4.9450  -999.2500
  183.5000  -999.2500   -40.3350   245.3916     4.1919     4.7215  -999.2500
  184.0000  -999.2500   -40.1312   261.8878     4.0169     4.4834  -999.2500
  184.5000  -999.2500   -39.9278   279.7621     3.8849     4.2435  -999.2500
  185.0000  -999.2500   -39.7224   297.6693     3.7857     4.0068  -999.2500
  185.5000  -999.2500   -39.6491   310.4024     3.6883     3.9782  -999.2500
  186.0000  -999.2500   -39.6478   310.4984     3.6268     3.9606  -999.2500
  186.5000  -999.2500   -39.6479   307.8920     3.6103     3.9421  -999.2500
  187.0000  -999.2500   -39.6480   311.9765     3.6202     3.9232  -999.2500
  187.5000  -999.2500   -39.6480   320.7857     3.4843     3.9035  -999.2500
  188.0000  -999.2500   -39.6480   329.5704     3.3311     3.8446  -999.2500
  188.5000  -999.2500   -39.6480   334.9279     3.3455     3.7361  -999.2500
  189.0000  -999.2500   -39.6480   336.1592     3.3870     3.6282  -999.2500
  189.5000  -999.2500   -39.6480   338.6397     3.3510     3.5200  -999.2500
  190.0000  -999.2500   -39.6480   344.2368     3.2605     3.4119  -999.2500
  190.5000  -999.2500   -39.6480   358.4483     3.1585     3.3038  -999.2500
  191.0000  -999.2500   -39.6480   380.8129     3.0565     3.1957  -999.2500
  191.5000  -999.2500   -39.6480   408.7509     2.9549     3.0874  -999.2500
  192.0000  -999.2500   -39.6480   436.6889     2.8520     2.9785  -999.2500
  192.5000  -999.2500   -39.6480   456.2132     2.8060     2.9234  -999.2500
  193.0000  -999.2500   -39.6480   464.6937     2.7619     2.8807  -999.2500
  193.5000  -999.2500   -39.6479   454.3250     2.7402     2.9276  -999.2500
  194.0000  -999.2500   -39.6478   430.5400     2.8148     3.0871  -999.2500
  194.5000  -999.2500   -39.6486   409.1070     2.9980     3.2452  -999.2500
  195.0000  -999.2500   -39.6984   393.2503     3.0779     3.4039  -999.2500
  195.5000  -999.2500   -39.8560   377.3936     3.0390     3.5625  -999.2500
