~VERSION INFORMATION
 VERS.                2.0:   CWLS LOG ASCII STANDARD - VERSION 2.0
 WRAP.                 NO:   ONE LINE PER DEPTH STEP
~WELL INFORMATION
#MNEM.UNIT      DATA TYPE    INFORMATION
#----------   ------------   ------------------------------
 STRT.F          520.5000:   START DEPTH
 STOP.F         2062.0000:   STOP DEPTH
 STEP.F            0.5000:   STEP LENGTH
 NULL.          -999.2500:   NO VALUE
 COMP. LAWRENCE-ALLISON &AS:   COMPANY
 WELL.     NPR 3 #18-X-28:   WELL
 FLD .             TEAPOT:   FIELD
 LOC .      S28 T39N R78W:   LOCATION
 CNTY.            NATRONA:   COUNTY
 STAT.            WYOMING:   STATE
 CTRY. UNITED STATES OF AMERICA:   COUNTRY
 SRVC.            Unknown:   SERVICE COMPANY
 DATE.        08-DEC-1987:   LOGDATE
 API .       490251119700:   API NUMBER
~CURVE INFORMATION
#MNEM.UNIT       API CODE    CURVE DESCRIPTION
#----------   ------------   ------------------------------
 DEPT.F                  :   
 ROP .MIN/FT 91 810 01 00:   RAT OF DRILLING PENETRATION
 TGAS.UNITS  91 830 01 00:   TOTAL GAS FROM HOTWIRE
~PARAMETER INFORMATION
#MNEM.UNIT          VALUE    DESCRIPTION
#----------   ------------   ------------------------------
 EKB .F              5090:   KELLING BUSHING
 EGL .F              5080:   GROUND LEVEL
 DATE.            12-8-87:   RUN DATE
 DD  .F              2062:   DEPTH DRILLER
 CS  .IN                7:   CASING SIZE
 CBD .F               513:   CASING BOTTOM DRILLER
 TCS .HRS            1000:   TIME CURCULATED STOPPED
 TLAB.HRS            0432:   TIME LOGGER AT BOTTOM
 ENGI.              TOWER:   RECORDING ENGINEER
 WITN.               HUSK:   WITNESSED BY
 CLNT.            A2DTECH:   CLIENT CODE
 ORIG.           5" PRINT:   ORIGIN OF DATA
 UWI .       490251119700:   UNIQUE WELL ID
 DICO. A2D Technologies, Inc.:   DIGITIZING COMPANY
~OTHER INFORMATION
~A   DEPT      ROP         TGAS 
# ...
 1978.5000     0.3620    14.5259
 1979.0000     0.3509    14.9875
 1979.5000     0.3503    15.0304
 1980.0000     0.3496    14.6440
 1980.5000     0.3489    14.2683
 1981.0000     0.3483    13.9034
 1981.5000     0.3476    13.9463
 1982.0000     0.3366    13.5599
 1982.5000     0.3360    13.6047
 1983.0000     0.3353    13.2272
 1983.5000     0.3347    12.8512
 1984.0000     0.3340    12.8945
 1984.5000     0.3333    12.9374
 1985.0000     0.3327    12.5510
 1985.5000     0.3426    12.6082
 1986.0000     0.3418    12.6476
 1986.5000     0.3411    12.2612
 1987.0000     0.3511    12.3149
 1987.5000     0.3607    12.3488
 1988.0000     0.3704    11.9642
 1988.5000     0.3715    12.0143
 1989.0000     0.3797    11.6372
 1989.5000     0.3790    11.6816
 1990.0000     0.3888    11.7245
 1990.5000     0.3882    11.7674
 1991.0000     0.3875    11.8104
 1991.5000     0.3974    11.8533
 1992.0000     0.3966    11.8962
 1992.5000     0.3959    11.9302
 1993.0000     0.4057    12.3907
 1993.5000     0.4050    12.4329
 1994.0000     0.3939    12.8945
 1994.5000     0.3934    12.9374
 1995.0000     0.3927    12.9803
 1995.5000     0.3921    13.0233
 1996.0000     0.3914    13.0662
 1996.5000     0.3803    13.1091
 1997.0000     0.3797    13.1521
 1997.5000     0.3896    13.1860
 1998.0000     0.3888    13.6465
 1998.5000     0.3881    13.6887
 1999.0000     0.3770    13.7317
 1999.5000     0.3763    13.7746
 2000.0000     0.3652    14.6512
 2000.5000     0.3646    15.4637
 2001.0000     0.3870    16.2701
 2001.5000     0.2935    16.6641
 2002.0000     0.2625    16.6394
 2002.5000     0.2839    16.6086
 2003.0000     0.3051    16.5840
 2003.5000     0.3472    16.5593
 2004.0000     0.3894    16.9535
 2004.5000     0.4211    16.9225
 2005.0000     0.4528    16.4792
 2005.5000     0.4532    16.4546
 2006.0000     0.4430    16.4299
 2006.5000     0.4331    16.3991
 2007.0000     0.4230    15.9559
 2007.5000     0.4129    15.9312
 2008.0000     0.4134    15.9066
 2008.5000     0.4032    15.4571
 2009.0000     0.4037    15.4325
 2009.5000     0.3936    15.4079
 2010.0000     0.3941    14.9646
 2010.5000     0.3839    14.9338
 2011.0000     0.3948    14.4905
 2011.5000     0.3848    14.4659
 2012.0000     0.3852    14.4412
 2012.5000     0.3856    14.4157
 2013.0000     0.3860    14.3858
 2013.5000     0.3968    14.3611
 2014.0000     0.3972    14.3365
 2014.5000     0.3976    14.3110
 2015.0000     0.4085    14.2810
 2015.5000     0.4088    14.2543
 2016.0000     0.4092    14.2317
 2016.5000     0.4200    14.2050
 2017.0000     0.4205    13.7577
 2017.5000     0.4208    13.7330
 2018.0000     0.4212    13.7084
 2018.5000     0.4216    13.6831
 2019.0000     0.4220    14.0777
 2019.5000     0.4224    14.0469
 2020.0000     0.4228    14.0222
 2020.5000     0.4232    13.9971
 2021.0000     0.4340    13.9668
 2021.5000     0.4344    13.9421
 2022.0000     0.4348    13.9175
 2022.5000     0.4352    13.8660
 2023.0000     0.4356    13.4434
 2023.5000     0.4359    13.8415
 2024.0000     0.4363    13.8127
 2024.5000     0.4368    13.7878
 2025.0000     0.4372    13.7573
 2025.5000     0.4375    13.7326
 2026.0000     0.4379    13.7080
 2026.5000     0.4487    13.2645
 2027.0000     0.4492    13.2339
 2027.5000     0.4600    13.2093
 2028.0000     0.4604    13.1846
 2028.5000     0.4712    13.5786
 2029.0000     0.4821    13.5478
 2029.5000     0.4824    13.5231
 2030.0000     0.4933    13.4985
 2030.5000     0.5041    13.4738
 2031.0000     0.5044    13.8678
 2031.5000     0.5049    13.8370
 2032.0000     0.5157    13.8123
 2032.5000     0.5161    13.7877
 2033.0000     0.5059    13.7569
 2033.5000     0.5168    13.7322
 2034.0000     0.5068    13.7076
 2034.5000     0.4967    13.6829
 2035.0000     0.4867    13.6521
 2035.5000     0.4871    13.6274
 2036.0000     0.4875    13.6028
 2036.5000     0.4671    13.5782
 2037.0000     0.4361    13.5473
 2037.5000     0.3947    13.5227
 2038.0000     0.3951    13.4980
 2038.5000     0.3955    13.4734
 2039.0000     0.3959    13.0240
 2039.5000     0.4172    12.9993
 2040.0000     0.4280    13.3953
 2040.5000     0.4489    12.9767
 2041.0000     0.4489    12.9767
 2041.5000     0.4489    12.5581
 2042.0000     0.4489    12.1395
 2042.5000     0.4489    12.1395
 2043.0000     0.4593    11.7209
 2043.5000     0.4593    11.3023
 2044.0000     0.4593    10.8837
 2044.5000     0.4697    10.8837
 2045.0000     0.4802    10.4651
 2045.5000     0.4802    10.4651
 2046.0000     0.4802    10.4651
 2046.5000     0.4697    10.4651
 2047.0000     0.4697    10.5001
 2047.5000     0.4697    11.3023
 2048.0000     0.4697    11.3023
 2048.5000     0.4697    11.3023
 2049.0000     0.4697    11.7209
 2049.5000     0.4697    11.7209
 2050.0000     0.4697    11.7209
 2050.5000     0.4697    11.7209
 2051.0000     0.4697    11.7209
 2051.5000     0.4802    12.1395
 2052.0000     0.4802    12.1395
 2052.5000     0.4802    12.1395
 2053.0000     0.4802    12.5581
 2053.5000     0.4802    12.9767
 2054.0000     0.4802    12.9767
 2054.5000     0.4802    13.3953
 2055.0000     0.4802    13.3953
 2055.5000     0.4802    13.3953
 2056.0000     0.4802    13.3953
 2056.5000     0.4802    13.3953
 2057.0000     0.4802    13.3953
 2057.5000     0.4802    13.3953
 2058.0000     0.4802    13.3953
 2058.5000     0.4906    12.9767
 2059.0000     0.4802    12.9767
 2059.5000     0.4802    12.9767
 2060.0000     0.4802    12.9767
 2060.5000     0.4802    12.9767
 2061.0000     0.4802    12.5581
 2061.5000  -999.2500    12.5581
 2062.0000  -999.2500    12.5581
