~VERSION INFORMATION
 VERS.                2.0:   CWLS LOG ASCII STANDARD - VERSION 2.0
 WRAP.                 NO:   ONE LINE PER DEPTH STEP
~WELL INFORMATION
#MNEM.UNIT      DATA TYPE    INFORMATION
#----------   ------------   ------------------------------
 STRT.F           34.0000:   START DEPTH
 STOP.F          576.0000:   STOP DEPTH
 STEP.F            0.5000:   STEP LENGTH
 NULL.          -999.2500:   NO VALUE
 COMP. FENIX & SCISSON INC:   COMPANY
 WELL.   NPR-3 #22 SX 3-3:   WELL
 FLD .             TEAPOT:   FIELD
 LOC .       S3 T38N R78W:   LOCATION
 CNTY.            NATRONA:   COUNTY
 STAT.            WYOMING:   STATE
 CTRY. UNITED STATES OF AMERICA:   COUNTRY
 SRVC.            Unknown:   SERVICE COMPANY
 DATE.        17-JUL-1978:   LOGDATE
 API .       490251066700:   API NUMBER
~CURVE INFORMATION
#MNEM.UNIT       API CODE    CURVE DESCRIPTION
#----------   ------------   ------------------------------
 DEPT.F                  :   
 SN  .OHMM   05 040 16 00:   SHORT NORMAL 16"
 ILD .OHMM   05 120 46 00:   INDUCTION LOG DEEP
 SPR .MV     05 010 01 00:   SPONTANEOUS POTENTIAL FROM RES.
 CALD.IN     45 280 60 00:   CALIPER FROM DENSITY LOG
 GRD .GAPI   45 310 01 00:   GAMMA RAY FROM DENSITY LOG
 CORR.G/C3   45 356 01 00:   DENSITY CORRECTION
 DPHI.DEC    45 890 12 00:   DENSITY POROSITY SANDSTONE
 DEN .G/C3   45 350 01 00:   COMPENSATED BULK DENSITY
~PARAMETER INFORMATION
#MNEM.UNIT          VALUE    DESCRIPTION
#----------   ------------   ------------------------------
 PD  .                 GL:   PERMANENT DATUM
 EPD .F              5193:   ELEVATION PERMANENT DATUM
 LMF .                 KB:   LOG MEASURED FROM
 DAPD.F                 4:   FEET ABOVE PERMANENT DATUM
 DMF .                 KB:   DRILLING MEASURED FROM
 EKB .F              5197:   KELLING BUSHING
 EGL .F              5193:   GROUND LEVEL
 DATE.        17-JUL-1978:   RUN DATE
 RUN .                  1:   RUN NUMBER
 DD  .F               570:   DEPTH DRILLER
 DL  .F               576:   DEPTH LOGGER
 BLI .F               576:   BOTTOM LOG INTERVAL
 CS  .IN            8.625:   CASING SIZE
 CBD .F                30:   CASING BOTTOM DRILLER
 BS  .IN            7.875:   BIT SIZE
 BSD .F               570:   BIT SIZE AT DEPTH
 DFT .            MUD KCL:   DRILLING FLUID TYPE
 DFD .                8.6:   DRILLING FLUID DENSITY
 DFV .                 32:   DRILLING FLUID VISCOSITY
 DFL .                 15:   DRILLING FLUID LOSS
 MSS .           FLOWLINE:   MUD SAMPLE SOURCE
 RMS .OHMM            .18:   RESISTIVITY MUD SAMPLE
 MST .F                86:   MUD SAMPLE TEMPERATURE
 RMF .OHMM            .17:   RESISTIVITY MUD FILTRATE SAMPLE
 MFST.F                94:   MUD FILTRATE SAMPLE TEMPERATURE
 RMC .OHMM            .34:   RESISTIVITY MUD CAKE
 MCST.F                94:   MUD CAKE SAMPLE TEMPERATURE
 MFSS.               MEAS:   MUD FILTRATE SAMPLE SOURCE
 TCS .HRS            0300:   TIME CURCULATED STOPPED
 LUN .               2958:   LOGGING UNIT NUMBER
 LUL .               CASP:   LOGGING UNIT LOCATION
 ENGI.             MILLER:   RECORDING ENGINEER
 WITN.           MCGINLEY:   WITNESSED BY
 CLNT.            A2DTECH:   CLIENT CODE
 ORIG.           5" PRINT:   ORIGIN OF DATA
 UWI .       490251066700:   UNIQUE WELL ID
 DICO. A2D Technologies, Inc.:   DIGITIZING COMPANY
~OTHER INFORMATION
~A   DEPT       SN        ILD        SPR       CALD         GRD      CORR       DPHI        DEN   
# ...
  115.0000     8.1790     8.5421   -38.0357     7.6377    88.3425     0.0052     0.1339     2.4583
  115.5000     8.2963     8.7250   -38.6194     7.8406    80.4800     0.0162     0.1280     2.4672
  116.0000     8.4153     8.5513   -39.2001     7.9710    80.9162     0.0365     0.1361     2.4456
  116.5000     8.5360     8.3811   -39.3402     8.0590    81.6418     0.0425     0.1384     2.4397
  117.0000     8.6585     8.2142   -39.3256     8.0725    79.4697     0.0440     0.1325     2.4486
  117.5000     8.6031     8.1052   -39.4657     8.0725    74.1088     0.0544     0.1274     2.4567
  118.0000     8.5482     8.0540   -38.8559     8.0580    75.9942     0.0648     0.1206     2.4671
  118.5000     8.4353     8.0594   -38.3978     8.0290    79.4130     0.0648     0.1140     2.4790
  119.0000     8.3249     8.0638   -38.8326     8.0000    76.3237     0.0618     0.1096     2.4916
  119.5000     8.3288     8.1239   -39.1186     7.9130    75.3598     0.0499     0.1078     2.5028
  120.0000     8.2746     8.1283   -39.1069     7.7971    76.3772     0.0335     0.1149     2.5042
  120.5000     8.2217     8.1889   -38.9430     7.6773    78.9882     0.0171     0.1286     2.4871
  121.0000     8.2266     8.2500   -37.8760     7.5652    81.8891     0.0082     0.1360     2.4663
  121.5000     8.2305     8.3699   -37.8815     7.5072    80.5872     0.0007     0.1416     2.4484
  122.0000     8.2344     8.4323   -38.0187     7.5072    81.6040    -0.0037     0.1512     2.4387
  122.5000     8.2383     8.6129   -38.1559     7.5217    84.5049     0.0022     0.1440     2.4291
  123.0000     8.2422     8.7370   -38.1413     7.5362    88.5652     0.0082     0.1407     2.4410
  123.5000     8.2461     8.7418   -37.5344     7.5507    88.8574     0.0067     0.1395     2.4513
  124.0000     8.2500     8.7465   -37.2281     7.5652    82.0488     0.0052     0.1482     2.4409
  124.5000     8.3110     8.7512   -38.2552     7.5652    80.7462     0.0082     0.1517     2.4327
  125.0000     8.3725     8.7560   -38.0948     7.5652    81.3288     0.0127     0.1532     2.4275
  125.5000     8.4351     8.7607   -38.0831     7.5652    82.4906     0.0201     0.1517     2.4193
  126.0000     8.4974     8.8260   -38.6706     7.5797    81.4785     0.0156     0.1496     2.4156
  126.5000     8.5014     8.8308   -39.6967     7.5942    79.8866     0.0021     0.1520     2.4543
  127.0000     8.5055     8.8356   -39.6822     7.6087    80.0339    -0.0007     0.1550     2.4305
  127.5000     8.5095     8.7797   -39.5217     7.6232    85.6884     0.0007     0.1538     2.4081
  128.0000     8.5135     8.7846   -39.5101     7.6377    86.9951     0.0022     0.1511     2.4192
  128.5000     8.5176     8.7975   -39.2008     7.6232    83.3743     0.0067     0.1475     2.4371
  129.0000     8.4621     8.8560   -38.8916     7.6232    88.7395     0.0186     0.1442     2.4423
  129.5000     8.4671     8.7988   -38.8799     7.6377    86.2781     0.0320     0.1418     2.4378
  130.0000     8.4712     8.8047   -38.7195     7.7101    79.9036     0.0335     0.1365     2.4360
  130.5000     8.4752     8.7479   -38.8571     7.8551    80.0509     0.0242     0.1261     2.4645
  131.0000     8.4210     8.6926   -39.4405     7.8851    81.5025     0.0201     0.1279     2.4809
  131.5000     8.4250     8.4622   -39.4286     7.8261    84.8382     0.0261     0.1300     2.4578
  132.0000     8.3137     8.2369   -39.1052     7.8551    93.1014     0.0350     0.1273     2.4444
  132.5000     8.2606     8.0175   -38.6583     7.9130    89.3358     0.0380     0.1148     2.4808
  133.0000     8.1525     8.0218   -39.2419     7.9710    83.1067     0.0395     0.1287     2.4778
  133.5000     8.1004     8.0262   -39.3820     8.0290    79.4859     0.0380     0.1249     2.4577
  134.0000     8.1042     8.0305   -39.2186     8.0435    80.0680     0.0168     0.1204     2.4586
  134.5000     8.1081     8.0349   -39.8022     8.0290    82.8239     0.0052     0.1180     2.4867
  135.0000     8.1119     8.0392   -40.0911     8.0000    81.5219     0.0201     0.1204     2.4859
  135.5000     8.1158     8.0437   -40.2283     7.9710    79.4953     0.0723     0.1234     2.4547
  136.0000     8.1196     8.0481   -40.3655     7.9565    78.5797     0.1051     0.1213     2.4398
  136.5000     8.1235     8.0534   -40.4997     7.9130    81.8188     0.0931     0.1094     2.5023
  137.0000     8.1273     8.0578   -40.4881     7.8551    84.1398     0.0633     0.0930     2.5312
  137.5000     8.1312     8.0621   -40.4762     7.7391    81.0993     0.0380     0.0924     2.5349
  138.0000     8.0792     8.0665   -40.4643     7.5652    79.0721     0.0167     0.1126     2.5074
  138.5000     8.0831     8.0709   -40.4502     7.4348    86.9011     0.0097     0.1177     2.4866
  139.0000     8.0870     8.0753   -40.7362     7.4203    91.2513     0.0216     0.1200     2.4769
  139.5000     8.1475     8.0796   -41.1739     7.4348    91.3985     0.0186     0.1248     2.4695
  140.0000     8.1514     8.0840   -41.0105     7.4348    87.3914     0.0082     0.1242     2.4702
  140.5000     8.1553     8.0884   -40.2549     7.4348    85.1720     0.0022     0.1328     2.4724
  141.0000     8.1022     8.0928   -39.4992     7.4348    85.3192     0.0052     0.1393     2.4671
  141.5000     8.1070     8.0972   -39.4875     7.4348    85.3216     0.0143     0.1438     2.4434
  142.0000     8.1108     8.1575   -39.4759     7.4348    85.1790     0.0186     0.1470     2.4374
  142.5000     8.1147     8.2751   -39.4642     7.4493    84.3118     0.0171     0.1473     2.4426
  143.0000     8.1746     8.3983   -39.6014     7.4493    83.4446     0.0142     0.1473     2.4433
  143.5000     8.1785     8.5901   -39.5893     7.4783    82.1426     0.0127     0.1473     2.4307
  144.0000     8.1823     8.8195   -39.2776     7.5072    80.9855     0.0067     0.1473     2.4262
  144.5000     8.1862     8.9466   -38.5219     7.5652    81.7930     0.0022     0.1402     2.4315
  145.0000     8.1901     9.0132   -38.3644     7.6232    86.0633     0.0022     0.1417     2.4366
  145.5000     8.1940     9.0181   -38.5015     7.7391    88.0946     0.0037     0.1396     2.4455
  146.0000     8.1416     9.0230   -38.6387     7.8986    87.9520     0.0067     0.1372     2.4507
  146.5000     8.1456     8.9648   -38.6241     7.8116    85.2007     0.0082     0.1369     2.4536
  147.0000     8.0944     8.9708   -38.7642     7.8551    80.1365     0.0082     0.1375     2.4536
  147.5000     8.0417     8.8530   -38.6009     7.9275    79.4129     0.0082     0.1402     2.4491
  148.0000     8.0465     8.6160   -38.2916     8.0290    80.2842     0.0156     0.1444     2.4423
  148.5000     7.9941     8.3302   -37.9821     8.1594    91.8798     0.0261     0.1437     2.4387
  149.0000     7.9988     8.1642   -38.7371     8.2319    90.4320     0.0382     0.1380     2.4446
  149.5000     8.0026     8.0570   -39.2954     8.2609    86.2305     0.0469     0.1342     2.4543
  150.0000     8.0063     8.0061   -39.2867     8.2609    87.3915     0.0499     0.1306     2.4602
  150.5000     8.0112     8.0761   -39.3604     8.2029    89.7132     0.0485     0.1320     2.4625
  151.0000     8.0161     8.1281   -39.4054     8.2029    88.2667     0.0575     0.1407     2.4491
  151.5000     8.0211     8.1892   -39.5396     8.2029    85.5226     0.1030     0.1392     2.4372
  152.0000     8.0260     8.1942   -38.9262     8.2174    86.0990     0.1231     0.1238     2.4476
  152.5000     8.0309     8.1429   -38.6140     8.2174    85.6671     0.0487     0.0932     2.5294
  153.0000     8.0368     8.1478   -38.5994     8.2029    83.4959     0.0144     0.0899     2.5406
  153.5000     8.0417     8.1527   -38.7337     8.2319    84.8031     0.0070     0.1256     2.5060
  154.0000     8.1021     8.1577   -38.8679     8.0870    90.3131     0.0115     0.1286     2.4491
  154.5000     8.1070     8.1626   -38.8534     8.0897    87.7413     0.0160     0.1259     2.4462
  155.0000     8.1119     8.1675   -38.3924     8.2754    81.0440     0.0191     0.1250     2.4454
