~VERSION INFORMATION
 VERS.                2.0:   CWLS LOG ASCII STANDARD - VERSION 2.0
 WRAP.                 NO:   ONE LINE PER DEPTH STEP
~WELL INFORMATION
#MNEM.UNIT      DATA TYPE    INFORMATION
#----------   ------------   ------------------------------
 STRT.F           39.0000:   START DEPTH
 STOP.F          478.0000:   STOP DEPTH
 STEP.F            0.5000:   STEP LENGTH
 NULL.          -999.2500:   NO VALUE
 COMP. FENIX & SCISSON, INC.:   COMPANY
 WELL.  S-3 NPR #3 #46S-3:   WELL
 FLD .              NPR-3:   FIELD
 LOC .       S3 T38N R78W:   LOCATION
 CNTY.            NATRONA:   COUNTY
 STAT.            WYOMING:   STATE
 CTRY. UNITED STATES OF AMERICA:   COUNTRY
 SRVC.      Dresser Atlas:   SERVICE COMPANY
 DATE.        28-MAR-1977:   LOGDATE
 API .       490251034100:   API NUMBER
~CURVE INFORMATION
#MNEM.UNIT       API CODE    CURVE DESCRIPTION
#----------   ------------   ------------------------------
 DEPT.F                  :   
 ILD .OHMM   07 120 46 00:   INDUCTION LOG DEEP
 ILM .OHMM   07 120 44 00:   INDUCTION LOG MEDIUM
 SFL .OHMM   07 220 01 00:   SHALLOW FOCUSED LOG RESISTIVITY
 SPR .MV     07 010 01 00:   SPONTANEOUS POTENTIAL
 CALD.IN     45 280 60 00:   CALIPER FROM DENSITY LOG
 GRD .GAPI   45 310 01 00:   GAMMA RAY FROM DENSITY LOG
 DPHI.DEC    45 890 12 00:   DENSITY POROSITY SANDSTONE
 RHOB.G/C3   45 350 01 00:   BULK DENSITY
 DRHO.G/C3   45 356 01 00:   DENSITY CORRECTION
~PARAMETER INFORMATION
#MNEM.UNIT          VALUE    DESCRIPTION
#----------   ------------   ------------------------------
 PD  .                 GL:   PERMANENT DATUM
 EPD .F              5186:   ELEVATION PERMANENT DATUM
 LMF .                 KB:   LOG MEASURED FROM
 DAPD.F                 3:   FEET ABOVE PERMANENT DATUM
 DMF .                 KB:   DRILLING MEASURED FROM
 EKB .F              5189:   KELLING BUSHING
 EGL .F              5186:   GROUND LEVEL
 DATE.        28-MAR-1977:   RUN DATE
 RUN .                  1:   RUN NUMBER
 DD  .F               480:   DEPTH DRILLER
 DL  .F               480:   DEPTH LOGGER
 BLI .F               478:   BOTTOM LOG INTERVAL
 TLI .F                40:   TOP LOG INTERVAL
 CS  .IN            8.625:   CASING SIZE
 CBD .F                40:   CASING BOTTOM DRILLER
 CBL .F                40:   CASING BOTTOM LOGGER
 BS  .IN            7.875:   BIT SIZE
 BSD .F               480:   BIT SIZE AT DEPTH
 DFT .           CHEM GEL:   DRILLING FLUID TYPE
 DFD .                8.9:   DRILLING FLUID DENSITY
 DFV .                 39:   DRILLING FLUID VISCOSITY
 DFPH.                 11:   DRILLING FLUID PH
 DFL .                 16:   DRILLING FLUID LOSS
 MSS .           FLOWLINE:   MUD SAMPLE SOURCE
 RMS .OHMM           0.41:   RESISTIVITY MUD SAMPLE
 MST .F                40:   MUD SAMPLE TEMPERATURE
 RMF .OHMM           0.29:   RESISTIVITY MUD FILTRATE SAMPLE
 MFST.F                62:   MUD FILTRATE SAMPLE TEMPERATURE
 RMC .OHMM           0.28:   RESISTIVITY MUD CAKE
 MCST.F                62:   MUD CAKE SAMPLE TEMPERATURE
 MFSS.               MEAS:   MUD FILTRATE SAMPLE SOURCE
 MCSS.               MEAS:   MUD CAKE SAMPLE SOURCE
 RMB .OHMM           0.26:   RESISTIVITY MUD AT BHT
 BHT .F                62:   BOTTOM HOLE TEMPERATURE
 TCS .HRS               6:   TIME CURCULATED STOPPED
 MRT .F                62:   MAXIMUM RECORDED TEMPERATURE
 LUN .               6145:   LOGGING UNIT NUMBER
 LUL .              GLTTE:   LOGGING UNIT LOCATION
 ENGI.              RANCK:   RECORDING ENGINEER
 WITN.     MR. STUEBINGER:   WITNESSED BY
 CLNT.            A2DTECH:   CLIENT CODE
 ORIG.           5" PRINT:   ORIGIN OF DATA
 UWI .       490251034100:   UNIQUE WELL ID
 DICO. A2D Technologies, Inc.:   DIGITIZING COMPANY
~OTHER INFORMATION
~A   DEPT      ILD        ILM        SFL        SPR       CALD         GRD      DPHI       RHOB       DRHO   
# ...
  440.5000     9.9918    11.4402    13.0514   -26.5794     7.8503    98.3329     0.1223     2.5146     0.0196
  441.0000     9.9335    11.4492    13.0620   -26.4059     7.8527    98.0543     0.1172     2.5199     0.0242
  441.5000     9.8407    11.5391    13.2561   -26.2324     7.8550    97.1729     0.1105     2.5192     0.0259
  442.0000     9.7782    11.5486    13.4530   -26.2090     7.8573    95.6642     0.1035     2.5140     0.0216
  442.5000     9.6874    11.4775    13.5581   -26.6362     7.8298    96.0277     0.0940     2.5110     0.0188
  443.0000     9.6986    11.4387    13.5769   -26.7678     7.8022    97.2439     0.0858     2.5112     0.0190
  443.5000     9.7076    11.3250    13.8698   -27.0399     7.7603    98.6095     0.0818     2.5151     0.0207
  444.0000     9.7165    11.2204    14.0758   -27.3110     7.7173    99.6762     0.0806     2.5189     0.0209
  444.5000     9.7936    11.1971    14.2849   -27.2877     7.7202    99.3976     0.0839     2.5190     0.0181
  445.0000     9.9403    11.1281    13.8071   -27.4203     7.7374    97.6242     0.0901     2.5146     0.0153
  445.5000    10.0190    11.1394    13.6244   -27.2410     7.7463    96.4487     0.0976     2.5034     0.0110
  446.0000    10.0985    11.2267    13.6382   -27.2177     7.7721    95.5625     0.1024     2.4899     0.0097
  446.5000    10.2497    11.2694    13.7447   -26.7439     7.7893    97.2418     0.1039     2.4855     0.0069
  447.0000    10.3311    11.4834    13.8521   -26.5704     7.8085    97.1127     0.1041     2.4864     0.0071
  447.5000    10.3409    11.6547    14.1565   -26.5465     7.8239    96.8290     0.1020     2.4880     0.0088
  448.0000    10.3524    11.8287    14.4699   -26.5225     7.8266    96.5504     0.0989     2.4896     0.0105
  448.5000    10.3620    11.9235    14.5799   -26.4985     7.8289    96.2717     0.0953     2.4919     0.0107
  449.0000    10.3176    11.7674    13.8035   -26.4745     7.8157    95.5498     0.0923     2.4950     0.0154
  449.5000    10.1663    11.5790    13.4351   -26.4459     7.8036    95.1211     0.0913     2.4980     0.0171
  450.0000    10.0964    11.3022    13.3499   -26.5727     7.7343    95.5935     0.0913     2.5011     0.0173
  450.5000    10.0579    11.0765    13.6458   -26.5493     7.6585    94.8644     0.0909     2.5043     0.0144
  451.0000     9.9850    10.9813    14.0428   -26.6820     7.7804    93.2384     0.0879     2.5096     0.0146
  451.5000     9.9232    10.7863    14.1532   -26.8088     7.8122    91.4629     0.0840     2.5141     0.0163
  452.0000     9.8626    10.7217    14.3631   -26.7796     7.8141    92.0791     0.0800     2.5172     0.0180
  452.5000     9.8729    10.5816    14.2775   -26.7563     7.8161    91.7984     0.0773     2.5203     0.0212
  453.0000     9.8136    10.5903    13.9936   -26.8831     7.8179    90.9193     0.0782     2.5219     0.0229
  453.5000     9.7087    10.5991    13.6201   -27.0099     7.8199    90.3402     0.0811     2.5205     0.0231
  454.0000     9.6276    10.6074    13.4398   -27.1367     7.8219    90.2090     0.0823     2.5168     0.0217
  454.5000     9.5615    10.5428    13.2673   -27.1075     7.8239    92.0927     0.0823     2.5115     0.0189
  455.0000     9.5133    10.4780    12.9132   -27.0842     7.8259    94.4354     0.0834     2.5072     0.0176
  455.5000     9.4561    10.4877    12.4812   -27.0608     7.8279    96.0979     0.0861     2.5050     0.0163
  456.0000     9.3710    10.4077    12.3163   -27.0404     7.8302    95.2193     0.0894     2.5029     0.0165
  456.5000     9.2135    10.3568    12.2429   -27.0240     7.8317    94.6351     0.0905     2.5022     0.0167
  457.0000     9.0903    10.2229    12.3411   -27.0075     7.8313    95.7043     0.0884     2.5000     0.0169
  457.5000     8.8785    10.0513    12.2555   -26.9895     7.8309    98.8616     0.0862     2.4979     0.0171
  458.0000     8.7399     9.8880    12.1025   -26.9670     7.8306    99.7767     0.0838     2.5002     0.0173
  458.5000     8.6859     9.7341    11.9495   -26.9402     7.8303    99.4960     0.0810     2.5147     0.0190
  459.0000     8.6328     9.6315    11.7964   -27.0737     7.8299    99.2152     0.0771     2.5191     0.0206
  459.5000     8.5807     9.4202    11.6434   -27.2018     7.8296    99.8318     0.0753     2.5207     0.0208
  460.0000     8.5171     9.1863    11.5256   -27.3243     7.8293    99.1779     0.0798     2.5215     0.0210
  460.5000     8.4790     8.8790    11.3035   -27.7526     7.8289    98.6722     0.0776     2.5231     0.0212
  461.0000     8.4871     8.6411    11.2327   -27.8861     7.8286    99.7368     0.0734     2.5270     0.0214
  461.5000     8.4952     8.4412    11.0849   -28.1588     7.8282    98.7133     0.0697     2.5345     0.0246
  462.0000     8.4439     8.2417    11.0155   -28.2923     7.8279    98.1291     0.0676     2.5369     0.0277
  462.5000     8.4178     8.1338    11.0250   -28.2647     7.8276    98.4509     0.0706     2.5339     0.0264
  463.0000     8.2863     8.0271    11.1259   -28.2426     7.8272    99.9639     0.0759     2.5280     0.0221
  463.5000     8.2247     8.0338    11.2733   -28.2204     7.8269   100.7296     0.0816     2.5221     0.0178
  464.0000     8.0733     8.0706    11.3599   -28.1983     7.8265   100.0005     0.0867     2.5124     0.0150
  464.5000     8.0246     8.1126    11.6078   -28.3400     7.8262    98.3745     0.0887     2.5043     0.0137
  465.0000     7.9208     8.2259    11.6970   -28.6286     7.8259    98.8665     0.0896     2.5014     0.0139
  465.5000     7.8712     8.2903    11.7050   -28.7326     7.8255   100.4073     0.0899     2.4984     0.0141
  466.0000     7.7172     8.2970    11.6318   -28.8606     7.8252   101.5729     0.0913     2.4985     0.0142
  466.5000     7.6707     8.3038    11.5589   -29.1332     7.8249   102.1890     0.0907     2.5009     0.0160
  467.0000     7.6244     8.3689    11.1709   -29.2668     7.8245   103.2362     0.0880     2.5054     0.0176
  467.5000     7.5700     8.4936    10.8714   -29.2391     7.8242  -999.2500     0.0855     2.5093     0.0208
  468.0000     7.4804     8.5002    10.7283   -29.3727     7.8238  -999.2500     0.0837     2.5124     0.0225
  468.5000     7.3836     8.5072    10.5097   -29.3450     7.8235  -999.2500     0.0821     2.5154     0.0242
  469.0000     7.2881     8.4550    10.2955   -29.4786     7.8232  -999.2500     0.0836     2.5155     0.0229
  469.5000     7.2965     8.3986    10.1562   -29.4509     7.8228  -999.2500     0.0866     2.5133     0.0216
  470.0000     7.2508     8.3511     9.9659   -29.5796     7.8225  -999.2500     0.0869     2.5112     0.0217
  470.5000     7.2592     8.1860     9.9035   -29.6292     7.8222  -999.2500     0.0847     2.5105     0.0236
  471.0000     7.2659     8.1339     9.9103   -29.6849     7.8218  -999.2500     0.0814     2.5159     0.0266
  471.5000     7.2220     8.0291     9.9161   -29.6622     7.8215  -999.2500     0.0795     2.5204     0.0283
  472.0000     7.2289     7.9224     9.9239   -29.6396     7.8211  -999.2500     0.0813     2.5228     0.0255
  472.5000     7.1771     7.7101     9.9308   -29.6130     7.8208  -999.2500     0.0858     2.5176     0.0241
  473.0000     7.0938     7.4008     9.9376   -29.7410     7.7934  -999.2500     0.0902     2.5094     0.0199
  473.5000     6.9051     6.7160     9.9444   -29.7189     7.7800  -999.2500     0.0965     2.4998     0.0186
  474.0000     6.6747     6.1373     9.9513   -29.6968     7.7521  -999.2500     0.1007     2.4908     0.0202
  474.5000     6.4520     5.6085     9.6172   -29.6746     7.7242  -999.2500     0.1040     2.4871     0.0220
  475.0000     6.2367     6.7053     9.1657   -29.6525     7.6968  -999.2500     0.1061     2.4832     0.0251
  475.5000     6.0707     7.1255     8.1476   -29.6304     7.6684  -999.2500     0.1102     2.4731     0.0253
  476.0000     6.0764     6.1573     6.7082   -29.7639     7.5944  -999.2500     0.1305     2.4193     0.0234
  476.5000     6.0820     7.1386     6.2151   -29.7363  -999.2500  -999.2500  -999.2500  -999.2500  -999.2500
