~VERSION INFORMATION
 VERS.                2.0:   CWLS LOG ASCII STANDARD - VERSION 2.0
 WRAP.                 NO:   ONE LINE PER DEPTH STEP
~WELL INFORMATION
#MNEM.UNIT      DATA TYPE    INFORMATION
#----------   ------------   ------------------------------
 STRT.F           24.5000:   START DEPTH
 STOP.F          750.0000:   STOP DEPTH
 STEP.F            0.5000:   STEP LENGTH
 NULL.          -999.2500:   NO VALUE
 COMP. FENIX & SCISSON INC:   COMPANY
 WELL.    NPR 3 SX #35-11:   WELL
 FLD .          N.P.R. #3:   FIELD
 LOC .      S11 T38N R78W:   LOCATION
 CNTY.            NATRONA:   COUNTY
 STAT.            WYOMING:   STATE
 CTRY. UNITED STATES OF AMERICA:   COUNTRY
 SRVC.            Unknown:   SERVICE COMPANY
 DATE.        23-FEB-1978:   LOGDATE
 API .       490251027200:   API NUMBER
~CURVE INFORMATION
#MNEM.UNIT       API CODE    CURVE DESCRIPTION
#----------   ------------   ------------------------------
 DEPT.F                  :   
 ILM .OHMM   07 120 44 00:   INDUCTION LOG MEDIUM
 ILD .OHMM   07 120 46 00:   INDUCTION LOG DEEP
 LL8 .OHMM   07 220 08 00:   LATEROLOG-8 RES.
 SPR .MV     07 010 01 00:   SPONTANEOUS POTENTIAL
 CALD.IN     45 280 60 00:   CALIPER FROM DENSITY LOG
 CORR.G/C3   45 356 01 00:   DENSITY CORRECTION
 DPHI.DEC    45 890 12 00:   DENSITY POROSITY SANDSTONE
 GRD .GAPI   45 310 01 00:   GAMMA RAY FROM DENSITY LOG
 RHOB.G/C3   45 350 01 00:   BULK DENSITY
 IL  .OHMM   05 120 40 00:   INDUCTION RESISTIVITY
 SN  .OHMM   05 040 16 00:   SHORT NORMAL 16"
 SPR1.MV     05 010 01 00:   SPONTANEOUS POTENTIAL INDUCTION ELECTRICAL LOG
~PARAMETER INFORMATION
#MNEM.UNIT          VALUE    DESCRIPTION
#----------   ------------   ------------------------------
 PD  .                 GL:   PERMANENT DATUM
 EPD .F              5204:   ELEVATION PERMANENT DATUM
 LMF .                 KB:   LOG MEASURED FROM
 DAPD.F                 4:   FEET ABOVE PERMANENT DATUM
 DMF .                 KB:   DRILLING MEASURED FROM
 EKB .F              5208:   KELLING BUSHING
 EGL .F              5204:   GROUND LEVEL
 DATE.        23-FEB-1978:   RUN DATE
 RUN .                  1:   RUN NUMBER
 DD  .F               755:   DEPTH DRILLER
 DL  .F               751:   DEPTH LOGGER
 BLI .F               745:   BOTTOM LOG INTERVAL
 TLI .F                45:   TOP LOG INTERVAL
 CS  .IN            8.625:   CASING SIZE
 CBD .F                40:   CASING BOTTOM DRILLER
 CBL .F                40:   CASING BOTTOM LOGGER
 BS  .IN            7.875:   BIT SIZE
 BSD .F               755:   BIT SIZE AT DEPTH
 DFT .         LIGNO SULF:   DRILLING FLUID TYPE
 DFD .                8.7:   DRILLING FLUID DENSITY
 DFV .                 33:   DRILLING FLUID VISCOSITY
 DFPH.                 10:   DRILLING FLUID PH
 DFL .                  4:   DRILLING FLUID LOSS
 MSS .           FLOWLINE:   MUD SAMPLE SOURCE
 RMS .OHMM            2.0:   RESISTIVITY MUD SAMPLE
 MST .F                60:   MUD SAMPLE TEMPERATURE
 RMF .OHMM            1.9:   RESISTIVITY MUD FILTRATE SAMPLE
 MFST.F                62:   MUD FILTRATE SAMPLE TEMPERATURE
 RMC .OHMM            3.5:   RESISTIVITY MUD CAKE
 MCST.F                60:   MUD CAKE SAMPLE TEMPERATURE
 MFSS.               MEAS:   MUD FILTRATE SAMPLE SOURCE
 RMB .OHMM           1.69:   RESISTIVITY MUD AT BHT
 BHT .F                71:   BOTTOM HOLE TEMPERATURE
 TCS .HRS               3:   TIME CURCULATED STOPPED
 MRT .F                71:   MAXIMUM RECORDED TEMPERATURE
 CLNT.            A2DTECH:   CLIENT CODE
 ORIG.           5" PRINT:   ORIGIN OF DATA
 UWI .       490251027200:   UNIQUE WELL ID
 DICO. A2D Technologies, Inc.:   DIGITIZING COMPANY
~OTHER INFORMATION
~A   DEPT      ILM        ILD        LL8        SPR       CALD       CORR       DPHI         GRD      RHOB         IL         SN       SPR1   
# ...
  640.5000    28.5337    28.7187    44.3740   -32.1617     8.1337     0.0177     0.1216    66.7952     2.4692    16.8561    20.2775   -47.0484
  641.0000    29.5711    29.7536    45.0224   -31.8452     8.1204     0.0133     0.1112    69.0662     2.4957    16.4015    19.9232   -47.1804
  641.5000    29.7852    29.7803    37.6754   -31.8259     8.1078     0.0315     0.1040    74.0009     2.5063    16.1820    19.5387   -46.6817
  642.0000    26.9602    28.9955    30.2476   -32.1086     8.0951     0.0391     0.1226    77.5964     2.4229    16.0768    19.1188   -46.0768
  642.5000    24.2964    27.8444    25.7309   -32.0844     8.0980     0.0445     0.1458    78.8108     2.3832    15.9722    18.7288   -45.7785
  643.0000    23.4683    25.6545    23.8707   -32.0651     8.1151     0.0355     0.1743    79.4300     2.3541    15.9789    18.4750   -45.7605
  643.5000    23.3061    24.2984    23.8285   -31.7486     8.1323     0.0281     0.1951    80.3469     2.3324    15.7619    18.2504   -45.7131
  644.0000    23.3061    23.6527    23.8375   -31.4321     8.1345     0.0350     0.2020    82.0078     2.3199    15.5542    18.1167   -45.4251
  644.5000    23.3061    23.3495    23.8840   -30.9671     8.1368     0.0253     0.2092    83.6687     2.3081    15.4531    17.8853   -45.4093
  645.0000    23.3061    22.7392    23.7453   -31.2449     8.1390     0.0164     0.2121    84.1331     2.3031    15.4596    17.8930   -45.5988
  645.5000    22.3562    22.2883    23.5290   -31.5228     8.1408     0.0172     0.2061    83.5619     2.3100    15.5738    17.7751   -46.0352
  646.0000    20.4287    21.8512    23.0706   -31.6569     8.1431     0.0233     0.2003    83.1394     2.3221    15.5803    17.7801   -46.4481
  646.5000    20.7141    21.5710    22.6907   -31.0384     8.1453     0.0227     0.1982    83.6158     2.3238    15.5868    17.6625   -46.7331
  647.0000    21.0034    21.1528    22.4785   -30.7219     8.1475     0.0273     0.2017    84.3839     2.3209    15.5932    17.5476   -46.9910
  647.5000    21.0034    21.1717    22.1905   -30.8512     8.1498     0.0221     0.2044    84.4079     2.3187    15.4915    17.5537   -47.1245
  648.0000    21.0034    21.0403    21.9882   -31.2776     8.1520     0.0233     0.1869    84.5807     2.3226    15.4995    17.4364   -47.2276
  648.5000    20.8582    21.0639    21.7772   -31.5603     8.1542     0.0331     0.1791    83.7118     2.3543    15.5048    17.3215   -47.2096
  649.0000    20.7141    20.7892    21.6667   -31.9868     8.1565     0.0420     0.1775    82.9917     2.3499    15.4035    17.3154   -47.1237
  649.5000    20.1473    20.6694    21.4363   -32.2646     8.1587     0.0345     0.1945    82.7121     2.3327    15.4114    17.2137   -46.8029
  650.0000    19.7324    20.2595    20.9390   -32.1351     8.1610     0.0324     0.1888    84.7921     2.3215    15.2923    16.9708   -46.5572
  650.5000    19.3261    20.1352    20.3913   -31.7902     8.1328     0.0393     0.1816    89.7566     2.3480    14.9983    16.6344   -46.5406
  651.0000    18.9282    20.0154    19.8435   -31.0159     8.1345     0.0311     0.1785    88.8864     2.3564    14.7946    16.5215   -46.5240
  651.5000    17.8261    19.6258    19.3382   -30.1723     8.1510     0.0252     0.1794    87.5698     2.3580    14.6953    16.5258   -46.2639
  652.0000    17.4736    19.5031    18.9560   -29.1788     8.1676     0.0215     0.1855    86.5507     2.3468    14.5967    16.5292   -45.8753
  652.5000    17.4949    19.1235    18.6500   -28.4398     8.1692     0.0194     0.1912    85.8236     2.3363    14.3977    16.5325   -45.3843
  653.0000    17.5120    18.6184    18.5048   -27.9762     8.1709     0.0210     0.1908    86.1495     2.3432    14.2307    16.6516   -44.7606
  653.5000    17.5291    18.2522    18.3014   -27.8098     8.1725     0.0279     0.1861    87.2138     2.3486    14.0100    16.5394   -44.2264
  654.0000    17.6677    18.1380    18.2281   -27.9404     8.1742     0.0243     0.1816    85.7483     2.3532    13.9825    15.8662   -43.8463
  654.5000    17.5633    17.7850    18.1766   -28.3685     8.1758     0.0281     0.1731    84.6969     2.3684    13.8222    15.4336   -43.6201
  655.0000    17.3352    17.6737    17.9427   -28.0529     8.1775     0.0267     0.1689    83.9436     2.3707    13.6349    15.1178   -43.6440
  655.5000    17.1143    17.4497    17.7118   -27.7377     8.1791     0.0216     0.1745    82.8229     2.3609    13.5269    14.9118   -43.8775
  656.0000    17.0132    17.3190    17.4489   -27.4225     8.1808     0.0292     0.1775    82.1129     2.3660    13.4522    14.8046   -43.9641
  656.5000    16.9126    17.1172    17.0695   -27.2558     8.1824     0.0158     0.1838    84.5165     2.3510    13.3030    14.6097   -43.8452
  657.0000    15.8003    17.1319    16.6491   -27.0892     8.1839     0.0069     0.1868    86.3249     2.3409    13.1800    14.5114   -43.5723
  657.5000    15.7069    17.2649    16.3880   -27.0712     8.1857     0.0190     0.1819    87.5379     2.3442    13.0017    14.4136   -43.1455
  658.0000    15.7313    17.2792    16.3255   -27.0531     8.1874     0.0266     0.1728    88.8999     2.3630    12.8251    14.3166   -42.8913
  658.5000    15.9612    16.9392    16.3781   -27.1837     8.1890     0.0200     0.1821    90.4106     2.3548    12.7391    14.1216   -42.7229
  659.0000    16.0825    16.7208    16.5110   -27.1656     8.1758     0.0171     0.1890    91.6237     2.3436    12.5661    13.8333   -42.7807
  659.5000    16.0982    16.3921    16.6084   -27.3007     8.1774     0.0135     0.1935    92.2415     2.3362    12.4811    13.6349   -42.9160
  660.0000    15.8927    16.1809    16.5895   -27.4312     8.1638     0.0091     0.1955    90.4785     2.3318    12.2271    13.4590   -43.1686
  660.5000    15.7987    15.9719    16.4913   -27.5618     8.1658     0.0122     0.1901    89.0073     2.3379    12.0610    13.3209   -43.3635
  661.0000    15.4905    15.7667    16.3203   -27.6923     8.1675     0.0183     0.1801    90.5237     2.3546    11.9509    13.1860   -43.7963
  661.5000    15.2931    15.5604    15.9977   -27.8229     8.1840     0.0260     0.1704    92.3320     2.3682    11.8700    13.0853   -43.7801
  662.0000    14.0914    15.2543    15.6815   -27.9534     8.1857     0.0286     0.1637    93.9916     2.3781    11.7381    12.9578   -43.7639
  662.5000    14.2028    15.0578    15.3363   -28.0840     8.1720     0.0250     0.1595    96.2463     2.3880    11.7405    12.8319   -43.4482
  663.0000    14.3151    14.7647    14.9628   -28.0659     8.1588     0.0186     0.1573    95.0785     2.3911    11.6611    12.7454   -43.2823
  663.5000    14.3291    14.5715    14.7015   -28.6422     8.1605     0.0189     0.1579    92.7202     2.3942    11.6640    12.6599   -43.1164
  664.0000    14.3430    14.4834    14.5470   -28.7728     8.1633     0.0227     0.1633    89.9305     2.3845    11.6666    12.6359   -42.9504
  664.5000    14.3570    14.4985    14.4260   -28.7547     8.1638     0.0198     0.1629    87.0521     2.3809    11.6690    12.4902   -42.9342
  665.0000    14.2722    14.5106    14.2404   -28.7367     8.1654     0.0169     0.1739    86.0764     2.3606    11.6714    12.4057   -42.9179
  665.5000    13.6124    14.5228    14.0916   -28.7187     8.1671     0.0144     0.1774    85.9597     2.3562    11.5930    12.3224   -42.9017
  666.0000    13.2515    14.5349    13.9735   -28.5520     8.1687     0.0187     0.1791    86.1312     2.3533    11.4807    12.3250   -42.8855
  666.5000    13.2677    14.5471    13.7937   -28.5340     8.1554     0.0188     0.1799    85.8562     2.3511    11.4379    12.2414   -42.8692
  667.0000    13.3726    14.3597    13.6162   -28.5159     8.1571     0.0189     0.1814    85.2836     2.3523    11.3612    12.3301   -42.7019
  667.5000    13.4783    13.9775    13.4752   -28.2007     8.1587     0.0281     0.1762    85.6038     2.3614    11.2849    12.3327   -42.6871
  668.0000    13.3065    13.7975    13.4300   -28.0341     8.1604     0.0298     0.1712    86.0729     2.3665    11.2093    12.3352   -42.6706
