~VERSION INFORMATION
 VERS.                2.0:   CWLS LOG ASCII STANDARD - VERSION 2.0
 WRAP.                 NO:   ONE LINE PER DEPTH STEP
~WELL INFORMATION
#MNEM.UNIT      DATA TYPE    INFORMATION
#----------   ------------   ------------------------------
 STRT.F            0.0000:   START DEPTH
 STOP.F          717.5000:   STOP DEPTH
 STEP.F            0.5000:   STEP LENGTH
 NULL.          -999.2500:   NO VALUE
 COMP. LAWRENCE/ALLISON INC:   COMPANY
 WELL. NPR 3 #27-64-SX-11-WP:   WELL
 FLD .             TEAPOT:   FIELD
 LOC .      S11 T38N R78W:   LOCATION
 CNTY.            NATRONA:   COUNTY
 STAT.            WYOMING:   STATE
 CTRY. UNITED STATES OF AMERICA:   COUNTRY
 SRVC.      Dresser Atlas:   SERVICE COMPANY
 DATE.        15-SEP-1984:   LOGDATE
 API .       490251097500:   API NUMBER
~CURVE INFORMATION
#MNEM.UNIT       API CODE    CURVE DESCRIPTION
#----------   ------------   ------------------------------
 DEPT.F                  :   
 CALD.IN     45 280 60 00:   CALIPER FROM DENSITY LOG
 CNC .DEC    42 890 03 00:   COMPENSATED NEUTRON POROSITY SANDSTONE
 CORR.G/C3   45 356 01 00:   DENSITY CORRECTION
 DEN .G/C3   45 350 01 00:   BULK DENSTIY
 PORD.DEC    45 890 12 00:   POROSITY DENSITY SANDSTONE
 GRR .GAPI   07 310 01 00:   GAMMA RAY FROM RESISTIVITY
 RFOC.OHMM   07 220 01 00:   RESISTIVITY FOCUSED LOG
 RILD.OHMM   07 120 46 00:   RESISTIVITY INDUCTION LOG DEEP
 RILM.OHMM   07 120 44 00:   RESITIVITY INDUCTION LOG MEDIUM
 SPR .MV     07 010 01 00:   SPONTANEOUS POTENTIAL FROM RES.
~PARAMETER INFORMATION
#MNEM.UNIT          VALUE    DESCRIPTION
#----------   ------------   ------------------------------
 PD  .                 GL:   PERMANENT DATUM
 EPD .F              5198:   ELEVATION PERMANENT DATUM
 LMF .                 GL:   LOG MEASURED FROM
 DMF .                 GL:   DRILLING MEASURED FROM
 EGL .F              5198:   GROUND LEVEL
 DATE.        15-SEP-1984:   RUN DATE
 RUN .                  1:   RUN NUMBER
 DD  .F               736:   DEPTH DRILLER
 DL  .F               722:   DEPTH LOGGER
 BLI .F               704:   BOTTOM LOG INTERVAL
 TLI .F                42:   TOP LOG INTERVAL
 CS  .IN            8.625:   CASING SIZE
 CBD .F                42:   CASING BOTTOM DRILLER
 CBL .F                42:   CASING BOTTOM LOGGER
 BS  .IN            7.875:   BIT SIZE
 BSD .F               736:   BIT SIZE AT DEPTH
 DFT .          KCL WATER:   DRILLING FLUID TYPE
 MSS .           FLOWLINE:   MUD SAMPLE SOURCE
 RMS .OHMM           0.22:   RESISTIVITY MUD SAMPLE
 MST .F                70:   MUD SAMPLE TEMPERATURE
 RMB .OHMM           0.17:   RESISTIVITY MUD AT BHT
 BHT .F                90:   BOTTOM HOLE TEMPERATURE
 TCS .HRS               5:   TIME CURCULATED STOPPED
 MRT .F                90:   MAXIMUM RECORDED TEMPERATURE
 LUN .               6274:   LOGGING UNIT NUMBER
 LUL .               GLTE:   LOGGING UNIT LOCATION
 ENGI.             RAUTIO:   RECORDING ENGINEER
 WITN.            JOHNSON:   WITNESSED BY
 CLNT.            A2DTECH:   CLIENT CODE
 ORIG.         2.5" PRINT:   ORIGIN OF DATA
 UWI .       490251097500:   UNIQUE WELL ID
 DICO. A2D Technologies, Inc.:   DIGITIZING COMPANY
~OTHER INFORMATION
~A    DEPT    CALD        CNC       CORR        DEN       PORD         GRR      RFOC       RILD       RILM        SPR   
# ...
  167.5000     8.1670     0.2922     0.0230     2.4682     0.1251    86.9226     7.4836     7.5427     7.4784    -5.8617
  168.0000     8.1952     0.2910     0.0173     2.4667     0.1270    90.0118     7.6817     7.6080     7.5114    -5.5863
  168.5000     8.1937     0.2875     0.0306     2.4669     0.1277    89.8044     7.8885     7.7053     7.6724    -5.6095
  169.0000     8.1923     0.2934     0.0378     2.4681     0.1268    88.5903     8.0160     7.8052     7.7724    -5.6375
  169.5000     8.1908     0.2982     0.0264     2.4680     0.1266    85.9290     8.2018     8.0121     7.8725    -5.3621
  170.0000     8.1893     0.2970     0.0140     2.4628     0.1254    83.4714     8.3083     8.0055     7.9731    -5.0867
  170.5000     8.1879     0.2753     0.0048     2.4496     0.1273    81.3823     8.5519     8.2211     8.0759    -5.1124
  171.0000     8.1866     0.2640    -0.0013     2.4448     0.1332    80.0710     8.7591     8.2126     8.2938    -5.1379
  171.5000     8.2080     0.2604    -0.0014     2.4496     0.1386    80.0986     8.8703     8.2041     8.2842    -4.8625
  172.0000     8.2133     0.2641    -0.0015     2.4603     0.1398    83.6417     8.9849     8.1969     8.1651    -4.7534
  172.5000     8.2335     0.2806    -0.0016     2.4587     0.1321    83.6095     8.8528     8.0776     8.1369    -4.6154
  173.0000     8.2396     0.2854    -0.0018     2.4587     0.1315    83.5740     8.7221     7.9591     7.9849    -4.6391
  173.5000     8.2379     0.2766    -0.0019     2.4586     0.1304    84.7177     8.3558     7.7310     7.7087    -4.6627
  174.0000     8.2365     0.2746     0.0162     2.4615     0.1304    87.1006     8.0864     7.5209     7.5844    -4.6894
  174.5000     8.2350     0.2837     0.0371     2.4630     0.1304    89.2111     7.7908     7.3095     7.3415    -4.7101
  175.0000     8.2336     0.2902     0.0453     2.4660     0.1295    92.8943     7.6777     7.2041     7.1787    -4.7337
  175.5000     8.2322     0.2932     0.0431     2.4673     0.1279    92.8636     7.5330     7.0992     7.0754    -4.7610
  176.0000     8.2308     0.2891     0.0177     2.4643     0.1276    91.2978     7.3516     7.0913     7.1055    -4.7815
  176.5000     8.2293     0.2797    -0.0007     2.4612     0.1279    90.4200     7.3451     7.0854     7.1603    -4.5061
  177.0000     8.2278     0.2738    -0.0014     2.4612     0.1300    90.3893     7.3377     7.1772     7.1539    -4.2409
  177.5000     8.2263     0.2720     0.0062     2.4611     0.1294    91.6765     7.4315     7.2685     7.2470    -4.2614
  178.0000     8.2249     0.2721     0.0149     2.4596     0.1295    92.6864     7.5264     7.4630     7.3396    -4.2840
  178.5000     8.2234     0.2729     0.0266     2.4546     0.1295    92.6487     7.6430     7.4562     7.5367    -4.0118
  179.0000     8.2219     0.2751     0.0295     2.4461     0.1343    91.4320     7.7740     7.5519     7.6597    -3.7413
  179.5000     8.2204     0.2841     0.0324     2.4520     0.1396    91.1085     8.0356     7.6487     7.7325    -3.7633
  180.0000     8.2189     0.2997     0.0322     2.4549     0.1379    88.9910     8.2666     7.6414     7.8323    -3.7870
  180.5000     8.2172     0.3196     0.0143     2.4533     0.1326    87.1163     8.5247     7.6341     7.9338    -3.8129
  181.0000     8.2157     0.3202     0.0082     2.4488     0.1347    85.3728     8.8185     7.7312     7.9262    -3.8343
  181.5000     8.2143     0.3124     0.0022     2.4458     0.1394    84.1499     9.0559     7.7246     7.9185    -3.7377
  182.0000     8.2129     0.3051     0.0021     2.4397     0.1415    84.1183     9.0946     7.8249     7.9121    -3.2928
  182.5000     8.2115     0.2919     0.0032     2.4368     0.1422    85.4832     9.1619     7.8152     7.9051    -3.3133
  183.0000     8.2100     0.2872     0.0163     2.4440     0.1414    87.5927     9.0277     8.0257     8.0062    -3.0379
  183.5000     8.2086     0.2926     0.0335     2.4534     0.1358    88.7455     8.8558     8.0180     8.1104    -3.0686
  184.0000     8.2071     0.3044     0.0444     2.4565     0.1318    89.3065     8.4102     8.1208     8.1031    -3.0890
  184.5000     8.2056     0.3003     0.0475     2.4573     0.1304    82.7516     8.0637     8.2249     8.0948    -3.1124
  185.0000     8.2041     0.2896     0.0316     2.4595     0.1305    81.5374     7.8374     8.2171     8.0886    -3.1402
  185.5000     8.2027     0.2903    -0.0077     2.4691     0.1299    80.3195     8.0458     8.2078     8.0814    -3.1607
  186.0000     8.2012     0.2933    -0.0167     2.4749     0.1288    82.6441     8.3766     8.2010     8.0730    -3.1834
  186.5000     8.1997     0.2945     0.0010     2.4749     0.1246    86.7554     8.7703     8.1935     8.0668    -3.2118
  187.0000     8.1982     0.2969     0.0276     2.4748     0.1199    86.1302     9.1426     8.1857     8.0599    -3.2323
  187.5000     8.1967     0.3056     0.0483     2.4733     0.1206    86.3905     9.3204     8.1772     8.0513    -3.2544
  188.0000     8.1950     0.3194     0.0541     2.4732     0.1212    86.6509     9.3108     8.1700     8.0451    -3.2781
  188.5000     8.1936     0.2958     0.0570     2.4748     0.1188    84.8402     9.3012     8.0006     7.9111    -3.3039
  189.0000     8.1922     0.2704     0.0565     2.4900     0.1114    85.0651     9.2907     7.9331     7.8140    -3.3254
  189.5000     8.1907     0.2728     0.0502     2.5017     0.1079    86.5406     9.1341     7.8091     7.7002    -3.3491
  190.0000     8.1893     0.2953     0.0461     2.5027     0.1049    88.3630     8.5638     7.7045     7.5892    -3.3755
  190.5000     8.1879     0.3097     0.0377     2.4913     0.1030    89.8816     8.1855     7.5914     7.5825    -3.3964
  191.0000     8.1864     0.3231     0.0272     2.4836     0.1062    91.7586     7.8454     7.5823     7.4718    -3.4201
  191.5000     8.1849     0.3046     0.0148     2.4781     0.1096    91.7278     7.5925     7.4746     7.4659    -3.4471
  192.0000     8.1834     0.2883     0.0070     2.4727     0.1155    90.9113     7.7241     7.4664     7.4566    -3.4676
  192.5000     8.1820     0.2877    -0.0005     2.4682     0.1215    89.2843     7.8239     7.4602     7.4320    -3.4911
  193.0000     8.1805     0.2925     0.0054     2.4637     0.1250    86.8868     7.9546     7.5569     7.4074    -3.5187
  193.5000     8.1790     0.2980     0.0171     2.4622     0.1274    85.3609     8.2471     7.5475     7.3828    -3.2434
  194.0000     8.1775     0.3050     0.0200     2.4621     0.1292    84.4432     8.3540     7.5412     7.3582    -3.2663
  194.5000     8.1760     0.2836     0.0169     2.4680     0.1269    83.8207     8.3454     7.6390     7.3336    -3.2945
  195.0000     8.1743     0.2796     0.0108     2.4680     0.1240    84.3818     8.1634     7.6309     7.3185    -3.3150
  195.5000     8.1729     0.2834     0.0047     2.4574     0.1228    84.9507     7.8828     7.6231     7.3120    -3.3373
  196.0000     8.1714     0.2908     0.0047     2.4530     0.1280    88.4470     7.7684     7.7219     7.4063    -3.2150
  196.5000     8.1700     0.2882     0.0115     2.4529     0.1343    90.8639     7.8671     7.7140     7.5023    -2.7949
  197.0000     8.1686     0.2921     0.0230     2.4532     0.1353    92.1972     7.8582     7.7059     7.4951    -2.8166
  197.5000     8.1967     0.2975     0.0300     2.4597     0.1350    92.4852     7.9704     7.6992     7.4878    -2.7120
  198.0000     8.1953     0.3064     0.0380     2.4617     0.1302    91.2663     8.0626     7.7357     7.4818    -2.5680
  198.5000     8.1938     0.3091     0.0384     2.4609     0.1289    90.0473     8.1631     7.7905     7.5162    -2.2952
  199.0000     8.1923     0.2917     0.0272     2.4562     0.1325    88.8239     8.1557     7.7830     7.6752    -2.3195
  199.5000     8.2095     0.2881     0.0144     2.4377     0.1426    88.2012     8.1473     7.7756     7.6692    -2.3464
  200.0000     8.2192     0.2919     0.0057     2.4317     0.1468    88.7574     8.1607     7.7678     7.7691    -2.3669
  200.5000     8.2186     0.2965     0.0006     2.4317     0.1497    95.8171     8.2401     7.7594     7.6537    -2.0900
