~VERSION INFORMATION
 VERS.                2.0:   CWLS LOG ASCII STANDARD - VERSION 2.0
 WRAP.                 NO:   ONE LINE PER DEPTH STEP
~WELL INFORMATION
#MNEM.UNIT      DATA TYPE    INFORMATION
#----------   ------------   ------------------------------
 STRT.F           38.0000:   START DEPTH
 STOP.F          818.0000:   STOP DEPTH
 STEP.F            0.5000:   STEP LENGTH
 NULL.          -999.2500:   NO VALUE
 COMP. FENIX & SCISSON INC:   COMPANY
 WELL. NAVAL PETROLEUM RESERVE 3 SX-1 #32-14:   WELL
 FLD .             TEAPOT:   FIELD
 LOC .      S14 T38N R78W:   LOCATION
 CNTY.            NATRONA:   COUNTY
 STAT.            WYOMING:   STATE
 CTRY. UNITED STATES OF AMERICA:   COUNTRY
 SRVC.            Unknown:   SERVICE COMPANY
 DATE.        03-MAY-1978:   LOGDATE
 API .       490251061900:   API NUMBER
~CURVE INFORMATION
#MNEM.UNIT       API CODE    CURVE DESCRIPTION
#----------   ------------   ------------------------------
 DEPT.F                  :   
 SPR .MV     05 010 01 00:   SPONTANEOUS POTENTIAL FROM RES.
 ILD .OHMM   05 120 46 00:   INDUCTION LOG DEEP
 SN  .OHMM   05 040 16 00:   SHORT NORMAL 16"
 CALD.IN     45 280 60 00:   CALIPER
 GRD .GAPI   45 310 01 00:   GAMMA RAY FROM DENSITY LOG
 RHOB.G/C3   45 350 01 00:   BULK DENSITY
 DPHI.DEC    45 890 12 00:   DENSITY POROSITY SANDSTONE
 CORR.G/C3   45 356 01 00:   DENSITY CORRECTION
~PARAMETER INFORMATION
#MNEM.UNIT          VALUE    DESCRIPTION
#----------   ------------   ------------------------------
 PD  .                 GL:   PERMANENT DATUM
 EPD .F              5209:   ELEVATION PERMANENT DATUM
 LMF .                 KB:   LOG MEASURED FROM
 DAPD.F                 4:   FEET ABOVE PERMANENT DATUM
 DMF .                 KB:   DRILLING MEASURED FROM
 EKB .F              5213:   KELLING BUSHING
 EGL .F              5209:   GROUND LEVEL
 DATE.           5-3-1978:   RUN DATE
 RUN .                  1:   RUN NUMBER
 DD  .F               806:   DEPTH DRILLER
 DL  .F               824:   DEPTH LOGGER
 BLI .F               818:   BOTTOM LOG INTERVAL
 TLI .F                50:   TOP LOG INTERVAL
 CS  .IN            8.625:   CASING SIZE
 CBD .F                40:   CASING BOTTOM DRILLER
 BS  .IN            7.875:   BIT SIZE
 BSD .F               806:   BIT SIZE AT DEPTH
 DFT .                KCL:   DRILLING FLUID TYPE
 DFD .                8.6:   DRILLING FLUID DENSITY
 DFV .                 34:   DRILLING FLUID VISCOSITY
 DFPH.                  9:   DRILLING FLUID PH
 DFL .               16.4:   DRILLING FLUID LOSS
 MSS .           FLOWLINE:   MUD SAMPLE SOURCE
 RMS .OHMM            .75:   RESISTIVITY MUD SAMPLE
 MST .F                52:   MUD SAMPLE TEMPERATURE
 RMF .OHMM            .65:   RESISTIVITY MUD FILTRATE SAMPLE
 MFST.F                60:   MUD FILTRATE SAMPLE TEMPERATURE
 RMC .OHMM            1.2:   RESISTIVITY MUD CAKE
 MCST.F                62:   MUD CAKE SAMPLE TEMPERATURE
 MFSS.               MEAS:   MUD FILTRATE SAMPLE SOURCE
 RMB .OHMM            .54:   RESISTIVITY MUD AT BHT
 BHT .F                72:   BOTTOM HOLE TEMPERATURE
 TCS .HRS               1:   TIME CURCULATED STOPPED
 MRT .F                72:   MAXIMUM RECORDED TEMPERATURE
 LUN .               2958:   LOGGING UNIT NUMBER
 LUL .               CASP:   LOGGING UNIT LOCATION
 ENGI.             MILLER:   RECORDING ENGINEER
 WITN.           MCGINLEY:   WITNESSED BY
 CLNT.            A2DTECH:   CLIENT CODE
 ORIG.           5" PRINT:   ORIGIN OF DATA
 UWI .       490251061900:   UNIQUE WELL ID
 DICO. A2D Technologies, Inc.:   DIGITIZING COMPANY
~OTHER INFORMATION
~A   DEPT      SPR        ILD         SN         CALD      GRD       RHOB       DPHI       CORR   
# ...
  726.5000   -34.5476    10.5716     9.9008     8.4239    65.7131     2.4744     0.1366     0.0324
  727.0000   -34.5577    10.5882     9.8805     8.4382    64.7818     2.4669     0.1375     0.0320
  727.5000   -34.5620    10.6047     9.8603     8.4633    65.6775     2.4690     0.1361     0.0315
  728.0000   -34.5616    10.6214     9.8402     8.4890    66.9327     2.4761     0.1347     0.0311
  728.5000   -34.5606    10.6421     9.8200     8.4986    67.1909     2.4736     0.1369     0.0306
  729.0000   -34.5677    10.5862     9.8000     8.4952    67.1949     2.4705     0.1391     0.0315
  729.5000   -34.7090    10.5131     9.7799     8.4917    67.1895     2.4671     0.1353     0.0342
  730.0000   -34.8502    10.4402     9.7599     8.4881    67.1784     2.4737     0.1299     0.0369
  730.5000   -34.9905    10.3680     9.7400     8.4846    67.2588     2.4838     0.1310     0.0390
  731.0000   -35.1307    10.2962     9.7200     8.4814    68.2739     2.4796     0.1347     0.0402
  731.5000   -35.2693    10.2250     9.6949     8.4579    77.1314     2.4759     0.1337     0.0414
  732.0000   -35.3609    10.1542     9.6531     8.4261    77.1642     2.4818     0.1289     0.0439
  732.5000   -35.4079    10.0839     9.6168     8.4388    77.0898     2.4882     0.1254     0.0452
  733.0000   -35.4592    10.0141     9.2718     8.4628    77.0472     2.4897     0.1239     0.0465
  733.5000   -35.5103     9.9449     9.1840     8.4869    76.9996     2.4936     0.1226     0.0479
  734.0000   -35.5563     9.8760     9.2229     8.5005    76.9353     2.4979     0.1195     0.0492
  734.5000   -35.6060     9.8077     9.2689     8.4870    76.9721     2.5020     0.1160     0.0506
  735.0000   -35.6758     9.6607     9.2009     8.4721    79.0594     2.5060     0.1128     0.0520
  735.5000   -35.7467     9.4990     9.0933     8.4571    87.1406     2.5098     0.1161     0.0502
  736.0000   -35.8177     9.3401     8.9869     8.4421    87.1814     2.5076     0.1216     0.0463
  736.5000   -35.8885     9.1839     8.8818     8.4271    86.7324     2.5035     0.1199     0.0426
  737.0000   -35.9594     9.0302     8.7492     8.4122    85.6755     2.4993     0.1220     0.0389
  737.5000   -36.0303     8.8791     8.6070     8.3972    85.3106     2.4951     0.1241     0.0374
  738.0000   -36.1012     8.7306     8.4675     8.3824    86.0829     2.4919     0.1206     0.0353
  738.5000   -36.1702     8.5846     8.3315     8.3896    89.0411     2.4938     0.1188     0.0331
  739.0000   -36.2364     8.4409     8.2211     8.4085    91.9983     2.4931     0.1255     0.0309
  739.5000   -36.3019     8.2996     7.8971     8.4273    91.6418     2.4874     0.1301     0.0310
  740.0000   -36.3673     8.0506     7.5864     8.4462    86.2702     2.4810     0.1346     0.0317
  740.5000   -36.4313     7.6805     7.2885     8.4650    80.5646     2.4743     0.1382     0.0324
  741.0000   -36.4973     7.3270     6.9809     8.4838    75.9080     2.4697     0.1418     0.0330
  741.5000   -36.6723     6.9683     6.5771     8.5027    75.7067     2.4587     0.1506     0.0343
  742.0000   -37.4607     6.3855     6.0956     8.5198    76.4017     2.4463     0.1584     0.0356
  742.5000   -37.9543     5.9024     5.6368     8.5198    82.2879     2.4382     0.1627     0.0369
  743.0000   -37.9485     6.0846     5.5339     8.5192    88.6021     2.4127     0.1670     0.0386
  743.5000   -37.9405     6.2378     5.5339     8.5226    94.9543     2.4093     0.1555     0.0547
  744.0000   -37.5529     6.1276     5.6096     8.7975    95.9198     2.4504     0.1343     0.0515
  744.5000   -36.7704     6.0600     5.9495     8.4502    86.8157     2.4994     0.1176     0.0382
  745.0000   -36.9421     7.3708     6.7675     8.4092    76.2763     2.4995     0.1186     0.0373
  745.5000   -36.8703     8.2776     8.1412     8.3838    74.8074     2.5002     0.1179     0.0358
  746.0000   -36.7945     8.7106     8.4146     8.3722    81.1228     2.5038     0.1144     0.0345
  746.5000   -36.7191     9.1328     8.7010     8.3549    89.2181     2.5071     0.1147     0.0331
  747.0000   -36.6444     9.3672     9.0163     8.3408    89.5953     2.5058     0.1180     0.0334
  747.5000   -36.5738     9.6076     9.1986     8.3752    84.5374     2.5041     0.1163     0.0352
  748.0000   -36.2805     9.7058     9.2776     8.4122    74.6137     2.5093     0.1097     0.0370
  748.5000   -35.9606     9.8365     9.3574     8.4491    70.4806     2.5167     0.1080     0.0381
  749.0000   -35.8844     9.9028     9.4378     8.4860    70.1251     2.5211     0.1095     0.0365
  749.5000   -35.8184     9.9696     9.5173     8.5193    71.8138     2.5161     0.1120     0.0350
  750.0000   -35.7565    10.0368     9.6784     8.5086    73.5995     2.5102     0.1150     0.0335
  750.5000   -35.5852    10.1044     9.8495     8.4845    73.7954     2.5040     0.1168     0.0324
  751.0000   -35.3939    10.1890    10.0247     8.4619    73.9628     2.5036     0.1135     0.0323
  751.5000   -35.1978    10.3787    10.2029     8.5016    74.3577     2.5116     0.1116     0.0322
  752.0000   -35.1648    10.5720    10.3842     8.5454    74.7304     2.5082     0.1195     0.0320
  752.5000   -35.1795    10.7689    10.5688     8.5648    73.3914     2.5028     0.1149     0.0319
  753.0000   -35.1949    10.9699    10.7567     8.4791    73.1439     2.5075     0.1104     0.0318
  753.5000   -35.2099    11.1735    10.9403     8.3958    73.4004     2.5148     0.1107     0.0316
  754.0000   -35.2249    11.2656    11.0415     8.3212    74.4405     2.5180     0.1092     0.0315
  754.5000   -35.2399    11.3038    11.0415     8.3201    75.6302     2.5177     0.1098     0.0314
  755.0000   -35.2549    11.3432    11.0415     8.3196    77.7450     2.5147     0.1118     0.0312
  755.5000   -35.2698    11.3827    11.0415     8.3289    80.0617     2.5103     0.1139     0.0311
  756.0000   -35.2848    11.4224    11.0364     8.4381    82.6571     2.5066     0.1151     0.0310
  756.5000   -35.2998    11.4565    11.0204     8.5224    82.9681     2.5033     0.1142     0.0308
  757.0000   -35.3147    11.4559    11.0046     8.4933    77.6682     2.5082     0.1146     0.0307
  757.5000   -35.3301    11.4558    10.9888     8.3523    74.7865     2.5054     0.1191     0.0305
  758.0000   -35.3467    11.4553    10.9730     8.2232    74.7634     2.4999     0.1223     0.0303
  758.5000   -35.3475    11.4368    10.9572     8.2621    78.1351     2.4950     0.1183     0.0341
  759.0000   -35.1092    11.4179    10.9415     8.3471    81.9349     2.5018     0.1137     0.0383
  759.5000   -34.8717    11.3990    10.9257     8.4309    85.6804     2.5098     0.1121     0.0426
  760.0000   -34.7625    11.3803    10.9100     8.5021    82.2617     2.5151     0.1159     0.0438
  760.5000   -34.7380    11.3615    10.8944     8.4933    76.1284     2.5142     0.1163     0.0404
  761.0000   -34.7137    11.3428    10.8787     8.4832    69.9819     2.5109     0.1172     0.0370
  761.5000   -34.6897    11.3242    10.8631     8.4542    68.3581     2.5003     0.1191     0.0343
  762.0000   -34.6654    11.3055    10.8475     8.3416    69.9086     2.4969     0.1173     0.0339
  762.5000   -34.6412    11.2869    10.8319     8.3603    70.3660     2.5010     0.1164     0.0336
  763.0000   -34.6168    11.2683    10.8163     8.3898    68.9200     2.5059     0.1145     0.0332
  763.5000   -34.5924    11.2496    10.8008     8.4198    67.9434     2.5063     0.1168     0.0328
  764.0000   -34.5628    11.2468    10.7852     8.3886    69.2871     2.5050     0.1164     0.0323
  764.5000   -34.7827    11.2469    10.7697     8.3940    76.9933     2.5050     0.1130     0.0351
  765.0000   -35.0869    11.2467    10.7544     8.4158    81.8865     2.5114     0.1096     0.0385
  765.5000   -35.3935    11.2468    10.7322     8.3912    82.1350     2.5207     0.1064     0.0419
  766.0000   -35.7046    11.1620    10.6605     8.3460    77.1480     2.5258     0.1060     0.0439
  766.5000   -35.7837    11.0706    10.5892     8.3760    71.5542     2.5278     0.1032     0.0413
