~VERSION INFORMATION
 VERS.                2.0:   CWLS LOG ASCII STANDARD - VERSION 2.0
 WRAP.                 NO:   ONE LINE PER DEPTH STEP
~WELL INFORMATION
#MNEM.UNIT      DATA TYPE    INFORMATION
#----------   ------------   ------------------------------
 STRT.F           28.0000:   START DEPTH
 STOP.F          884.0000:   STOP DEPTH
 STEP.F            0.5000:   STEP LENGTH
 NULL.          -999.2500:   NO VALUE
 COMP. U S NAVY-INTEX OIL:   COMPANY
 WELL. NPR 3 TEAPOT DOM #43-SX-2:   WELL
 FLD .             TEAPOT:   FIELD
 LOC .       S2 T38N R78W:   LOCATION
 CNTY.            NATRONA:   COUNTY
 STAT.            WYOMING:   STATE
 CTRY. UNITED STATES OF AMERICA:   COUNTRY
 SRVC.       Schlumberger:   SERVICE COMPANY
 DATE.        19-JUL-1963:   LOGDATE
 API .       490250967900:   API NUMBER
~CURVE INFORMATION
#MNEM.UNIT       API CODE    CURVE DESCRIPTION
#----------   ------------   ------------------------------
 DEPT.F                  :   
 ASN .OHMM   05 041 16 00:   AMPLIFIED SHORT NORMAL 16"
 CILD.MMHO   05 110 46 00:   CONDUCTIVITY INDUCTION LOG DEEP
 ILD .OHMM   05 120 46 00:   INDUCTION LOG DEEP
 SPR .MV     05 010 01 00:   SPONTANEOUS POTENTIAL FROM RES.
 GR  .GAPI   30 310 01 00:   GAMMA RAY
~PARAMETER INFORMATION
#MNEM.UNIT          VALUE    DESCRIPTION
#----------   ------------   ------------------------------
 LMF .                 KB:   LOG MEASURED FROM
 DMF .                 KB:   DRILLING MEASURED FROM
 EKB .F              5151:   KELLING BUSHING
 EGL .F              5146:   GROUND LEVEL
 DATE.        19-JUL-1963:   RUN DATE
 RUN .                  1:   RUN NUMBER
 DD  .F               881:   DEPTH DRILLER
 DL  .F               885:   DEPTH LOGGER
 BLI .F               884:   BOTTOM LOG INTERVAL
 TLI .F                30:   TOP LOG INTERVAL
 CS  .IN            8.625:   CASING SIZE
 CBD .F                12:   CASING BOTTOM DRILLER
 BS  .IN             6.75:   BIT SIZE
 BSD .F               881:   BIT SIZE AT DEPTH
 DFT .           GEL- OIL:   DRILLING FLUID TYPE
 DFD .                9.6:   DRILLING FLUID DENSITY
 DFV .                 39:   DRILLING FLUID VISCOSITY
 DFPH.                8.5:   DRILLING FLUID PH
 DFL .                4.4:   DRILLING FLUID LOSS
 RMS .OHMM           2.58:   RESISTIVITY MUD SAMPLE
 MST .F                72:   MUD SAMPLE TEMPERATURE
 RMF .OHMM           2.26:   RESISTIVITY MUD FILTRATE SAMPLE
 MFST.F                72:   MUD FILTRATE SAMPLE TEMPERATURE
 TCS .HRS               3:   TIME CURCULATED STOPPED
 LUN .               4507:   LOGGING UNIT NUMBER
 LUL .             CASPER:   LOGGING UNIT LOCATION
 ENGI.            WINKLER:   RECORDING ENGINEER
 WITN.          JORGENSEN:   WITNESSED BY
 CLNT.            A2DTECH:   CLIENT CODE
 ORIG.      2.5" 5" PRINT:   ORIGIN OF DATA
 UWI .       490250967900:   UNIQUE WELL ID
 DICO. A2D Technologies, Inc.:   DIGITIZING COMPANY
~OTHER INFORMATION
~A   DEPT      ASN         CILD       ILD       SPR         GR   
   28.0000  -999.2500     1.7824    10.6598   -61.0692  -999.2500
   28.5000  -999.2500     1.4560     9.0697   -60.8706  -999.2500
   29.0000  -999.2500     1.1296     9.1485   -60.6043  -999.2500
   29.5000  -999.2500    10.3139    15.4495   -60.3380  -999.2500
   30.0000  -999.2500    45.5927    21.0307   -60.0717  -999.2500
   30.5000  -999.2500    53.1915    18.5667   -59.8054  -999.2500
   31.0000  -999.2500    50.9423    18.8768   -58.8084  -999.2500
   31.5000  -999.2500    44.7416    23.4328   -58.8143  -999.2500
   32.0000  -999.2500    33.9210    28.7091   -58.2178  -999.2500
   32.5000  -999.2500    34.9544    27.2374   -57.6213  -999.2500
   33.0000  -999.2500    37.9939    25.5172   -56.4224  -999.2500
   33.5000  -999.2500    44.0729    25.1424   -54.9217  -999.2500
   34.0000  -999.2500    37.9939    26.7631   -55.2294  -999.2500
   34.5000  -999.2500    34.9544    27.3667   -55.2353  -999.2500
   35.0000  -999.2500    34.6505    25.3935   -55.2413  -999.2500
   35.5000  -999.2500    37.9939    23.4208   -55.5484  -999.2500
   36.0000  -999.2500    44.0729    20.9936   -55.8555  -999.2500
   36.5000  -999.2500    50.1520    19.0210   -56.1627  -999.2500
   37.0000  -999.2500    53.1915    16.5938   -55.8673  -999.2500
   37.5000  -999.2500    59.2705    15.3787   -55.5720  -999.2500
   38.0000  -999.2500    65.4712    13.8605   -55.5783  -999.2500
   38.5000  -999.2500    74.8328    11.7343   -55.5843  -999.2500
   39.0000  -999.2500    82.6140    10.6515   -55.2309  -999.2500
   39.5000  -999.2500    94.4073     9.8712   -54.3909  -999.2500
   40.0000  -999.2500   113.3738     9.2424   -53.9357  -999.2500
   40.5000  -999.2500   119.2705     8.6404   -53.1979  -999.2500
   41.0000  -999.2500   123.5258     7.9848   -53.9096  -999.2500
   41.5000  -999.2500   127.5988     7.4359   -54.4157  -999.2500
   42.0000  -999.2500   136.8997     7.1232   -55.0241  -999.2500
   42.5000  -999.2500   144.0730     6.8106   -55.3313  -999.2500
   43.0000  -999.2500   152.4620     6.4980   -55.3374  -999.2500
   43.5000  -999.2500   161.0334     6.3369   -55.3434  -999.2500
   44.0000  -999.2500   167.2341     6.1030   -54.8795  -999.2500
   44.5000  -999.2500   171.0638     5.7909   -55.0554  -999.2500
   45.0000  -999.2500   177.8116     5.5505   -55.6637  -999.2500
   45.5000  -999.2500   183.8906     5.1782   -56.2721  -999.2500
   46.0000  -999.2500   199.0882     5.0237   -54.4707  -999.2500
   46.5000  -999.2500   211.2462     5.0208   -54.1747  -999.2500
   47.0000  -999.2500   221.8845     4.8663   -54.4826  -999.2500
   47.5000  -999.2500   232.5228     4.7118   -55.0909  -999.2500
   48.0000  -999.2500   238.6018     4.4058   -55.6992  -999.2500
   48.5000  -999.2500   241.6413     4.2513   -55.4036  -999.2500
   49.0000  -999.2500   238.6018     4.0968   -54.5062  -999.2500
   49.5000  -999.2500   237.0821     3.9424   -54.2110  -999.2500
   50.0000  -999.2500   232.5228     4.0909   -53.6145  -999.2500
   50.5000  -999.2500   229.4225     4.2395   -52.6948  -999.2500
   51.0000  -999.2500   226.3222     4.3880   -51.1727  -999.2500
   51.5000  -999.2500   223.2219     4.3848   -49.6506  -999.2500
   52.0000  -999.2500   220.1216     4.4081   -48.4297  -999.2500
   52.5000  -999.2500   217.0213     4.5306   -47.2088  -999.2500
   53.0000  -999.2500   214.2857     4.5273   -45.9879  -999.2500
   53.5000  -999.2500   212.7660     4.5242   -44.7671  -999.2500
   54.0000  -999.2500   210.7599     4.6732   -43.6345  -999.2500
   54.5000  -999.2500   208.2067     4.6697   -42.4247  -999.2500
   55.0000  -999.2500   208.2067     4.8182   -41.5161  -999.2500
   55.5000  -999.2500   208.2067     4.7429   -41.3301  -999.2500
   56.0000  -999.2500   208.9362     4.6606   -41.3373  -999.2500
   56.5000  -999.2500   212.8268     4.5061   -41.3434  -999.2500
   57.0000  -999.2500   215.9878     4.3509   -41.0482  -999.2500
   57.5000  -999.2500   220.3647     4.0449   -41.0542  -999.2500
   58.0000  -999.2500   224.9240     3.8905   -40.8835  -999.2500
   58.5000  -999.2500   227.9635     3.8875   -40.7651  -999.2500
   59.0000  -999.2500   232.5228     3.8845   -40.1697  -999.2500
   59.5000  -999.2500   237.0821     3.8816   -40.1756  -999.2500
   60.0000  -999.2500   241.6413     3.8786   -39.8803  -999.2500
   60.5000  -999.2500   246.2006     3.7241   -39.8862  -999.2500
   61.0000  -999.2500   250.7599     3.7211   -39.8921  -999.2500
   61.5000  -999.2500   253.7994     3.8697   -39.8981  -999.2500
   62.0000  -999.2500   256.8389     4.0242   -39.9040  -999.2500
   62.5000  -999.2500   256.8389     4.3183   -39.9099  -999.2500
   63.0000  -999.2500   253.6778     4.3152   -39.6145  -999.2500
   63.5000  -999.2500   248.9970     4.4639   -39.6205  -999.2500
   64.0000  -999.2500   244.3161     4.4606   -39.9277  -999.2500
   64.5000  -999.2500   238.1155     4.4576   -39.6323  -999.2500
   65.0000  -999.2500   231.9148     4.4545   -39.9398  -999.2500
   65.5000  -999.2500   223.8298     4.5035   -40.2470  -999.2500
   66.0000  -999.2500   214.5289     4.6006   -40.6064  -999.2500
   66.5000  -999.2500   206.7477     4.7485   -40.8614  -999.2500
   67.0000  -999.2500   200.0608     4.7455   -41.1687  -999.2500
   67.5000  -999.2500   199.0882     4.8207   -41.1747  -999.2500
   68.0000  -999.2500   199.7569     4.8909   -40.8786  -999.2500
   68.5000  -999.2500   200.6079     4.8873   -40.5833  -999.2500
   69.0000  -999.2500   200.6079     4.8843   -40.2880  -999.2500
   69.5000  -999.2500   200.6079     4.8814   -40.1657  -999.2500
   70.0000  -999.2500   200.6079     4.8784   -40.0000  -999.2500
   70.5000  -999.2500   199.0882     5.0273   -39.7048  -999.2500
   71.0000  -999.2500   196.0486     5.1755   -39.7108  -999.2500
   71.5000  -999.2500   189.9696     5.1725   -39.7169  -999.2500
   72.0000  -999.2500   185.4103     5.4726   -39.7240  -999.2500
   72.5000  -999.2500   180.8511     5.4696   -39.7300  -999.2500
   73.0000  -999.2500   176.2918     5.6182   -39.7359  -999.2500
   73.5000  -999.2500   170.2128     5.7667   -39.7418  -999.2500
   74.0000  -999.2500   164.1337     6.0668   -39.7477  -999.2500
   74.5000  -999.2500   158.0547     6.0823   -39.7536  -999.2500
   75.0000  -999.2500   151.9757     6.3639   -40.0607  -999.2500
   75.5000  -999.2500   147.3556     6.5124   -40.0667  -999.2500
   76.0000  -999.2500   145.8967     6.5091   -40.0726  -999.2500
   76.5000  -999.2500   145.8967     6.3545   -40.0785  -999.2500
   77.0000  -999.2500   147.4164     6.3515   -39.7832  -999.2500
   77.5000  -999.2500   147.7204     6.3485   -39.7892  -999.2500
   78.0000  -999.2500   150.4559     6.3455   -39.7952  -999.2500
   78.5000  -999.2500   151.9757     6.3424   -40.1024  -999.2500
   79.0000  -999.2500   152.4620     6.3394   -40.1466  -999.2500
   79.5000  -999.2500   153.4954     6.3364   -40.4157  -999.2500
   80.0000  -999.2500   150.7599     6.3327   -40.4217  -999.2500
   80.5000  -999.2500   151.7933     6.1783   -40.4277  -999.2500
   81.0000  -999.2500   157.9939     6.1753   -40.4337  -999.2500
   81.5000  -999.2500   162.6748     6.0208   -40.4398  -999.2500
   82.0000  -999.2500   166.5045     6.0178   -40.4458  -999.2500
   82.5000  -999.2500   168.6930     5.8634   -40.4518  -999.2500
   83.0000  -999.2500   170.2128     5.7089   -40.4578  -999.2500
   83.5000  -999.2500   171.7325     5.7059   -40.9026  -999.2500
   84.0000  -999.2500   171.7325     5.7030   -41.3735  -999.2500
   84.5000  -999.2500   171.7325     5.7000   -41.2199  -999.2500
   85.0000  -999.2500   172.0365     5.6970   -40.4819  -999.2500
   85.5000  -999.2500   170.2128     5.8456   -40.1867  -999.2500
   86.0000  -999.2500   167.1732     5.8606   -39.8916  -999.2500
   86.5000  -999.2500   164.1337     5.9912   -39.8985  -999.2500
   87.0000  -999.2500   159.5745     5.9879   -39.9045  -999.2500
   87.5000  -999.2500   156.5350     6.1367   -39.9104  -999.2500
   88.0000  -999.2500   153.4346     6.1778   -39.9163  -999.2500
   88.5000  -999.2500   150.3344     6.3328   -39.9222  -999.2500
