~VERSION INFORMATION
 VERS.                2.0:   CWLS LOG ASCII STANDARD - VERSION 2.0
 WRAP.                 NO:   ONE LINE PER DEPTH STEP
~WELL INFORMATION
#MNEM.UNIT      DATA TYPE    INFORMATION
#----------   ------------   ------------------------------
 STRT.F           27.0000:   START DEPTH
 STOP.F          670.0000:   STOP DEPTH
 STEP.F            0.5000:   STEP LENGTH
 NULL.          -999.2500:   NO VALUE
 COMP. LAWRENCE/ALLISON INC:   COMPANY
 WELL. SX 11 WP 26 #26-11:   WELL
 FLD .           N.P.R #3:   FIELD
 LOC .      S11 T38N R78W:   LOCATION
 CNTY.            NATRONA:   COUNTY
 STAT.            WYOMING:   STATE
 CTRY. UNITED STATES OF AMERICA:   COUNTRY
 SRVC.            Unknown:   SERVICE COMPANY
 DATE.        11-SEP-1984:   LOGDATE
 API .       490251097700:   API NUMBER
~CURVE INFORMATION
#MNEM.UNIT       API CODE    CURVE DESCRIPTION
#----------   ------------   ------------------------------
 DEPT.F                  :   
 CNC .DEC    42 890 03 00:   NEUTRON POROSITY SANDSTONE
 AC  .US/F   60 520 00 00:   ACCOUSTIC SONIC
 SPR .MV     07 010 01 00:   SPONTANEOUS POTENTIAL
 RILD.OHMM   07 120 46 00:   INDUCTION LOG DEEP RESISTIVITY
 RILM.OHMM   07 120 44 00:   INDUCTION LOG MEDIUM RESISTIVITY
 RFOC.OHMM   07 220 04 00:   RESISTIVITY FOCUSED LOG
 GRD .GAPI   45 310 01 00:   GAMMA RAY FROM DENSITY LOG
 CALD.IN     45 280 60 00:   CALIPER FROM DENSITY LOG
 DEN .G/C3   45 350 01 00:   COMPENSATED BULK DENSTIY
 CORR.G/C3   45 356 01 00:   DENSITY CORRECTION
 PORD.DEC    45 890 12 00:   POROSITY DENSITY SANDSTONE
~PARAMETER INFORMATION
#MNEM.UNIT          VALUE    DESCRIPTION
#----------   ------------   ------------------------------
 PD  .                 GL:   PERMANENT DATUM
 EPD .F              5186:   ELEVATION PERMANENT DATUM
 LMF .                 GL:   LOG MEASURED FROM
 DMF .                 GL:   DRILLING MEASURED FROM
 EGL .F              5186:   GROUND LEVEL
 DATE.            9-11-84:   RUN DATE
 RUN .                  1:   RUN NUMBER
 DD  .F               672:   DEPTH DRILLER
 DL  .F               668:   DEPTH LOGGER
 BLI .F               668:   BOTTOM LOG INTERVAL
 TLI .F                45:   TOP LOG INTERVAL
 CS  .IN            8.625:   CASING SIZE
 CBD .F                42:   CASING BOTTOM DRILLER
 CBL .F                45:   CASING BOTTOM LOGGER
 BS  .IN            7.875:   BIT SIZE
 BSD .F               672:   BIT SIZE AT DEPTH
 DFT .          KCL WATER:   DRILLING FLUID TYPE
 MSS .               TANK:   MUD SAMPLE SOURCE
 RMS .OHMM            .36:   RESISTIVITY MUD SAMPLE
 MST .F                82:   MUD SAMPLE TEMPERATURE
 MFSS.                  C:   MUD FILTRATE SAMPLE SOURCE
 MCSS.                  C:   MUD CAKE SAMPLE SOURCE
 TCS .HRS               3:   TIME CURCULATED STOPPED
 MRT .F               100:   MAXIMUM RECORDED TEMPERATURE
 LUN .            HL 6307:   LOGGING UNIT NUMBER
 LUL .           GILLETTE:   LOGGING UNIT LOCATION
 ENGI.      FAHLSING/MACK:   RECORDING ENGINEER
 WITN.            JOHNSON:   WITNESSED BY
 CLNT.            A2DTECH:   CLIENT CODE
 ORIG.       2", 5" PRINT:   ORIGIN OF DATA
 UWI .       490251097700:   UNIQUE WELL ID
 DICO. A2D Technologies, Inc.:   DIGITIZING COMPANY
~OTHER INFORMATION
~A   DEPT      CNC          AC       SPR       RILD       RILM       RFOC        GRD       CALD        DEN       CORR       PORD   
# ...
  423.5000     0.2778   106.9820   -22.9290    12.9520    14.1550    13.1130    60.9850     7.8450     2.3700     0.0270     0.1860
  424.0000     0.2639   103.3650   -22.1660    13.1530    14.7420    14.4870    65.2040     7.8430     2.3540     0.0080     0.1990
  424.5000     0.2617    99.3960   -21.6330    13.5220    15.3280    15.8610    69.5190     7.8420     2.3370     0.0140     0.2080
  425.0000     0.2604    95.4280   -21.7560    14.7820    15.9140    17.2350    71.1970     7.8400     2.3330     0.0220     0.1950
  425.5000     0.2591    91.1450   -21.8650    15.8140    16.5000    18.6080    71.9590     7.8380     2.3590     0.0190     0.1770
  426.0000     0.2578    92.3300   -21.9790    16.2570    17.0230    19.9820    67.8990     7.8370     2.3900     0.0120     0.1560
  426.5000     0.2603    95.0170   -21.5750    16.1400    16.9210    20.6550    63.9670     7.8360     2.4200     0.0200     0.1570
  427.0000     0.2726    98.4190   -20.7330    15.9760    16.7090    17.8490    62.3590     7.8350     2.3880     0.0400     0.1830
  427.5000     0.2883   104.0190   -19.8920    15.8110    16.4030    15.4950    64.5260     7.8340     2.3500     0.0590     0.2070
  428.0000     0.3063   108.6210   -19.0510    15.6470    16.0970    13.9000    66.6920     7.8330     2.3120     0.0660     0.2330
  428.5000     0.3093   109.7710   -18.2080    15.4830    15.7910    16.1080    66.4760     7.8310     2.2840     0.0650     0.2370
  429.0000     0.3090   109.3990   -17.3670    15.2420    15.5610    15.1650    63.5730     7.8300     2.2770     0.0700     0.2420
  429.5000     0.3048   109.0740   -16.6380    15.3030    15.8590    13.2750    60.6880     7.8290     2.2690     0.0750     0.2480
  430.0000     0.2776   106.6980   -16.5940    15.4180    16.1540    14.0420    59.0530     7.8280     2.2660     0.0810     0.2390
  430.5000     0.2726   104.4660   -16.5540    15.5330    16.4070    15.4680    61.0320     7.8270     2.3030     0.0780     0.2230
  431.0000     0.2709   102.2340   -16.5130    15.6470    16.2100    16.8940    65.9160     7.8260     2.3300     0.0700     0.2060
  431.5000     0.2664   100.2870   -16.4750    15.7620    15.9600    18.3200    70.7740     7.8240     2.3580     0.0610     0.1900
  432.0000     0.2623    98.6890   -16.5590    15.8920    16.2750    19.7460    73.9880     7.8230     2.3870     0.0520     0.1750
  432.5000     0.2651    97.7280   -17.3570    16.3980    16.8450    20.2380    75.0670     7.8220     2.3950     0.0440     0.1700
  433.0000     0.2749    97.1220   -18.1500    17.0230    17.4140    20.4980    76.1840     7.8210     2.4000     0.0630     0.1670
  433.5000     0.2811    97.2060   -18.8580    16.8540    17.6620    20.7590    77.2920     7.8200     2.4020     0.0830     0.1650
  434.0000     0.2847    97.4200   -18.9140    16.3950    17.3510    21.0190    78.3620     7.8190     2.4030     0.0800     0.1650
  434.5000     0.2785    99.5530   -18.9860    16.1080    17.0850    21.2340    77.6610     7.8180     2.3980     0.0630     0.1750
  435.0000     0.2670   101.6270   -19.0610    16.4330    16.7120    19.2360    73.4650     7.8160     2.3720     0.0460     0.1840
  435.5000     0.2608   103.7010   -19.1370    16.7390    17.1200    17.1890    69.4300     7.8150     2.3470     0.0330     0.2050
  436.0000     0.2583   105.7760   -19.2120    17.0450    17.5360    15.5250    65.4500     7.8140     2.3220     0.0340     0.2210
  436.5000     0.2663   106.7050   -19.2860    17.3510    17.9530    16.2120    63.2890     7.8130     2.3060     0.0340     0.2230
  437.0000     0.2746   106.9030   -19.3580    17.6570    18.3690    16.9070    65.9210     7.8120     2.3200     0.0350     0.2160
  437.5000     0.2792   106.7830   -19.3070    17.9630    18.7850    17.6020    68.4130     7.8110     2.3220     0.0440     0.2120
  438.0000     0.2756   104.3330   -18.6710    18.2700    19.2020    18.1560    70.1140     7.8090     2.3200     0.0520     0.2140
  438.5000     0.2643    98.6730   -18.5630    18.5760    19.6180    20.0360    68.2580     7.8080     2.3210     0.0610     0.2130
  439.0000     0.2509    93.0120   -18.7740    18.8820    20.0340    21.9070    70.5140     7.8070     2.3510     0.0560     0.1960
  439.5000     0.2394    87.2610   -18.9870    19.1880    20.2780    23.7790    73.1490     7.8060     2.3950     0.0480     0.1740
  440.0000     0.2335    84.8710   -18.9930    19.3660    20.2030    25.6510    75.7520     7.8050     2.4540     0.0400     0.1460
  440.5000     0.2356    86.3520   -18.9480    19.3660    19.8610    26.7320    73.3130     7.8040     2.4950     0.0540     0.1190
  441.0000     0.2424    89.3510   -18.9030    18.7890    19.5190    25.0470    70.0750     7.8020     2.4800     0.0770     0.1110
  441.5000     0.2557    93.1640   -18.8510    18.2260    19.1880    22.4400    68.5530     7.8010     2.4410     0.0750     0.1400
  442.0000     0.2720    96.9770   -19.1140    17.6620    19.1880    20.8680    70.2100     7.8000     2.4030     0.0600     0.1670
  442.5000     0.2766    99.4870   -19.4260    17.0990    19.1880    18.4940    71.8500     7.7990     2.3640     0.0370     0.1850
  443.0000     0.2825    99.6940   -19.7430    16.5360    18.7620    18.7790    71.0040     7.7990     2.3540     0.0180     0.1920
  443.5000     0.2776    99.9100   -20.0640    15.9730    18.0990    19.4250    69.6530     7.7990     2.3510     0.0250     0.1950
  444.0000     0.2663    99.0900   -20.3850    15.4090    17.4350    19.9080    68.2840     7.7990     2.3590     0.0320     0.1920
  444.5000     0.2591    98.2290   -20.7070    15.0230    16.7720    19.3460    69.0170     7.7990     2.3690     0.0390     0.1850
  445.0000     0.2569    97.3670   -21.0280    14.8490    16.1080    18.4870    73.2850     7.7990     2.3790     0.0460     0.1760
  445.5000     0.2560    96.6070   -21.3490    14.6760    15.4450    17.3390    77.5210     7.7990     2.3830     0.0500     0.1770
  446.0000     0.2677    96.5900   -21.6710    14.5020    14.8260    17.3880    80.2060     7.7990     2.3820     0.0520     0.1770
  446.5000     0.2744    96.9410   -21.9920    14.3280    14.8260    17.5000    81.7720     7.7990     2.3850     0.0520     0.1750
  447.0000     0.2725    97.4460   -22.3130    14.1540    15.0400    17.4720    83.3630     7.7990     2.3880     0.0490     0.1750
  447.5000     0.2685    97.8920   -22.6030    14.0290    15.2090    17.4150    83.1320     7.7990     2.3830     0.0460     0.1780
  448.0000     0.2573    97.6610   -22.5050    14.1080    15.3770    17.3390    81.4200     7.7990     2.3750     0.0420     0.1810
  448.5000     0.2551    97.1650   -22.3860    14.1800    15.5460    17.5040    79.7120     7.7990     2.3790     0.0390     0.1810
  449.0000     0.2548    96.6350   -22.2670    14.2530    15.7150    17.7460    78.0020     7.7990     2.3840     0.0330     0.1750
  449.5000     0.2572    96.0290   -22.1490    14.3570    15.8830    17.9870    76.2920     7.7990     2.3900     0.0330     0.1710
  450.0000     0.2745    96.1130   -22.0300    14.4930    16.0520    18.2280    74.6070     7.7990     2.3900     0.0370     0.1680
  450.5000     0.2769    97.0650   -21.9120    14.6300    16.2200    18.4940    74.0210     7.7990     2.3770     0.0400     0.1800
  451.0000     0.2781    97.9180   -21.7930    14.7660    16.3890    18.3400    76.6340     7.7990     2.3650     0.0430     0.1910
  451.5000     0.2750    97.6740   -21.6740    14.9020    16.4070    18.1180    78.8640     7.7990     2.3600     0.0460     0.1910
  452.0000     0.2666    97.6010   -21.6250    15.0380    16.4070    17.8250    76.3430     7.7990     2.3660     0.0500     0.1880
  452.5000     0.2647    97.8650   -21.8380    15.1750    16.3100    17.9100    72.9660     7.7990     2.3710     0.0530     0.1860
  453.0000     0.2631    98.1290   -22.0440    15.3830    16.2010    18.0850    73.7490     7.7990     2.3670     0.0490     0.1880
  453.5000     0.2677    98.4160   -22.2500    15.3100    16.0910    18.2600    75.8130     7.7990     2.3630     0.0430     0.1900
