~VERSION INFORMATION
 VERS.                2.0:   CWLS LOG ASCII STANDARD - VERSION 2.0
 WRAP.                 NO:   ONE LINE PER DEPTH STEP
~WELL INFORMATION
#MNEM.UNIT      DATA TYPE    INFORMATION
#----------   ------------   ------------------------------
 STRT.F           28.0000:   START DEPTH
 STOP.F          551.0000:   STOP DEPTH
 STEP.F            0.5000:   STEP LENGTH
 NULL.          -999.2500:   NO VALUE
 COMP. FENIX & SCISSON, INC.:   COMPANY
 WELL.        NPR #85-S-3:   WELL
 FLD .             TEAPOT:   FIELD
 LOC .       S3 T38N R78W:   LOCATION
 CNTY.            NATRONA:   COUNTY
 STAT.            WYOMING:   STATE
 CTRY. UNITED STATES OF AMERICA:   COUNTRY
 SRVC.            Unknown:   SERVICE COMPANY
 DATE.        22-JAN-1977:   LOGDATE
 API .       490251055800:   API NUMBER
~CURVE INFORMATION
#MNEM.UNIT       API CODE    CURVE DESCRIPTION
#----------   ------------   ------------------------------
 DEPT.F                  :   
 ILD .OHMM   05 120 46 00:   INDUCTION LOG DEEP
 SN  .OHMM   05 040 16 00:   SHORT NORMAL 16"
 SPR .MV     05 010 01 00:   SPONTANEOUS POTENTIAL FROM RES.
 CALD.IN     45 280 60 00:   CALIPER FROM DENSITY LOG
 CORR.G/C3   45 356 01 00:   DENSITY CORRECTION
 DPHI.DEC    45 890 12 00:   DENSITY POROSITY SANDSTONE
 GRD .GAPI   45 310 01 00:   GAMMA RAY FROM DENSITY LOG
 RHOB.G/C3   45 350 01 00:   BULK DENSITY
~PARAMETER INFORMATION
#MNEM.UNIT          VALUE    DESCRIPTION
#----------   ------------   ------------------------------
 PD  .                 GL:   PERMANENT DATUM
 EPD .F              5132:   ELEVATION PERMANENT DATUM
 LMF .                 KB:   LOG MEASURED FROM
 DAPD.F                 4:   FEET ABOVE PERMANENT DATUM
 DMF .                 KB:   DRILLING MEASURED FROM
 EKB .F              5136:   KELLING BUSHING
 EGL .F              5132:   GROUND LEVEL
 DATE.          1-22-1977:   RUN DATE
 RUN .                  1:   RUN NUMBER
 DD  .F               550:   DEPTH DRILLER
 DL  .F               550:   DEPTH LOGGER
 BLI .F               545:   BOTTOM LOG INTERVAL
 TLI .F                50:   TOP LOG INTERVAL
 CS  .IN            8.625:   CASING SIZE
 CBD .F                40:   CASING BOTTOM DRILLER
 CBL .F                40:   CASING BOTTOM LOGGER
 BS  .IN            7.875:   BIT SIZE
 BSD .F               550:   BIT SIZE AT DEPTH
 DFT .                KCL:   DRILLING FLUID TYPE
 DFD .                8.6:   DRILLING FLUID DENSITY
 DFV .                 36:   DRILLING FLUID VISCOSITY
 DFPH.                 10:   DRILLING FLUID PH
 DFL .                7.2:   DRILLING FLUID LOSS
 MSS .           FLOWLINE:   MUD SAMPLE SOURCE
 RMS .OHMM             .3:   RESISTIVITY MUD SAMPLE
 MST .F                56:   MUD SAMPLE TEMPERATURE
 RMF .OHMM             .3:   RESISTIVITY MUD FILTRATE SAMPLE
 MFST.F                58:   MUD FILTRATE SAMPLE TEMPERATURE
 RMC .OHMM             .3:   RESISTIVITY MUD CAKE
 MCST.F                58:   MUD CAKE SAMPLE TEMPERATURE
 MFSS.           MEASURED:   MUD FILTRATE SAMPLE SOURCE
 MCSS.           MEASURED:   MUD CAKE SAMPLE SOURCE
 RMB .OHMM            .25:   RESISTIVITY MUD AT BHT
 BHT .F                68:   BOTTOM HOLE TEMPERATURE
 TCS .HRS               3:   TIME CURCULATED STOPPED
 MRT .F                68:   MAXIMUM RECORDED TEMPERATURE
 LUN .               2958:   LOGGING UNIT NUMBER
 LUL .             CASPER:   LOGGING UNIT LOCATION
 ENGI.           REYNOLDS:   RECORDING ENGINEER
 WITN.             GINLEY:   WITNESSED BY
 CLNT.            A2DTECH:   CLIENT CODE
 ORIG.           5" PRINT:   ORIGIN OF DATA
 UWI .       490251055800:   UNIQUE WELL ID
 DICO. A2D Technologies, Inc.:   DIGITIZING COMPANY
~OTHER INFORMATION
~A   DEPT      ILD         SN        SPR       CALD       CORR       DPHI         GRD      RHOB   
# ...
  352.0000     6.6692     6.6862   -42.4212     7.8693     0.1919     0.1881   128.2724     2.3518
  352.5000     6.8118     6.8283   -41.8159     7.8671     0.2040     0.1739   128.5760     2.3481
  353.0000     7.1027     7.0707   -41.0611     7.8650     0.2025     0.1560   126.7969     2.3803
  353.5000     7.7771     7.8462   -40.4639     7.8628     0.1936     0.1341   124.7179     2.4434
  354.0000     8.9340     8.7673   -40.0000     7.8607     0.1951     0.1292   120.1054     2.4531
  354.5000    10.1178     9.7289   -39.5441     7.8585     0.1982     0.1287   119.8129     2.4539
  355.0000    10.9238    10.2146   -39.2277     7.8563     0.1997     0.1293   118.9280     2.4531
  355.5000    11.3964    10.4317   -38.6323     7.8542     0.1997     0.1305   119.5315     2.4531
  356.0000    11.1670    10.7275   -38.1764     7.8520     0.2013     0.1323   122.8176     2.4524
  356.5000    11.0172    10.9458   -37.8421     7.8500     0.2013     0.1347   121.6328     2.4421
  357.0000    10.9468    11.1006   -37.4126     7.8507     0.2014     0.1380   122.8325     2.4400
  357.5000    10.8758    11.4145   -37.1063     7.8463     0.2014     0.1410   116.3861     2.4363
  358.0000    10.8053    11.6563   -36.6504     7.8385     0.2015     0.1434   111.1744     2.4273
  358.5000    11.2183    11.9033   -36.3441     7.8306     0.2000     0.1441   109.3816     2.4221
  359.0000    12.1167    12.2399   -35.7388     7.8227     0.2016     0.1447   106.2712     2.4214
  359.5000    13.0870    12.5913   -35.1335     7.8148     0.2016     0.1474   101.3308     2.4199
  360.0000    14.5723    13.4163   -34.5282     7.8066     0.2024     0.1570    99.2706     2.4140
  360.5000    16.3968    14.2819   -33.1755     7.8219     0.1984     0.1699    94.5060     2.3975
  361.0000    19.4990    15.1058   -31.8228     7.8521     0.1789     0.1834    88.1021     2.3848
  361.5000    24.5070    16.2400   -30.4701     7.8823     0.1759     0.2029    80.3569     2.3510
  362.0000    28.3487    18.5631   -29.2669     7.9278     0.1759     0.2185    74.4000     2.2970
  362.5000    30.3908    20.1745   -28.5121     7.9725     0.1762     0.2245    72.7651     2.2798
  363.0000    31.9111    21.0341   -27.9068     7.9560     0.2286     0.2241    73.2166     2.2761
  363.5000    30.8394    21.6289   -27.3015     7.8693     0.2422     0.2202    74.8603     2.2784
  364.0000    29.8037    21.7836   -26.8456     7.8399     0.2452     0.2196    75.3107     2.2799
  364.5000    29.0026    22.0917   -26.6888     7.8553     0.2467     0.2215    74.4220     2.2761
  365.0000    28.4159    22.0962   -26.3824     7.8557     0.2498     0.2244    73.8303     2.2740
  365.5000    28.4306    22.1008   -26.2255     7.8562     0.2543     0.2286    72.9405     2.2725
  366.0000    28.8384    22.1053   -26.2181     7.8417     0.2543     0.2355    72.0508     2.2538
  366.5000    29.2520    22.1099   -26.1969     7.8422     0.2574     0.2409    71.9001     2.2433
  367.0000    29.6716    22.4226   -26.1754     7.8276     0.2619     0.2445    75.3742     2.2403
  367.5000    30.3060    22.8977   -26.1539     7.8132     0.2710     0.2520    79.3220     2.2374
  368.0000    31.1687    23.3828   -26.1324     7.7987     0.2845     0.2709    74.8470     2.2134
  368.5000    31.8352    23.3876   -26.1108     7.7546     0.3207     0.2685    71.7758     2.1909
  369.0000    32.9687    23.3924   -26.0893     7.6807     0.3327     0.2618    67.3082     2.1917
  369.5000    33.4415    23.3972   -26.0678     7.6216     0.3328     0.2417    68.0589     2.2052
  370.0000    32.5427    23.4020   -26.0463     7.5476     0.3143     0.2276    68.5103     2.2428
  370.5000    30.8041    23.4069   -26.0248     7.5034     0.2914     0.2213    69.2599     2.2743
  371.0000    29.7696    23.4117   -26.0032     7.4585     0.2433     0.2213    68.9663     2.2803
  371.5000    28.9688    23.4165   -26.1349     7.4299     0.2036     0.2213    68.5225     2.2425
  372.0000    29.7941    23.4213   -26.2780     7.4476     0.2021     0.2200    69.5712     2.2376
  372.5000    30.6423    23.4261   -26.2945     7.4771     0.2006     0.2189    71.8111     2.2385
  373.0000    30.8676    23.5937   -26.3323     7.5077     0.1946     0.2180    72.5606     2.2474
  373.5000    31.5276    23.5986   -26.3701     7.5359     0.1781     0.2186    72.1179     2.2542
  374.0000    32.4252    23.9324   -26.4079     7.5661     0.1796     0.2191    68.5456     2.2333
  374.5000    34.0473    24.2710   -26.4457     7.6007     0.1812     0.2194    69.5932     2.2093
  375.0000    35.5042    24.4729   -26.4836     7.6414     0.1827     0.2200    71.6841     2.2026
  375.5000    37.2942    24.7914   -26.5214     7.6644     0.1842     0.2197    71.5306     2.2011
  376.0000    38.6221    24.9687   -26.5592     7.7018     0.1783     0.2173    69.6841     2.2094
  376.5000    39.4554    24.9738   -26.5970     7.7320     0.1708     0.2137    68.4186     2.2146
  377.0000    39.9987    24.4657   -26.6348     7.7771     0.1663     0.2122    71.1067     2.2162
  377.5000    38.3543    24.1344   -26.6726     7.8073     0.1663     0.2098    72.8994     2.2207
  378.0000    37.3572    23.8076   -26.7105     7.8226     0.1678     0.2074    73.5000     2.2267
  378.5000    37.3733    23.6471   -26.7483     7.8380     0.1677     0.2056    74.3986     2.2328
  379.0000    37.3918    23.3281   -26.7719     7.8682     0.1662     0.2044    75.4462     2.2366
  379.5000    37.1457    23.0122   -26.9140     7.8835     0.1634     0.2052    76.4938     2.2389
  380.0000    36.4018    22.7006   -27.2037     7.9137     0.1559     0.2382    79.1808     2.2387
  380.5000    35.4234    22.2387   -27.4971     7.9290     0.1439     0.2673    79.6312     2.2284
  381.0000    34.4712    21.7852   -27.7868     7.8997     0.1695     0.2532    79.3375     2.1999
  381.5000    33.3135    21.1959   -27.9289     7.8852     0.1906     0.2391    79.7901     2.1864
  382.0000    31.7526    20.7647   -28.2223     7.8559     0.2012     0.2241    80.3906     2.2645
  382.5000    30.0562    20.2020   -28.5138     7.8266     0.2027     0.2094    80.6931     2.2735
  383.0000    28.0597    19.5190   -28.9530     7.8271     0.2012     0.1902    80.8465     2.2863
  383.5000    26.1958    18.9900   -29.2464     7.8276     0.2013     0.1731    81.4561     2.3253
  384.0000    24.9683    18.4754   -29.5380     7.8130     0.1983     0.1722    84.0209     2.3599
  384.5000    24.1298    18.0995   -29.8849     7.8136     0.1968     0.1787    85.1818     2.3644
  385.0000    23.4788    17.8543   -30.1794     7.8140     0.1968     0.1829    85.3362     2.3562
  385.5000    23.1683    17.4912   -30.4111     7.8145     0.1969     0.1838    86.0858     2.3510
  386.0000    23.2069    17.3741   -30.5531     7.8149     0.1969     0.1838    82.0663     2.3487
  386.5000    23.2503    17.1389   -30.5454     7.8153     0.1999     0.1838    78.3449     2.3533
  387.0000    23.2936    17.0242   -30.6875     7.8009     0.2015     0.1865    77.6031     2.3518
  387.5000    23.3370    17.0180   -30.6801     7.8013     0.2033     0.1910    79.0989     2.3365
  388.0000    23.3803    16.9138   -30.6726     7.8018     0.2061     0.1941    80.2956     2.3279
  388.5000    23.4237    16.8991   -30.6592     7.8022     0.2106     0.1976    80.4490     2.3271
  389.0000    23.4671    16.6890   -30.5082     7.8176     0.2151     0.1985    80.1553     2.3264
  389.5000    23.5104    16.5773   -30.6505     7.8180     0.2197     0.1970    79.4146     2.3265
  390.0000    23.5538    16.5807   -30.6413     7.8185     0.2212     0.1988    78.8229     2.3265
  390.5000    23.5875    16.4689   -30.6353     7.8189     0.2227     0.2005    79.4234     2.3265
  391.0000    23.5973    16.3596   -30.6278     7.8194     0.2228     0.1984    81.2162     2.3265
  391.5000    23.6090    16.3629   -30.6191     7.8347     0.2243     0.1933    82.2638     2.3296
  392.0000    23.6187    16.2526   -30.7630     7.8351     0.2243     0.1885    81.2012     2.3356
