~VERSION INFORMATION
 VERS.                2.0:   CWLS LOG ASCII STANDARD - VERSION 2.0
 WRAP.                 NO:   ONE LINE PER DEPTH STEP
~WELL INFORMATION
#MNEM.UNIT      DATA TYPE    INFORMATION
#----------   ------------   ------------------------------
 STRT.F           36.0000:   START DEPTH
 STOP.F          700.0000:   STOP DEPTH
 STEP.F            0.5000:   STEP LENGTH
 NULL.          -999.2500:   NO VALUE
 COMP. FENIX & SCISSON INC:   COMPANY
 WELL. NPR #3 13SX14 #13-14:   WELL
 FLD .             TEAPOT:   FIELD
 LOC .      S14 T38N R78W:   LOCATION
 CNTY.            NATRONA:   COUNTY
 STAT.            WYOMING:   STATE
 CTRY. UNITED STATES OF AMERICA:   COUNTRY
 SRVC.              Welex:   SERVICE COMPANY
 DATE.        28-FEB-1977:   LOGDATE
 API .       490251029600:   API NUMBER
~CURVE INFORMATION
#MNEM.UNIT       API CODE    CURVE DESCRIPTION
#----------   ------------   ------------------------------
 DEPT.F                  :   
 CALD.IN     45 280 60 00:   CALIPER FROM DENSITY LOG
 GRD .GAPI   45 310 01 00:   GAMMA RAY FROM DENSITY LOG
 CORR.G/C3   45 356 01 00:   DENSITY CORRECTION
 RHOB.G/C3   45 350 01 00:   BULK DENSITY
 DPHI.DEC    45 890 12 00:   DENSITY POROSITY SANDSTONE
 SPR .MV     07 010 01 00:   SPONTANEOUS POTENTIAL
 SGRD.OHMM   07 220 05 00:   SHALLOW RESISTIVITY
 ILD .OHMM   07 120 46 00:   INDUCTION LOG DEEP
 ILM .OHMM   07 120 44 00:   INDUCTION LOG MEDIUM
~PARAMETER INFORMATION
#MNEM.UNIT          VALUE    DESCRIPTION
#----------   ------------   ------------------------------
 PD  .                 GL:   PERMANENT DATUM
 EPD .F              5238:   ELEVATION PERMANENT DATUM
 LMF .                 GL:   LOG MEASURED FROM
 DMF .                 GL:   DRILLING MEASURED FROM
 EGL .F              5238:   GROUND LEVEL
 DATE.            2-28-77:   RUN DATE
 RUN .                  1:   RUN NUMBER
 DD  .F               710:   DEPTH DRILLER
 DL  .F               706:   DEPTH LOGGER
 BLI .F               704:   BOTTOM LOG INTERVAL
 TLI .F                42:   TOP LOG INTERVAL
 CS  .IN            8.625:   CASING SIZE
 CBD .F                42:   CASING BOTTOM DRILLER
 CBL .F                42:   CASING BOTTOM LOGGER
 BS  .IN            7.875:   BIT SIZE
 BSD .F               710:   BIT SIZE AT DEPTH
 DFT .           CHEM-GEL:   DRILLING FLUID TYPE
 DFD .                8.7:   DRILLING FLUID DENSITY
 DFV .                 33:   DRILLING FLUID VISCOSITY
 DFPH.                  7:   DRILLING FLUID PH
 DFL .                  8:   DRILLING FLUID LOSS
 MSS .          FLOW LINE:   MUD SAMPLE SOURCE
 RMS .OHMM           .382:   RESISTIVITY MUD SAMPLE
 MST .F                54:   MUD SAMPLE TEMPERATURE
 RMF .OHMM           .342:   RESISTIVITY MUD FILTRATE SAMPLE
 MFST.F                54:   MUD FILTRATE SAMPLE TEMPERATURE
 RMC .OHMM           .821:   RESISTIVITY MUD CAKE
 MCST.F                54:   MUD CAKE SAMPLE TEMPERATURE
 MFSS.           MEASURED:   MUD FILTRATE SAMPLE SOURCE
 MCSS.           MEASURED:   MUD CAKE SAMPLE SOURCE
 RMB .OHMM           .333:   RESISTIVITY MUD AT BHT
 BHT .F                62:   BOTTOM HOLE TEMPERATURE
 TCS .HRS               3:   TIME CURCULATED STOPPED
 MRT .F                62:   MAXIMUM RECORDED TEMPERATURE
 LUN .               8611:   LOGGING UNIT NUMBER
 LUL .           GILLETTE:   LOGGING UNIT LOCATION
 ENGI.               DOAK:   RECORDING ENGINEER
 WITN.               JAPP:   WITNESSED BY
 CLNT.            A2DTECH:   CLIENT CODE
 ORIG.       2", 5" PRINT:   ORIGIN OF DATA
 UWI .       490251029600:   UNIQUE WELL ID
 DICO. A2D Technologies, Inc.:   DIGITIZING COMPANY
~OTHER INFORMATION
~A   DEPT       CALD       GRD       CORR        RHOB     DPHI         SPR        SGRD      ILD        ILM   
# ...
  474.0000     7.9761   137.4080     0.0113     2.4443     0.1144   -46.5141     8.7374     4.7385     5.1102
  474.5000     7.9874   134.5491     0.0143     2.4847     0.0958   -46.5225     8.8930     4.7033     5.1949
  475.0000     7.9986   132.6788     0.0174     2.4908     0.0929   -46.5309     9.3054     4.7915     5.3884
  475.5000     8.0099   133.2893     0.0204     2.4953     0.0900   -46.5393     9.0051     5.0177     5.5891
  476.0000     8.0211   133.5708     0.0223     2.4915     0.0918   -46.5477     9.5165     5.2548     5.7981
  476.5000     8.0324   132.4139     0.0185     2.4873     0.0948   -46.5561     9.2983     5.5036     6.0163
  477.0000     8.0436   131.2827     0.0152     2.4898     0.0929   -46.5644     8.9715     5.6556     6.2556
  477.5000     8.0548   130.1571     0.0203     2.4967     0.0886   -46.5728     9.1000     5.7080     6.0501
  478.0000     8.0581   129.0184     0.0259     2.4953     0.0851   -46.5812     9.2149     5.5359     5.7922
  478.5000     8.0482   129.2655     0.0220     2.4885     0.0918   -46.5896     9.3046     5.3453     5.5490
  479.0000     8.0384   130.0174     0.0169     2.4815     0.0986   -46.5980     8.5295     5.1611     5.3160
  479.5000     8.0286   128.0777     0.0213     2.4845     0.0961   -46.6064     7.8283     4.9833     5.0928
  480.0000     8.0188   121.9575     0.0258     2.4894     0.0928   -46.6147     7.3429     4.8112     4.8797
  480.5000     8.0091   119.2818     0.0303     2.4898     0.0927   -46.6179     4.0898     4.6462     4.8332
  481.0000     7.9993   128.5354     0.0351     2.4852     0.0950   -46.6094     4.0151     4.5750     4.7887
  481.5000     7.9895   138.4017     0.0348     2.4806     0.0973   -46.6013     6.6766     4.6174     4.8352
  482.0000     7.9797   136.2775     0.0293     2.4844     0.0960   -46.5932     8.1779     4.6601     4.9252
  482.5000     7.9699   137.7424     0.0237     2.4866     0.0969   -46.5850     9.1346     4.7835     5.0844
  483.0000     7.9601   140.3434     0.0181     2.4772     0.1002   -46.5769     6.4348     4.9737     5.2703
  483.5000     7.9504   143.0357     0.0176     2.4782     0.1018   -46.5688     7.2555     5.2121     5.5302
  484.0000     7.9424   143.0507     0.0184     2.4882     0.0949   -46.5607     9.1983     5.4598     5.8172
  484.5000     7.9456   135.6508     0.0193     2.4984     0.0878   -46.5526     9.6567     5.7180     6.1190
  485.0000     7.9485   129.9653     0.0201     2.5022     0.0841   -46.5445     9.8017     5.9881     6.4365
  485.5000     7.9513   129.4484     0.0210     2.5095     0.0809   -46.5364     9.9488     6.2711     6.6498
  486.0000     7.9542   128.7003     0.0218     2.5189     0.0735   -46.5283    10.0982     6.4190     6.8005
  486.5000     7.9571   127.9387     0.0227     2.5149     0.0766   -46.5201    10.2498     6.5425     6.9547
  487.0000     7.9600   127.1705     0.0220     2.5078     0.0808   -46.5120    10.4894     6.6682     7.1125
  487.5000     7.9629   127.9129     0.0209     2.5048     0.0838   -46.5039    10.3543     6.7963     7.2738
  488.0000     7.9658   129.5364     0.0193     2.5073     0.0847   -46.4958    10.0168     6.9268     7.4388
  488.5000     7.9686   131.1684     0.0177     2.4995     0.0872   -46.4877    10.1550     7.0596     7.6668
  489.0000     7.9715   132.5775     0.0160     2.4916     0.0933   -46.4796    10.3705     7.1882     7.6571
  489.5000     7.9744   132.5868     0.0144     2.4838     0.0998   -46.4715    10.5439     7.1875     7.6424
  490.0000     7.9773   131.6544     0.0127     2.4793     0.1002   -46.4633    10.6704     7.1687     7.6277
  490.5000     7.9801   129.9500     0.0110     2.4818     0.0962   -46.4552    10.5627     7.1466     7.6130
  491.0000     7.9822   128.9958     0.0094     2.4810     0.0984   -46.4471    10.3920     7.1246     7.5964
  491.5000     7.9871   129.2093     0.0098     2.4757     0.1010   -46.4389    10.6342     7.1027     7.6532
  492.0000     7.9926   129.4080     0.0127     2.4849     0.0938   -46.4309    10.8659     7.0809     7.7394
  492.5000     7.9981   129.6077     0.0155     2.4942     0.0870   -46.4250    11.0860     7.0559     7.8265
  493.0000     8.0035   129.8093     0.0183     2.4991     0.0868   -46.3517    10.4295     7.0692     7.9146
  493.5000     8.0090   130.0203     0.0211     2.5028     0.0854   -46.2706     9.8511     7.1185     8.0038
  494.0000     8.0144   130.1469     0.0239     2.5066     0.0829   -46.2972     9.1346     7.1683     8.0937
  494.5000     8.0198   127.5597     0.0267     2.5055     0.0836   -46.4258     9.5375     7.2181     8.1776
  495.0000     8.0253   124.7129     0.0295     2.5029     0.0854   -46.3992    10.1657     7.2542     8.1350
  495.5000     8.0307   122.3177     0.0231     2.5001     0.0866   -46.3658    10.8332     7.2542     8.0957
  496.0000     8.0362   123.1167     0.0178     2.5034     0.0835   -46.3325    11.9311     7.2542     8.0564
  496.5000     8.0416   123.9968     0.0231     2.5088     0.0801   -46.2988    11.8426     7.2542     7.9933
  497.0000     8.0471   124.6427     0.0284     2.5122     0.0775   -46.2653    11.6644     7.1876     7.8712
  497.5000     8.0526   126.3108     0.0338     2.5101     0.0799   -46.2318    11.4005     7.1217     7.7509
  498.0000     8.0579   127.9109     0.0391     2.4999     0.0846   -46.1982    11.5701     6.3690     7.4506
  498.5000     8.0583   129.4209     0.0407     2.4923     0.0905   -46.1647    11.8581     5.9487     6.7540
  499.0000     8.0448   135.3675     0.0321     2.4788     0.1002   -46.1312    11.5024     5.5560     6.1198
  499.5000     8.0318   140.8073     0.0238     2.4463     0.1212   -46.0976     7.1293     5.1893     5.5989
  500.0000     8.0189   145.7235     0.0156     2.4146     0.1444   -46.0641     4.6075     4.8314     5.4524
  500.5000     8.0055   143.6377     0.0074     2.3832     0.1611   -46.0306     3.7008     4.8745     5.7094
  501.0000     8.0021   138.8050    -0.0008     2.3746     0.1621   -45.9970    10.9038     5.4423     6.0910
  501.5000     8.0056   132.5232    -0.0022     2.4199     0.1294   -45.9635    12.4976     5.7914     6.4954
  502.0000     8.0097   123.9568     0.0033     2.4792     0.1006   -45.9299    12.6133     6.1637     6.9617
  502.5000     8.0137   125.0568     0.0088     2.5121     0.0799   -45.8964    12.6133     6.5626     7.5565
  503.0000     8.0178   127.0520     0.0143     2.5120     0.0786   -45.8628    12.8932     6.9873     8.2022
  503.5000     8.0219   129.7578     0.0159     2.5095     0.0795   -45.8289    13.7046     7.4395     8.6908
  504.0000     8.0259   127.9305     0.0177     2.5068     0.0839   -45.8497    13.3838     7.9198     8.8682
  504.5000     8.0300   129.3424     0.0195     2.5096     0.0821   -45.8862    12.9193     8.4311     9.0492
  505.0000     8.0340   132.4936     0.0213     2.5140     0.0783   -45.9229    12.4976     8.7305     9.2338
  505.5000     8.0381   135.0329     0.0232     2.5149     0.0786   -45.9596    12.7466     8.7700     9.4223
  506.0000     8.0421   135.3242     0.0250     2.5095     0.0808   -45.9963    12.9671     8.8070     9.5655
  506.5000     8.0462   131.2949     0.0268     2.5156     0.0791   -46.0330    12.5477     8.9531     9.8390
  507.0000     8.0503   125.6091     0.0286     2.5226     0.0743   -46.0697    12.0451     9.0978    10.1060
  507.5000     8.0543   119.9707     0.0246     2.5263     0.0703   -46.1063    12.1268     9.2463    10.3804
  508.0000     8.0584   114.3283     0.0209     2.5155     0.0772   -46.1430    12.3829     9.3946    10.6621
  508.5000     8.0624   109.4166     0.0239     2.5074     0.0847   -46.1798    13.1938     9.7305    10.8834
  509.0000     8.0665   101.1922     0.0267     2.5042     0.0803   -46.2166    14.3624    10.1170    11.2887
  509.5000     8.0705    93.4719     0.0295     2.4976     0.0875   -46.2227    16.9308    11.1120    12.1760
  510.0000     8.0746    85.7160     0.0323     2.4860     0.0957   -46.2227    20.5609    12.0383    13.1976
