~VERSION INFORMATION
 VERS.                2.0:   CWLS LOG ASCII STANDARD - VERSION 2.0
 WRAP.                 NO:   ONE LINE PER DEPTH STEP
~WELL INFORMATION
#MNEM.UNIT      DATA TYPE    INFORMATION
#----------   ------------   ------------------------------
 STRT.F           18.0000:   START DEPTH
 STOP.F          501.0000:   STOP DEPTH
 STEP.F            0.5000:   STEP LENGTH
 NULL.          -999.2500:   NO VALUE
 COMP. FENIX & SCISSON INC:   COMPANY
 WELL.     NPR-3 SX #34-3:   WELL
 FLD .             TEAPOT:   FIELD
 LOC .       S3 T38N R78W:   LOCATION
 CNTY.            NATRONA:   COUNTY
 STAT.            WYOMING:   STATE
 CTRY. UNITED STATES OF AMERICA:   COUNTRY
 SRVC.            Unknown:   SERVICE COMPANY
 DATE.        13-JUL-1978:   LOGDATE
 API .       490251066600:   API NUMBER
~CURVE INFORMATION
#MNEM.UNIT       API CODE    CURVE DESCRIPTION
#----------   ------------   ------------------------------
 DEPT.F                  :   
 SPR .MV     05 010 01 00:   SPONTANEOUS POTENTIAL FROM RES.
 SN  .OHMM   05 040 16 00:   SHORT NORMAL 16"
 ILD .OHMM   05 120 46 00:   INDUCTION LOG DEEP
 CALD.IN     45 280 60 00:   CALIPER FROM DENSITY LOG
 GRD .GAPI   45 310 01 00:   GAMMA RAY FROM DENSITY LOG
 CORR.G/C3   45 356 01 00:   DENSITY CORRECTION
 DEN .G/C3   45 350 01 00:   COMPENSATED BULK DENSTIY
 DPHI.DEC    45 890 12 00:   DENSITY POROSITY SANDSTONE
~PARAMETER INFORMATION
#MNEM.UNIT          VALUE    DESCRIPTION
#----------   ------------   ------------------------------
 PD  .                 GL:   PERMANENT DATUM
 EPD .F              5209:   ELEVATION PERMANENT DATUM
 LMF .                 KB:   LOG MEASURED FROM
 DAPD.F                 4:   FEET ABOVE PERMANENT DATUM
 DMF .                 KB:   DRILLING MEASURED FROM
 EKB .F              5213:   KELLING BUSHING
 EGL .F              5209:   GROUND LEVEL
 DATE.            7-13-78:   RUN DATE
 RUN .                  1:   RUN NUMBER
 DD  .F               500:   DEPTH DRILLER
 DL  .F               507:   DEPTH LOGGER
 BLI .F               500:   BOTTOM LOG INTERVAL
 TLI .F                30:   TOP LOG INTERVAL
 CS  .IN            8.625:   CASING SIZE
 CBL .F                30:   CASING BOTTOM LOGGER
 BS  .IN            7.875:   BIT SIZE
 BSD .F               500:   BIT SIZE AT DEPTH
 DFT .                KCL:   DRILLING FLUID TYPE
 DFD .                8.6:   DRILLING FLUID DENSITY
 DFV .                 32:   DRILLING FLUID VISCOSITY
 DFPH.                  9:   DRILLING FLUID PH
 DFL .               12.2:   DRILLING FLUID LOSS
 MSS .          FLOW LINE:   MUD SAMPLE SOURCE
 RMS .OHMM            .22:   RESISTIVITY MUD SAMPLE
 MST .F                80:   MUD SAMPLE TEMPERATURE
 RMF .OHMM            .19:   RESISTIVITY MUD FILTRATE SAMPLE
 MFST.F                88:   MUD FILTRATE SAMPLE TEMPERATURE
 RMC .OHMM            .38:   RESISTIVITY MUD CAKE
 MCST.F                84:   MUD CAKE SAMPLE TEMPERATURE
 MFSS.               MEAS:   MUD FILTRATE SAMPLE SOURCE
 BHT .F                76:   BOTTOM HOLE TEMPERATURE
 TCS .HRS               1:   TIME CURCULATED STOPPED
 MRT .F                76:   MAXIMUM RECORDED TEMPERATURE
 LUN .               2958:   LOGGING UNIT NUMBER
 LUL .               CASP:   LOGGING UNIT LOCATION
 ENGI.             MILLER:   RECORDING ENGINEER
 WITN.           MCGINLEY:   WITNESSED BY
 CLNT.            A2DTECH:   CLIENT CODE
 ORIG. 2", 2.5", 5" PRINT:   ORIGIN OF DATA
 UWI .       490251066600:   UNIQUE WELL ID
 DICO. A2D Technologies, Inc.:   DIGITIZING COMPANY
~OTHER INFORMATION
~A   DEPT      SPR         SN        ILD       CALD        GRD       CORR        DEN       DPHI   
# ...
  139.5000   -32.3926     8.2953     8.8607     7.1405    86.4201     0.0074     2.4647     0.1404
  140.0000   -32.2321     8.2987     8.9268     7.1421    87.6377     0.0045     2.4648     0.1293
  140.5000   -32.2202     8.2442     8.9317     7.1437    87.9491     0.0092     2.4786     0.1283
  141.0000   -32.2083     8.1918     8.9366     7.1453    85.8732     0.0138     2.4807     0.1307
  141.5000   -31.8966     8.1951     9.0042     7.1620    83.6437     0.0079     2.4719     0.1292
  142.0000   -31.5873     8.1984     9.0091     7.1784    82.1627     0.0036     2.4832     0.1261
  142.5000   -31.5757     8.2584     9.0140     7.1947    81.7290     0.0113     2.4930     0.1237
  143.0000   -31.5640     8.3189     9.1440     7.2407    82.3444     0.0144     2.4939     0.1224
  143.5000   -31.7041     8.3223     9.2758     7.2867    83.1252     0.0130     2.4917     0.1203
  144.0000   -31.5407     8.3832     9.4096     7.3474    82.3803     0.0087     2.4873     0.1221
  144.5000   -31.3802     8.5079     9.6112     7.3934    80.7496     0.0059     2.4851     0.1263
  145.0000   -31.0709     8.6345     9.8172     7.4098    80.3125     0.0030     2.4860     0.1293
  145.5000   -30.9105     8.8089    10.0277     7.3969    80.1788     0.0047     2.4807     0.1235
  146.0000   -30.8988     8.9965    10.2426     7.4133    81.2467     0.0063     2.4914     0.1175
  146.5000   -31.0360     9.1250    10.4683     7.4297    84.1070     0.0080     2.4983     0.1115
  147.0000   -31.0238     9.2553    10.6254     7.4756    85.7697     0.0143     2.5096     0.1042
  147.5000   -31.0097     9.3875    10.9168     7.5216    88.6901     0.0188     2.5209     0.1009
  148.0000   -30.8492     9.5216    11.0743     7.5527    89.0951     0.0204     2.5188     0.1054
  148.5000   -30.8376     9.6576    11.2340     7.5839    86.7198     0.0191     2.5219     0.1031
  149.0000   -30.8259     9.7956    11.3177     7.5855    84.8558     0.0192     2.5280     0.0975
  149.5000   -30.8143     9.9355    11.4021     7.5874    83.1557     0.0194     2.5280     0.1005
  150.0000   -30.7798    10.0082    11.3284     7.5831    83.3234     0.0195     2.5124     0.1236
  150.5000   -30.6224    10.2057    11.3510     7.5147    82.2744     0.0097     2.4855     0.1229
  151.0000   -30.4742    10.3002    11.3571     7.4886    81.8617     0.0048     2.4823     0.1213
  151.5000   -30.6071    10.3770    11.3678     7.5055    82.4826     0.0049     2.4946     0.1177
  152.0000   -30.5872    10.4543    11.7708     7.5221    82.9494     0.0051     2.5038     0.1141
  152.5000   -30.4225    10.5322    12.1074     7.5386    83.7156     0.0037     2.5090     0.1108
  153.0000   -30.2578    10.6107    12.2826     7.5699    84.1780     0.0038     2.5068     0.1102
  153.5000   -30.0931    10.6164    12.3745     7.5717    81.3558     0.0024     2.5024     0.1155
  154.0000   -30.0772    10.6221    12.3811     7.5734    77.6309     0.0026     2.5077     0.1098
  154.5000   -30.0610    10.6278    12.3021     7.5752    75.8522     0.0027     2.5041     0.1203
  155.0000   -30.0415    10.6337    12.1399     7.5621    75.7158     0.0029     2.4966     0.1199
  155.5000   -30.0256    10.4936    12.0627     7.5491    79.3307     0.0047     2.4975     0.1154
  156.0000   -30.0097    10.4271    11.7415     7.5361    81.2945     0.0107     2.5028     0.1091
  156.5000   -29.9938    10.3625    11.4273     7.5230    80.2643     0.0093     2.5141     0.1051
  157.0000   -29.9779    10.3680    11.1215     7.5104    76.3897     0.0049     2.5097     0.1090
  157.5000   -29.9620    10.3736    11.0493     7.5121    77.1559     0.0035     2.5037     0.1193
  158.0000   -29.9461    10.3079    11.0567     7.5139    80.1677     0.0037     2.4935     0.1227
  158.5000   -29.9301    10.1024    11.0627     7.5004    78.2051     0.0038     2.4866     0.1230
  159.0000   -29.9137     9.8944    10.9923     7.4874    76.9096     0.0039     2.4830     0.1221
  159.5000   -29.8945     9.7709    10.9984     7.4452    76.7775     0.0056     2.4846     0.1202
  160.0000   -29.8786     9.6436    10.9283     7.4317    77.8476     0.0057     2.4929     0.1238
  160.5000   -29.8627     9.5813    10.9356     7.4186    79.2125     0.0061     2.4862     0.1196
  161.0000   -29.8468     9.5877    10.9415     7.4060    79.5252     0.0075     2.4975     0.1159
  161.5000   -29.8309     9.5928    10.9473     7.3926    76.5533     0.0091     2.5006     0.1141
  162.0000   -29.6662     9.5980    10.9532     7.3799    76.1175     0.0093     2.5007     0.1087
  162.5000   -29.6503     9.6031    10.9591     7.3817    77.3372     0.0109     2.5053     0.1059
  163.0000   -29.6339     9.6083    10.9650     7.3834    76.9058     0.0080     2.5107     0.1058
  163.5000   -28.4241     9.6136    10.9723     7.3852    73.9294     0.0022     2.5144     0.1116
  164.0000   -24.9856     9.6198    10.9011     7.3870    70.6537    -0.0037     2.5040     0.1247
  164.5000   -26.4578     9.6250    10.6844     7.3888    70.2216    -0.0096     2.4808     0.1289
  165.0000   -27.1859     9.3684    10.6150     7.3909    70.5394    -0.0063     2.4779     0.1288
  165.5000   -29.6998     9.1186    10.4027     7.3926    71.7546     0.0012     2.4802     0.1256
  166.0000   -29.2375     9.0597    10.1257     7.3944    74.0259     0.0028     2.4840     0.1276
  166.5000   -28.9239     9.0658    10.0612     7.3961    75.2740     0.0030     2.4856     0.1312
  167.0000   -26.6280     9.0706     9.9973     7.3979    76.9441     0.0031     2.4759     0.1239
  167.5000   -25.9120     9.0756    10.0040     7.3996    79.6142     0.0032     2.4760     0.1200
  168.0000   -28.7235     9.0180    10.0788     7.4014    80.3760     0.0034     2.4852     0.1122
  168.5000   -28.2612     9.0240    10.0842     7.4031    78.3023     0.0035     2.5028     0.1184
  169.0000   -27.7988     8.9669    10.0896     7.4048    75.9248     0.0036     2.4980     0.1205
  169.5000   -23.9139     8.9717    10.0950     7.4066    74.1461     0.0038     2.4965     0.1229
  170.0000   -26.1302     8.9765    10.1005     7.4083    74.1637     0.0039     2.4891     0.1366
  170.5000   -24.9238     8.9184    10.0362     7.3953    74.3311     0.0041     2.4637     0.1336
  171.0000   -24.0149     8.9244     9.9037     7.3823    74.6482     0.0042     2.4660     0.1312
  171.5000   -23.9985     8.8679     9.8407     7.3849    75.2647     0.0058     2.4691     0.1308
  172.0000   -24.1321     8.8117     9.6451     7.4006    76.6297     0.0075     2.4707     0.1293
  172.5000   -25.1539     8.6970     9.6503     7.4172    75.7492     0.0076     2.4730     0.1246
  173.0000   -25.2908     8.6419     9.5877     7.4193    73.6710     0.0077     2.4806     0.1226
  173.5000   -25.7173     8.5271     9.5941     7.4210    73.8384     0.0064     2.4837     0.1193
  174.0000   -27.9336     8.4149     9.5330     7.4376    73.8563     0.0050     2.4869     0.1184
  174.5000   -32.8284     8.3616     9.5382     7.4541    74.0394     0.0035     2.4928     0.1189
  175.0000   -34.1518     8.3672     9.5435     7.4854    74.5160     0.0007     2.4951     0.1255
  175.5000   -34.1354     8.4296     9.5497     7.5020    74.9571    -0.0006     2.4907     0.1363
  176.0000   -34.1160     8.4380     9.6211     7.5185    72.5840    -0.0005     2.4713     0.1338
  176.5000   -34.1027     8.4981     9.6263     7.5203    72.4475    -0.0003     2.4721     0.1293
  177.0000   -34.0856     8.5026     9.6314     7.5220    73.3678    -0.0002     2.4737     0.1302
  177.5000   -34.2188     8.5072     9.6366     7.5237    74.8825    -0.0001     2.4722     0.1421
  178.0000   -34.3514     8.5117     9.5753     7.5255    76.0978    -0.0044     2.4648     0.1482
  178.5000   -34.3348     8.5163     9.3094     7.5272    77.9119    -0.0073     2.4454     0.1451
  179.0000   -34.4684     8.4612     9.0084     7.5290    78.2246    -0.0072     2.4546     0.1381
  179.5000   -34.4486     8.3509     8.8883     7.5308    77.1988    -0.0025     2.4631     0.1342
