~VERSION INFORMATION
 VERS.                2.0:   CWLS LOG ASCII STANDARD - VERSION 2.0
 WRAP.                 NO:   ONE LINE PER DEPTH STEP
~WELL INFORMATION
#MNEM.UNIT      DATA TYPE    INFORMATION
#----------   ------------   ------------------------------
 STRT.F          748.0000:   START DEPTH
 STOP.F         2238.0000:   STOP DEPTH
 STEP.F            0.5000:   STEP LENGTH
 NULL.          -999.2500:   NO VALUE
 COMP. LAWRENCE/ALLISON INC:   COMPANY
 WELL. NPR 3 #36-2-SHX-10:   WELL
 FLD .             TEAPOT:   FIELD
 LOC .      S10 T38N R78W:   LOCATION
 CNTY.            NATRONA:   COUNTY
 STAT.            WYOMING:   STATE
 CTRY. UNITED STATES OF AMERICA:   COUNTRY
 SRVC.            Unknown:   SERVICE COMPANY
 DATE.        02-JUN-1984:   LOGDATE
 API .       490256012900:   API NUMBER
~CURVE INFORMATION
#MNEM.UNIT       API CODE    CURVE DESCRIPTION
#----------   ------------   ------------------------------
 DEPT.F                  :   
 ROP .MIN/FT 91 810 01 00:   RATE OF DRILLING PENETRATION
 TGAS.UNITS  91 830 01 00:   TOTAL GAS FROM HOTWIRE
~PARAMETER INFORMATION
#MNEM.UNIT          VALUE    DESCRIPTION
#----------   ------------   ------------------------------
 EKB .F              5223:   KELLING BUSHING
 EGL .F              5213:   GROUND LEVEL
 DATE.             6-2-84:   RUN DATE
 DD  .F              2238:   DEPTH DRILLER
 BLI .F              2238:   BOTTOM LOG INTERVAL
 TLI .F               740:   TOP LOG INTERVAL
 CS  .IN            8.625:   CASING SIZE
 CBD .F               717:   CASING BOTTOM DRILLER
 LUN .               T-83:   LOGGING UNIT NUMBER
 ENGI.            JOHNSON:   RECORDING ENGINEER
 WITN.           SCHERGER:   WITNESSED BY
 CLNT.            A2DTECH:   CLIENT CODE
 ORIG.           5" PRINT:   ORIGIN OF DATA
 UWI .       490256012900:   UNIQUE WELL ID
 DICO. A2D Technologies, Inc.:   DIGITIZING COMPANY
~OTHER INFORMATION
~A   DEPT        ROP     TGAS   
# ...
 1841.5000     1.0089   238.6808
 1842.0000     1.0068   230.3867
 1842.5000     1.0048    84.9118
 1843.0000     1.0027    81.8090
 1843.5000     1.0007    81.8356
 1844.0000     1.5762    80.8113
 1844.5000     2.6340    80.8379
 1845.0000     3.6919    81.8971
 1845.5000     4.7497    83.9972
 1846.0000     5.2887    85.0564
 1846.5000     4.5973    85.0781
 1847.0000     3.9059    86.1373
 1847.5000     3.2145    86.1589
 1848.0000     2.5231    85.1329
 1848.5000     2.1240    85.1612
 1849.0000     1.9482    85.1812
 1849.5000     1.7723    84.1552
 1850.0000     1.5753    85.2227
 1850.5000     1.6873    89.4014
 1851.0000     1.8145    92.5391
 1851.5000     1.9418    93.6000
 1852.0000     1.9711    93.6199
 1852.5000     1.8207    93.6416
 1853.0000     1.6703    92.6156
 1853.5000     1.5199    92.6439
 1854.0000     1.3695    92.6638
 1854.5000     1.2191    90.6036
 1855.0000     1.0687    90.6269
 1855.5000     1.1313    89.6009
 1856.0000     1.3250    86.5114
 1856.5000     1.5187    86.5330
 1857.0000     1.7124    85.5071
 1857.5000     1.9061    85.5353
 1858.0000     1.8976    85.5553
 1858.5000     1.7360    84.5293
 1859.0000     1.5744    82.4724
 1859.5000     1.4128    82.5007
 1860.0000     1.2512    82.5206
 1860.5000     1.2042    82.5423
 1861.0000     1.2114    82.5622
 1861.5000     1.2186    82.5838
 1862.0000     1.2258    82.6038
 1862.5000     1.2329    82.6254
 1863.0000     1.2401    81.5994
 1863.5000     1.2473    81.6277
 1864.0000     1.2545    81.6477
 1864.5000     1.2617    81.6693
 1865.0000     1.2689    81.6892
 1865.5000     1.2760    81.7109
 1866.0000     1.2832    81.7308
 1866.5000     1.2505    81.7524
 1867.0000     1.1770    81.7724
 1867.5000     1.1036    81.7940
 1868.0000     1.0302    81.8106
 1868.5000     1.0008   207.8076
 1869.0000     0.9955   333.8045
 1869.5000     0.9902   414.6236
 1870.0000     0.9848   415.1640
 1870.5000     0.9795   356.7504
 1871.0000     0.9742   205.1662
 1871.5000     0.9689   186.7001
 1872.0000     1.0381   168.2341
 1872.5000     1.1436   149.7680
 1873.0000     1.2490   131.3019
 1873.5000     1.3544   112.8358
 1874.0000     1.4672    91.4167
 1874.5000     1.8777    89.3532
 1875.0000     2.2882    87.2946
 1875.5000     2.6987    87.3146
 1876.0000     2.9092    87.3136
 1876.5000     2.5395    87.3128
 1877.0000     2.1698    87.3120
 1877.5000     1.8001    87.3112
 1878.0000     1.5229    87.3104
 1878.5000     1.5257    87.3096
 1879.0000     1.5285    87.3088
 1879.5000     1.5312    87.3080
 1880.0000     1.5340    87.3072
 1880.5000     1.5368    87.3064
 1881.0000     1.5396    87.3057
 1881.5000     1.5423    87.3049
 1882.0000     1.5451    87.3041
 1882.5000     1.4615    87.3033
 1883.0000     1.1451    87.3025
 1883.5000     0.9943    87.3017
 1884.0000     0.9260    87.3009
 1884.5000     0.8577    87.3001
 1885.0000     0.7895    87.2993
 1885.5000     0.7170    87.2985
 1886.0000     0.9040    87.2977
 1886.5000     1.1034    87.2969
 1887.0000     1.3028    87.2961
 1887.5000     1.5321    87.2953
 1888.0000     1.5325    87.2945
 1888.5000     1.5330    87.2937
 1889.0000     1.5335    87.2930
 1889.5000     1.5340    87.2922
 1890.0000     1.4685    87.2914
 1890.5000     1.3422    87.2906
 1891.0000     1.2303    87.2898
 1891.5000     1.2272    87.2890
 1892.0000     1.2241    87.2882
 1892.5000     1.2211    87.2874
 1893.0000     1.2180    87.2866
 1893.5000     1.2150    87.2858
 1894.0000     1.1720    87.2850
 1894.5000     1.0750    87.2842
 1895.0000     0.9870    87.2834
 1895.5000     0.9711    87.2826
 1896.0000     1.0384    87.2818
 1896.5000     1.1549    87.2810
 1897.0000     1.2713    87.2802
 1897.5000     1.2692    87.2794
 1898.0000     1.2052    87.2787
 1898.5000     1.1413    87.2779
 1899.0000     1.0773    87.2771
 1899.5000     1.0134    87.2813
 1900.0000     1.1057    89.3798
 1900.5000     1.2583   216.1912
 1901.0000     1.4110   267.1349
 1901.5000     1.5996   279.6277
 1902.0000     2.0345   270.2943
 1902.5000     1.9207   220.4314
 1903.0000     1.8146   133.1534
 1903.5000     1.7085   110.3113
 1904.0000     1.6024    99.9387
 1904.5000     1.5979    91.6462
 1905.0000     1.6996    87.5041
 1905.5000     1.8013    84.4046
 1906.0000     1.9029    83.3870
 1906.5000     1.9565    83.4152
 1907.0000     1.7157    83.4352
 1907.5000     1.5167    80.3390
 1908.0000     1.3176    80.3590
 1908.5000     1.2264    79.3380
 1909.0000     1.2379    79.3613
 1909.5000     1.2650    78.3420
 1910.0000     1.2920    78.3636
 1910.5000     1.2373    78.3852
 1911.0000     1.0409    77.3609
 1911.5000     0.8444    76.3400
 1912.0000     0.7357    76.3375
 1912.5000     0.7241    76.3011
 1913.0000     0.7124    76.2648
 1913.5000     0.7008    76.2285
 1914.0000     0.6891    76.1921
 1914.5000     0.7224    76.1558
 1915.0000     0.8184    76.1194
 1915.5000     0.9145    76.1082
 1916.0000     1.0293    76.1648
 1916.5000     1.0323    76.1986
 1917.0000     1.0359    76.2402
 1917.5000     1.0396    76.2818
 1918.0000     1.0432    76.3233
 1918.5000     1.0469    76.3649
 1919.0000     1.0505    76.4065
 1919.5000     0.9630    76.4480
 1920.0000     0.7983    76.4896
 1920.5000     0.7484    76.5312
 1921.0000     0.7488    76.5727
 1921.5000     0.8684    76.6143
 1922.0000     1.0315    76.6559
 1922.5000     1.1310    76.6975
 1923.0000     1.1169    76.7390
 1923.5000     1.1029    76.7806
 1924.0000     1.1778    76.8222
 1924.5000     1.1755    76.8637
 1925.0000     1.0493    76.9053
 1925.5000     0.9231    76.9469
 1926.0000     0.7969    76.9884
 1926.5000     0.8035    77.0300
 1927.0000     0.8809    77.0716
 1927.5000     0.9584    77.1132
 1928.0000     1.0391   117.3576
 1928.5000     1.0361   222.6997
 1929.0000     1.0327   272.6242
 1929.5000     1.0294   265.3860
 1930.0000     1.0260   228.0192
 1930.5000     1.0226   136.5942
 1931.0000     1.0856   165.7467
 1931.5000     1.2154   176.1826
 1932.0000     1.3452   173.1048
 1932.5000     1.4899   168.9910
 1933.0000     1.3695   167.9817
 1933.5000     1.2336   165.9431
 1934.0000     1.0977   165.9908
 1934.5000     1.2955   166.0323
 1935.0000     1.6384   166.0739
 1935.5000     1.9813   166.1155
 1936.0000     2.3242   166.1628
 1936.5000     2.2767   157.8886
 1937.0000     1.9457   149.6145
 1937.5000     1.6147   140.3077
 1938.0000     1.2837   130.9943
 1938.5000     1.0068   123.7561
 1939.0000     0.9259   119.6323
 1939.5000     0.9575   115.5319
 1940.0000     0.9969   114.5259
 1940.5000     1.0362   112.4840
 1941.0000     1.0929   111.4847
 1941.5000     1.1388   111.4929
 1942.0000     1.1846   111.4586
 1942.5000     1.1727   111.4243
 1943.0000     1.0633   111.3899
 1943.5000     0.9642   111.3556
 1944.0000     0.8894   111.3213
 1944.5000     1.0406   111.2869
 1945.0000     1.1705   111.2526
 1945.5000     1.3004   111.2182
 1946.0000     1.3382   111.1839
 1946.5000     1.3386   111.1496
 1947.0000     1.3390   111.1152
 1947.5000     1.3394   111.0809
 1948.0000     1.2789   111.0465
 1948.5000     1.1864   111.0122
 1949.0000     1.0603   110.9779
 1949.5000     0.9341   110.9435
 1950.0000     0.8754   110.9092
 1950.5000     0.9843   110.8749
 1951.0000     1.0932   110.8405
 1951.5000     1.2021   110.8062
 1952.0000     1.2838   110.7718
 1952.5000     1.2905   110.7375
 1953.0000     1.2973   110.7032
 1953.5000     1.3040   110.6688
 1954.0000     1.3107   110.6345
 1954.5000     1.3175   110.6002
 1955.0000     1.3242   110.5658
 1955.5000     1.3309   110.5315
 1956.0000     1.3377   110.4971
 1956.5000     1.3444   110.4628
 1957.0000     1.2189   110.4285
 1957.5000     1.0975   110.3941
 1958.0000     1.0452   110.3598
 1958.5000     1.1040   110.3254
 1959.0000     1.1628   110.2911
 1959.5000     1.2217   110.2568
 1960.0000     1.2805   110.2224
 1960.5000     1.3296   110.1881
 1961.0000     1.2248   110.1538
 1961.5000     1.1347   110.1194
 1962.0000     1.0447   154.2639
 1962.5000     1.1359   229.6825
