~VERSION INFORMATION
 VERS.                2.0:   CWLS LOG ASCII STANDARD - VERSION 2.0
 WRAP.                 NO:   ONE LINE PER DEPTH STEP
~WELL INFORMATION
#MNEM.UNIT      DATA TYPE    INFORMATION
#----------   ------------   ------------------------------
 STRT.F            0.5000:   START DEPTH
 STOP.F          696.0000:   STOP DEPTH
 STEP.F            0.5000:   STEP LENGTH
 NULL.          -999.2500:   NO VALUE
 COMP. LAWRENCE/ALLISON INC:   COMPANY
 WELL. SX 11 WP #26-44-11:   WELL
 FLD .             TEAPOT:   FIELD
 LOC .      S11 T38N R78W:   LOCATION
 CNTY.            NATRONA:   COUNTY
 STAT.            WYOMING:   STATE
 CTRY. UNITED STATES OF AMERICA:   COUNTRY
 SRVC.      Dresser Atlas:   SERVICE COMPANY
 DATE.        08-SEP-1984:   LOGDATE
 API .       490251097600:   API NUMBER
~CURVE INFORMATION
#MNEM.UNIT       API CODE    CURVE DESCRIPTION
#----------   ------------   ------------------------------
 DEPT.F                  :   
 AC  .US/F   60 520 00 00:   ACCOUSTIC
 SPR .MV     07 010 01 00:   SPONTANEOUS POTENTIAL FROM RES.
 RILD.OHMM   07 120 46 00:   RESISTIVITY INDUCTION LOG DEEP
 RILM.OHMM   07 120 44 00:   RESISTIVITY INDUCTION LOG MEDIUM
 RFOC.OHMM   07 220 04 00:   RESISTIVITY FOCUSED LOG
 GRR .GAPI   07 310 01 00:   GAMMA RAY FROM RESISTIVITY
 CALD.IN     45 280 60 00:   CALIPER FROM DENSITY LOG
 DEN .G/C3   45 350 01 00:   COMPENSATED BULK DENSTIY
 CORR.G/C3   45 356 01 00:   DENSITY CORRECTION
 PORD.DEC    45 890 12 00:   POROSITY DENSITY SANDSTONE
 CNC .DEC    42 890 03 00:   NEUTRON POROSITY SANDSTONE
~PARAMETER INFORMATION
#MNEM.UNIT          VALUE    DESCRIPTION
#----------   ------------   ------------------------------
 PD  .                 GL:   PERMANENT DATUM
 EPD .F              5186:   ELEVATION PERMANENT DATUM
 LMF .                 GL:   LOG MEASURED FROM
 DMF .                 GL:   DRILLING MEASURED FROM
 EGL .F              5186:   GROUND LEVEL
 DATE.         8-SEP-1984:   RUN DATE
 RUN .                  1:   RUN NUMBER
 DD  .F               712:   DEPTH DRILLER
 DL  .F               695:   DEPTH LOGGER
 BLI .F               693:   BOTTOM LOG INTERVAL
 CS  .IN            8.625:   CASING SIZE
 CBD .F                40:   CASING BOTTOM DRILLER
 CBL .F                45:   CASING BOTTOM LOGGER
 BS  .IN            7.875:   BIT SIZE
 BSD .F               712:   BIT SIZE AT DEPTH
 DFT .          KCL WATER:   DRILLING FLUID TYPE
 MSS .           FLOWLINE:   MUD SAMPLE SOURCE
 RMS .OHMM            .22:   RESISTIVITY MUD SAMPLE
 MST .F                72:   MUD SAMPLE TEMPERATURE
 RMF .OHMM            .17:   RESISTIVITY MUD FILTRATE SAMPLE
 MFST.F                72:   MUD FILTRATE SAMPLE TEMPERATURE
 RMC .OHMM            .28:   RESISTIVITY MUD CAKE
 MCST.F                72:   MUD CAKE SAMPLE TEMPERATURE
 MFSS.               CALC:   MUD FILTRATE SAMPLE SOURCE
 MCSS.               CALC:   MUD CAKE SAMPLE SOURCE
 RMB .OHMM            .18:   RESISTIVITY MUD AT BHT
 BHT .F                90:   BOTTOM HOLE TEMPERATURE
 TCS .HRS               3:   TIME CURCULATED STOPPED
 MRT .F                90:   MAXIMUM RECORDED TEMPERATURE
 LUN .               6274:   LOGGING UNIT NUMBER
 LUL .               GLTE:   LOGGING UNIT LOCATION
 ENGI.             RAUTIO:   RECORDING ENGINEER
 WITN.           JENNINGS:   WITNESSED BY
 CLNT.            A2DTECH:   CLIENT CODE
 ORIG. 1", 2', 2.5", 5" PRNT:   ORIGIN OF DATA
 UWI .       490251097600:   UNIQUE WELL ID
 DICO. A2D Technologies, Inc.:   DIGITIZING COMPANY
~OTHER INFORMATION
~A    DEPT      AC        SPR       RILD       RILM       RFOC         GRR      CALD        DEN       CORR       PORD        CNC   
# ...
  549.5000    98.6660    -6.1310    17.6150    16.7060    16.5620    69.7479     7.7920     2.3540     0.0240     0.1950     0.2741
  550.0000    98.4160    -6.4310    17.2240    16.1470    16.3200    69.1814     7.7920     2.3510     0.0150     0.1950     0.2718
  550.5000    98.1650    -6.7300    16.8720    15.5330    16.0780    69.2118     7.7920     2.3580     0.0050     0.1910     0.2816
  551.0000    98.0680    -7.0300    16.6190    15.3210    15.8360    68.9383     7.7920     2.3670     0.0060     0.1870     0.2877
  551.5000    98.3290    -7.3300    16.3370    15.0860    15.5940    69.2575     7.7920     2.3730     0.0090     0.1820     0.2852
  552.0000    98.5440    -7.6290    16.0560    14.8510    15.3520    70.7656     7.7920     2.3720     0.0030     0.1810     0.2827
  552.5000    98.5190    -7.9280    15.7740    14.6160    15.1100    72.5662     7.7920     2.3660    -0.0070     0.1860     0.2814
  553.0000    98.0010    -8.2290    15.4930    14.3810    14.8680    73.1816     7.7920     2.3630    -0.0120     0.1890     0.2797
  553.5000    96.9200    -8.5350    15.2120    14.1460    14.6260    74.0933     7.7920     2.3700    -0.0070     0.1880     0.2759
  554.0000    95.8380    -8.6790    14.9300    13.9110    14.3840    74.1200     7.7920     2.3830     0.0030     0.1780     0.2723
  554.5000    94.7570    -8.7770    14.6490    13.6570    14.1410    74.4391     7.7920     2.3970     0.0130     0.1690     0.2692
  555.0000    93.6760    -8.8730    14.3670    13.8160    13.8990    75.3508     7.7920     2.3990     0.0040     0.1650     0.2602
  555.5000    92.6890    -8.9680    14.0860    13.9900    13.7830    75.6661     7.7920     2.3910    -0.0080     0.1710     0.2583
  556.0000    89.8510    -9.0640    13.7830    14.1630    13.7830    70.6595     7.7920     2.3840     0.0060     0.1760     0.2662
  556.5000    87.2410    -9.1590    13.7830    14.3360    14.0860    67.4193     7.7920     2.3840     0.0260     0.1790     0.2708
  557.0000    84.6300    -9.2540    13.8390    14.5100    14.5030    68.6311     7.7920     2.3930     0.0300     0.1710     0.2677
  557.5000    82.3310    -9.3500    14.2710    14.6830    14.9200    70.1354     7.7920     2.4080     0.0200     0.1630     0.2599
  558.0000    83.5150    -9.4450    14.7030    14.8560    15.3370    73.1212     7.7920     2.4250     0.0230     0.1550     0.2546
  558.5000    87.1540    -9.5420    15.2500    15.1100    15.7540    71.9627     7.7920     2.4310     0.0250     0.1470     0.2613
  559.0000    90.7940    -9.6440    15.0390    15.0020    16.0660    71.9855     7.7920     2.4190     0.0130     0.1540     0.2677
  559.5000    93.8840    -9.7800    14.7520    14.8000    15.7070    72.3046     7.7920     2.4020     0.0030     0.1640     0.2578
  560.0000    95.7330    -9.9100    14.4650    14.5980    15.3490    70.8460     7.7930     2.3880     0.0050     0.1720     0.2513
  560.5000    97.0720    -9.9560    14.1790    14.3950    14.9900    68.2059     7.7940     2.3780     0.0080     0.1790     0.2574
  561.0000    97.2080    -9.8000    13.8920    14.1930    14.6320    66.1547     7.7960     2.3730     0.0120     0.1830     0.2635
  561.5000    97.0720    -9.6530    13.6050    13.9910    14.2730    64.9885     7.7970     2.3740     0.0100     0.1840     0.2650
  562.0000    96.4780    -9.5100    13.4180    13.7890    14.0200    66.2003     7.7990     2.3780     0.0080     0.1790     0.2662
  562.5000    95.9760    -9.5250    13.2650    13.5920    13.8880    68.8898     7.8000     2.3890     0.0030     0.1750     0.2673
  563.0000    95.6770    -9.9290    13.1120    13.4040    13.7570    69.2128     7.8020     2.3900    -0.0020     0.1730     0.2593
  563.5000    95.8460   -10.3170    12.9900    13.2160    13.6250    70.1245     7.8030     2.3880    -0.0060     0.1740     0.2494
  564.0000    96.0130   -10.7030    12.8930    13.0280    13.4940    69.8472     7.8050     2.3870    -0.0010     0.1750     0.2429
  564.5000    95.9990   -11.0900    12.7950    12.8400    13.3630    72.2442     7.8060     2.3910     0.0090     0.1740     0.2413
  565.0000    95.6770   -11.4770    12.6980    12.6530    13.2310    73.4484     7.8080     2.3970     0.0180     0.1700     0.2424
  565.5000    95.1960   -11.8640    12.6010    12.4650    13.1000    71.4048     7.8090     2.4030     0.0280     0.1660     0.2522
  566.0000    94.7320   -12.2460    12.5040    12.2770    12.9680    70.2424     7.8110     2.4080     0.0290     0.1630     0.2596
  566.5000    94.2690   -12.5880    12.4060    12.0890    12.8370    69.9652     7.8100     2.4060     0.0140     0.1630     0.2623
  567.0000    93.8050   -12.7010    12.3090    11.9720    12.6460    69.6917     7.8070     2.4050    -0.0030     0.1640     0.2588
  567.5000    93.2870   -12.8330    12.2120    11.8730    12.5690    70.0184     7.8040     2.4120    -0.0100     0.1610     0.2549
  568.0000    93.0660   -13.0080    12.1140    11.7740    12.4930    71.2264     7.8010     2.4190     0.0020     0.1560     0.2529
  568.5000    92.8150   -13.1600    12.0170    11.6760    12.4160    72.4345     7.7980     2.4270     0.0150     0.1510     0.2565
  569.0000    92.5640   -13.3230    11.9200    11.5750    12.3400    72.4573     7.7950     2.4270     0.0270     0.1510     0.2577
  569.5000    92.2910   -13.5910    11.8670    11.5590    12.2640    72.7802     7.7920     2.4210     0.0300     0.1550     0.2588
  570.0000    92.3930   -13.8570    11.8260    11.5430    12.1870    76.0623     7.7920     2.4140     0.0230     0.1580     0.2659
  570.5000    92.5040   -14.1230    11.7860    11.5280    12.1110    76.3776     7.7920     2.4180     0.0140     0.1570     0.2627
  571.0000    92.6160   -14.3900    11.7450    11.5120    12.0350    74.9228     7.7920     2.4230     0.0050     0.1550     0.2448
  571.5000    92.5460   -14.6570    11.7050    11.4960    11.9580    72.8753     7.7920     2.4240    -0.0020     0.1530     0.2392
  572.0000    92.1280   -14.9240    11.6640    11.4800    11.8820    72.5943     7.7920     2.4240    -0.0040     0.1540     0.2392
  572.5000    91.6930   -15.1910    11.6240    11.4650    11.7890    72.9210     7.7920     2.4250    -0.0010     0.1540     0.2437
  573.0000    91.6930   -15.4580    11.5750    11.4490    11.8000    72.9438     7.7920     2.4310     0.0090     0.1520     0.2566
  573.5000    91.6930   -15.7230    11.5860    11.4330    11.8140    72.9705     7.7920     2.4380     0.0190     0.1460     0.2637
  574.0000    91.4830   -15.9540    11.6010    11.4170    11.8270    76.2525     7.7920     2.4350     0.0300     0.1440     0.2543
  574.5000    91.2680   -15.9880    11.6150    11.4020    11.8410    78.6457     7.7920     2.4270     0.0320     0.1510     0.2480
  575.0000    91.0960   -16.0270    11.6290    11.3860    11.8550    77.7759     7.7920     2.4260     0.0300     0.1530     0.2472
  575.5000    91.2460   -16.0680    11.6440    11.3700    11.8680    77.2099     7.7920     2.4310     0.0210     0.1490     0.2514
  576.0000    91.3720   -16.1100    11.6580    11.3440    11.8820    75.4588     7.7920     2.4350     0.0110     0.1470     0.2480
  576.5000    91.4940   -16.2200    11.6810    11.3120    11.8980    73.7038     7.7910     2.4320     0.0020     0.1480     0.2454
  577.0000    91.4470   -16.6310    11.6580    11.2790    11.8640    75.2081     7.7900     2.4300     0.0000     0.1490     0.2460
  577.5000    91.4020   -17.0400    11.6010    11.2470    11.8060    76.4161     7.7890     2.4350     0.0100     0.1470     0.2487
  578.0000    91.3560   -17.4480    11.5440    11.2150    11.7490    78.8131     7.7880     2.4410     0.0200     0.1430     0.2560
  578.5000    91.3100   -17.6180    11.4870    11.1820    11.6920    80.0212     7.7870     2.4430     0.0210     0.1410     0.2591
  579.0000    91.4130   -17.7360    11.4300    11.1500    11.6350    77.9699     7.7860     2.4390     0.0090     0.1440     0.2593
  579.5000    91.5920   -17.8530    11.3730    11.1180    11.5780    75.6224     7.7850     2.4350    -0.0010     0.1460     0.2439
