~VERSION INFORMATION
 VERS.                2.0:   CWLS LOG ASCII STANDARD - VERSION 2.0
 WRAP.                 NO:   ONE LINE PER DEPTH STEP
~WELL INFORMATION
#MNEM.UNIT      DATA TYPE    INFORMATION
#----------   ------------   ------------------------------
 STRT.F           70.0000:   START DEPTH
 STOP.F          806.0000:   STOP DEPTH
 STEP.F            0.5000:   STEP LENGTH
 NULL.          -999.2500:   NO VALUE
 COMP. U S NAVY/INTEX OIL CO:   COMPANY
 WELL. RES 3 TEAPOT DOME #33-S-2:   WELL
 FLD .             TEAPOT:   FIELD
 LOC .       S2 T38N R78W:   LOCATION
 CNTY.            NATRONA:   COUNTY
 STAT.            WYOMING:   STATE
 CTRY. UNITED STATES OF AMERICA:   COUNTRY
 SRVC.         Lane Wells:   SERVICE COMPANY
 DATE.        15-MAR-1980:   LOGDATE
 API .       490250644600:   API NUMBER
~CURVE INFORMATION
#MNEM.UNIT       API CODE    CURVE DESCRIPTION
#----------   ------------   ------------------------------
 DEPT.F                  :   
 GR  .GAPI   30 310 01 00:   GAMMA RAY
 SPR .MV     05 010 01 00:   SPONTANEOUS POTENTIAL FROM RES.
 CILD.MMHO   05 110 46 00:   CONDUCTIVITY INDUCTION LOG DEEP
 ASN .OHMM   05 041 16 00:   AMPLIFIED SHORT NORMAL 16"
 ILD .OHMM   05 120 46 00:   INDUCTION LOG DEEP
~PARAMETER INFORMATION
#MNEM.UNIT          VALUE    DESCRIPTION
#----------   ------------   ------------------------------
 PD  .                 GL:   PERMANENT DATUM
 EPD .F              5119:   ELEVATION PERMANENT DATUM
 LMF .                 KB:   LOG MEASURED FROM
 DAPD.F                 5:   FEET ABOVE PERMANENT DATUM
 DMF .                 KB:   DRILLING MEASURED FROM
 EKB .F              5124:   KELLING BUSHING
 EGL .F              5119:   GROUND LEVEL
 DATE.            3-15-60:   RUN DATE
 RUN .                  1:   RUN NUMBER
 DD  .F               810:   DEPTH DRILLER
 DL  .F               808:   DEPTH LOGGER
 BLI .F               806:   BOTTOM LOG INTERVAL
 TLI .F                70:   TOP LOG INTERVAL
 CS  .IN            8.625:   CASING SIZE
 CBD .F                12:   CASING BOTTOM DRILLER
 BS  .IN            7.875:   BIT SIZE
 BSD .F               810:   BIT SIZE AT DEPTH
 DFT .   GEL/OIL EMULSION:   DRILLING FLUID TYPE
 DFD .                6.8:   DRILLING FLUID DENSITY
 DFV .                 34:   DRILLING FLUID VISCOSITY
 DFPH.                7.6:   DRILLING FLUID PH
 DFL .                9.4:   DRILLING FLUID LOSS
 MSS .           FLOWLINE:   MUD SAMPLE SOURCE
 RMS .OHMM            4.2:   RESISTIVITY MUD SAMPLE
 MST .F                65:   MUD SAMPLE TEMPERATURE
 RMF .OHMM            3.3:   RESISTIVITY MUD FILTRATE SAMPLE
 MFST.F                68:   MUD FILTRATE SAMPLE TEMPERATURE
 RMC .OHMM              4:   RESISTIVITY MUD CAKE
 MCST.F                68:   MUD CAKE SAMPLE TEMPERATURE
 MFSS.                MUD:   MUD FILTRATE SAMPLE SOURCE
 MCSS.              PRESS:   MUD CAKE SAMPLE SOURCE
 RMB .OHMM            3.9:   RESISTIVITY MUD AT BHT
 BHT .F                71:   BOTTOM HOLE TEMPERATURE
 MRT .F                71:   MAXIMUM RECORDED TEMPERATURE
 LUN .             L-4474:   LOGGING UNIT NUMBER
 LUL .             CASPER:   LOGGING UNIT LOCATION
 ENGI.      GRIGGS/NELSON:   RECORDING ENGINEER
 WITN.   JORGENSEN/HUDSON:   WITNESSED BY
 CLNT.            A2DTECH:   CLIENT CODE
 ORIG. 1", 2.5", 5" PRINT:   ORIGIN OF DATA
 UWI .       490250644600:   UNIQUE WELL ID
 DICO. A2D Technologies, Inc.:   DIGITIZING COMPANY
~OTHER INFORMATION
~A   DEPT       GR        SPR        CILD         ASN        ILD 
# ...
  680.0000    65.1763   -32.5149   110.5332    13.9633    11.1625
  680.5000    65.9341   -32.3948   111.4325    13.7640    11.2487
  681.0000    64.8347   -32.2340   112.3317    13.6098    11.2711
  681.5000    63.4911   -32.2019   113.3032    13.5522    11.2264
  682.0000    64.1949   -32.4035   114.1050    13.5417    11.1626
  682.5000    65.4694   -32.6903   115.0825    13.4852    11.0978
  683.0000    58.4108   -32.7770   115.9220    13.4577    11.0201
  683.5000    57.8666   -32.5168   116.8777    13.4181    10.9289
  684.0000    61.2450   -32.0689   117.8902    13.3777    10.8365
  684.5000    56.4129   -31.8360   118.0276    13.3473    10.7458
  685.0000    59.1970   -32.0822   118.0937    13.2996    10.6557
  685.5000    60.1496   -32.5316   118.2456    13.2757    10.5797
  686.0000    53.6287   -32.6007   118.3209    13.2313    10.5322
  686.5000    56.4952   -32.1345   118.4670    13.0890    10.5032
  687.0000    54.2864   -31.5907   118.5586    12.9387    10.4703
  687.5000    51.0260   -31.3758   118.6886    12.8330    10.4304
  688.0000    49.9231   -31.3740   118.7943    12.6822    10.4010
  688.5000    48.8773   -31.2969   118.9131    12.5389    10.3926
  689.0000    49.8610   -31.1335   119.0267    12.5092    10.3958
  689.5000    61.8074   -31.0359   119.1407    12.4907    10.3976
  690.0000    68.6161   -31.0256   119.2567    12.4883    10.3961
  690.5000    58.3456   -31.0252   119.3699    12.4691    10.3955
  691.0000    56.7452   -31.0257   119.4857    12.4408    10.3968
  691.5000    62.4657   -31.0723   119.5994    12.4229    10.3973
  692.0000    64.2784   -31.1849   119.7147    12.4193    10.3968
  692.5000    57.9269   -31.3740   119.8289    12.4057    10.3970
  693.0000    61.2543   -31.6106   119.9443    12.3653    10.3979
  693.5000    65.6241   -31.7320   120.0583    12.3409    10.3974
  694.0000    68.4355   -31.5651   120.1738    12.4001    10.3965
  694.5000    70.9918   -31.2443   120.2882    12.5418    10.3978
  695.0000    66.9856   -31.1545   120.4022    12.7076    10.3991
  695.5000    57.9620   -31.4139   120.5195    12.8773    10.3968
  696.0000    55.0374   -31.6740   120.6289    13.0586    10.3949
  696.5000    54.2338   -31.6160   120.7526    13.1910    10.4002
  697.0000    56.9496   -31.3642   120.8677    13.1819    10.4041
  697.5000    65.7531   -31.1730   120.9830    13.0405    10.3792
  698.0000    66.1874   -31.0123   121.0983    12.8701    10.2986
  698.5000    57.4584   -30.7885   121.2135    12.7280    10.1624
  699.0000    60.3821   -30.7137   121.3288    12.5926    10.0091
  699.5000    61.8761   -31.0281   121.4455    12.4487     9.8923
  700.0000    58.8179   -31.4968   122.2182    12.3064     9.8359
  700.5000    55.1282   -31.6250   123.0002    12.1554     9.8150
  701.0000    58.9114   -31.3461   123.7822    11.9889     9.7949
  701.5000    59.0801   -31.0958   124.5642    11.8523     9.7684
  702.0000    60.5916   -31.1679   125.3462    11.7957     9.7403
  702.5000    56.9599   -31.3749   126.1282    11.8027     9.7059
  703.0000    64.3787   -31.4396   126.9102    11.8189     9.6766
  703.5000    71.6870   -31.3805   127.6921    11.8170     9.6885
  704.0000    79.2286   -31.3552   128.5545    11.8013     9.7402
  704.5000    81.5516   -31.4111   127.5459    11.8032     9.7805
  705.0000    72.8843   -31.5541   126.4218    11.9231     9.8026
  705.5000    77.9855   -31.8309   125.2977    12.0358     9.8687
  706.0000    77.7276   -32.1783   124.1736    12.1539     9.9842
  706.5000    65.9005   -32.3749   123.0495    12.3044    10.0688
  707.0000    69.1097   -32.2787   121.4455    12.3411    10.1335
  707.5000    69.4419   -31.9911   120.1570    12.5423    10.3396
  708.0000    64.8211   -31.7304   117.9088    13.1525    10.7929
  708.5000    59.2614   -31.6630   115.6606    13.6133    11.4129
  709.0000    53.2640   -31.8599   114.3365    14.1266    12.0634
  709.5000    49.5061   -32.3040   107.2867    15.4906    12.6709
  710.0000    48.1304   -32.9157   102.2907    17.0336    13.2028
  710.5000    46.6606   -33.6118    97.2946    18.0648    13.7005
  711.0000    52.9352   -34.3032    92.2986    19.1120    14.3216
  711.5000    48.5079   -34.8689    87.3025    20.3894    15.1647
  712.0000    46.1090   -35.2549    82.3065    21.7493    16.0591
  712.5000    35.1748   -35.5472    78.7915    23.0154    16.6938
  713.0000    38.5513   -35.8339    79.4161    23.1054    16.9493
  713.5000    42.7151   -36.1037    79.8978    23.2054    16.9697
  714.0000    46.0172   -36.3284    80.3796    23.3053    16.9351
  714.5000    64.1442   -36.4334    80.8613    23.3708    16.8829
  715.0000    67.2365   -36.2261    81.3431    23.1931    16.7469
  715.5000    59.0342   -35.7014    81.8249    22.6724    16.4889
  716.0000    50.1417   -35.3120    82.3066    22.2227    16.1703
  716.5000    44.5380   -35.4535    82.7884    21.7713    15.9076
  717.0000    49.3899   -35.7979    83.2701    21.5302    15.7615
  717.5000    48.7216   -35.6839    83.7519    21.2880    15.6790
  718.0000    42.2206   -35.0540    84.2337    21.0459    15.5660
  718.5000    38.8218   -34.4502    84.7154    20.8038    15.4047
  719.0000    36.4507   -34.1958    85.1972    20.5273    15.2624
  719.5000    47.1792   -34.1174    85.6789    20.3826    15.1779
  720.0000    44.1284   -34.0025    86.1607    20.2140    15.0936
  720.5000    54.5367   -33.8637    86.6523    20.0540    14.9613
  721.0000    42.1693   -33.7556    87.1047    19.8867    14.8496
  721.5000    52.3676   -33.6599    87.6297    19.6868    14.8401
  722.0000    60.4378   -33.5556    88.0544    19.4762    14.8647
  722.5000    50.5815   -33.4400    88.6082    19.3111    14.7769
  723.0000    51.0672   -33.3154    89.0019    19.1640    14.5561
  723.5000    50.4861   -33.2075    89.5046    18.8875    14.3048
  724.0000    47.1303   -33.1289    91.0057    18.4036    14.0768
  724.5000    63.9100   -33.0179    92.5041    17.8695    13.8521
  725.0000    64.1866   -32.8064    93.7730    17.5253    13.6579
  725.5000    55.6924   -32.5565    95.2712    17.4147    13.5645
  726.0000    53.2043   -32.4219    96.5140    17.3811    13.5626
  726.5000    56.2500   -32.4478    96.6162    17.3010    13.5653
  727.0000    52.1442   -32.5028    96.5157    17.1920    13.5308
  727.5000    49.2323   -32.4426    96.6127    17.1068    13.4919
  728.0000    61.4581   -32.2761    96.5640    17.0328    13.4741
  728.5000    54.8118   -32.1273    96.5640    16.9813    13.4580
  729.0000    49.5929   -32.0822    96.5640    16.9622    13.4187
  729.5000    60.9052   -32.1254    96.5640    16.9691    13.3493
  730.0000    58.0023   -32.2044    97.2241    16.9961    13.2503
  730.5000    62.2233   -32.2957    98.5088    16.9435    13.1238
  731.0000    66.4789   -32.3865   100.1185    16.7292    12.9777
  731.5000    63.1725   -32.4422   100.1185    16.4390    12.8232
  732.0000    60.2451   -32.4369   101.4692    16.1607    12.6684
  732.5000    58.1681   -32.3868   102.4684    15.8680    12.5144
  733.0000    43.4510   -32.3224   103.4676    15.5789    12.3599
  733.5000    46.9400   -32.2590   104.4668    15.3597    12.2065
  734.0000    51.6758   -32.2133   105.4660    15.1741    12.0544
  734.5000    56.5564   -32.1834   106.4652    14.9605    11.8989
  735.0000    56.6022   -32.1079   107.4644    14.7399    11.7406
  735.5000    51.5430   -31.9390   108.4637    14.5288    11.5896
  736.0000    44.7943   -31.7687   109.4629    14.3120    11.4436
  736.5000    50.2350   -31.7370   110.7820    14.1197    11.2823
  737.0000    50.6529   -31.7888   112.5288    13.9321    11.1066
  737.5000    44.8427   -31.6972   115.0982    13.7416    10.9591
  738.0000    44.4107   -31.3916   117.8910    13.5621    10.8754
  738.5000    40.5253   -31.0850   118.0101    13.4177    10.8360
  739.0000    39.5759   -30.9826   118.1406    13.3125    10.7951
  739.5000    29.6678   -31.0289   118.2710    13.2254    10.7378
  740.0000    36.0327   -31.0534   118.4015    13.1369    10.6802
  740.5000    48.2105   -31.0243   118.5319    13.0452    10.6316
