~VERSION INFORMATION
 VERS.                2.0:   CWLS LOG ASCII STANDARD - VERSION 2.0
 WRAP.                 NO:   ONE LINE PER DEPTH STEP
~WELL INFORMATION
#MNEM.UNIT      DATA TYPE    INFORMATION
#----------   ------------   ------------------------------
 STRT.F           70.0000:   START DEPTH
 STOP.F          853.0000:   STOP DEPTH
 STEP.F            0.5000:   STEP LENGTH
 NULL.          -999.2500:   NO VALUE
 COMP. U S NAVY/INTEX OIL CO:   COMPANY
 WELL.     31S-2 NPR #3-2:   WELL
 FLD .             TEAPOT:   FIELD
 LOC .       S2 T38N R78W:   LOCATION
 CNTY.            NATRONA:   COUNTY
 STAT.            WYOMING:   STATE
 CTRY. UNITED STATES OF AMERICA:   COUNTRY
 SRVC.         Lane Wells:   SERVICE COMPANY
 DATE.        17-MAR-1960:   LOGDATE
 API .       490250648000:   API NUMBER
~CURVE INFORMATION
#MNEM.UNIT       API CODE    CURVE DESCRIPTION
#----------   ------------   ------------------------------
 DEPT.F                  :   
 ASN .OHMM   05 041 16 00:   AMPLIFIED SHORT NORMAL 16"
 CILD.MMHO   05 110 46 00:   CONDUCTIVITY INDUCTION LOG DEEP
 ILD .OHMM   05 120 46 00:   INDUCTION LOG DEEP
 SPR .MV     05 010 01 00:   SPONTANEOUS POTENTIAL FROM RES.
~PARAMETER INFORMATION
#MNEM.UNIT          VALUE    DESCRIPTION
#----------   ------------   ------------------------------
 PD  .                 GL:   PERMANENT DATUM
 EPD .F              5118:   ELEVATION PERMANENT DATUM
 LMF .                 KB:   LOG MEASURED FROM
 DAPD.F                 5:   FEET ABOVE PERMANENT DATUM
 DMF .                 KB:   DRILLING MEASURED FROM
 EKB .F              5123:   KELLING BUSHING
 EGL .F              5118:   GROUND LEVEL
 DATE.        17-MAR-1960:   RUN DATE
 RUN .                  1:   RUN NUMBER
 DD  .F               860:   DEPTH DRILLER
 DL  .F               855:   DEPTH LOGGER
 BLI .F               853:   BOTTOM LOG INTERVAL
 TLI .F                70:   TOP LOG INTERVAL
 CS  .IN            8.625:   CASING SIZE
 CBD .F                12:   CASING BOTTOM DRILLER
 BS  .IN            7.875:   BIT SIZE
 BSD .F               860:   BIT SIZE AT DEPTH
 DFT .  GEL- OIL EMULSION:   DRILLING FLUID TYPE
 DFD .                9.7:   DRILLING FLUID DENSITY
 DFV .                 40:   DRILLING FLUID VISCOSITY
 MSS .    CIRC.- FLOWLINE:   MUD SAMPLE SOURCE
 RMS .OHMM           1.75:   RESISTIVITY MUD SAMPLE
 MST .F                60:   MUD SAMPLE TEMPERATURE
 RMF .OHMM            1.2:   RESISTIVITY MUD FILTRATE SAMPLE
 MFST.F                60:   MUD FILTRATE SAMPLE TEMPERATURE
 RMC .OHMM            2.4:   RESISTIVITY MUD CAKE
 MCST.F                60:   MUD CAKE SAMPLE TEMPERATURE
 MFSS.                MUD:   MUD FILTRATE SAMPLE SOURCE
 MCSS.              PRESS:   MUD CAKE SAMPLE SOURCE
 RMB .OHMM            1.5:   RESISTIVITY MUD AT BHT
 BHT .F                70:   BOTTOM HOLE TEMPERATURE
 MRT .F                70:   MAXIMUM RECORDED TEMPERATURE
 LUN .            HL 4474:   LOGGING UNIT NUMBER
 LUL .             CASPER:   LOGGING UNIT LOCATION
 ENGI.             NELSON:   RECORDING ENGINEER
 WITN.   JORGENSEN-HUDSON:   WITNESSED BY
 CLNT.            A2DTECH:   CLIENT CODE
 ORIG.        2" 5" PRINT:   ORIGIN OF DATA
 UWI .       490250648000:   UNIQUE WELL ID
 DICO. A2D Technologies, Inc.:   DIGITIZING COMPANY
~OTHER INFORMATION
~A   DEPT        ASN      CILD         ILD      SPR   
# ...
  508.0000     9.8214   125.3253     8.8940   -36.0219
  508.5000     9.9369   123.0786     8.9877   -36.1566
  509.0000     9.9634   120.4236     9.1673   -36.2907
  509.5000     9.9899   117.2239     9.3685   -36.2888
  510.0000    10.0164   114.9773     9.5267   -36.2868
  510.5000    10.0428   112.7307     9.7075   -36.2845
  511.0000    10.0693   110.8926     9.8612   -36.2827
  511.5000    10.0958   110.8926    10.0466   -36.2807
  512.0000    10.1223   108.7141    10.1141   -36.2784
  512.5000    10.1487   106.4675    10.2610   -36.2766
  513.0000    10.2186   105.4463    10.3331   -36.2905
  513.5000    10.4404   105.4463    10.3849   -36.4090
  514.0000    10.5080   105.4463    10.3845   -36.4070
  514.5000    11.9108   105.4463    10.3842   -36.4049
  515.0000    13.3569   105.4463    10.3838   -36.4026
  515.5000    13.2209   105.4463    10.3156   -36.4008
  516.0000    13.1103   105.4463    10.2473   -36.3988
  516.5000    12.9299   105.4463    10.1790   -36.3964
  517.0000    12.7452   105.4463    10.1492   -36.3947
  517.5000    12.5691   105.4463    10.1047   -36.3926
  518.0000    12.3887   105.4463    10.0421   -36.2537
  518.5000    12.2016   105.4463     9.9478   -36.2520
  519.0000    12.0957   105.4463     9.9033   -36.2499
  519.5000    11.9976   105.9227     9.7693   -36.2479
  520.0000    11.9973   106.8079     9.7464   -36.2458
  520.5000    11.9970   108.3907     9.6673   -36.2438
  521.0000    12.0087   108.9524     9.5894   -36.1666
  521.5000    12.0643   109.5310     9.4963   -36.0821
  522.0000    12.0640   110.6203     9.4280   -35.9645
  522.5000    12.0638   111.2329     9.3201   -35.9624
  523.0000    12.0635   112.8669     9.2076   -35.8728
  523.5000    11.7329   113.6157     9.0873   -35.7575
  524.0000    11.5168   115.2496     8.9828   -35.6832
  524.5000    11.3006   116.3389     8.9258   -35.6811
  525.0000    11.0845   117.0197     8.8145   -35.6790
  525.5000    10.8683   117.9048     8.8142   -35.5985
  526.0000    10.6522   119.0620     8.7459   -35.5384
  526.5000    10.4360   121.0364     8.6776   -35.3996
  527.0000    10.2199   121.7852     8.6773   -35.3977
  527.5000    10.0037   123.1468     8.6713   -35.3957
  528.0000     9.8355   125.0530     8.6086   -35.3935
  528.5000     9.7990   127.2315     8.5404   -35.4633
  529.0000     9.7265   127.2315     8.5378   -35.5511
  529.5000     9.6640   127.2315     8.4038   -35.6606
  530.0000     9.5495   127.2315     8.4035   -35.6586
  530.5000     9.3864   127.2315     8.3353   -35.6565
  531.0000     9.2988   125.8699     8.2919   -35.6543
  531.5000     9.2502   125.8699     8.2666   -35.6524
  532.0000     9.2906   125.8699     8.3342   -35.6504
  532.5000     9.3253   127.2315     8.3339   -35.5115
  533.0000     9.3475   127.2315     8.3336   -35.5097
  533.5000     9.3712   127.2315     8.3332   -35.3711
  534.0000     9.3919   127.5038     8.3329   -35.3688
  534.5000     9.4031   129.9546     8.3325   -35.3670
  535.0000     9.4247   131.9970     8.3322   -35.3763
  535.5000     9.4244   132.6778     8.3319   -35.5501
  536.0000     9.4084   134.0393     8.2930   -35.6340
  536.5000     9.3696   135.4009     8.2632   -35.6399
  537.0000     9.3231   136.8987     8.2629   -35.7665
  537.5000     9.2520   138.1241     8.1890   -35.9010
  538.0000     9.1110   138.1241     8.1263   -36.0401
  538.5000     8.9431   138.1923     8.0320   -36.1700
  539.0000     8.6507   139.4856     7.9196   -36.1680
  539.5000     8.0654   140.8472     7.8535   -36.1659
  540.0000     7.9756   140.8472     7.7627   -36.1639
  540.5000     7.8342   141.7321     7.7170   -36.1618
  541.0000     7.9289   142.6172     7.6057   -36.1598
  541.5000     8.0027   143.5703     7.5613   -36.1577
  542.0000     8.0651   143.5703     7.5801   -36.1147
  542.5000     8.1723   143.5703     7.5897   -35.8805
  543.0000     8.2307   143.5703     7.6174   -35.6576
  543.5000     8.3075   143.5703     7.6471   -35.4291
  544.0000     8.3739   142.2088     7.6988   -35.1914
  544.5000     8.4275   140.8472     7.7144   -34.9721
  545.0000     8.4695   140.8472     7.7140   -34.7435
  545.5000     8.4910   139.4856     7.7465   -34.6390
  546.0000     8.5303   138.1241     7.7813   -34.7144
  546.5000     8.5772   138.1241     7.8488   -34.8023
  547.0000     8.6408   138.1241     7.8485   -35.0425
  547.5000     8.6944   138.1241     7.8482   -35.0406
  548.0000     8.7528   136.7625     7.8478   -35.0385
  548.5000     8.7942   136.7625     7.8475   -35.0363
  549.0000     8.8524   136.7625     7.8471   -35.1710
  549.5000     8.9012   136.7625     7.8467   -35.3058
  550.0000     8.9417   136.7625     7.8465   -35.3033
  550.5000     8.9821   136.7625     7.8461   -35.3686
  551.0000     8.9818   136.7625     7.8458   -35.4361
  551.5000     8.9292   136.7625     7.8454   -35.4337
  552.0000     8.8054   136.7625     7.8451   -35.4319
  552.5000     8.6010   136.7625     7.8448   -35.4298
  553.0000     8.5737   136.7625     7.8444   -35.2909
  553.5000     8.5757   136.7625     7.8441   -35.2892
  554.0000     8.6545   136.7625     7.8438   -35.2734
  554.5000     8.6975   136.7625     7.8434   -35.1482
  555.0000     8.7639   136.7625     7.8430   -35.0099
  555.5000     8.8301   136.7625     7.8427   -34.9976
  556.0000     8.8803   138.1241     7.8424   -34.7323
  556.5000     8.9112   138.1241     7.8420   -34.6771
  557.0000     8.9514   138.1241     7.8417   -34.5920
  557.5000     8.9152   138.1241     7.8414   -34.5895
  558.0000     8.8695   139.0771     7.8410   -34.7244
  558.5000     8.8248   139.5536     7.8407   -34.8624
  559.0000     8.7718   140.8472     7.8381   -34.9935
  559.5000     8.6923   141.3238     7.7720   -35.1747
  560.0000     8.6350   142.2088     7.6925   -35.3991
  560.5000     8.5898   143.0937     7.6355   -35.5336
  561.0000     8.5693   143.5703     7.5673   -35.5748
  561.5000     8.5419   143.5703     7.5477   -35.6661
  562.0000     8.5251   144.3873     7.4669   -35.8006
  562.5000     8.4871   145.2723     7.4304   -35.7986
  563.0000     8.4661   147.6551     7.3462   -35.7965
  563.5000     8.4273   149.0166     7.2938   -35.7945
  564.0000     8.3777   150.6506     7.1893   -35.6558
  564.5000     8.3302   153.1014     7.0769   -35.4908
  565.0000     8.2470   155.1437     7.0210   -35.2989
  565.5000     8.1191   157.3904     6.8520   -35.0704
  566.0000     7.9677   159.9092     6.7396   -34.9647
  566.5000     7.7669   160.5219     6.5445   -34.7499
  567.0000     7.5348   162.7687     6.4762   -34.5214
  567.5000     7.0940   165.3555     6.4759   -34.4122
  568.0000     6.7115   168.6233     6.4076   -34.3375
  568.5000     6.5028   170.8018     6.2714   -34.2717
  569.0000     6.3782   170.8018     6.3390   -34.1329
  569.5000     6.5521   170.3254     6.3386   -34.1310
  570.0000     7.0719   168.0787     6.4289   -34.2883
  570.5000     7.2362   165.3555     6.4738   -34.4001
  571.0000     7.3569   163.5855     6.5845   -34.6006
  571.5000     7.4284   161.2708     6.6962   -34.9424
  572.0000     7.4773   159.0923     6.7446   -35.0765
  572.5000     7.5319   158.2073     6.8518   -35.2113
  573.0000     7.5758   157.1861     6.8798   -35.3460
  573.5000     7.6069   158.5477     6.8794   -35.3435
  574.0000     7.6396   158.5477     6.8791   -35.2825
  574.5000     7.6665   158.5477     6.8108   -35.1906
  575.0000     7.6798   158.5477     6.7425   -34.9276
  575.5000     7.6795   158.5477     6.7422   -34.8144
  576.0000     7.6792   158.5477     6.6649   -34.5050
  576.5000     7.6625   159.9092     6.6056   -34.2386
  577.0000     7.6380   159.9092     6.5079   -34.0480
  577.5000     7.5892   161.2708     6.3955   -33.8251
  578.0000     7.5031   161.8154     6.1970   -34.0958
  578.5000     7.3658   164.0620     6.1027   -34.3673
  579.0000     7.1767   166.7171     5.9223   -34.5041
  579.5000     6.9909   169.0317     5.7883   -34.7725
  580.0000     6.3663   174.3253     5.4276   -35.7054
  580.5000     6.2188   181.2731     5.3589   -35.5733
