~VERSION INFORMATION
 VERS.                2.0:   CWLS LOG ASCII STANDARD - VERSION 2.0
 WRAP.                 NO:   ONE LINE PER DEPTH STEP
~WELL INFORMATION
#MNEM.UNIT      DATA TYPE    INFORMATION
#----------   ------------   ------------------------------
 STRT.F            0.0000:   START DEPTH
 STOP.F          964.0000:   STOP DEPTH
 STEP.F            0.5000:   STEP LENGTH
 NULL.          -999.2500:   NO VALUE
 COMP. LAWRENCE/ALLISON INC:   COMPANY
 WELL.  NPR 3 #58-16-SX-2:   WELL
 FLD .           NPR NO.3:   FIELD
 LOC .       S2 T38N R78W:   LOCATION
 CNTY.            NATRONA:   COUNTY
 STAT.            WYOMING:   STATE
 CTRY. UNITED STATES OF AMERICA:   COUNTRY
 SRVC.           Gearhart:   SERVICE COMPANY
 DATE.        07-MAY-1987:   LOGDATE
 API .       490251113700:   API NUMBER
~CURVE INFORMATION
#MNEM.UNIT       API CODE    CURVE DESCRIPTION
#----------   ------------   ------------------------------
 DEPT.F                  :   
 GRR .GAPI   07 310 01 00:   GAMMA RAY FROM RES. LOG.
 RILD.OHMM   07 120 46 00:   INDUCTION LOG DEEP RESISTIVITY
 RILM.OHMM   07 120 44 00:   INDUCTION LOG MEDIUM RESISTIVITY
~PARAMETER INFORMATION
#MNEM.UNIT          VALUE    DESCRIPTION
#----------   ------------   ------------------------------
 PD  .                 GL:   PERMANENT DATUM
 EPD .F              5173:   ELEVATION PERMANENT DATUM
 LMF .                 GL:   LOG MEASURED FROM
 DMF .                 GL:   DRILLING MEASURED FROM
 EGL .F              5173:   GROUND LEVEL
 DATE.           5-7-1987:   RUN DATE
 RUN .                  1:   RUN NUMBER
 DD  .F               971:   DEPTH DRILLER
 DL  .F               971:   DEPTH LOGGER
 BLI .F               963:   BOTTOM LOG INTERVAL
 TLI .F                37:   TOP LOG INTERVAL
 CS  .IN            8.625:   CASING SIZE
 CBD .F                44:   CASING BOTTOM DRILLER
 CBL .F                37:   CASING BOTTOM LOGGER
 BS  .IN            7.875:   BIT SIZE
 BSD .F               971:   BIT SIZE AT DEPTH
 TCS .HRS            2100:   TIME CURCULATED STOPPED
 TLAB.HRS            2338:   TIME LOGGER AT BOTTOM
 MRT .F                80:   MAXIMUM RECORDED TEMPERATURE
 LUN .               7597:   LOGGING UNIT NUMBER
 LUL .           GILLETTE:   LOGGING UNIT LOCATION
 ENGI.         WEATHERMON:   RECORDING ENGINEER
 WITN. STRONG/TAYLOR/LOWE:   WITNESSED BY
 CLNT.            A2DTECH:   CLIENT CODE
 ORIG.           5" PRINT:   ORIGIN OF DATA
 UWI .       490251113700:   UNIQUE WELL ID
 DICO. A2D Technologies, Inc.:   DIGITIZING COMPANY
~OTHER INFORMATION
~A    DEPT      GRR      RILD       RILM   
# ...
  728.0000    67.1967    21.5038    20.8846
  728.5000    68.8089    20.8346    20.1387
  729.0000    70.5161    20.1507    19.4194
  729.5000    72.2019    19.4893    18.7258
  730.0000    73.2794    18.8919    18.0570
  730.5000    73.2606    18.3538    17.4168
  731.0000    73.2519    17.8301    16.8100
  731.5000    73.3204    17.3222    16.2244
  732.0000    75.6095    17.2292    16.0072
  732.5000    78.0469    17.1810    15.7147
  733.0000    80.4909    17.1142    15.7768
  733.5000    80.6300    17.3424    15.9012
  734.0000    78.1028    17.8175    16.0267
  734.5000    75.5727    18.3059    16.1533
  735.0000    74.5370    18.8743    16.2800
  735.5000    75.9086    19.4898    16.9915
  736.0000    77.4686    20.1254    17.9983
  736.5000    76.3164    20.7815    19.0646
  737.0000    74.4254    21.4591    20.1952
  737.5000    72.4852    22.1226    21.3167
  738.0000    70.0855    22.4740    21.7931
  738.5000    69.4068    22.8310    22.2765
  739.0000    69.5664    23.1600    22.7233
  739.5000    70.7921    23.1603    22.0383
  740.0000    72.5095    22.2729    21.1255
  740.5000    74.3014    21.3266    20.2504
  741.0000    76.1062    20.4220    19.4116
  741.5000    77.1955    19.5558    18.7759
  742.0000    77.7193    18.7559    18.2324
  742.5000    78.4068    18.2457    17.7045
  743.0000    80.1206    17.7493    17.1918
  743.5000    80.3470    17.2665    16.6939
  744.0000    80.4826    16.7968    16.2104
  744.5000    80.8703    16.4756    15.7407
  745.0000    82.8979    16.4751    15.2740
  745.5000    84.6706    16.4753    15.1378
  746.0000    84.0184    16.4756    15.2224
  746.5000    83.4944    16.4756    15.2928
  747.0000    83.8567    16.4756    15.3635
  747.5000    84.2115    16.4756    15.4346
  748.0000    84.5641    16.4754    15.5059
  748.5000    84.9172    16.4753    15.5776
  749.0000    85.2566    16.4847    15.6496
  749.5000    85.0798    16.5711    15.7147
  750.0000    83.5523    16.6593    15.8235
  750.5000    82.0683    16.7474    15.9453
  751.0000    80.8712    16.8361    16.0680
  751.5000    80.4534    16.9252    16.1916
  752.0000    80.0195    17.0147    16.3162
  752.5000    79.5802    17.1048    16.4756
  753.0000    80.1473    17.1954    16.4527
  753.5000    81.5074    17.2864    16.4214
  754.0000    82.4387    17.3786    16.3902
  754.5000    80.8085    17.4387    16.3591
  755.0000    79.7767    17.4373    16.3204
  755.5000    80.2780    17.4375    16.4151
  756.0000    83.3473    17.4374    16.5862
  756.5000    86.3636    17.4971    16.7590
  757.0000    87.4945    17.6014    16.9337
  757.5000    88.0909    17.7064    17.1116
  758.0000    88.6773    17.7703    16.9112
  758.5000    89.2465    17.3383    16.6611
  759.0000    88.8410    17.1198    16.4153
  759.5000    87.3159    16.9040    16.1731
  760.0000    85.9206    16.6910    15.9343
  760.5000    85.5239    16.4806    15.6983
  761.0000    86.4048    16.1669    15.5656
  761.5000    87.4348    15.9765    15.5661
  762.0000    87.3276    15.7942    15.5687
  762.5000    87.0706    15.6139    15.3490
  763.0000    86.8179    15.4356    15.1404
  763.5000    85.6282    15.2594    14.8965
  764.0000    84.0130    15.0691    14.5464
  764.5000    82.9692    14.8288    14.2045
  765.0000    85.6321    14.7086    13.8969
  765.5000    88.2570    14.8272    13.7549
  766.0000    88.1913    14.9094    13.6366
  766.5000    86.8268    14.9917    14.2536
  767.0000    85.4755    15.0741    14.7159
  767.5000    84.1380    15.1314    14.5803
  768.0000    82.7731    14.9785    14.7082
  768.5000    83.3180    14.8626    14.4744
  769.0000    85.0785    14.7477    14.2989
  769.5000    86.8812    14.6336    14.1256
  770.0000    87.5733    14.5204    13.9543
  770.5000    86.3473    14.4080    13.7852
  771.0000    84.8783    14.2966    13.6181
  771.5000    83.4084    14.1857    13.4530
  772.0000    81.9006    14.0766    13.3049
  772.5000    82.6576    14.0279    13.1699
  773.0000    84.4712    14.0290    13.0364
  773.5000    86.3246    14.1195    13.0068
  774.0000    88.1699    14.2368    13.0068
  774.5000    87.8316    14.3554    13.0068
  775.0000    86.2998    14.4738    13.1304
  775.5000    83.7356    14.5687    13.5082
  776.0000    81.1463    14.2743    13.3970
  776.5000    80.8100    14.0324    13.2162
  777.0000    80.6161    13.8982    13.0378
  777.5000    80.6161    14.0688    12.8618
  778.0000    81.0352    14.1623    12.7454
  778.5000    82.3161    13.8177    12.6698
  779.0000    83.6028    13.4929    12.5947
  779.5000    84.4872    13.1758    12.5240
  780.0000    85.2854    12.8662    12.2755
  780.5000    86.0802    12.6430    12.0592
  781.0000    86.8773    12.7039    12.1955
  781.5000    87.6708    12.7522    12.3548
  782.0000    88.4848    12.8014    12.4464
  782.5000    88.0394    12.8514    12.5240
  783.0000    86.8754    12.8873    12.3603
  783.5000    85.6921    12.6367    12.1272
  784.0000    85.4225    12.4117    11.8993
  784.5000    85.3186    12.1923    11.6092
  785.0000    85.2127    11.9768    11.6130
  785.5000    85.0831    11.8148    11.6123
  786.0000    86.2356    11.7524    11.6116
  786.5000    87.5694    11.6925    11.3610
  787.0000    87.4742    11.6327    11.2000
  787.5000    86.8144    11.5730    11.0413
  788.0000    86.4019    11.5137    10.9711
  788.5000    86.7307    11.4543    10.9711
  789.0000    87.7609    11.3942    10.9711
  789.5000    88.8847    11.3937    10.9711
  790.0000    90.0050    11.3941    10.9711
  790.5000    91.1355    11.3940    10.9711
  791.0000    91.3955    11.3940    10.9711
  791.5000    90.9952    11.3940    10.9711
  792.0000    90.4359    11.3940    10.9711
  792.5000    90.1400    11.3940    10.9711
  793.0000    90.5459    11.3940    10.9711
  793.5000    90.9404    11.3940    10.9711
  794.0000    91.3398    11.3940    10.9711
  794.5000    91.7312    11.3940    10.9711
  795.0000    91.8316    11.3941    10.9712
  795.5000    90.6772    11.3943    10.9711
  796.0000    89.5507    11.3948    10.9707
  796.5000    88.4184    11.3951    10.9720
  797.0000    87.2898    11.2649    10.8455
  797.5000    88.0083    11.1635    10.7596
  798.0000    90.7751    11.0628    10.6747
  798.5000    93.7678    10.9711    10.5904
  799.0000    95.9883    10.9086    10.5066
  799.5000    95.3455    10.8511    10.4237
  800.0000    94.4591    10.7655    10.3659
  800.5000    93.8585    10.7934    10.3921
  801.0000    95.7744    10.8491    10.4123
  801.5000    97.6743    10.9050    10.4325
  802.0000    98.9258    10.9612    10.4528
  802.5000    97.4261    11.0177    10.4731
  803.0000    95.8340    11.0745    10.4935
  803.5000    94.2455    11.1316    10.5139
  804.0000    92.6748    11.2067    10.5344
  804.5000    91.5713    11.3858    10.5556
  805.0000    91.4558    11.6455    10.6434
  805.5000    91.3205    12.0554    10.7894
  806.0000    91.1891    12.5240    10.9354
  806.5000    91.0613    13.1168    11.3357
  807.0000    90.9269    13.7557    11.8333
  807.5000    90.5367    14.4258    12.8219
  808.0000    88.0426    15.1347    13.9112
  808.5000    84.0262    16.1384    15.0401
  809.0000    80.0298    17.2087    16.0346
  809.5000    76.0287    18.3500    17.0949
  810.0000    73.3494    19.4189    18.2252
  810.5000    73.5322    20.4587    19.4303
  811.0000    76.1084    21.0854    20.8694
  811.5000    78.6692    21.1731    20.7439
  812.0000    80.7024    21.2679    20.5475
  812.5000    78.9993    21.0474    20.3570
  813.0000    77.0705    20.7895    20.1705
  813.5000    75.1552    20.5348    19.9856
  814.0000    75.3323    20.2830    19.8025
  814.5000    77.3061    20.0344    19.6210
  815.0000    79.2213    19.7889    19.4412
  815.5000    80.2578    19.5464    19.2013
  816.0000    78.5314    19.3068    18.9000
  816.5000    76.7167    19.0702    18.6023
  817.0000    74.8800    18.8365    18.3070
  817.5000    73.2088    18.6050    18.0507
  818.0000    73.5797    18.3714    17.8609
  818.5000    76.3503    18.1408    17.6731
