~VERSION INFORMATION
 VERS.                2.0:   CWLS LOG ASCII STANDARD - VERSION 2.0
 WRAP.                 NO:   ONE LINE PER DEPTH STEP
~WELL INFORMATION
#MNEM.UNIT      DATA TYPE    INFORMATION
#----------   ------------   ------------------------------
 STRT.F            2.5000:   START DEPTH
 STOP.F          548.0000:   STOP DEPTH
 STEP.F            0.5000:   STEP LENGTH
 NULL.          -999.2500:   NO VALUE
 COMP. LAWRENCE/ALLISON INC:   COMPANY
 WELL.    55-61 SX #10-10:   WELL
 FLD .           N.P.R #3:   FIELD
 LOC .      S10 T38N R78W:   LOCATION
 CNTY.            NATRONA:   COUNTY
 STAT.            WYOMING:   STATE
 CTRY. UNITED STATES OF AMERICA:   COUNTRY
 SRVC.            Unknown:   SERVICE COMPANY
 DATE.        05-SEP-1984:   LOGDATE
 API .       490251098100:   API NUMBER
~CURVE INFORMATION
#MNEM.UNIT       API CODE    CURVE DESCRIPTION
#----------   ------------   ------------------------------
 DEPT.F                  :   
 GRR .GAPI   07 310 01 00:   GAMMA RAY FROM RES
 SPR .MV     07 010 01 00:   SPONTANEOUS POTENTIAL
 RFOC.OHMM   07 220 04 00:   RESISTIVITY FOCUSED LOG
 RILD.OHMM   07 120 46 00:   INDUCTION LOG DEEP RESISTIVITY
 RILM.OHMM   07 120 44 00:   INDUCTION LOG MEDIUM RESISTIVITY
 CALD.IN     45 280 60 00:   CALIPER FROM DENSITY LOG
 DEN .G/C3   45 350 01 00:   COMPENSATED BULK DENSTIY
 CNC .DEC    42 890 03 00:   NEUTRON POROSITY SANDSTONE
 PORD.DEC    45 890 12 00:   POROSITY DENSITY SANDSTONE
 CORR.G/C3   45 356 01 00:   DENSITY CORRECTION
 AC  .US/F   60 520 00 00:   ACCOUSTIC SONIC
~PARAMETER INFORMATION
#MNEM.UNIT          VALUE    DESCRIPTION
#----------   ------------   ------------------------------
 PD  .                 GL:   PERMANENT DATUM
 EPD .F              5191:   ELEVATION PERMANENT DATUM
 LMF .                 KB:   LOG MEASURED FROM
 DAPD.F                12:   FEET ABOVE PERMANENT DATUM
 DMF .                 KB:   DRILLING MEASURED FROM
 EKB .F              5203:   KELLING BUSHING
 EGL .F              5191:   GROUND LEVEL
 DATE.         5-SEP-1984:   RUN DATE
 RUN .                  1:   RUN NUMBER
 DD  .F               540:   DEPTH DRILLER
 DL  .F               550:   DEPTH LOGGER
 BLI .F               548:   BOTTOM LOG INTERVAL
 CS  .IN            8.625:   CASING SIZE
 CBD .F                42:   CASING BOTTOM DRILLER
 CBL .F                54:   CASING BOTTOM LOGGER
 BS  .IN            7.875:   BIT SIZE
 BSD .F               540:   BIT SIZE AT DEPTH
 DFT .        KCL POLYMER:   DRILLING FLUID TYPE
 MSS .           FLOWLINE:   MUD SAMPLE SOURCE
 RMS .OHMM            .79:   RESISTIVITY MUD SAMPLE
 MST .F                74:   MUD SAMPLE TEMPERATURE
 RMF .OHMM            .59:   RESISTIVITY MUD FILTRATE SAMPLE
 MFST.F                74:   MUD FILTRATE SAMPLE TEMPERATURE
 RMC .OHMM            .99:   RESISTIVITY MUD CAKE
 MCST.F                74:   MUD CAKE SAMPLE TEMPERATURE
 MFSS.               CALC:   MUD FILTRATE SAMPLE SOURCE
 MCSS.               CALC:   MUD CAKE SAMPLE SOURCE
 RMB .OHMM            .65:   RESISTIVITY MUD AT BHT
 BHT .F                90:   BOTTOM HOLE TEMPERATURE
 TCS .HRS               3:   TIME CURCULATED STOPPED
 MRT .F                90:   MAXIMUM RECORDED TEMPERATURE
 LUN .               6274:   LOGGING UNIT NUMBER
 LUL .               GLTE:   LOGGING UNIT LOCATION
 ENGI.             RAUTIO:   RECORDING ENGINEER
 WITN.            JOHNSON:   WITNESSED BY
 CLNT.            A2DTECH:   CLIENT CODE
 ORIG. 2", 2.5", 5" PRINT:   ORIGIN OF DATA
 UWI .       490251098100:   UNIQUE WELL ID
 DICO. A2D Technologies, Inc.:   DIGITIZING COMPANY
~OTHER INFORMATION
~A    DEPT      GRR       SPR       RFOC       RILD       RILM       CALD        DEN        CNC       PORD       CORR         AC   
# ...
  490.5000   100.5570   -70.9120     9.9960    10.0940     9.8990     7.8830     2.4980     0.2800     0.1100     0.0150    93.9610
  491.0000   103.5010   -71.4630    10.0470    10.2310    10.0520     7.8800     2.4970     0.2800     0.1080     0.0240    94.1430
  491.5000   106.7650   -71.7330    10.0980    10.1470    10.0710     7.8780     2.4930     0.2830     0.1090     0.0060    94.3250
  492.0000   107.1340   -71.6190    10.1370    10.1570    10.0900     7.8750     2.4880     0.2830     0.1120    -0.0150    94.4820
  492.5000   102.4000   -71.3870    10.1690    10.1660    10.1090     7.8720     2.4860     0.2800     0.1150    -0.0140    94.5890
  493.0000    98.5970   -71.5670    10.2410    10.1760    10.1270     7.8690     2.4900     0.2700     0.1140    -0.0030    94.4820
  493.5000    98.7440   -71.7390    10.3130    10.1850    10.1460     7.8670     2.4940     0.2720     0.1120     0.0070    94.0820
  494.0000    99.8060   -71.9090    10.3850    10.1950    10.1650     7.8660     2.4980     0.2760     0.1080     0.0140    93.7320
  494.5000   100.4500   -72.0810    10.4570    10.2040    10.1830     7.8640     2.5020     0.2790     0.1040     0.0170    93.3820
  495.0000   100.5620   -72.2120    10.5290    10.2140    10.2020     7.8630     2.5050     0.2790     0.1000     0.0150    93.0880
  495.5000   100.6820   -72.1860    10.6010    10.2220    10.2310     7.8620     2.4890     0.2760     0.1070     0.0060    93.3250
  496.0000   100.7400   -71.4330    10.6730    10.2310    10.1540     7.8600     2.4790     0.2710     0.1150    -0.0020    93.9790
  496.5000    99.7340   -70.6890    10.7110    10.0880     9.9900     7.8590     2.4780     0.2650     0.1210    -0.0100    94.6320
  497.0000    98.2620   -70.0140    10.5690     9.9750     9.8250     7.8570     2.4860     0.2690     0.1170    -0.0030    95.2860
  497.5000    96.8110   -70.0350    10.4070     9.8630     9.6610     7.8560     2.4970     0.2840     0.1110     0.0250    95.9400
  498.0000    95.7740   -70.5760    10.2440     9.7500     9.4960     7.8540     2.5040     0.2950     0.1060     0.0320    96.4740
  498.5000    96.3360   -71.1420    10.0810     9.6370     9.3320     7.8530     2.5020     0.2870     0.1050     0.0210    96.4250
  499.0000    97.7180   -71.7060     9.9190     9.5250     9.1630     7.8520     2.5010     0.2840     0.1060     0.0100    96.3630
  499.5000    99.7790   -72.2660     9.7720     9.4120     9.3220     7.8500     2.5030     0.2880     0.1050     0.0110    96.3000
  500.0000   101.7570   -72.7090     9.7640     9.3330     9.4670     7.8490     2.5040     0.2910     0.1050     0.0240    96.3950
  500.5000   103.5320   -71.6950     9.7570     9.3410     9.6120     7.8480     2.5020     0.2830     0.1050     0.0300    96.5950
  501.0000   102.9820   -70.7010     9.7500     9.3470     9.7720     7.8500     2.5030     0.2730     0.1050     0.0210    96.6300
  501.5000   101.8520   -69.7320     9.7430     9.3530     9.7820     7.8510     2.5040     0.2720     0.1050     0.0120    96.5580
  502.0000   100.7940   -70.1760     9.7360     9.3590     9.8020     7.8530     2.5040     0.2730     0.1050     0.0110    96.4740
  502.5000   100.1930   -70.8060     9.7290     9.3650     9.8220     7.8540     2.5010     0.2760     0.1060     0.0260    96.5770
  503.0000   101.0960   -71.4430     9.7220     9.3710     9.8420     7.8560     2.4990     0.2800     0.1070     0.0270    96.7020
  503.5000   103.8780   -71.8190     9.7150     9.3770     9.8620     7.8570     2.4970     0.2820     0.1090     0.0290    96.8280
  504.0000   106.6670   -71.9000     9.7080     9.3830     9.8820     7.8590     2.4920     0.2710     0.1100     0.0100    96.3910
  504.5000   106.2800   -71.9820     9.7010     9.3890     9.9020     7.8610     2.4840     0.2650     0.1150    -0.0120    95.6400
  505.0000   104.6050   -72.0840     9.6950     9.3950     9.9220     7.8620     2.4810     0.2670     0.1180    -0.0270    95.0480
  505.5000   101.7730   -72.1830     9.6870     9.4020     9.9530     7.8640     2.4840     0.2730     0.1180    -0.0330    94.9230
  506.0000    99.7600   -72.2820     9.6820     9.4080     9.9010     7.8650     2.4870     0.2800     0.1160    -0.0230    94.8800
  506.5000    98.9830   -72.3760    10.0390     9.4140     9.7970     7.8670     2.4830     0.2900     0.1180    -0.0140    95.0920
  507.0000    97.5720   -72.3040    10.2310     9.4190     9.6930     7.8680     2.4770     0.2940     0.1200    -0.0040    95.5430
  507.5000    95.1460   -72.2210    10.1160     9.4190     9.5890     7.8680     2.4720     0.2920     0.1230     0.0050    95.9940
  508.0000    95.0020   -72.1370     9.9520     9.4190     9.4850     7.8680     2.4680     0.2940     0.1260     0.0090    96.4440
  508.5000    98.6740   -72.0540     9.7720     9.4190     9.3810     7.8680     2.4680     0.3020     0.1270    -0.0020    96.6320
  509.0000   101.9230   -71.9700     9.6820     9.4190     9.2770     7.8680     2.4700     0.3050     0.1260    -0.0120    96.5490
  509.5000   100.4600   -71.8860     9.7490     9.4190     9.1730     7.8680     2.4720     0.2960     0.1240    -0.0150    96.4740
  510.0000    98.6710   -71.8020     9.8100     9.4210     9.0790     7.8680     2.4740     0.2850     0.1220     0.0070    96.1970
  510.5000    97.1400   -71.7180     9.8710     9.4180     9.1440     7.8680     2.4760     0.2750     0.1220     0.0210    95.8180
  511.0000    96.9560   -71.6350     9.9320     9.5520     9.2720     7.8680     2.4770     0.2760     0.1220     0.0120    95.3180
  511.5000    96.5290   -71.5760     9.9930     9.6550     9.4000     7.8680     2.4800     0.2760     0.1200     0.0040    94.8170
  512.0000    95.7560   -71.5320    10.0540     9.7580     9.5280     7.8680     2.4870     0.2720     0.1150    -0.0020    94.5480
  512.5000    96.4540   -71.4880    10.1150     9.8600     9.6560     7.8680     2.4940     0.2660     0.1110    -0.0050    94.3660
  513.0000    96.2230   -71.4440    10.1760     9.9530     9.7720     7.8680     2.4990     0.2660     0.1090     0.0010    94.1840
  513.5000    95.2700   -71.4000    10.2310     9.8970     9.7230     7.8680     2.4980     0.2660     0.1090    -0.0070    94.0020
  514.0000    95.7230   -71.3560    10.2310     9.8360     9.6780     7.8700     2.4940     0.2690     0.1110    -0.0150    93.9860
  514.5000    98.4150   -71.3120    10.1520     9.7740     9.6340     7.8720     2.4900     0.2740     0.1130    -0.0230    94.2720
  515.0000    98.6790   -71.2680    10.0660     9.7130     9.5940     7.8730     2.4860     0.2800     0.1150    -0.0290    94.5580
  515.5000    98.4920   -71.2230     9.9790     9.5940     9.6740     7.8750     2.4860     0.2810     0.1150    -0.0130    94.6810
  516.0000    97.7770   -71.1350     9.9530     9.7480     9.7630     7.8770     2.4920     0.2780     0.1110     0.0030    94.2940
  516.5000    96.7490   -70.8270    10.1030     9.8670     9.8620     7.8790     2.4990     0.2750     0.1080     0.0120    93.7930
  517.0000    96.4820   -70.5160    10.2700     9.9850     9.8490     7.8810     2.5010     0.2720     0.1060     0.0090    93.4860
  517.5000    96.7040   -70.2060    10.4200    10.0440     9.8240     7.8820     2.5010     0.2730     0.1050     0.0080    93.4860
  518.0000    98.4670   -69.8970    10.4200    10.0200     9.7990     7.8840     2.5080     0.2800     0.1020     0.0240    93.9980
  518.5000   100.6120   -69.5900    10.3090     9.9840     9.7720     7.8860     2.5160     0.2890     0.0970     0.0410    94.4280
  519.0000   102.1680   -69.2880    10.2080     9.9530     9.7720     7.8860     2.5150     0.2860     0.0990     0.0390    94.6810
  519.5000   100.8780   -69.1710    10.1370     9.9850     9.8280     7.8750     2.5070     0.2820     0.1040     0.0330    94.5060
  520.0000    98.2160   -69.4180    10.1700    10.0310     9.8710     7.8640     2.4990     0.2750     0.1080     0.0250    94.2200
  520.5000    94.8770   -69.6410    10.2350    10.0760     9.9140     7.8520     2.4960     0.2700     0.1080     0.0180    93.8840
