~VERSION INFORMATION
 VERS.                2.0:   CWLS LOG ASCII STANDARD - VERSION 2.0
 WRAP.                 NO:   ONE LINE PER DEPTH STEP
~WELL INFORMATION
#MNEM.UNIT      DATA TYPE    INFORMATION
#----------   ------------   ------------------------------
 STRT.F            0.0000:   START DEPTH
 STOP.F          539.0000:   STOP DEPTH
 STEP.F            0.5000:   STEP LENGTH
 NULL.          -999.2500:   NO VALUE
 COMP. FENIX & SCISSON INC:   COMPANY
 WELL.     NPR 3 SX #23-3:   WELL
 FLD .             TEAPOT:   FIELD
 LOC .       S3 T38N R78W:   LOCATION
 CNTY.            NATRONA:   COUNTY
 STAT.            WYOMING:   STATE
 CTRY. UNITED STATES OF AMERICA:   COUNTRY
 SRVC.           BIRDWELL:   SERVICE COMPANY
 DATE.        27-JUL-1978:   LOGDATE
 API .       490251067500:   API NUMBER
~CURVE INFORMATION
#MNEM.UNIT       API CODE    CURVE DESCRIPTION
#----------   ------------   ------------------------------
 DEPT.F                  :   
 ILD .OHMM   05 120 40 00:   INDUCTION LOG DEEP
 SPR .MV     05 010 01 00:   SPONTANEOUS POTENTIAL
 SN  .OHMM   05 040 16 00:   SHORT NORMAL 16"
 CALD.IN     45 280 60 00:   CALIPER FROM DENSITY LOG
 CORR.G/C3   45 356 01 00:   DENSITY CORRECTION
 DPHI.DEC    45 890 12 00:   DENSITY POROSITY SANDSTONE
 GRD .GAPI   45 310 01 00:   GAMMA RAY FROM DENSITY LOG
 RHOB.G/C3   45 350 01 00:   BULK DENSITY
~PARAMETER INFORMATION
#MNEM.UNIT          VALUE    DESCRIPTION
#----------   ------------   ------------------------------
 PD  .                 GL:   PERMANENT DATUM
 EPD .F              5787:   ELEVATION PERMANENT DATUM
 LMF .                 KB:   LOG MEASURED FROM
 DAPD.F                 4:   FEET ABOVE PERMANENT DATUM
 DMF .                 KB:   DRILLING MEASURED FROM
 EKB .F              5191:   KELLING BUSHING
 EGL .F              5187:   GROUND LEVEL
 DATE.         7-JUL-1978:   RUN DATE
 RUN .                  1:   RUN NUMBER
 DD  .F               540:   DEPTH DRILLER
 DL  .F               540:   DEPTH LOGGER
 BLI .F               539:   BOTTOM LOG INTERVAL
 CS  .IN            8.625:   CASING SIZE
 CBD .F                40:   CASING BOTTOM DRILLER
 BS  .IN            7.875:   BIT SIZE
 BSD .F               540:   BIT SIZE AT DEPTH
 DFT .                KCL:   DRILLING FLUID TYPE
 DFD .                8.6:   DRILLING FLUID DENSITY
 DFV .                 30:   DRILLING FLUID VISCOSITY
 DFPH.                  9:   DRILLING FLUID PH
 MSS .           FLOWLINE:   MUD SAMPLE SOURCE
 MRT .F                74:   MAXIMUM RECORDED TEMPERATURE
 LUN .               2958:   LOGGING UNIT NUMBER
 LUL .               CASP:   LOGGING UNIT LOCATION
 ENGI.            POINTER:   RECORDING ENGINEER
 WITN.              AMEND:   WITNESSED BY
 CLNT.            A2DTECH:   CLIENT CODE
 ORIG.           5" PRINT:   ORIGIN OF DATA
 UWI .       490251067500:   UNIQUE WELL ID
 DICO. A2D Technologies, Inc.:   DIGITIZING COMPANY
~OTHER INFORMATION
~A    DEPT     ILD        SPR         SN         CALD     CORR       DPHI         GRD      RHOB   
# ...
  405.0000    14.2302   -25.9059    11.8556     8.7235     0.0720     0.2003    67.1515     2.3346
  405.5000    13.8485   -26.0420    11.7009     8.7228     0.0734     0.2072    67.7458     2.3263
  406.0000    13.5324   -26.1786    11.6261     8.7221     0.1286     0.1991    67.1254     2.3105
  406.5000    13.3577   -26.1652    11.6317     8.7213     0.1291     0.1527    67.5685     2.2953
  407.0000    13.0912   -26.0007    11.4679     8.7204     0.1044     0.1563    68.3146     2.3927
  407.5000    13.1910   -25.5415    11.3162     8.7197     0.0923     0.1605    68.3030     2.4003
  408.0000    13.2896   -25.5288    11.1676     8.7039     0.1026     0.1635    67.6827     2.3822
  408.5000    13.2976   -26.1116    11.0188     8.6881     0.1519     0.1458    67.5197     2.3762
  409.0000    13.1238   -27.1568    11.0242     8.6570     0.1458     0.1401    67.6597     2.4316
  409.5000    12.7759   -26.6779    11.1044     8.6562     0.1007     0.1324    67.6482     2.4540
  410.0000    12.4372   -26.0699    11.2630     8.6253     0.0856     0.1408    67.7980     2.4360
  410.5000    12.3611   -26.0572    11.3448     8.5944     0.0855     0.1456    68.1058     2.4238
  411.0000    12.4555   -26.3423    11.5059     8.5937     0.0914     0.1498    68.3685     2.4134
  411.5000    12.8096   -26.0286    11.6692     8.6079     0.1092     0.1540    68.9631     2.3991
  412.0000    13.1739   -25.8671    11.9993     8.7129     0.1180     0.1339    69.4061     2.3960
  412.5000    13.9256   -25.4079    12.1696     8.7426     0.0969     0.1361    69.3918     2.4267
  413.0000    14.4363   -24.7999    12.5127     8.7719     0.0908     0.1547    68.7742     2.4250
  413.5000    15.5623   -24.1920    13.0430     8.7711     0.0847     0.1781    68.1567     2.3876
  414.0000    17.3788   -24.0273    14.1678     8.7703     0.0845     0.1949    67.3876     2.3486
  414.5000    19.9474   -23.5681    15.3881     8.7544     0.0969     0.2279    65.6222     2.3186
  415.0000    22.8956   -23.4066    16.7135     8.7084     0.1382     0.2537    62.0588     2.2705
  415.5000    26.1280   -22.9474    18.0291     8.7077     0.1560     0.2579    55.9867     2.2285
  416.0000    26.2989   -22.9266    18.3020     8.7372     0.1589     0.2585    52.6419     2.1955
  416.5000    25.9555   -22.3235    18.6739     8.7667     0.1497     0.2525    52.3217     2.1924
  417.0000    25.6130   -22.3108    18.6812     8.7658     0.1376     0.2233    52.3130     2.1946
  417.5000    25.4450   -22.2981    18.8169     8.7198     0.0776     0.2130    54.7258     2.3003
  418.0000    24.9522   -22.2854    18.8244     8.7039     0.0595     0.2130    57.7446     2.2995
  418.5000    24.4616   -22.2723    18.8334     8.6728     0.0564     0.2121    59.2483     2.2707
  419.0000    24.3050   -22.5544    18.7102     8.6419     0.0593     0.2046    59.5398     2.2694
  419.5000    24.1564   -22.6936    18.7193     8.6412     0.0606     0.2034    57.7073     2.3000
  420.0000    23.9838   -22.3801    18.7266     8.6405     0.0650     0.2064    57.9989     2.3090
  420.5000    23.8550   -22.2186    18.7357     8.6397     0.0708     0.2074    58.8965     2.3029
  421.0000    23.7057   -21.7589    18.7430     8.6388     0.0707     0.2047    59.4910     2.2936
  421.5000    23.7224   -21.5947    18.7497     8.6381     0.0736     0.2023    59.7797     2.2908
  422.0000    23.7370   -21.7340    18.7575     8.6169     0.0734     0.1999    59.7682     2.2938
  422.5000    23.7544   -21.5693    18.7666     8.5763     0.0733     0.1963    60.0627     2.2997
  423.0000    23.7683   -21.5565    18.6457     8.5755     0.0806     0.1930    60.6544     2.3067
  423.5000    23.7822   -21.0942    18.6530     8.5444     0.0655     0.1898    61.8521     2.3116
  424.0000    23.7961   -20.9327    18.6602     8.5135     0.0504     0.1877    62.5982     2.3176
  424.5000    23.8105   -21.0687    18.5400     8.5128     0.0608     0.1868    63.0442     2.3220
  425.0000    23.8275   -21.3536    18.4205     8.5423     0.0636     0.1871    63.0298     2.3257
  425.5000    23.8414   -21.4897    18.4295     8.5718     0.0575     0.1904    62.6980     2.3294
  426.0000    23.8554   -21.4738    18.4366     8.5105     0.0514     0.1970    61.1858     2.3277
  426.5000    23.7061   -21.4611    18.3178     8.5098     0.0452     0.2015    60.1137     2.3113
  427.0000    23.2400   -21.0019    18.3267     8.4870     0.0421     0.2061    59.9507     2.2963
  427.5000    23.2536   -20.8404    18.4590     8.4620     0.0390     0.2094    59.4847     2.2895
  428.0000    23.2672   -20.8274    18.4666     8.4470     0.0327     0.1965    58.7128     2.2864
  428.5000    23.2809   -21.1094    18.4743     8.4161     0.0267     0.1929    58.0952     2.2879
  429.0000    23.2948   -21.3975    18.6217     8.3851     0.0221     0.1905    57.4777     2.3253
  429.5000    23.3116   -21.9768    18.7456     8.3542     0.0325     0.1857    57.4662     2.3350
  430.0000    23.6476   -21.9641    18.7523     8.3233     0.0443     0.1731    59.1615     2.3349
  430.5000    23.8244   -22.5466    18.8892     8.2620     0.0487     0.1678    60.1705     2.3341
  431.0000    24.0025   -22.6795    18.8967     8.2613     0.0440     0.1642    59.2471     2.3348
  431.5000    23.8558   -22.5180    18.9057     8.2303     0.0415     0.1546    58.7811     2.3633
  432.0000    23.0646   -22.5052    18.4016     8.1994     0.0375     0.1375    58.3150     2.4217
  432.5000    22.4531   -22.3437    17.9110     8.1985     0.0317     0.1361    56.9370     2.4321
  433.0000    22.0084   -22.0302    17.4335     8.1827     0.0315     0.1367    56.6225     2.4321
  433.5000    21.5512   -21.8686    16.9687     8.3179     0.0269     0.1535    56.4595     2.4245
  434.0000    20.8601   -21.8559    16.6315     8.5589     0.0252     0.1655    56.6000     2.3841
  434.5000    20.3739   -21.8438    16.5227     8.3529     0.0221     0.1691    57.4267     2.3682
  435.0000    19.9020   -21.8304    16.3057     7.8926     0.0220     0.1721    63.9980     2.3644
  435.5000    19.3771   -21.8146    16.2006     7.8315     0.0234     0.1749    65.2015     2.3606
  436.0000    19.1243   -21.5042    16.0962     7.7703     0.0264     0.1775    65.7961     2.3523
  436.5000    18.8746   -21.3427    16.1041     7.7545     0.0306     0.1788    65.7817     2.3369
  437.0000    18.8884   -21.1811    16.2211     7.7085     0.0319     0.1806    64.7068     2.3312
  437.5000    18.8995   -21.3170    16.3406     7.7076     0.0303     0.1827    63.3317     2.3342
  438.0000    18.9107   -21.3013    16.3460     7.6464     0.0302     0.1852    62.7141     2.3364
  438.5000    18.9244   -21.2886    16.1307     7.6155     0.0285     0.1911    62.0966     2.3220
  439.0000    18.9355   -21.2759    16.1369     7.5846     0.0254     0.1965    61.2879     2.3205
  439.5000    19.3407   -21.2631    16.1434     7.5686     0.0357     0.2076    60.8586     2.3159
  440.0000    19.4853   -21.2500    16.1511     7.5679     0.0760     0.2160    61.9078     2.2949
  440.5000    19.9028   -21.2345    16.1573     7.5824     0.0654     0.2109    62.6567     2.2709
  441.0000    19.9169   -21.3738    16.0517     7.5815     0.0593     0.1813    63.2484     2.2768
  441.5000    19.9286   -21.3579    15.7327     7.6412     0.0577     0.1789    65.0551     2.3270
  442.0000    19.9397   -21.6429    15.5260     7.7010     0.0591     0.1783    65.1952     2.3494
  442.5000    19.8155   -21.6269    15.1121     7.5490     0.0649     0.1789    64.5748     2.3411
  443.0000    19.5596   -22.0638    14.9107     7.5181     0.0707     0.1814    64.8663     2.3373
  443.5000    19.5711   -21.8990    15.2278     7.5476     0.0871     0.1838    66.2475     2.3335
  444.0000    19.3156   -21.5887    15.3400     7.5771     0.1195     0.1862    66.2041     2.3305
  444.5000    19.0632   -21.2783    15.2397     7.5762     0.1557     0.1778    65.5866     2.3289
  445.0000    18.5581   -21.7089    14.9354     7.5603     0.1571     0.1748    65.1205     2.3296
