~VERSION INFORMATION
 VERS.                2.0:   CWLS LOG ASCII STANDARD - VERSION 2.0
 WRAP.                 NO:   ONE LINE PER DEPTH STEP
~WELL INFORMATION
#MNEM.UNIT      DATA TYPE    INFORMATION
#----------   ------------   ------------------------------
 STRT.F           36.0000:   START DEPTH
 STOP.F          518.0000:   STOP DEPTH
 STEP.F            0.5000:   STEP LENGTH
 NULL.          -999.2500:   NO VALUE
 COMP.    FENIX & SCISSON:   COMPANY
 WELL.        NPR #57S-10:   WELL
 FLD .             TEAPOT:   FIELD
 LOC .      S10 T38N R78W:   LOCATION
 CNTY.            NATRONA:   COUNTY
 STAT.            WYOMING:   STATE
 CTRY. UNITED STATES OF AMERICA:   COUNTRY
 SRVC.              Welex:   SERVICE COMPANY
 DATE.        11-MAR-1977:   LOGDATE
 API .       490251029100:   API NUMBER
~CURVE INFORMATION
#MNEM.UNIT       API CODE    CURVE DESCRIPTION
#----------   ------------   ------------------------------
 DEPT.F                  :   
 SPR .MV     07 010 01 00:   SPONTANEOUS POTENTIAL
 ILD .OHMM   07 120 46 00:   INDUCTION LOG DEEP
 ILM .OHMM   07 120 44 00:   INDUCTION LOG MEDIUM
 SGUR.OHMM   07 220 01 00:   SHORT GUARD RESISITIVITY
 CORR.G/C3   45 356 01 00:   DENSITY CORRECTION
 CALD.IN     45 280 60 00:   CALIPER
 GRD .GAPI   45 310 01 00:   GAMMA RAY FROM DENSITY LOG
 RHOB.G/C3   45 350 01 00:   BULK DENSITY
 DPOR.DEC    45 890 12 00:   DENSITY POROSITY SANDSTONE
~PARAMETER INFORMATION
#MNEM.UNIT          VALUE    DESCRIPTION
#----------   ------------   ------------------------------
 PD  .                 GL:   PERMANENT DATUM
 EPD .F              5244:   ELEVATION PERMANENT DATUM
 LMF .                 GL:   LOG MEASURED FROM
 DMF .                 GL:   DRILLING MEASURED FROM
 EGL .F              5244:   GROUND LEVEL
 DATE.          3-11-1977:   RUN DATE
 RUN .                  1:   RUN NUMBER
 DD  .F               530:   DEPTH DRILLER
 DL  .F               522:   DEPTH LOGGER
 BLI .F               520:   BOTTOM LOG INTERVAL
 TLI .F                35:   TOP LOG INTERVAL
 CS  .IN            8.625:   CASING SIZE
 CBD .F                40:   CASING BOTTOM DRILLER
 CBL .F                44:   CASING BOTTOM LOGGER
 BS  .IN            7.875:   BIT SIZE
 BSD .F               530:   BIT SIZE AT DEPTH
 DFT .            KCL MUD:   DRILLING FLUID TYPE
 DFD .                8.8:   DRILLING FLUID DENSITY
 DFV .                  8:   DRILLING FLUID VISCOSITY
 DFPH.                 10:   DRILLING FLUID PH
 DFL .               12.4:   DRILLING FLUID LOSS
 MSS .           FLOWLINE:   MUD SAMPLE SOURCE
 RMS .OHMM           .398:   RESISTIVITY MUD SAMPLE
 MST .F                50:   MUD SAMPLE TEMPERATURE
 RMF .OHMM           .276:   RESISTIVITY MUD FILTRATE SAMPLE
 MFST.F                60:   MUD FILTRATE SAMPLE TEMPERATURE
 RMC .OHMM            .42:   RESISTIVITY MUD CAKE
 MCST.F                60:   MUD CAKE SAMPLE TEMPERATURE
 MFSS.           MEASURED:   MUD FILTRATE SAMPLE SOURCE
 RMB .OHMM            .31:   RESISTIVITY MUD AT BHT
 BHT .F                64:   BOTTOM HOLE TEMPERATURE
 TCS .HRS             2.5:   TIME CURCULATED STOPPED
 MRT .F                64:   MAXIMUM RECORDED TEMPERATURE
 LUN .               8611:   LOGGING UNIT NUMBER
 LUL .           GILLETTE:   LOGGING UNIT LOCATION
 ENGI.               DOAK:   RECORDING ENGINEER
 WITN.         STUEBINGER:   WITNESSED BY
 CLNT.            A2DTECH:   CLIENT CODE
 ORIG.      2" & 5" PRINT:   ORIGIN OF DATA
 UWI .       490251029100:   UNIQUE WELL ID
 DICO. A2D Technologies, Inc.:   DIGITIZING COMPANY
~OTHER INFORMATION
~A   DEPT      SPR        ILD        ILM       SGUR        CORR        CALD      GRD       RHOB       DPOR   
# ...
  328.0000   -34.6053    23.0090    20.7544    30.9984     0.0606     7.8019    80.1389     2.3923     0.1513
  328.5000   -34.6730    24.5317    21.3539    33.4156     0.0578     7.7265    81.2358     2.3966     0.1490
  329.0000   -34.7453    26.1551    21.9730    28.8982     0.0549     7.6501    83.1487     2.4009     0.1463
  329.5000   -34.8126    27.8860    22.4799    27.9823     0.0521     7.6433    85.0783     2.4050     0.1449
  330.0000   -34.5252    29.6020    21.3214    25.1341     0.0493     7.6735    87.0196     2.4063     0.1472
  330.5000   -34.1937    31.1095    20.4476    22.5758     0.0465     7.7042    87.3840     2.3993     0.1510
  331.0000   -33.8621    33.0304    21.2470    21.1074     0.0448     7.7349    86.3331     2.3925     0.1521
  331.5000   -33.5243    32.1308    22.2557    23.2026     0.0433     7.7656    85.0761     2.3860     0.1535
  332.0000   -33.5829    30.6792    21.7701    25.1066     0.0419     7.7970    84.8521     2.3902     0.1553
  332.5000   -33.7930    29.2998    20.9809    26.4566     0.0405     7.7923    85.5911     2.3948     0.1547
  333.0000   -34.0063    27.9823    20.2213    27.1502     0.0391     7.7794    86.3245     2.3965     0.1493
  333.5000   -34.2198    26.7857    19.9348    27.8657     0.0380     7.7661    87.0723     2.3927     0.1487
  334.0000   -34.4329    26.1766    19.8442    28.3143     0.0387     7.7529    88.0806     2.3891     0.1491
  334.5000   -34.6057    25.5813    19.3903    27.6001     0.0395     7.7398    91.4270     2.3893     0.1493
  335.0000   -34.4522    25.2017    18.7968    27.0183     0.0415     7.7264    93.8553     2.3973     0.1485
  335.5000   -34.2938    24.9135    18.2215    26.4186     0.0467     7.7447    92.7004     2.4051     0.1438
  336.0000   -34.1384    24.6286    17.6638    25.9368     0.0517     7.7839    92.0238     2.4179     0.1388
  336.5000   -34.0824    24.4874    17.1232    27.0383     0.0567     7.8233    95.4251     2.4350     0.1333
  337.0000   -34.2856    24.6343    16.5991    26.6926     0.0618     7.8629    96.5951     2.4522     0.1254
  337.5000   -34.4845    24.7024    16.0910    26.1249     0.0668     7.9024    94.3919     2.4679     0.1164
  338.0000   -34.6818    23.3787    15.6724    25.4582     0.0718     7.9417    95.4947     2.4665     0.1196
  338.5000   -34.7994    22.3989    15.4813    26.1164     0.0769     7.9590    96.9404     2.4549     0.1238
  339.0000   -34.7062    21.9236    15.8773    26.0604     0.0819     7.9455    98.3879     2.4457     0.1280
  339.5000   -34.5572    22.2103    16.2688    25.9806     0.0869     7.9260    99.9085     2.4365     0.1322
  340.0000   -33.9270    23.1972    16.6699    25.8852     0.0920     7.8573   100.0560     2.4273     0.1365
  340.5000   -33.2899    24.2237    17.1014    26.5526     0.0970     7.7905    97.4068     2.4188     0.1407
  341.0000   -32.6526    25.2956    17.5531    27.8135     0.1017     7.7237    94.9799     2.4189     0.1403
  341.5000   -32.0160    25.4054    18.0167    27.5721     0.1018     7.6567    92.7354     2.4178     0.1390
  342.0000   -31.5031    24.5109    18.4928    27.1744     0.1019     7.5900    92.6056     2.4084     0.1442
  342.5000   -31.9892    23.7250    18.9815    26.7825     0.1015     7.5241    94.0522     2.3985     0.1505
  343.0000   -32.4921    22.9643    19.4823    26.3962     0.0914     7.4929    95.4594     2.3886     0.1568
  343.5000   -32.8409    22.2279    19.6840    26.1072     0.0811     7.5363    96.1190     2.3789     0.1597
  344.0000   -33.1311    21.5237    19.7538    25.8315     0.0708     7.5791    94.9940     2.3846     0.1569
  344.5000   -33.4207    20.8608    19.8098    25.6675     0.0605     7.6221    93.4904     2.3960     0.1520
  345.0000   -33.7121    20.2183    19.1271    26.7789     0.0502     7.6651    91.9928     2.3993     0.1494
  345.5000   -33.9957    19.5956    17.9919    26.1699     0.0459     7.7080    91.1624     2.3955     0.1521
  346.0000   -33.7588    18.9921    15.3409    24.8662     0.0471     7.7510    94.0684     2.4023     0.1549
  346.5000   -33.4665    18.4379    15.6885    24.4861     0.0486     7.7940    96.9506     2.4136     0.1465
  347.0000   -33.7874    17.9700    15.9474    24.4305     0.0499     7.8374    99.7762     2.4195     0.1398
  347.5000   -34.1852    17.5139    16.2422    23.8755     0.0482     7.8807    99.7388     2.4152     0.1426
  348.0000   -34.5836    17.0694    16.8308    23.3923     0.0459     7.8709    95.2906     2.4210     0.1435
  348.5000   -34.9821    16.6361    17.4399    23.4522     0.0446     7.8578    91.8275     2.4264     0.1355
  349.0000   -35.3787    16.2139    18.0710    23.5126     0.0502     7.8449    88.2656     2.4319     0.1303
  349.5000   -35.2433    15.8024    18.8834    23.5979     0.0558     7.8321    88.0614     2.4355     0.1320
  350.0000   -34.9960    15.4013    18.6247    23.3493     0.0614     7.8194    91.0338     2.4390     0.1318
  350.5000   -34.6807    14.8990    18.0785    22.8481     0.0670     7.8071    94.1234     2.4423     0.1287
  351.0000   -34.2141    15.2466    18.5283    22.1302     0.0687     7.7654    94.9042     2.4425     0.1270
  351.5000   -33.7491    15.7496    19.1899    22.3178     0.0666     7.7126    94.9085     2.4381     0.1285
  352.0000   -33.2840    15.8931    19.6301    22.6829     0.0644     7.6595    95.8877     2.4337     0.1317
  352.5000   -32.8202    15.8897    18.6521    23.0541     0.0622     7.6063    97.2291     2.4354     0.1311
  353.0000   -32.4010    15.8905    17.9093    23.6025     0.0600     7.5529    97.9353     2.4392     0.1291
  353.5000   -32.2298    15.8905    18.6179    23.2529     0.0578     7.5015    97.6160     2.4430     0.1276
  354.0000   -32.0522    15.8909    19.3955    22.6324     0.0556     7.5029    96.7032     2.4446     0.1296
  354.5000   -31.8705    15.8081    20.2056    22.1302     0.0534     7.6498    95.7741     2.4359     0.1301
  355.0000   -31.9490    15.7240    20.5598    22.5076     0.0513     7.7922    94.8445     2.4397     0.1282
  355.5000   -32.0744    15.6402    19.9734    22.7496     0.0491     7.9360    93.9138     2.4431     0.1261
  356.0000   -32.2005    15.5567    19.6328    21.3305     0.0469     7.8977    92.9387     2.4317     0.1306
  356.5000   -32.3235    15.4737    19.6831    21.4048     0.0447     7.8469    93.5358     2.4200     0.1376
  357.0000   -32.4597    15.4579    19.7312    21.5291     0.0424     7.8285    94.6260     2.4082     0.1441
  357.5000   -32.8592    15.4590    19.7794    21.6583     0.0439     7.8480    95.7452     2.4074     0.1408
  358.0000   -33.0293    15.4603    19.8168    21.7233     0.0466     7.8668    96.8708     2.4140     0.1345
  358.5000   -33.2065    15.1997    19.4731    20.7539     0.0493     7.8861    96.2653     2.4206     0.1282
  359.0000   -33.3807    14.8944    19.1972    21.1615     0.0520     7.9219    97.1089     2.4214     0.1263
  359.5000   -33.5581    14.4934    18.7038    21.5319     0.0547     7.9041    97.4942     2.4201     0.1274
  360.0000   -33.5137    14.5693    17.9093    21.0116     0.0556     7.8352    96.3842     2.4313     0.1223
  360.5000   -33.3158    14.6914    17.9705    20.5271     0.0552     7.8285    95.2801     2.4424     0.1169
  361.0000   -33.0325    14.8099    18.0748    20.0573     0.0547     7.8738    94.2580     2.4535     0.1134
  361.5000   -32.6969    14.8990    17.6425    19.7977     0.0542     7.9241    96.8463     2.4578     0.1132
  362.0000   -32.3587    14.3557    17.0243    19.6353     0.0538     7.9204    99.5101     2.4528     0.1137
  362.5000   -32.0597    14.2291    16.4860    20.0922     0.0533     7.8826    98.2377     2.4477     0.1142
  363.0000   -32.3086    14.4934    16.7400    20.5579     0.0529     7.8434    96.5220     2.4502     0.1138
  363.5000   -32.7334    14.1988    16.9473    20.5187     0.0524     7.8659    96.0926     2.4536     0.1128
  364.0000   -33.3605    13.9378    16.4559    20.4652     0.0519     7.8971   101.1262     2.4553     0.1130
