~VERSION INFORMATION
 VERS.                2.0:   CWLS LOG ASCII STANDARD - VERSION 2.0
 WRAP.                 NO:   ONE LINE PER DEPTH STEP
~WELL INFORMATION
#MNEM.UNIT      DATA TYPE    INFORMATION
#----------   ------------   ------------------------------
 STRT.F           15.0000:   START DEPTH
 STOP.F          620.0000:   STOP DEPTH
 STEP.F            0.5000:   STEP LENGTH
 NULL.          -999.2500:   NO VALUE
 COMP.       F D SERV INC:   COMPANY
 WELL. NAVAL PETROLEUM RESERVE 3 SX-1 #87-1-10:   WELL
 FLD .             TEAPOT:   FIELD
 LOC .      S10 T38N R78W:   LOCATION
 CNTY.            NATRONA:   COUNTY
 STAT.            WYOMING:   STATE
 CTRY. UNITED STATES OF AMERICA:   COUNTRY
 SRVC.     Atlas Wireline:   SERVICE COMPANY
 DATE.        02-JAN-1991:   LOGDATE
 API .       490252247100:   API NUMBER
~CURVE INFORMATION
#MNEM.UNIT       API CODE    CURVE DESCRIPTION
#----------   ------------   ------------------------------
 DEPT.F                  :   
 GRR .GAPI   07 310 01 00:   GAMMA RAY
 RILD.OHMM   07 120 46 00:   INDUCTION LOG DEEP RESISTIVITY
 RILM.OHMM   07 120 44 00:   INDUCTION LOG MEDIUM RESISTIVITY
~PARAMETER INFORMATION
#MNEM.UNIT          VALUE    DESCRIPTION
#----------   ------------   ------------------------------
 PD  .                 GL:   PERMANENT DATUM
 EPD .F              5239:   ELEVATION PERMANENT DATUM
 LMF .                 KB:   LOG MEASURED FROM
 DAPD.F                10:   FEET ABOVE PERMANENT DATUM
 DMF .                 KB:   DRILLING MEASURED FROM
 EKB .F              5249:   KELLING BUSHING
 EDF .F              5248:   DRILLING FLOOR
 EGL .F              5239:   GROUND LEVEL
 DATE.        02-JAN-1991:   RUN DATE
 RUN .                  1:   RUN NUMBER
 DD  .F               630:   DEPTH DRILLER
 DL  .F               630:   DEPTH LOGGER
 BLI .F               628:   BOTTOM LOG INTERVAL
 CS  .IN            9.625:   CASING SIZE
 CBD .F                40:   CASING BOTTOM DRILLER
 CBL .F                50:   CASING BOTTOM LOGGER
 BS  .IN            8.625:   BIT SIZE
 BSD .F               630:   BIT SIZE AT DEPTH
 DFT .                AIR:   DRILLING FLUID TYPE
 LUN .            HL 6274:   LOGGING UNIT NUMBER
 LUL .             CASPER:   LOGGING UNIT LOCATION
 ENGI.       P. RASMUSSEN:   RECORDING ENGINEER
 WITN.          G. STRONG:   WITNESSED BY
 CLNT.            A2DTECH:   CLIENT CODE
 ORIG.           5" PRINT:   ORIGIN OF DATA
 UWI .       490252247100:   UNIQUE WELL ID
 DICO. A2D Technologies, Inc.:   DIGITIZING COMPANY
~OTHER INFORMATION
~A   DEPT       GRR      RILD       RILM   
# ...
  288.0000   128.5149     6.3276     6.3946
  288.5000   130.1128     6.0682     6.2619
  289.0000   132.4014     5.8195     6.0061
  289.5000   131.2001     5.5809     5.7209
  290.0000   129.4008     5.3521     5.4493
  290.5000   129.6973     5.0540     5.1155
  291.0000   130.8920     4.7876     4.8253
  291.5000   129.9909     4.4660     4.6124
  292.0000   126.6946     4.4341     4.5483
  292.5000   123.3383     4.5566     4.8394
  293.0000   122.1978     4.7154     5.0786
  293.5000   123.3917     4.8461     5.2928
  294.0000   123.6890     5.1203     5.5161
  294.5000   123.9855     5.3024     5.6703
  295.0000   126.6765     5.5727     5.8735
  295.5000   130.5658     5.9557     6.2437
  296.0000   134.4551     6.3803     6.5070
  296.5000   130.1926     6.6485     6.6883
  297.0000   127.8617     6.7395     6.7805
  297.5000   129.3558     6.8780     6.9690
  298.0000   132.3469     7.0199     7.0648
  298.5000   131.7452     7.1153     7.2115
  299.0000   131.1435     7.2120     7.3152
  299.5000   130.5418     7.3101     7.4620
  300.0000   130.2395     7.4095     7.5126
  300.5000   128.0629     7.5174     7.5704
  301.0000   124.9441     7.5827     7.6349
  301.5000   123.9080     7.6480     7.6995
  302.0000   129.2825     7.7234     7.7641
  302.5000   129.2641     7.7234     7.8286
  303.0000   129.5488     7.7234     7.8788
  303.5000   130.7317     7.7234     7.8777
  304.0000   131.3158     7.7770     7.8723
  304.5000   128.6065     7.8310     7.8662
  305.0000   125.5978     7.8310     7.8202
  305.5000   127.9783     7.8310     7.8735
  306.0000   130.9576     7.7770     7.8721
  306.5000   130.9429     7.8310     7.8711
  307.0000   130.9281     7.7770     7.8700
  307.5000   130.9132     7.8310     7.8690
  308.0000   131.4977     7.7770     7.8679
  308.5000   131.4793     7.7770     7.8126
  309.0000   132.0670     7.7234     7.7577
  309.5000   129.0547     7.7234     7.7566
  310.0000   126.9441     7.7234     7.7553
  310.5000   126.3306     7.7234     7.7542
  311.0000   127.2141     7.7234     7.6466
  311.5000   130.4929     7.6624     7.5929
  312.0000   131.9788     7.5125     7.4875
  312.5000   131.6611     7.3582     7.3836
  313.0000   130.7482     7.2070     7.2309
  313.5000   129.5359     6.9619     6.9841
  314.0000   129.8522     6.6327     6.6529
  314.5000   131.9017     6.1466     6.2039
  315.0000   133.6797     5.5790     5.6911
  315.5000   134.2675     4.8245     4.8370
  316.0000   133.6503     4.2009     4.3596
  316.5000   133.6356     3.7265     3.8752
  317.0000   132.4233     3.3545     3.5169
  317.5000   130.3128     3.0136     3.2813
  318.0000   127.6035     2.7544     3.0615
  318.5000   125.7924     2.6241     2.8172
  319.0000   125.1789     2.5525     2.6285
  319.5000   121.2719     2.5174     2.5039
  320.0000   117.3650     2.5881     2.4691
  320.5000   114.9551     2.6607     2.5585
  321.0000   118.0779     2.7354     2.7007
  321.5000   124.7815     2.8524     2.9341
  322.0000   132.2726     3.1508     3.3229
  322.5000   134.9525     3.5828     3.8688
  323.0000   136.1354     3.8662     4.1742
  323.5000   137.6177     4.2595     4.5665
  324.0000   139.6988     4.6283     4.8930
  324.5000   141.1811     5.0290     5.2429
  325.0000   142.0647     5.3152     5.5406
  325.5000   142.6487     5.6178     5.7386
  326.0000   143.5359     5.4644     5.4251
  326.5000   144.1168     4.9943     5.1679
  327.0000   144.4012     4.7899     4.9570
  327.5000   144.6956     4.6240     4.6894
  328.0000   143.6767     4.5019     4.5608
  328.5000   141.0090     4.3790     4.4357
  329.0000   139.8512     4.3188     4.3741
  329.5000   143.4257     4.2595     4.3434
  330.0000   146.4050     4.2301     4.3128
  330.5000   147.5916     4.3188     4.3723
  331.0000   143.3816     4.4709     4.4327
  331.5000   137.3788     4.6082     4.5563
  332.0000   132.5737     4.7582     4.7161
  332.5000   132.2633     4.9464     4.9495
  333.0000   134.9395     5.1821     5.2305
  333.5000   137.3200     5.5406     5.5275
  334.0000   140.8982     5.9375     5.8010
  334.5000   140.2484     6.3191     6.0881
  335.0000   138.4731     6.6327     6.3894
  335.5000   138.4552     6.8662     6.7991
  336.0000   138.4405     7.0102     7.0916
  336.5000   136.6294     7.2070     7.2340
  337.0000   134.8183     7.2570     7.1829
  337.5000   134.2084     7.1573     7.1324
  338.0000   137.7829     7.0544     7.0823
  338.5000   140.7659     6.9139     6.9840
  339.0000   140.1487     6.7718     6.8871
  339.5000   138.9364     6.6327     6.6981
  340.0000   139.5205     6.5415     6.6052
  340.5000   140.7034     6.3630     6.4240
  341.0000   141.8943     6.1893     6.2478
  341.5000   143.0692     6.0621     6.0697
  342.0000   141.7605     5.8559     5.8284
  342.5000   141.8422     5.6178     5.5519
  343.0000   143.0251     5.2767     5.3624
  343.5000   143.3098     5.0207     5.1436
  344.0000   143.5908     4.8917     4.9338
  344.5000   144.1786     4.9599     4.9331
  345.0000   145.9566     5.0290     5.0012
  345.5000   148.0377     5.0991     5.1054
  346.0000   150.1188     5.2422     5.2844
  346.5000   145.0143     5.4267     5.4330
  347.0000   142.3050     5.6961     5.7093
  347.5000   140.4939     5.9788     5.9828
  348.0000   140.7904     6.2322     6.2355
  348.5000   140.4641     6.4564     6.4542
  349.0000   139.8473     6.6856     6.6805
  349.5000   140.1357     6.8189     6.8671
  350.0000   145.2071     6.8662     6.9140
  350.5000   152.3817     6.8845     6.9714
  351.0000   143.3943     6.9155     6.9949
  351.5000   138.5952     6.9464     7.0183
  352.0000   142.1793     6.9773     7.0417
  352.5000   145.7634     7.0006     7.0467
  353.0000   147.5511     7.0518     7.0443
  353.5000   139.7558     7.0943     7.0418
  354.0000   137.3519     7.0919     7.0323
  354.5000   139.1396     7.0900     6.9881
  355.0000   140.9273     7.0881     7.0349
  355.5000   142.7151     7.0862     7.0319
  356.0000   144.5030     7.0844     7.0295
  356.5000   146.0119     7.0824     7.0272
  357.0000   149.1137     7.0804     7.0248
  357.5000   149.8659     7.0781     7.0224
  358.0000   148.6574     7.0762     7.0195
  358.5000   147.7505     7.0743     7.0172
  359.0000   147.4424     7.1220     6.9664
  359.5000   148.0325     7.0705     6.9641
  360.0000   149.2214     7.0686     6.9137
  360.5000   149.8115     6.9696     6.8164
  361.0000   149.2018     6.8189     6.7671
  361.5000   148.5943     6.6821     6.6258
  362.0000   151.5797     6.4980     6.5321
  362.5000   155.1638     6.3189     6.4401
  363.0000   159.6461     6.2304     6.3495
  363.5000   164.1284     6.1857     6.2601
  364.0000   162.9221     6.1414     6.1720
  364.5000   157.4311     6.0133     6.0015
  365.0000   154.5193     5.8425     5.8357
  365.5000   155.1094     5.6082     5.5518
  366.0000   156.3005     5.1957     5.2080
  366.5000   157.4894     4.9146     4.8695
  367.0000   155.0833     4.8458     4.6057
  367.5000   151.1824     4.7779     4.3562
  368.0000   149.0699     4.7766     4.6026
  368.5000   147.5290     4.7753     4.7630
  369.0000   145.4655     4.8791     4.9633
  369.5000   144.2592     5.0441     5.2083
  370.0000   143.9532     5.1846     5.3993
  370.5000   144.8406     5.4779     5.6545
  371.0000   145.7301     5.8688     5.8922
  371.5000   147.2184     6.2876     6.1399
  372.0000   148.1079     6.4623     6.3101
  372.5000   147.1988     6.4591     6.1784
  373.0000   145.9925     6.2755     5.9252
  373.5000   144.7862     5.9422     5.6042
  374.0000   143.8793     5.6597     5.1850
  374.5000   142.9724     5.3535     4.8762
  375.0000   145.9577     5.1700     4.7415
  375.5000   152.2365     4.9929     4.7072
  376.0000   157.3453     4.8890     4.7056
  376.5000   154.3127     4.8876     4.7040
  377.0000   148.3160     4.9261     4.8011
  377.5000   143.2174     5.1271     4.9001
  378.0000   141.7117     5.4175     5.1080
  378.5000   143.2000     5.7641     5.3336
