~VERSION INFORMATION
 VERS.                2.0:   CWLS LOG ASCII STANDARD - VERSION 2.0
 WRAP.                 NO:   ONE LINE PER DEPTH STEP
~WELL INFORMATION
#MNEM.UNIT      DATA TYPE    INFORMATION
#----------   ------------   ------------------------------
 STRT.F           86.0000:   START DEPTH
 STOP.F          770.0000:   STOP DEPTH
 STEP.F            0.5000:   STEP LENGTH
 NULL.          -999.2500:   NO VALUE
 COMP.           U S NAVY:   COMPANY
 WELL. NPR 3 TEAPOT DOM #85-S-34:   WELL
 FLD .        TEAPOT DOME:   FIELD
 LOC .      S34 T39N R78W:   LOCATION
 CNTY.            NATRONA:   COUNTY
 STAT.            WYOMING:   STATE
 CTRY. UNITED STATES OF AMERICA:   COUNTRY
 SRVC. Schlumberger Well Surveying Corp:   SERVICE COMPANY
 DATE.        31-JUL-1963:   LOGDATE
 API .       490250652800:   API NUMBER
~CURVE INFORMATION
#MNEM.UNIT       API CODE    CURVE DESCRIPTION
#----------   ------------   ------------------------------
 DEPT.F                  :   
 ASN .OHMM   05 041 16 00:   AMPLIFIED SHORT NORMAL 16"
 CILD.MMHO   05 110 46 00:   CONDUCTIVITY INDUCTION LOG DEEP
 ILD .OHMM   05 120 46 00:   INDUCTION LOG DEEP
 SPR .MV     05 010 01 00:   SPONTANEOUS POTENTIAL FROM RES.
 GR  .GAPI   30 310 01 00:   GAMMA RAY
~PARAMETER INFORMATION
#MNEM.UNIT          VALUE    DESCRIPTION
#----------   ------------   ------------------------------
 PD  .                 GL:   PERMANENT DATUM
 EPD .F              5071:   ELEVATION PERMANENT DATUM
 LMF .                 KB:   LOG MEASURED FROM
 DAPD.F                 5:   FEET ABOVE PERMANENT DATUM
 DMF .                 KB:   DRILLING MEASURED FROM
 EKB .F              5076:   KELLING BUSHING
 EGL .F              5071:   GROUND LEVEL
 DATE.        31-JUL-1963:   RUN DATE
 RUN .                  1:   RUN NUMBER
 DD  .F               770:   DEPTH DRILLER
 DL  .F               771:   DEPTH LOGGER
 BLI .F               770:   BOTTOM LOG INTERVAL
 TLI .F                86:   TOP LOG INTERVAL
 CS  .IN            8.625:   CASING SIZE
 CBD .F                10:   CASING BOTTOM DRILLER
 BS  .IN             6.75:   BIT SIZE
 BSD .F               770:   BIT SIZE AT DEPTH
 DFT .          GEL & OIL:   DRILLING FLUID TYPE
 DFD .                9.6:   DRILLING FLUID DENSITY
 DFV .                 39:   DRILLING FLUID VISCOSITY
 DFPH.                9.0:   DRILLING FLUID PH
 DFL .                8.8:   DRILLING FLUID LOSS
 MSS .           FLOWLINE:   MUD SAMPLE SOURCE
 RMS .OHMM           3.06:   RESISTIVITY MUD SAMPLE
 MST .F                94:   MUD SAMPLE TEMPERATURE
 RMF .OHMM           2.64:   RESISTIVITY MUD FILTRATE SAMPLE
 MFST.F                94:   MUD FILTRATE SAMPLE TEMPERATURE
 MFSS.               MEAS:   MUD FILTRATE SAMPLE SOURCE
 TCS .HRS               1:   TIME CURCULATED STOPPED
 MRT .F           LESS 80:   MAXIMUM RECORDED TEMPERATURE
 LUN .               4507:   LOGGING UNIT NUMBER
 LUL .               CSPR:   LOGGING UNIT LOCATION
 ENGI.            WINKLER:   RECORDING ENGINEER
 WITN.          JORGENSON:   WITNESSED BY
 CLNT.            A2DTECH:   CLIENT CODE
 ORIG.           5" PRINT:   ORIGIN OF DATA
 UWI .       490250652800:   UNIQUE WELL ID
 DICO. A2D Technologies, Inc.:   DIGITIZING COMPANY
~OTHER INFORMATION
~A   DEPT        ASN      CILD         ILD      SPR         GR   
# ...
  391.0000    10.5977   109.0578     9.1608   -30.7133  -999.2500
  391.5000    10.5967   109.8774     9.0785   -32.6002  -999.2500
  392.0000    10.3603   109.9085     8.9963   -33.8592  -999.2500
  392.5000    10.3548   109.9395     8.9141   -34.6472  -999.2500
  393.0000    10.3415   109.9705     8.9103   -35.4352  -999.2500
  393.5000    10.3283   111.5788     8.8281   -36.0662  -999.2500
  394.0000    10.3151   111.6099     8.7458   -36.3832  -999.2500
  394.5000    10.3018   113.2182     8.5853   -36.2293  -999.2500
  395.0000    10.2886   116.4038     8.4247   -35.7614  -999.2500
  395.5000    10.2720   121.2198     8.2641   -35.1051  -999.2500
  396.0000     9.4832   125.3522     8.0209   -33.8844  -999.2500
  396.5000     9.2277   130.7002     7.6975   -32.0037  -999.2500
  397.0000     8.8909   133.8858     7.4679   -30.7501  -999.2500
  397.5000     8.6388   137.0714     7.2289   -30.4392  -999.2500
  398.0000     8.6064   139.4684     7.1467   -30.6000  -999.2500
  398.5000     8.5427   138.7108     7.0645   -31.2310  -999.2500
  399.0000     8.5104   138.7418     7.0607   -32.3330  -999.2500
  399.5000     8.4781   137.1878     7.1361   -32.6500  -999.2500
  400.0000     8.4615   134.0694     7.2107   -32.9678  -999.2500
  400.5000     9.0987   131.6351     7.5298   -32.3490  -999.2500
  401.0000     9.4488   128.5835     7.8309   -31.2593  -999.2500
  401.5000     9.5894   124.6556     8.1406   -30.3266  -999.2500
  402.0000     9.6514   121.5164     8.2950   -30.3359  -999.2500
  402.5000     9.6977   120.7393     8.3704   -30.5042  -999.2500
  403.0000     9.7597   119.9660     8.3666   -30.5134  -999.2500
  403.5000     9.8218   119.9852     8.3635   -30.8365  -999.2500
  404.0000     9.8367   120.0006     8.2821   -31.6306  -999.2500
  404.5000     9.7417   120.0159     8.2790   -32.5817  -999.2500
  405.0000     9.6133   121.6614     8.2753   -33.3758  -999.2500
  405.5000     9.5491   123.3387     8.1155   -33.3850  -999.2500
  406.0000     9.5666   125.5864     8.1124   -32.9232  -999.2500
  406.5000     9.5187   126.3904     8.1094   -31.1889  -999.2500
  407.0000     9.4238   126.4057     8.1063   -31.2402  -999.2500
  407.5000     9.3602   126.4211     8.1033   -32.0111  -999.2500
  408.0000     9.3439   126.4365     8.1003   -32.4912  -999.2500
  408.5000     9.4215   124.8707     8.0972   -32.5004  -999.2500
  409.0000     9.5306   124.1009     8.0940   -32.5096  -999.2500
  409.5000     9.6406   122.5183     8.1687   -32.5188  -999.2500
  410.0000     9.7352   120.8728     8.2448   -32.5279  -999.2500
  410.5000     9.8264   118.6307     8.3985   -32.5371  -999.2500
  411.0000     9.8572   118.6460     8.5514   -31.9142  -999.2500
  411.5000     9.9033   118.6614     8.5484   -30.9856  -999.2500
  412.0000     9.9185   118.6768     8.4670   -30.9971  -999.2500
  412.5000     9.9018   118.6921     8.4639   -31.0062  -999.2500
  413.0000     9.7755   118.7075     8.4514   -31.0154  -999.2500
  413.5000     9.6962   118.7229     8.3787   -31.1816  -999.2500
  414.0000     9.6327   120.3155     8.2973   -31.5047  -999.2500
  414.5000     9.6005   121.9085     8.2159   -31.6709  -999.2500
  415.0000     9.5995   121.9274     8.2129   -31.6801  -999.2500
  415.5000     9.7558   121.9427     8.2098   -31.6892  -999.2500
  416.0000     9.7866   121.9581     8.2853   -31.8556  -999.2500
  416.5000     9.7699   121.1848     8.3605   -32.0238  -999.2500
  417.0000     9.7221   120.4077     8.3574   -32.0330  -999.2500
  417.5000     9.6585   120.4269     8.3536   -31.8852  -999.2500
  418.0000     9.6263   120.4423     8.4297   -30.7955  -999.2500
  418.5000     9.6099   120.4576     8.4259   -30.1744  -999.2500
  419.0000     9.6579   120.4732     8.4229   -30.0266  -999.2500
  419.5000     9.7364   121.2776     8.4198   -29.8807  -999.2500
  420.0000     9.7803   121.2962     8.3384   -29.8903  -999.2500
  420.5000     9.6537   122.1002     8.2570   -29.8995  -999.2500
  421.0000     9.5902   122.1156     8.1755   -29.9089  -999.2500
  421.5000     9.5580   122.9196     8.0157   -29.9201  -999.2500
  422.0000     9.4630   123.7236     8.0120   -29.9293  -999.2500
  422.5000     9.3367   125.3162     8.0089   -29.9384  -999.2500
  423.0000     9.3359   125.3316     8.0059   -29.9476  -999.2500
  423.5000     9.3666   125.3470     8.0029   -30.1138  -999.2500
  424.0000     9.3991   125.3628     7.9998   -30.2799  -999.2500
  424.5000     9.4747   126.1702     7.9184   -30.4461  -999.2500
  425.0000     9.4899   126.9742     7.9154   -30.6122  -999.2500
  425.5000     9.4575   127.7782     7.9122   -30.7784  -999.2500
  426.0000     9.3469   128.5822     7.9085   -30.4759  -999.2500
  426.5000     9.2676   129.3862     7.8271   -30.3258  -999.2500
  427.0000     9.2354   130.1902     7.8241   -30.0210  -999.2500
  427.5000     9.2033   130.9942     7.7426   -30.0325  -999.2500
  428.0000     9.1554   131.0304     7.6612   -29.7254  -999.2500
  428.5000     9.1389   130.2363     7.6582   -29.7368  -999.2500
  429.0000     9.1380   128.6744     7.6551   -30.0600  -999.2500
  429.5000     9.2314   126.3276     7.7305   -31.3251  -999.2500
  430.0000     9.3562   124.7657     7.8058   -31.9728  -999.2500
  430.5000     9.4654   123.9886     7.9587   -32.2857  -999.2500
  431.0000     9.5588   122.4267     8.1124   -31.8258  -999.2500
  431.5000     9.7150   120.8686     8.2661   -30.8931  -999.2500
  432.0000     9.9497   120.0946     8.4982   -30.2743  -999.2500
  432.5000     9.9490   119.3218     8.5743   -30.1242  -999.2500
  433.0000     9.9325   117.7286     8.6488   -30.1357  -999.2500
  433.5000     9.9317   116.9868     8.6426   -30.1449  -999.2500
  434.0000     9.9779   117.0060     8.5643   -30.1540  -999.2500
  434.5000     9.9928   117.0214     8.5606   -30.4856  -999.2500
  435.0000    10.0079   117.0368     8.5575   -31.4495  -999.2500
  435.5000     9.9913   117.0521     8.5545   -32.0677  -999.2500
  436.0000     9.9277   117.0675     8.5515   -32.2315  -999.2500
  436.5000     9.8171   117.8715     8.5484   -32.0837  -999.2500
  437.0000     9.6907   118.6755     8.4670   -32.0952  -999.2500
  437.5000     9.6115   121.8454     8.3856   -32.2614  -999.2500
  438.0000     9.5636   124.3955     8.2163   -32.4252  -999.2500
  438.5000     9.5155   127.4005     7.9085   -32.1227  -999.2500
  439.0000     9.4363   129.7818     7.7487   -32.1319  -999.2500
  439.5000     9.2628   131.3745     7.5889   -32.3129  -999.2500
  440.0000     9.0894   132.9671     7.4292   -32.7805  -999.2500
  440.5000     8.9630   135.3484     7.2694   -32.4757  -999.2500
  441.0000     8.8524   136.9410     7.2663   -32.1686  -999.2500
  441.5000     8.7731   138.5337     7.2633   -31.5521  -999.2500
  442.0000     8.7253   138.5490     7.2602   -30.9334  -999.2500
  442.5000     8.6920   138.5647     7.2564   -30.6286  -999.2500
  443.0000     8.6950   136.8665     7.2534   -30.4804  -999.2500
  443.5000     8.8955   133.8671     7.2504   -30.4899  -999.2500
  444.0000     8.9889   132.3052     7.2473   -30.6646  -999.2500
  444.5000     8.9881   131.5281     7.3226   -30.9796  -999.2500
  445.0000     9.0190   130.7548     7.3987   -30.9907  -999.2500
  445.5000     9.1750   129.9815     7.5517   -30.9999  -999.2500
  446.0000     9.3626   128.4234     7.8621   -31.0090  -999.2500
  446.5000     9.3775   126.8615     8.0158   -31.0182  -999.2500
  447.0000     9.4086   126.0882     8.1695   -30.8681  -999.2500
  447.5000     9.4901   124.4216     8.2441   -30.5633  -999.2500
  448.0000     9.6419   122.9644     8.3201   -30.4176  -999.2500
  448.5000     9.8452   121.4025     8.3947   -30.5861  -999.2500
  449.0000     9.9259   120.6292     8.4700   -31.0644  -999.2500
  449.5000     9.9707   119.8559     8.4670   -31.2325  -999.2500
  450.0000     9.9771   119.8738     8.6204   -31.2417  -999.2500
  450.5000     9.9834   119.9265     8.3038   -31.2475  -999.2500
  451.0000     9.9824   121.5142     8.3007   -31.0952  -999.2500
  451.5000     9.9644   123.1230     8.2192   -30.4750  -999.2500
