~VERSION INFORMATION
 VERS.                2.0:   CWLS LOG ASCII STANDARD - VERSION 2.0
 WRAP.                 NO:   ONE LINE PER DEPTH STEP
~WELL INFORMATION
#MNEM.UNIT      DATA TYPE    INFORMATION
#----------   ------------   ------------------------------
 STRT.F           34.0000:   START DEPTH
 STOP.F         1014.5000:   STOP DEPTH
 STEP.F            0.5000:   STEP LENGTH
 NULL.          -999.2500:   NO VALUE
 COMP. FENIX & SCISSON INC:   COMPANY
 WELL.       NPR-3 #54-14:   WELL
 FLD .             TEAPOT:   FIELD
 LOC .      S14 T38N R78W:   LOCATION
 CNTY.            NATRONA:   COUNTY
 STAT.            WYOMING:   STATE
 CTRY. UNITED STATES OF AMERICA:   COUNTRY
 SRVC.            Unknown:   SERVICE COMPANY
 DATE.        20-APR-1978:   LOGDATE
 API .       490251062100:   API NUMBER
~CURVE INFORMATION
#MNEM.UNIT       API CODE    CURVE DESCRIPTION
#----------   ------------   ------------------------------
 DEPT.F                  :   
 SPR .MV     05 010 01 00:   SPONTANEOUS POTENTIAL FROM RES.
 SN  .OHMM   05 040 16 00:   SHORT NORMAL 16"
 ILD .OHMM   05 120 46 00:   INDUCTION LOG DEEP
 CALD.IN     45 280 60 00:   CALIPER
 GRD .GAPI   45 310 01 00:   GAMMA RAY FROM DENSITY LOG
 RHOB.G/C3   45 350 01 00:   BULK DENSITY
 DPOR.DEC    45 890 12 00:   DENSITY POROSITY SANDSTONE
 CORR.G/C3   45 356 01 00:   DENSITY CORRECTION
~PARAMETER INFORMATION
#MNEM.UNIT          VALUE    DESCRIPTION
#----------   ------------   ------------------------------
 PD  .                 GL:   PERMANENT DATUM
 EPD .F              5268:   ELEVATION PERMANENT DATUM
 LMF .                 KB:   LOG MEASURED FROM
 DAPD.F                 4:   FEET ABOVE PERMANENT DATUM
 DMF .                 KB:   DRILLING MEASURED FROM
 EKB .F              5272:   KELLING BUSHING
 EGL .F              5268:   GROUND LEVEL
 DATE.          4-20-1978:   RUN DATE
 RUN .                  1:   RUN NUMBER
 DD  .F              1030:   DEPTH DRILLER
 DL  .F              1021:   DEPTH LOGGER
 BLI .F              1014:   BOTTOM LOG INTERVAL
 TLI .F                50:   TOP LOG INTERVAL
 CS  .IN            8.625:   CASING SIZE
 CBD .F                40:   CASING BOTTOM DRILLER
 BS  .IN            7.875:   BIT SIZE
 BSD .F              1030:   BIT SIZE AT DEPTH
 DFT .                KCL:   DRILLING FLUID TYPE
 DFD .                8.6:   DRILLING FLUID DENSITY
 DFV .                 33:   DRILLING FLUID VISCOSITY
 DFPH.                 10:   DRILLING FLUID PH
 DFL .                  8:   DRILLING FLUID LOSS
 MSS .          FLOW LINE:   MUD SAMPLE SOURCE
 RMS .OHMM            .34:   RESISTIVITY MUD SAMPLE
 MST .F                64:   MUD SAMPLE TEMPERATURE
 RMF .OHMM            .36:   RESISTIVITY MUD FILTRATE SAMPLE
 MFST.F                60:   MUD FILTRATE SAMPLE TEMPERATURE
 RMC .OHMM            .48:   RESISTIVITY MUD CAKE
 MCST.F                68:   MUD CAKE SAMPLE TEMPERATURE
 MFSS.               MEAS:   MUD FILTRATE SAMPLE SOURCE
 MCSS.               MEAS:   MUD CAKE SAMPLE SOURCE
 RMB .OHMM            .29:   RESISTIVITY MUD AT BHT
 BHT .F                74:   BOTTOM HOLE TEMPERATURE
 TCS .HRS               6:   TIME CURCULATED STOPPED
 MRT .F                74:   MAXIMUM RECORDED TEMPERATURE
 LUN .               2958:   LOGGING UNIT NUMBER
 LUL .               CASP:   LOGGING UNIT LOCATION
 ENGI.             MILLER:   RECORDING ENGINEER
 WITN.           MCGINELY:   WITNESSED BY
 CLNT.            A2DTECH:   CLIENT CODE
 ORIG.       2", 5" PRINT:   ORIGIN OF DATA
 UWI .       490251062100:   UNIQUE WELL ID
 DICO. A2D Technologies, Inc.:   DIGITIZING COMPANY
~OTHER INFORMATION
~A   DEPT      SPR         SN        ILD       CALD         GRD      RHOB       DPOR       CORR   
# ...
  763.0000   -31.0158     7.6929     6.3966     7.6941   121.3385     2.4608     0.1252     0.0238
  763.5000   -31.2299     7.6118     6.3985     7.7560   122.2210     2.4656     0.1224     0.0242
  764.0000   -31.4395     7.5314     6.2866     7.7823   123.0958     2.4705     0.1196     0.0246
  764.5000   -31.6487     7.4520     6.2207     7.7944   123.6112     2.4754     0.1188     0.0250
  765.0000   -31.8580     7.3733     6.1532     7.8078   123.5531     2.4799     0.1193     0.0253
  765.5000   -32.0667     7.2955     6.0865     7.8213   119.0645     2.4793     0.1198     0.0281
  766.0000   -32.2769     7.2185     6.0207     7.8349   113.4009     2.4785     0.1204     0.0313
  766.5000   -32.3628     7.1442     5.9555     7.8481   109.3119     2.4761     0.1240     0.0344
  767.0000   -32.3535     7.0074     5.8910     7.8530   112.1805     2.4678     0.1276     0.0376
  767.5000   -32.3424     6.8765     5.8316     7.8294   116.2748     2.4642     0.1279     0.0408
  768.0000   -32.3310     6.7481     5.6498     7.7667   120.3702     2.4570     0.1310     0.0432
  768.5000   -32.3199     6.6225     5.5063     7.7033   123.8176     2.4500     0.1350     0.0407
  769.0000   -32.3088     6.4819     5.2502     7.6401   124.3800     2.4460     0.1391     0.0383
  769.5000   -32.2977     6.2447     4.9636     7.5768   123.8496     2.4383     0.1432     0.0358
  770.0000   -32.2865     6.0159     4.6921     7.5136   122.9220     2.4304     0.1472     0.0379
  770.5000   -32.2754     5.7954     4.4369     7.4507   121.7283     2.4224     0.1512     0.0411
  771.0000   -32.2643     5.5835     4.3406     7.4084   118.4350     2.4159     0.1499     0.0343
  771.5000   -32.2532     5.4151     4.3406     7.3705   114.7735     2.4326     0.1419     0.0234
  772.0000   -32.2421     5.4156     4.4284     7.3321   112.9461     2.4492     0.1339     0.0141
  772.5000   -32.2309     5.6829     4.5340     7.3213   114.3821     2.4620     0.1285     0.0094
  773.0000   -32.2198     5.8827     4.6422     7.3210   115.7825     2.4629     0.1287     0.0097
  773.5000   -32.2087     6.3699     4.8223     7.3210   116.6167     2.4592     0.1290     0.0099
  774.0000   -32.1976     6.8995     5.1610     7.3294   117.4505     2.4551     0.1292     0.0101
  774.5000   -32.1864     7.4773     5.5237     7.3842   116.6943     2.4583     0.1282     0.0103
  775.0000   -32.1753     7.6959     5.9123     7.4391   116.9166     2.4626     0.1267     0.0105
  775.5000   -32.1642     7.6916     6.3272     7.4667   117.1980     2.4692     0.1224     0.0107
  776.0000   -32.1531     7.7629     6.5749     7.4771   117.3731     2.4797     0.1210     0.0109
  776.5000   -32.1419     7.7765     6.5393     7.5337   116.0324     2.4752     0.1233     0.0111
  777.0000   -32.1308     7.7897     6.5106     7.5994   116.9929     2.4683     0.1228     0.0113
  777.5000   -32.1197     7.8028     6.4821     7.5714   116.2025     2.4632     0.1217     0.0115
  778.0000   -32.1086     7.8159     6.4538     7.5920   114.7079     2.4787     0.1252     0.0117
  778.5000   -32.0975     7.8291     6.4255     7.7796   113.1788     2.4549     0.1276     0.0119
  779.0000   -32.0863     7.8423     6.3974     7.8004   112.6161     2.4600     0.1247     0.0121
  779.5000   -32.0752     7.8555     6.3694     7.8385   117.9765     2.4685     0.1229     0.0123
  780.0000   -32.0641     7.8688     6.3369     7.8377   125.7921     2.4731     0.1234     0.0125
  780.5000   -32.0530     7.8820     6.3419     7.8378   129.0679     2.4713     0.1240     0.0127
  781.0000   -32.0418     7.8954     6.3482     7.8377   121.5819     2.4684     0.1217     0.0129
  781.5000   -32.0307     7.9075     6.3546     7.8377   115.6109     2.4736     0.1190     0.0131
  782.0000   -32.0196     7.8558     6.3610     7.8378   115.2262     2.4803     0.1168     0.0133
  782.5000   -32.0085     7.8085     6.3674     7.8380   118.5291     2.4829     0.1150     0.0134
  783.0000   -31.9973     7.7614     6.3738     7.8393   122.8291     2.4801     0.1132     0.0119
  783.5000   -31.9862     7.7147     6.3802     7.7861   125.3694     2.4923     0.1113     0.0103
  784.0000   -31.9751     7.6682     6.3865     7.7277   125.9200     2.4913     0.1149     0.0088
  784.5000   -31.9640     7.6219     6.3950     7.6691   126.4554     2.4849     0.1168     0.0072
  785.0000   -31.9529     7.5760     6.3382     7.6107   123.9210     2.4783     0.1198     0.0057
  785.5000   -31.9417     7.5261     6.2463     7.5507   120.9423     2.4718     0.1239     0.0041
  786.0000   -31.9306     7.4299     6.1562     7.5383   123.8280     2.4653     0.1280     0.0054
  786.5000   -31.9195     7.3350     6.0676     7.5460   127.4888     2.4588     0.1301     0.0103
  787.0000   -31.9083     7.2413     5.9802     7.7437   126.9344     2.4567     0.1296     0.0151
  787.5000   -31.8972     7.1487     5.9403     7.9475   128.2366     2.4608     0.1301     0.0200
  788.0000   -31.8861     7.0574     5.9401     8.1320   132.4389     2.4513     0.1338     0.0250
  788.5000   -31.8750     6.9672     5.9703     8.1562   132.2012     2.4414     0.1375     0.0345
  789.0000   -31.8639     6.8782     5.9969     8.1552   131.1278     2.4461     0.1362     0.0552
  789.5000   -31.8527     6.7903     5.9975     8.1410   130.5201     2.4508     0.1336     0.0828
  790.0000   -31.8416     6.7035     5.7000     8.0726   130.8999     2.4520     0.1359     0.1104
  790.5000   -31.8305     6.6179     5.3230     7.9552   130.3266     2.4489     0.1392     0.1378
  791.0000   -31.8194     6.4492     4.9459     7.8373   129.7566     2.4451     0.1433     0.1581
  791.5000   -31.8082     6.2076     4.4987     7.7192   129.2248     2.4310     0.1508     0.1640
  792.0000   -31.7971     5.9719     4.5074     7.6012   126.0892     2.4147     0.1611     0.1708
  792.5000   -31.7861     5.7459     4.4614     7.4828   121.3391     2.4063     0.1487     0.1557
  793.0000   -31.7762     5.5175     4.4452     7.4016   118.1869     2.4569     0.1296     0.1011
  793.5000   -31.7171     5.5175     4.4365     7.3414   117.7277     2.4628     0.1288     0.0491
  794.0000   -31.6478     5.6723     4.4279     7.2461   116.9035     2.4598     0.1287     0.0399
  794.5000   -31.5702     6.0522     4.4214     7.1378   113.7527     2.4671     0.1245     0.0375
  795.0000   -31.9492     6.4576     4.5212     7.0632   111.5206     2.4786     0.1205     0.0269
  795.5000   -32.3787     6.7605     4.9049     7.1176   113.1884     2.4825     0.1180     0.0153
  796.0000   -32.8078     6.7599     5.2990     7.1770   115.2811     2.4623     0.1318     0.0077
  796.5000   -33.1776     6.7597     5.5548     7.2367   117.3515     2.4480     0.1424     0.0089
  797.0000   -33.1686     6.7601     5.8230     7.2962   119.1222     2.4397     0.1452     0.0099
  797.5000   -33.1674     6.7623     5.9953     7.3558   119.6741     2.4353     0.1468     0.0109
  798.0000   -33.1675     6.8307     5.6614     7.4151   120.1559     2.4313     0.1471     0.0119
  798.5000   -33.1675     6.7608     5.3431     7.4654   121.2364     2.4283     0.1488     0.0130
  799.0000   -33.1660     6.5817     5.0427     7.4855   125.0001     2.4255     0.1521     0.0147
  799.5000   -33.0910     6.3387     4.7591     7.5186   128.6445     2.4188     0.1483     0.0254
  800.0000   -32.9277     6.1006     4.6302     7.5989   129.6075     2.4090     0.1410     0.0368
  800.5000   -32.7654     5.8718     4.5818     7.6761   123.8793     2.4258     0.1338     0.0246
  801.0000   -32.6025     5.6724     4.5480     7.9035   122.0133     2.4468     0.1265     0.0101
  801.5000   -32.4402     5.6724     4.5115     8.1824   125.5188     2.4679     0.1209     0.0105
  802.0000   -32.2154     5.7781     4.4604     8.2186   128.6491     2.4730     0.1245     0.0234
  802.5000   -31.9461     6.0840     4.4599     8.2058   129.9092     2.4690     0.1224     0.0438
  803.0000   -31.6767     6.4100     4.8114     8.1894   125.5290     2.5001     0.1111     0.0509
