~VERSION INFORMATION
 VERS.                2.0:   CWLS LOG ASCII STANDARD - VERSION 2.0
 WRAP.                 NO:   ONE LINE PER DEPTH STEP
~WELL INFORMATION
#MNEM.UNIT      DATA TYPE    INFORMATION
#----------   ------------   ------------------------------
 STRT.F           70.0000:   START DEPTH
 STOP.F          960.0000:   STOP DEPTH
 STEP.F            0.5000:   STEP LENGTH
 NULL.          -999.2500:   NO VALUE
 COMP. U S NAVY/INTEX OIL CO:   COMPANY
 WELL.      NPR 3 #26S-35:   WELL
 FLD .             TEAPOT:   FIELD
 LOC .      S35 T39N R78W:   LOCATION
 CNTY.            NATRONA:   COUNTY
 STAT.            WYOMING:   STATE
 CTRY. UNITED STATES OF AMERICA:   COUNTRY
 SRVC.         Lane Wells:   SERVICE COMPANY
 DATE.        19-MAR-1960:   LOGDATE
 API .       490250651600:   API NUMBER
~CURVE INFORMATION
#MNEM.UNIT       API CODE    CURVE DESCRIPTION
#----------   ------------   ------------------------------
 DEPT.F                  :   
 ASN .OHMM   05 041 16 00:   AMPLIFIED SHORT NORMAL 16"
 ILD .OHMM   05 120 46 00:   INDUCTION LOG DEEP
 CILD.MMHO   05 110 00 00:   CONDUCTIVITY INDUCTION LOG
 SPR .MV     05 010 01 00:   SPONTANEOUS POTENTIAL FROM RES.
~PARAMETER INFORMATION
#MNEM.UNIT          VALUE    DESCRIPTION
#----------   ------------   ------------------------------
 PD  .                 GL:   PERMANENT DATUM
 EPD .F              5095:   ELEVATION PERMANENT DATUM
 LMF .                 KB:   LOG MEASURED FROM
 DAPD.F                 5:   FEET ABOVE PERMANENT DATUM
 DMF .                 KB:   DRILLING MEASURED FROM
 EKB .F              5101:   KELLING BUSHING
 EGL .F              9096:   GROUND LEVEL
 DATE.          3-19-1960:   RUN DATE
 RUN .                  1:   RUN NUMBER
 DD  .F               977:   DEPTH DRILLER
 DL  .F               959:   DEPTH LOGGER
 BLI .F               957:   BOTTOM LOG INTERVAL
 TLI .F                70:   TOP LOG INTERVAL
 CS  .IN            8.625:   CASING SIZE
 CBD .F                12:   CASING BOTTOM DRILLER
 BS  .IN            7.875:   BIT SIZE
 BSD .F               977:   BIT SIZE AT DEPTH
 DFT .   GEL-OIL EMULSION:   DRILLING FLUID TYPE
 DFD .                9.4:   DRILLING FLUID DENSITY
 DFV .                 40:   DRILLING FLUID VISCOSITY
 DFPH.                7.5:   DRILLING FLUID PH
 DFL .                8.2:   DRILLING FLUID LOSS
 MSS .           FLOWLINE:   MUD SAMPLE SOURCE
 RMS .OHMM            2.2:   RESISTIVITY MUD SAMPLE
 MST .F                64:   MUD SAMPLE TEMPERATURE
 RMF .OHMM            1.5:   RESISTIVITY MUD FILTRATE SAMPLE
 MFST.F                64:   MUD FILTRATE SAMPLE TEMPERATURE
 RMC .OHMM            3.1:   RESISTIVITY MUD CAKE
 MCST.F                64:   MUD CAKE SAMPLE TEMPERATURE
 MFSS.                MUD:   MUD FILTRATE SAMPLE SOURCE
 MCSS.              PRESS:   MUD CAKE SAMPLE SOURCE
 RMB .OHMM            2.0:   RESISTIVITY MUD AT BHT
 BHT .F                71:   BOTTOM HOLE TEMPERATURE
 MRT .F                71:   MAXIMUM RECORDED TEMPERATURE
 LUN .             L-4474:   LOGGING UNIT NUMBER
 LUL .             CASPER:   LOGGING UNIT LOCATION
 ENGI.             NELSON:   RECORDING ENGINEER
 WITN.          JORGENSBN:   WITNESSED BY
 CLNT.            A2DTECH:   CLIENT CODE
 ORIG.      2" & 5" PRINT:   ORIGIN OF DATA
 UWI .       490250651600:   UNIQUE WELL ID
 DICO. A2D Technologies, Inc.:   DIGITIZING COMPANY
~OTHER INFORMATION
~A   DEPT        ASN        ILD      CILD       SPR   
# ...
  143.0000     6.7158     5.2887   204.1792   -43.6359
  143.5000     6.7373     5.2840   204.0286   -43.7153
  144.0000     6.7534     5.2987   203.8780   -43.7870
  144.5000     6.7732     5.3071   203.7274   -43.8595
  145.0000     6.7895     5.3186   203.5768   -43.9332
  145.5000     6.8114     5.3284   203.4262   -43.9985
  146.0000     6.8187     5.3390   203.2756   -44.0031
  146.5000     6.7750     5.3493   203.1250   -44.0043
  147.0000     6.7428     5.3597   202.9744   -43.9997
  147.5000     6.6966     5.3700   202.8238   -44.0099
  148.0000     6.7342     5.3804   202.7108   -43.9676
  148.5000     6.8073     5.3906   201.9251   -43.6494
  149.0000     6.8652     5.4009   201.2965   -43.2523
  149.5000     6.9435     5.4111   200.6679   -43.1165
  150.0000     7.1144     5.4216   200.0393   -43.2276
  150.5000     7.3218     5.4316   199.4107   -43.2980
  151.0000     7.2604     5.4423   198.7821   -43.3886
  151.5000     7.1380     5.4520   198.1535   -43.4686
  152.0000     7.0183     5.4679   197.5249   -43.5533
  152.5000     6.9575     5.5232   196.8963   -43.6422
  153.0000     7.1189     5.5738   196.2677   -43.7814
  153.5000     7.2365     5.6244   195.4819   -43.9270
  154.0000     7.3882     5.6750   192.7711   -44.0730
  154.5000     7.4867     5.7256   189.1566   -44.2156
  155.0000     7.5294     5.7762   185.5422   -44.3656
  155.5000     7.5846     5.8268   181.0241   -44.5015
  156.0000     7.6369     5.8774   180.2268   -44.6661
  156.5000     7.7607     5.9279   179.1637   -44.6755
  157.0000     7.8810     5.9788   178.1006   -44.5168
  157.5000     7.9890     6.0290   177.0376   -44.3841
  158.0000     8.1240     6.0854   175.9745   -44.2387
  158.5000     8.1957     6.0938   174.9114   -44.0984
  159.0000     8.1215     6.0922   173.8483   -43.9591
  159.5000     8.0701     6.0923   172.7853   -43.8124
  160.0000     8.0090     6.0936   171.9879   -43.6820
  160.5000     7.9548     6.0859   176.5060   -43.5175
  161.0000     7.8920     6.0336   179.2169   -43.5326
  161.5000     7.8367     5.9872   180.7229   -43.7540
  162.0000     7.7442     5.9401   181.9277   -43.9448
  162.5000     7.6539     5.8934   183.1325   -44.1534
  163.0000     7.5683     5.8465   184.3374   -44.3482
  163.5000     7.4780     5.7996   185.5422   -44.4242
  164.0000     7.3942     5.7529   186.4458   -44.4808
  164.5000     7.2955     5.7059   189.4578   -44.5431
  165.0000     7.2327     5.6594   191.8675   -44.6026
  165.5000     7.2804     5.6120   193.6747   -44.6633
  166.0000     7.1945     5.5664   195.4819   -44.7234
  166.5000     7.0501     5.5173   196.9277   -44.7838
  167.0000     6.9377     5.4707   198.3735   -44.8448
  167.5000     6.7938     5.4203   199.8193   -44.9044
  168.0000     6.6994     5.3535   201.2651   -44.9115
  168.5000     6.6524     5.2955   202.7108   -44.9106
  169.0000     6.5973     5.2347   204.5181   -44.9105
  169.5000     6.5477     5.1740   207.7996   -44.9123
  170.0000     6.4969     5.1157   212.1750   -44.8923
  170.5000     6.4413     5.0494   216.5504   -44.6229
  171.0000     6.4029     4.9972   220.9258   -44.2874
  171.5000     6.4397     4.9392   225.3012   -43.9656
  172.0000     6.4160     4.8800   229.6766   -43.6343
  172.5000     6.2286     4.8240   234.0520   -43.3170
  173.0000     6.0344     4.7664   238.4274   -43.3854
  173.5000     5.8857     4.7095   242.8028   -43.5343
  174.0000     5.7022     4.6527   246.0843   -43.6642
  174.5000     5.5399     4.5949   248.0186   -43.8036
  175.0000     5.3326     4.5392   249.7853   -43.9380
  175.5000     5.2649     4.4738   249.0689   -44.0753
  176.0000     5.6142     4.4799   248.1440   -44.2114
  176.5000     5.9476     4.5082   247.2372   -44.3477
  177.0000     5.9612     4.5284   246.3398   -44.4838
  177.5000     5.8729     4.5523   245.4414   -44.6203
  178.0000     5.8214     4.5743   244.3136   -44.7559
  178.5000     5.7510     4.5974   243.8898   -44.8900
  179.0000     5.6937     4.6197   243.3735   -44.7753
  179.5000     5.6172     4.6428   242.8571   -44.6159
  180.0000     5.6445     4.6648   242.3408   -44.4390
  180.5000     5.7098     4.6885   241.8244   -44.3109
  181.0000     5.7586     4.7091   241.3081   -43.9430
  181.5000     5.8224     4.7380   240.6626   -43.6223
  182.0000     5.8004     4.7120   242.7711   -43.7170
  182.5000     5.6802     4.6623   245.5823   -43.7400
  183.0000     5.5789     4.6227   248.3936   -43.8005
  183.5000     5.4867     4.5783   251.2048   -43.8410
  184.0000     5.3734     4.5373   253.3132   -43.8918
  184.5000     5.2707     4.4930   253.8153   -43.9377
  185.0000     5.1586     4.4531   254.2169   -43.9860
  185.5000     5.1307     4.4040   254.6185   -44.0332
  186.0000     5.2106     4.3754   255.1205   -44.0805
  186.5000     5.3210     4.3876   254.9778   -44.1277
  187.0000     5.4357     4.3933   254.7876   -44.1780
  187.5000     5.5059     4.4019   254.5973   -44.1918
  188.0000     5.4596     4.4089   254.4071   -44.1993
  188.5000     5.4346     4.4167   254.2169   -44.2087
  189.0000     5.3966     4.4241   254.0266   -44.2172
  189.5000     5.3736     4.4318   253.8364   -44.2261
  190.0000     5.3936     4.4393   253.6462   -44.2348
  190.5000     5.4218     4.4468   253.4559   -44.2437
  191.0000     5.4465     4.4542   253.3132   -44.2525
  191.5000     5.4725     4.4622   252.2706   -44.2613
  192.0000     5.4979     4.4703   251.4365   -44.2701
  192.5000     5.5236     4.4878   250.6024   -44.2789
  193.0000     5.5493     4.5044   249.7683   -44.2878
  193.5000     5.5747     4.5208   248.9342   -44.2966
  194.0000     5.6007     4.5373   248.1001   -44.3055
  194.5000     5.6256     4.5536   247.2660   -44.3143
  195.0000     5.6527     4.5704   246.4319   -44.3232
  195.5000     5.6781     4.5863   245.5978   -44.3319
  196.0000     5.7116     4.6037   244.7637   -44.3410
  196.5000     5.7600     4.6185   243.9296   -44.3493
  197.0000     5.8020     4.6387   243.0955   -44.3594
  197.5000     5.8602     4.6444   242.4699   -44.3655
  198.0000     5.9568     4.6048   244.2771   -44.3647
  198.5000     5.8753     4.5714   246.7914   -44.3651
  199.0000     5.6948     4.5364   250.1438   -44.3650
  199.5000     5.5503     4.5022   253.4962   -44.3651
  200.0000     5.3858     4.4677   256.8485   -44.3655
  200.5000     5.2448     4.4332   260.2009   -44.3649
  201.0000     5.1324     4.3991   263.5533   -44.3662
  201.5000     5.0745     4.3639   266.9057   -44.3640
  202.0000     5.1057     4.3309   267.2361   -44.3689
  202.5000     5.1404     4.2946   266.5150   -44.3488
  203.0000     5.1606     4.3019   265.9639   -44.2153
  203.5000     5.2715     4.3327   262.6227   -44.0955
  204.0000     5.4500     4.3564   259.9187   -43.9731
  204.5000     5.5444     4.3833   257.2146   -43.8544
  205.0000     5.4763     4.4085   254.5105   -43.7297
  205.5000     5.4448     4.4346   251.8065   -43.6151
  206.0000     5.5407     4.4602   249.1024   -43.4842
  206.5000     5.6329     4.4861   246.3983   -43.5274
  207.0000     5.7030     4.5118   244.2771   -43.6698
  207.5000     5.7285     4.5376   245.3727   -43.7817
  208.0000     5.7499     4.5632   246.2741   -43.9078
  208.5000     5.7725     4.5893   247.1754   -44.0259
  209.0000     5.7924     4.6144   248.0768   -44.1495
  209.5000     5.8140     4.6409   248.9755   -44.2681
  210.0000     5.7707     4.6443   249.8834   -44.3932
  210.5000     5.6969     4.6342   250.7920   -44.5074
  211.0000     5.6337     4.6273   251.5210   -44.6427
  211.5000     5.5677     4.6190   251.9483   -44.6892
  212.0000     5.5000     4.6113   252.2985   -44.3900
  212.5000     5.4479     4.6033   252.6452   -44.1041
  213.0000     5.4047     4.5953   252.9939   -43.8208
  213.5000     5.4354     4.5877   253.3132   -43.5310
  214.0000     5.5185     4.5793   250.9438   -43.2552
  214.5000     5.5859     4.5724   248.9408   -42.9505
  215.0000     5.6612     4.5625   246.9377   -42.7765
  215.5000     5.7290     4.5642   244.9347   -43.0689
