~VERSION INFORMATION
 VERS.                2.0:   CWLS LOG ASCII STANDARD - VERSION 2.0
 WRAP.                 NO:   ONE LINE PER DEPTH STEP
~WELL INFORMATION
#MNEM.UNIT      DATA TYPE    INFORMATION
#----------   ------------   ------------------------------
 STRT.F          520.5000:   START DEPTH
 STOP.F         3119.5000:   STOP DEPTH
 STEP.F            0.5000:   STEP LENGTH
 NULL.          -999.2500:   NO VALUE
 COMP.   FLUOR DANIEL INC:   COMPANY
 WELL. NAVAL PETROLEUM RESERVE 3 X-10 #52-10:   WELL
 FLD .            WILDCAT:   FIELD
 LOC .      S10 T38N R78W:   LOCATION
 CNTY.            NATRONA:   COUNTY
 STAT.            WYOMING:   STATE
 CTRY. UNITED STATES OF AMERICA:   COUNTRY
 SRVC.            Unknown:   SERVICE COMPANY
 DATE.        16-AUG-1995:   LOGDATE
 API .       490252275200:   API NUMBER
~CURVE INFORMATION
#MNEM.UNIT       API CODE    CURVE DESCRIPTION
#----------   ------------   ------------------------------
 DEPT.F                  :   
 ROP .MIN/FT 91 810 01 00:   RAT OF DRILLING PENETRATION
 TGAS.UNITS  91 830 01 00:   TOTAL GAS FROM HOTWIRE
~PARAMETER INFORMATION
#MNEM.UNIT          VALUE    DESCRIPTION
#----------   ------------   ------------------------------
 EKB .F              5206:   KELLING BUSHING
 EGL .F              5196:   GROUND LEVEL
 DATE.            8-16-95:   RUN DATE
 DD  .F              3120:   DEPTH DRILLER
 CS  .IN            9.625:   CASING SIZE
 CBD .F               508:   CASING BOTTOM DRILLER
 BS  .IN             8.75:   BIT SIZE
 BSD .F              3120:   BIT SIZE AT DEPTH
 ENGI.               HUSK:   RECORDING ENGINEER
 WITN.              TOWER:   WITNESSED BY
 CLNT.            A2DTECH:   CLIENT CODE
 ORIG.           5" PRINT:   ORIGIN OF DATA
 UWI .       490252275200:   UNIQUE WELL ID
 DICO. A2D Technologies, Inc.:   DIGITIZING COMPANY
~OTHER INFORMATION
~A   DEPT        ROP     TGAS   
# ...
 2586.0000     0.9682    39.4115
 2586.5000     0.9253    38.6303
 2587.0000     0.9354    38.7254
 2587.5000     0.9455    38.8204
 2588.0000     0.9463    38.9155
 2588.5000     0.9655    40.4971
 2589.0000     0.9755    42.7553
 2589.5000     0.9858    46.5998
 2590.0000     0.9851    49.3830
 2590.5000     0.9953    51.0292
 2591.0000     0.9841    52.1784
 2591.5000     0.9836    52.2713
 2592.0000     1.1843    52.3642
 2592.5000     1.1732    52.4571
 2593.0000     1.1727    52.3452
 2593.5000     1.1828    52.2203
 2594.0000     0.9491    52.0954
 2594.5000     0.9485    51.9705
 2595.0000     0.9587    51.8456
 2595.5000     0.9581    51.7208
 2596.0000     0.9788    51.5959
 2596.5000     0.9782    51.4710
 2597.0000     0.9777    51.3461
 2597.5000     0.9878    51.2212
 2598.0000     0.9873    51.0963
 2598.5000     0.9868    50.9715
 2599.0000     0.9878    50.8466
 2599.5000     0.9963    50.7217
 2600.0000     1.0063    54.4014
 2600.5000     0.9955    58.1937
 2601.0000     0.9846    57.7104
 2601.5000     0.9844    56.1207
 2602.0000     0.9965    52.1673
 2602.5000     1.5241    50.1232
 2603.0000     1.5238    50.2183
 2603.5000     1.5342    50.3134
 2604.0000     1.5339    50.4071
 2604.5000     1.5336    50.5002
 2605.0000     1.5334    50.5933
 2605.5000     1.5441    50.6864
 2606.0000     1.1249    50.7795
 2606.5000     0.9817    50.8727
 2607.0000     0.9814    50.9658
 2607.5000     0.9812    51.0589
 2608.0000     0.9809    51.1520
 2608.5000     0.9807    51.2451
 2609.0000     0.9804    51.3382
 2609.5000     0.9907    51.4313
 2610.0000     1.5095    51.5244
 2610.5000     1.5199    51.6175
 2611.0000     1.5196    51.7106
 2611.5000     1.5193    51.8037
 2612.0000     1.5190    51.8968
 2612.5000     1.5188    51.9899
 2613.0000     1.5185    52.0830
 2613.5000     1.5183    52.1761
 2614.0000     1.5180    52.2692
 2614.5000     1.5177    52.3623
 2615.0000     1.5281    52.4554
 2615.5000     1.5278    52.5485
 2616.0000     1.2415    52.6416
 2616.5000     1.2412    52.7347
 2617.0000     1.2410    52.8278
 2617.5000     1.2513    52.9209
 2618.0000     1.2617    53.0140
 2618.5000     1.2613    53.1071
 2619.0000     1.2611    53.2002
 2619.5000     1.2608    53.2933
 2620.0000     1.2606    53.3864
 2620.5000     1.8218    53.4795
 2621.0000     1.8215    53.5726
 2621.5000     1.8212    53.6657
 2622.0000     1.5561    53.7589
 2622.5000     1.5665    53.8520
 2623.0000     1.5768    53.9451
 2623.5000     1.5765    54.0382
 2624.0000     1.3644    54.1313
 2624.5000     1.3641    54.2244
 2625.0000     1.3638    54.3175
 2625.5000     1.7237    54.4106
 2626.0000     1.7235    54.5037
 2626.5000     1.7232    54.5968
 2627.0000     1.7336    54.6899
 2627.5000     1.7439    54.7830
 2628.0000     1.5742    54.8761
 2628.5000     1.5527    54.9692
 2629.0000     1.5630    55.0623
 2629.5000     1.5627    55.1554
 2630.0000     1.1811    55.2591
 2630.5000     1.1809    59.5926
 2631.0000     1.1913    66.0387
 2631.5000     1.1909    74.5975
 2632.0000     1.2013    78.9310
 2632.5000     1.2010    73.6927
 2633.0000     1.2007    68.4271
 2633.5000     1.2004    64.0672
 2634.0000     1.1896    58.0560
 2634.5000     0.9563    56.2322
 2635.0000     0.9667    59.0671
 2635.5000     0.9664    63.5116
 2636.0000     0.9767    68.1623
 2636.5000     0.8784    72.3018
 2637.0000     0.8490    69.7765
 2637.5000     0.8594    62.8737
 2638.0000     0.8697    58.1939
 2638.5000     0.8694    55.7349
 2639.0000     0.8692    55.1303
 2639.5000     0.8795    55.0776
 2640.0000     1.0275    54.7401
 2640.5000     1.0379    54.4027
 2641.0000     1.0376    54.0652
 2641.5000     1.0373    53.7277
 2642.0000     1.5583    53.3902
 2642.5000     1.5691    53.0527
 2643.0000     1.5694    52.7153
 2643.5000     1.5909    52.3778
 2644.0000     1.2521    52.0403
 2644.5000     1.0193    51.7028
 2645.0000     1.0196    51.3653
 2645.5000     1.0199    51.0278
 2646.0000     1.0307    50.6904
 2646.5000     1.0522    52.6983
 2647.0000     1.0524    61.4552
 2647.5000     1.0633    67.2892
 2648.0000     0.9230    73.9023
 2648.5000     0.9049    76.9313
 2649.0000     0.9264    71.9363
 2649.5000     0.9373    65.1347
 2650.0000     0.9481    59.4194
 2650.5000     0.9484    57.6813
 2651.0000     0.9593    57.7922
 2651.5000     0.9701    57.9032
 2652.0000     0.9704    58.0141
 2652.5000     1.5426    58.1250
 2653.0000     1.5323    58.2359
 2653.5000     1.5326    58.3468
 2654.0000     1.5329    58.4578
 2654.5000     1.5437    58.5886
 2655.0000     1.5440    62.9220
 2655.5000     1.5548    66.1992
 2656.0000     1.5233    70.5327
 2656.5000     1.1316    75.9225
 2657.0000     1.1319    82.3686
 2657.5000     1.1427    88.8148
 2658.0000     1.1430    95.2609
 2658.5000     1.5564    87.8104
 2659.0000     1.5567    80.4371
 2659.5000     1.5570    75.1312
 2660.0000     1.5678    69.9290
 2660.5000     1.2397    65.9721
 2661.0000     1.2400    64.2195
 2661.5000     1.2508    69.6989
 2662.0000     1.9714    75.8806
 2662.5000     1.9717    78.6306
 2663.0000     1.9720    75.4916
 2663.5000     1.9722    72.0551
 2664.0000     1.9831    68.4783
 2664.5000     1.5702    66.7738
 2665.0000     1.5493    66.5580
 2665.5000     1.5601    68.1583
 2666.0000     1.5710    70.4362
 2666.5000     0.9460    72.7149
 2667.0000     0.9532    74.9930
 2667.5000     0.9644    77.2711
 2668.0000     0.9683    80.6335
 2668.5000     0.9687    83.9400
 2669.0000     0.9615    85.0247
 2669.5000     0.9667    85.1356
 2670.0000     0.9699    85.2465
 2670.5000     0.9703    85.3574
 2671.0000     0.9707    85.4683
 2671.5000     0.9711    85.5792
 2672.0000     0.9504    85.6901
 2672.5000     0.8134    85.8011
 2673.0000     0.8032    85.9120
 2673.5000     0.7930    86.0448
 2674.0000     0.8145    86.1529
 2674.5000     1.0263    86.2610
 2675.0000     1.0226    86.1692
 2675.5000     1.0185    86.0616
 2676.0000     1.0144    85.9539
 2676.5000     1.0103    85.8463
 2677.0000     1.0062    85.7387
 2677.5000     1.0021    85.6311
 2678.0000     0.9980    85.5234
 2678.5000     0.9939    85.4158
 2679.0000     0.9898    85.3082
 2679.5000     0.9856    85.2005
 2680.0000     0.9815    85.0929
 2680.5000     0.9774    84.9853
 2681.0000     0.9733    84.8776
 2681.5000     0.9692    84.7700
 2682.0000     0.9651    84.6624
 2682.5000     0.9610    84.5548
 2683.0000     0.9569    84.4471
 2683.5000     0.9528    84.3395
 2684.0000     1.0475    84.2319
 2684.5000     1.2536    84.2377
 2685.0000     1.2503    83.1689
 2685.5000     1.2470    81.1122
 2686.0000     1.2437    79.0565
 2686.5000     1.2404    77.0001
 2687.0000     1.2371    74.9440
 2687.5000     1.2338    72.8869
 2688.0000     1.2305    70.8305
 2688.5000     1.2272    68.7748
 2689.0000     1.2240    65.9101
 2689.5000     1.2207    62.7707
 2690.0000     0.9435    60.1254
 2690.5000     0.9390    58.1209
 2691.0000     0.9337    57.1727
 2691.5000     0.9284    56.2245
 2692.0000     1.0304    56.3326
 2692.5000     1.2180    55.3844
 2693.0000     1.2153    55.4925
 2693.5000     1.2127    55.6006
 2694.0000     0.9466    55.8587
 2694.5000     0.9453    56.1173
 2695.0000     0.9429    56.3760
 2695.5000     0.9406    56.6347
 2696.0000     0.9382    56.8934
 2696.5000     1.2428    57.1520
 2697.0000     1.2386    57.4499
 2697.5000     1.2343    57.5580
 2698.0000     1.2300    56.6097
 2698.5000     1.2258    54.6052
 2699.0000     1.2215    51.5443
 2699.5000     1.2172    51.6525
 2700.0000     1.4693    51.7606
 2700.5000     1.4674    50.7876
 2701.0000     1.4657    49.8641
 2701.5000     1.4639    49.9806
 2702.0000     1.4622    50.0915
 2702.5000     1.2493    50.2024
 2703.0000     1.2392    50.3134
 2703.5000     1.2501    50.4243
 2704.0000     1.2988    50.3168
 2704.5000     2.2234    49.3443
 2705.0000     2.2238    48.6444
 2705.5000     2.2242    48.7553
 2706.0000     2.2246    48.8662
 2706.5000     2.1631    48.9771
 2707.0000     1.7602    49.0880
