~VERSION INFORMATION
 VERS.                2.0:   CWLS LOG ASCII STANDARD - VERSION 2.0
 WRAP.                 NO:   ONE LINE PER DEPTH STEP
~WELL INFORMATION
#MNEM.UNIT      DATA TYPE    INFORMATION
#----------   ------------   ------------------------------
 STRT.F           30.0000:   START DEPTH
 STOP.F          480.0000:   STOP DEPTH
 STEP.F            0.5000:   STEP LENGTH
 NULL.          -999.2500:   NO VALUE
 COMP. FENIX & SCISSON INC:   COMPANY
 WELL.   51-SX-10 #NPR-10:   WELL
 FLD .             TEAPOT:   FIELD
 LOC .      S10 T38N R78W:   LOCATION
 CNTY.            NATRONA:   COUNTY
 STAT.            WYOMING:   STATE
 CTRY. UNITED STATES OF AMERICA:   COUNTRY
 SRVC.              Welex:   SERVICE COMPANY
 DATE.        13-MAR-1977:   LOGDATE
 API .       490251031000:   API NUMBER
~CURVE INFORMATION
#MNEM.UNIT       API CODE    CURVE DESCRIPTION
#----------   ------------   ------------------------------
 DEPT.F                  :   
 SGRD.OHMM   07 220 05 00:   SHALLOW GUARD RESISTIVITY
 ILD .OHMM   07 120 46 00:   INDUCTION LOG DEEP
 ILM .OHMM   07 120 44 00:   INDUCTION LOG MEDIUM
 SPR .MV     07 010 01 00:   SPONTANEOUS POTENTIAL
 RHOB.G/C3   45 350 01 00:   BULK DENSITY
 DPOR.DEC    45 890 12 00:   DENSITY POROSITY SANDSTONE
 CORR.G/C3   45 356 01 00:   DENSITY CORRECTION
 GRD .GAPI   45 310 01 00:   GAMMA RAY FROM DENSITY LOG
 CALD.IN     45 280 60 00:   CALIPER FROM DENSITY LOG
~PARAMETER INFORMATION
#MNEM.UNIT          VALUE    DESCRIPTION
#----------   ------------   ------------------------------
 PD  .                 GL:   PERMANENT DATUM
 EPD .F              5216:   ELEVATION PERMANENT DATUM
 LMF .                 GL:   LOG MEASURED FROM
 DMF .                 GL:   DRILLING MEASURED FROM
 EGL .F              5216:   GROUND LEVEL
 DATE.            3-13-77:   RUN DATE
 RUN .                  1:   RUN NUMBER
 DD  .F               490:   DEPTH DRILLER
 DL  .F               485:   DEPTH LOGGER
 BLI .F               483:   BOTTOM LOG INTERVAL
 TLI .F                35:   TOP LOG INTERVAL
 CS  .IN            8.625:   CASING SIZE
 CBD .F                40:   CASING BOTTOM DRILLER
 CBL .F                36:   CASING BOTTOM LOGGER
 BS  .IN            7.875:   BIT SIZE
 BSD .F               490:   BIT SIZE AT DEPTH
 DFT .            KCL MUD:   DRILLING FLUID TYPE
 DFD .                8.9:   DRILLING FLUID DENSITY
 DFV .                 34:   DRILLING FLUID VISCOSITY
 MSS .            MUD PIT:   MUD SAMPLE SOURCE
 RMS .OHMM            .43:   RESISTIVITY MUD SAMPLE
 MST .F                60:   MUD SAMPLE TEMPERATURE
 RMF .OHMM            .37:   RESISTIVITY MUD FILTRATE SAMPLE
 MFST.F                60:   MUD FILTRATE SAMPLE TEMPERATURE
 RMC .OHMM            .47:   RESISTIVITY MUD CAKE
 MCST.F                60:   MUD CAKE SAMPLE TEMPERATURE
 MFSS.           FANN KIT:   MUD FILTRATE SAMPLE SOURCE
 MCSS.           FANN KIT:   MUD CAKE SAMPLE SOURCE
 RMB .OHMM            .40:   RESISTIVITY MUD AT BHT
 BHT .F                63:   BOTTOM HOLE TEMPERATURE
 TCS .HRS             1.5:   TIME CURCULATED STOPPED
 MRT .F                63:   MAXIMUM RECORDED TEMPERATURE
 LUN .               8611:   LOGGING UNIT NUMBER
 LUL .             CASPER:   LOGGING UNIT LOCATION
 ENGI.               DOAK:   RECORDING ENGINEER
 WITN.         STUEBINGER:   WITNESSED BY
 CLNT.            A2DTECH:   CLIENT CODE
 ORIG.       2", 5" PRINT:   ORIGIN OF DATA
 UWI .       490251031000:   UNIQUE WELL ID
 DICO. A2D Technologies, Inc.:   DIGITIZING COMPANY
~OTHER INFORMATION
~A   DEPT     SGRD        ILD        ILM        SPR       RHOB       DPOR        CORR       GRD       CALD   
# ...
  431.5000    16.5513    11.0284    12.5476   -37.4748     2.5052     0.0855     0.1009   110.1290     7.8992
  432.0000    16.5643    11.0147    12.3984   -37.7044     2.4990     0.0894     0.0988   110.0612     7.8980
  432.5000    16.3245    11.0013    12.2510   -37.9327     2.4914     0.0932     0.0966   109.0767     7.8968
  433.0000    16.1488    10.9879    12.1054   -38.1608     2.4853     0.0966     0.0944   108.7558     7.8956
  433.5000    15.9750    10.9745    11.9615   -38.3889     2.4880     0.0962     0.0922   109.3545     7.8943
  434.0000    15.8031    10.9610    11.8194   -38.6171     2.4911     0.0943     0.0901   109.4861     7.8931
  434.5000    15.6330    10.9469    11.6789   -38.8452     2.4942     0.0923     0.0879   108.9836     7.8919
  435.0000    15.4648    10.9283    11.4156   -39.0733     2.4973     0.0904     0.0857   108.6986     7.8906
  435.5000    15.2983    10.9342    11.1348   -39.3014     2.5004     0.0885     0.0836   109.8321     7.8894
  436.0000    15.1339    10.4660    10.8491   -39.5295     2.4987     0.0866     0.0814   110.9339     7.8882
  436.5000    14.9726    10.1575    10.5345   -39.7577     2.4942     0.0923     0.0814   112.0288     7.8870
  437.0000    14.8152     9.8723    10.2291   -39.9854     2.4952     0.0916     0.0820   113.0610     7.8857
  437.5000    14.3616     9.5328     9.9325   -40.2096     2.4974     0.0894     0.0825   113.8151     7.8845
  438.0000    13.9366     9.2197     9.6445   -40.4589     2.4992     0.0920     0.0831   114.5722     7.8833
  438.5000    13.5260     8.9169     9.3649   -41.0918     2.4910     0.0947     0.0836   115.3256     7.8821
  439.0000    13.3292     8.5838     9.0933   -41.7119     2.4863     0.0962     0.0842   116.1161     7.8808
  439.5000    13.1818     8.2171     8.8297   -42.3282     2.4841     0.0970     0.0847   117.7069     7.8796
  440.0000    12.8677     7.8650     8.5737   -42.9439     2.4820     0.0987     0.0852   120.3499     7.8784
  440.5000    12.5610     7.5350     8.2510   -43.5597     2.4764     0.1022     0.0858   124.7578     7.8772
  441.0000    12.2616     6.9642     7.5707   -44.1755     2.4676     0.1057     0.0863   129.1100     7.8759
  441.5000    11.9693     6.4106     6.9465   -44.7910     2.4589     0.1092     0.0869   132.6406     7.8747
  442.0000    11.3529     5.8982     6.3737   -45.4075     2.4501     0.1141     0.0855   134.5587     7.8735
  442.5000    10.6145     5.4272     5.8481   -46.0517     2.4413     0.1214     0.0828   136.5164     7.8723
  443.0000     8.7950     4.9938     5.3647   -46.2100     2.4325     0.1288     0.0801   138.4713     7.8710
  443.5000     6.3540     4.9410     4.9236   -46.1800     2.4235     0.1361     0.0774   139.9445     7.8700
  444.0000     4.1635     5.0188     4.5472   -45.6233     2.4153     0.1394     0.0748   132.8969     7.8706
  444.5000     6.2801     5.3119     5.3083   -45.0767     2.4369     0.1233     0.0735   123.0495     7.8711
  445.0000    11.7571     5.6218     5.9989   -44.6793     2.4604     0.1113     0.0751   120.3054     7.8717
  445.5000    13.8904     5.9515     6.4132   -44.4014     2.4751     0.1043     0.0766   120.0958     7.8722
  446.0000    13.7037     6.2921     6.9936   -44.1296     2.4698     0.1069     0.0774   121.8036     7.8727
  446.5000    13.5111     6.9049     7.7912   -43.8577     2.4646     0.1095     0.0779   122.9948     7.8732
  447.0000    13.5111     7.6058     8.2147   -43.5856     2.4668     0.1083     0.0784   122.7702     7.8738
  447.5000    13.5111     7.9640     8.4491   -43.3134     2.4713     0.1047     0.0789   122.1024     7.8743
  448.0000    13.4925     8.1502     8.6883   -43.0414     2.4689     0.1030     0.0771   122.2554     7.8748
  448.5000    13.4568     8.3408     8.9352   -42.7685     2.4602     0.1107     0.0743   122.9573     7.8753
  449.0000    13.4194     8.5359     9.1892   -42.4868     2.4514     0.1156     0.0716   123.0253     7.8759
  449.5000    13.3869     8.6777     9.4503   -42.2668     2.4428     0.1206     0.0689   122.7868     7.8764
  450.0000    13.6722     8.9005     9.6917   -42.1086     2.4379     0.1216     0.0662   121.6949     7.8769
  450.5000    13.9374     9.1127     9.9181   -41.9597     2.4435     0.1188     0.0635   120.6205     7.8774
  451.0000    14.4287     9.3287    10.1286   -41.8097     2.4489     0.1160     0.0610   120.7573     7.8780
  451.5000    15.0384     9.5498    10.3435   -41.6594     2.4542     0.1132     0.0611   121.0642     7.8785
  452.0000    15.2772     9.7761    10.5630   -41.5090     2.4602     0.1081     0.0644   120.7322     7.8790
  452.5000    15.3381    10.0079    10.7871   -41.3589     2.4803     0.0957     0.0677   119.8681     7.8795
  453.0000    15.5963    10.2451    11.0160   -41.2153     2.4970     0.0918     0.0710   117.6563     7.8801
  453.5000    16.0552    10.4879    11.2498   -41.1125     2.4972     0.0898     0.0743   115.4846     7.8806
  454.0000    16.4193    10.7365    11.4884   -41.0133     2.4989     0.0878     0.0776   113.9726     7.8811
  454.5000    16.4881    10.9910    11.7322   -40.9142     2.5027     0.0859     0.0808   115.4903     7.8816
  455.0000    16.5572    11.2339    11.9367   -40.8150     2.5017     0.0868     0.0842   117.1209     7.8822
  455.5000    16.6266    11.4116    12.1380   -40.7159     2.4934     0.0920     0.0843   115.5343     7.8827
  456.0000    16.6962    11.5808    12.3427   -40.6167     2.4849     0.0973     0.0822   113.8272     7.8832
  456.5000    17.1845    11.7525    12.5509   -40.5172     2.4846     0.0974     0.0801   112.1357     7.8837
  457.0000    17.6572    11.9268    12.7625   -40.4213     2.4875     0.0969     0.0779   110.8889     7.8843
  457.5000    17.0995    12.0948    12.9778   -40.3981     2.4852     0.0964     0.0758   111.2453     7.8848
  458.0000    16.7078    12.1285    13.1421   -40.3781     2.4779     0.0998     0.0737   111.5772     7.8853
  458.5000    16.8280    12.1601    13.1026   -40.3577     2.4707     0.1055     0.0715   111.9037     7.8858
  459.0000    17.1624    12.1920    13.0650   -40.3373     2.4633     0.1112     0.0694   112.1024     7.8864
  459.5000    17.6425    12.2241    13.0275   -40.3168     2.4667     0.1146     0.0689   112.1018     7.8869
  460.0000    18.1362    12.2562    12.9901   -40.2964     2.4770     0.1028     0.0733   112.1016     7.8874
  460.5000    18.3212    12.2885    12.9528   -40.2759     2.4875     0.0944     0.0788   111.9583     7.8879
  461.0000    17.9107    12.3191    12.9157   -40.2555     2.4969     0.0912     0.0807   110.9693     7.8885
  461.5000    17.5211    12.2656    12.8786   -40.2351     2.4977     0.0899     0.0825   109.9745     7.8890
  462.0000    17.1399    12.2128    12.8416   -40.2146     2.4987     0.0886     0.0843   109.0263     7.8895
  462.5000    16.7670    12.1602    12.8048   -40.1942     2.4997     0.0873     0.0861  -999.2500     7.8900
  463.0000    16.5526    12.1079    12.7697   -40.1737     2.5041     0.0860     0.0879  -999.2500     7.8904
  463.5000    16.5640    12.0558    12.7372   -40.1533     2.5085     0.0832     0.0896  -999.2500     7.8910
  464.0000    16.6185    12.0040    12.7046   -40.1329     2.5131     0.0802     0.0904  -999.2500     7.8916
  464.5000    16.6732    11.9042    12.6734   -40.1124     2.5049     0.0826     0.0869  -999.2500     7.8922
  465.0000    16.7057    11.7110    12.5171   -40.0920     2.4945     0.0897     0.0837  -999.2500     7.8928
  465.5000    16.5764    11.5193    12.3342   -40.0717     2.4841     0.0969     0.0804  -999.2500     7.8934
  466.0000    16.4840    11.2393    12.1540   -40.0511     2.4742     0.1050     0.0771  -999.2500     7.8940
  466.5000    16.3923    10.9030    11.9766   -40.0294     2.4778     0.1022     0.0737  -999.2500     7.8945
  467.0000    16.3011    10.5774    11.8028   -39.9494     2.4853     0.0976     0.0752  -999.2500     7.8951
  467.5000    16.2105    10.2616    11.4558   -39.8002     2.4929     0.0929     0.0781  -999.2500     7.8957
