~VERSION INFORMATION
 VERS.                2.0:   CWLS LOG ASCII STANDARD - VERSION 2.0
 WRAP.                 NO:   ONE LINE PER DEPTH STEP
~WELL INFORMATION
#MNEM.UNIT      DATA TYPE    INFORMATION
#----------   ------------   ------------------------------
 STRT.F            0.0000:   START DEPTH
 STOP.F          500.0000:   STOP DEPTH
 STEP.F            0.5000:   STEP LENGTH
 NULL.          -999.2500:   NO VALUE
 COMP. Fluor Daniel (NPOSR) Inc:   COMPANY
 WELL.  NPR ##3 72-4-X-10:   WELL
 FLD .             TEAPOT:   FIELD
 LOC .      S10 T38N R78W:   LOCATION
 CNTY.            NATRONA:   COUNTY
 STAT.            WYOMING:   STATE
 CTRY. UNITED STATES OF AMERICA:   COUNTRY
 SRVC.      Western Atlas:   SERVICE COMPANY
 DATE.        28-APR-1996:   LOGDATE
 API .       490252278000:   API NUMBER
~CURVE INFORMATION
#MNEM.UNIT       API CODE    CURVE DESCRIPTION
#----------   ------------   ------------------------------
 DEPT.F                  :   
 GRR .GAPI   07 310 01 00:   GAMMA RAY FROM RES. LOG.
 RILD.OHMM   07 120 46 00:   INDUCTION LOG DEEP RESISTIVITY
 RILM.OHMM   07 120 44 00:   INDUCTION LOG MEDIUM RESISTIVITY
~PARAMETER INFORMATION
#MNEM.UNIT          VALUE    DESCRIPTION
#----------   ------------   ------------------------------
 PD  .                 GL:   PERMANENT DATUM
 EPD .F            5165.5:   ELEVATION PERMANENT DATUM
 LMF .                 KB:   LOG MEASURED FROM
 DAPD.F                10:   FEET ABOVE PERMANENT DATUM
 DMF .                 KB:   DRILLING MEASURED FROM
 EKB .F            5175.5:   KELLING BUSHING
 EDF .F            5174.5:   DRILLING FLOOR
 EGL .F            5165.5:   GROUND LEVEL
 DATE.        28-APR-1996:   RUN DATE
 RUN .                  1:   RUN NUMBER
 DD  .F               505:   DEPTH DRILLER
 DL  .F               506:   DEPTH LOGGER
 BLI .F               497:   BOTTOM LOG INTERVAL
 CS  .IN            9.625:   CASING SIZE
 CBD .F                95:   CASING BOTTOM DRILLER
 CBL .F                96:   CASING BOTTOM LOGGER
 BS  .IN             8.75:   BIT SIZE
 BSD .F               505:   BIT SIZE AT DEPTH
 DFT .                AIR:   DRILLING FLUID TYPE
 MRT .F                80:   MAXIMUM RECORDED TEMPERATURE
 LUN .            HL-6530:   LOGGING UNIT NUMBER
 LUL .             CASPER:   LOGGING UNIT LOCATION
 ENGI.             RAUTIO:   RECORDING ENGINEER
 WITN.              HARDY:   WITNESSED BY
 CLNT.            A2DTECH:   CLIENT CODE
 ORIG.       2", 5" PRINT:   ORIGIN OF DATA
 UWI .       490252278000:   UNIQUE WELL ID
 DICO. A2D Technologies, Inc.:   DIGITIZING COMPANY
~OTHER INFORMATION
~A    DEPT      GRR      RILD       RILM   
# ...
  364.0000   101.4820    12.0134    11.9835
  364.5000   100.6627    11.9835    11.9888
  365.0000   101.5566    11.9835    11.8789
  365.5000   104.0685    11.9835    12.0070
  366.0000   104.9958    12.0389    12.0899
  366.5000   104.8559    12.1697    12.1736
  367.0000   104.7059    12.3020    12.2578
  367.5000   103.7134    12.4357    12.3427
  368.0000   100.7803    12.5709    12.4282
  368.5000    97.8928    12.7075    12.5142
  369.0000    96.1632    12.7832    12.6012
  369.5000    96.8571    12.7832    12.6645
  370.0000    97.8513    12.7832    12.6728
  370.5000    98.8593    12.7862    12.5495
  371.0000    99.0042    12.5368    12.3748
  371.5000    99.2964    12.2604    12.1757
  372.0000   100.3390    11.9883    11.9799
  372.5000   104.4964    11.7221    11.7872
  373.0000   105.4306    11.4614    11.5976
  373.5000   104.9261    11.1307    11.4111
  374.0000   105.0487    11.2339    11.2275
  374.5000   107.2393    11.0689    11.0470
  375.0000   110.9378    10.9271    10.9271
  375.5000   114.6117    10.9508    11.0096
  376.0000   117.8325    10.9847    11.1307
  376.5000   115.9413    11.0187    11.2040
  377.0000   109.0117    11.3278    11.5492
  377.5000   101.2325    11.9835    12.2068
  378.0000    97.7585    13.0106    12.9731
  378.5000    98.6983    14.2266    14.6182
  379.0000    98.4890    15.6172    16.4718
  379.5000    91.3627    17.5931    18.5605
  380.0000    84.1738    19.8189    20.9235
  380.5000    79.9013    22.3263    23.7084
  381.0000    78.8224    25.1510    25.6376
  381.5000    81.1417    28.3330    27.1210
  382.0000    84.0125    30.2293    27.7533
  382.5000    83.8506    30.7187    27.4983
  383.0000    82.5897    30.2168    26.4881
  383.5000    81.2951    29.4788    25.5243
  384.0000    81.0621    28.4011    24.5956
  384.5000    79.4371    27.5032    23.7007
  385.0000    78.0602    26.8464    23.2399
  385.5000    78.1721    26.2052    22.9024
  386.0000    80.3151    25.5794    22.5697
  386.5000    80.8012    24.9685    22.2393
  387.0000    81.3744    24.6785    22.2883
  387.5000    83.6222    24.3903    22.3711
  388.0000    84.6528    24.4449    22.4542
  388.5000    84.8781    24.5398    22.5375
  389.0000    87.1875    24.6156    22.6212
  389.5000    90.4715    24.1595    22.6537
  390.0000    89.6365    23.7892    21.7531
  390.5000    84.6718    23.3907    21.1381
  391.0000    80.4365    22.8709    20.5405
  391.5000    79.5389    22.3655    20.0281
  392.0000    82.3912    21.8706    19.7516
  392.5000    87.7035    21.3868    19.5438
  393.0000    92.9601    20.9116    19.5771
  393.5000    95.1948    20.6113    19.4359
  394.0000    95.5327    20.4193    19.2957
  394.5000    94.0319    20.2309    19.1565
  395.0000    92.2661    20.0443    19.0182
  395.5000    93.5055    19.9079    18.8812
  396.0000    95.3799    19.9079    18.8355
  396.5000    94.8716    19.9079    19.0102
  397.0000    92.0298    19.9077    19.1111
  397.5000    90.5564    19.9082    19.2315
  398.0000    90.7824    19.9135    19.3603
  398.5000    94.2424    19.6596    19.3814
  399.0000    95.3092    19.4332    19.0102
  399.5000    93.4593    19.3643    18.4359
  400.0000    88.7386    19.3649    17.8746
  400.5000    85.2813    19.0595    17.4536
  401.0000    86.9238    18.7261    17.3188
  401.5000    89.5086    18.3983    17.1851
  402.0000    90.1876    18.0765    17.0173
  402.5000    89.5036    17.7603    17.1750
  403.0000    89.9162    17.4639    16.8910
  403.5000    90.8511    17.2532    16.6455
  404.0000    92.8196    17.0452    16.4035
  404.5000    94.4821    16.8399    16.1651
  405.0000    96.5653    16.6364    15.9301
  405.5000    99.1795    16.3298    15.6985
  406.0000   101.4216    15.9551    15.4703
  406.5000   100.9678    15.6582    15.2454
  407.0000    98.8022    15.5918    15.0238
  407.5000    97.3733    15.5225    14.8054
  408.0000    97.8000    15.4539    14.6812
  408.5000   100.1618    15.3745    14.8890
  409.0000   101.9684    15.4818    15.0366
  409.5000   100.8742    15.6109    15.1857
  410.0000    98.8660    15.7411    15.3363
  410.5000    93.8782    15.8724    15.4884
  411.0000    90.6033    16.0048    15.6418
  411.5000    90.7519    16.1006    15.7125
  412.0000    93.5158    16.1006    15.7708
  412.5000    95.4365    16.1006    15.8298
  413.0000    96.2693    16.1005    15.8895
  413.5000    96.4546    16.1005    15.9527
  414.0000    96.9727    16.1016    15.7236
  414.5000    98.6883    16.0072    15.4774
  415.0000   100.1828    15.7262    15.2350
  415.5000    99.8934    15.4496    14.9965
  416.0000    98.5445    15.1782    14.7617
  416.5000    97.4219    14.9112    14.5306
  417.0000    97.8731    14.6468    14.3031
  417.5000    98.1885    14.3871    14.0791
  418.0000    96.5570    14.0544    13.8586
  418.5000    94.5508    13.8095    13.6418
  419.0000    95.6498    13.6934    13.4281
  419.5000    97.5324    13.6065    13.3606
  420.0000    98.2119    13.5207    13.3173
  420.5000    98.9230    13.4352    13.2741
  421.0000    99.3141    13.3421    13.2311
  421.5000    98.9442    13.2391    13.1883
  422.0000    97.0366    13.1369    13.1455
  422.5000    96.1909    13.0214    13.1029
  423.0000    97.4435    13.0318    13.0604
  423.5000    99.9670    13.0478    13.0214
  424.0000   101.0122    13.0639    13.0214
  424.5000    99.8791    13.0799    13.0214
  425.0000    99.3182    13.0959    13.0214
  425.5000   100.2577    13.1123    13.0214
  426.0000   102.8098    13.1284    13.0214
  426.5000   104.6462    13.1421    13.0215
  427.0000   106.4306    13.0108    13.0218
  427.5000   108.8218    12.8949    12.9453
  428.0000   110.6059    12.7801    12.8421
  428.5000   109.8090    12.6660    12.7399
  429.0000   107.4723    12.5499    12.6384
  429.5000   104.5721    12.4582    12.5378
  430.0000   102.6912    12.3642    12.4380
  430.5000   101.0379    12.2709    12.3389
  431.0000   101.2896    12.1784    12.2407
  431.5000   101.6065    12.0865    12.1432
  432.0000   102.6553    11.9953    12.0465
  432.5000   106.1850    11.9048    11.9503
  433.0000   108.4339    11.8150    11.8545
  433.5000   109.4345    11.7644    11.7650
  434.0000   109.0439    11.8687    11.9002
  434.5000   107.5995    11.9540    12.0348
  435.0000   105.8604    12.0398    12.1699
  435.5000   104.7331    12.1263    12.3065
  436.0000   105.4061    12.2068    12.4396
  436.5000   107.8523    12.1427    12.3143
  437.0000   108.9849    12.0834    12.4001
  437.5000   107.4211    12.0244    12.2593
  438.0000   105.7769    11.9410    12.1225
  438.5000   106.3692    11.8030    11.9871
  439.0000   110.4806    11.6563    11.8533
  439.5000   114.9074    11.5612    11.7210
  440.0000   115.2409    11.4592    11.5901
  440.5000   113.3885    11.3571    11.4607
  441.0000   113.0610    11.2620    11.3328
  441.5000   113.0869    11.0847    11.2062
  442.0000   112.1013    11.0119    11.0811
  442.5000   107.5809    10.9360    10.9930
  443.0000   107.3585    10.8608    10.9319
  443.5000   109.0389    10.7864    10.8710
  444.0000   112.1125    10.7273    10.8105
  444.5000   113.8134    10.8267    10.7503
  445.0000   113.4172    10.7651    10.6182
  445.5000   112.0367    10.4871    10.4433
  446.0000   112.4862    10.2163    10.2712
  446.5000   112.9940     9.9638    10.0662
  447.0000   112.5872     9.6912     9.8585
  447.5000   111.1296     9.4370     9.6551
  448.0000   109.9184     9.2220     9.4558
  448.5000   112.0710     9.1003     9.2607
  449.0000   117.4908     8.7241     9.0854
  449.5000   122.3971     8.1350     8.3938
  450.0000   122.5745     7.3998     7.5930
  450.5000   121.8510     6.7311     6.7870
  451.0000   122.1976     6.1228     6.0666
  451.5000   124.7550     5.5901     5.4213
  452.0000   127.7144     5.3689     5.0959
  452.5000   136.3320     5.3679     5.0316
  453.0000   147.5442     5.4185     5.2951
  453.5000   150.0509     5.5096     5.7537
  454.0000   137.4424     5.6495     6.2254
  454.5000   121.4711     5.7792     6.8516
