~VERSION INFORMATION
 VERS.                2.0:   CWLS LOG ASCII STANDARD - VERSION 2.0
 WRAP.                 NO:   ONE LINE PER DEPTH STEP
~WELL INFORMATION
#MNEM.UNIT      DATA TYPE    INFORMATION
#----------   ------------   ------------------------------
 STRT.F           33.0000:   START DEPTH
 STOP.F          957.0000:   STOP DEPTH
 STEP.F            0.5000:   STEP LENGTH
 NULL.          -999.2500:   NO VALUE
 COMP. TESORO PETROLEUM CORP:   COMPANY
 WELL.  NPR #3 46-S-14 #3:   WELL
 FLD .             TEAPOT:   FIELD
 LOC .      S14 T38N R78W:   LOCATION
 CNTY.            NATRONA:   COUNTY
 STAT.            WYOMING:   STATE
 CTRY. UNITED STATES OF AMERICA:   COUNTRY
 SRVC.       Schlumberger:   SERVICE COMPANY
 DATE.        25-JUN-1970:   LOGDATE
 API .       490251023100:   API NUMBER
~CURVE INFORMATION
#MNEM.UNIT       API CODE    CURVE DESCRIPTION
#----------   ------------   ------------------------------
 DEPT.F                  :   
 SPR .MV     05 010 01 00:   SPONTANEOUS POTENTIAL FROM RES.
 ILD .OHMM   05 120 46 00:   INDUCTION LOG DEEP
 CILD.MMHO   05 110 46 00:   CONDUCTIVITY INDUCTION LOG DEEP
 ASN .OHMM   05 041 16 00:   AMPLIFIED SHORT NORMAL 16"
 GR  .GAPI   30 310 01 00:   GAMMA RAY
 CALD.IN     45 280 60 00:   CALIPER FROM DENSITY LOG
 CORR.G/C3   45 356 01 00:   DENSITY CORRECTION
 DPHI.DEC    45 890 12 00:   DENSITY POROSITY SANDSTONE
 RHOB.G/C3   45 350 01 00:   BULK DENSITY
~PARAMETER INFORMATION
#MNEM.UNIT          VALUE    DESCRIPTION
#----------   ------------   ------------------------------
 PD  .                 GL:   PERMANENT DATUM
 EPD .F              5271:   ELEVATION PERMANENT DATUM
 LMF .                 KB:   LOG MEASURED FROM
 DAPD.F                10:   FEET ABOVE PERMANENT DATUM
 DMF .                 KB:   DRILLING MEASURED FROM
 EKB .F              5281:   KELLING BUSHING
 EDF .F              5280:   DRILLING FLOOR
 EGL .F              5271:   GROUND LEVEL
 DATE.        25-JUN-1970:   RUN DATE
 RUN .                  1:   RUN NUMBER
 DD  .F               950:   DEPTH DRILLER
 DL  .F               958:   DEPTH LOGGER
 BLI .F               957:   BOTTOM LOG INTERVAL
 TLI .F                33:   TOP LOG INTERVAL
 CS  .IN            10.75:   CASING SIZE
 CBD .F                30:   CASING BOTTOM DRILLER
 CBL .F                33:   CASING BOTTOM LOGGER
 BS  .IN                9:   BIT SIZE
 BSD .F               950:   BIT SIZE AT DEPTH
 DFT .         MO-MAR MUD:   DRILLING FLUID TYPE
 DFD .                9.7:   DRILLING FLUID DENSITY
 DFV .                 62:   DRILLING FLUID VISCOSITY
 DFPH.                7.4:   DRILLING FLUID PH
 DFL .                5.6:   DRILLING FLUID LOSS
 MSS .           FLOWLINE:   MUD SAMPLE SOURCE
 RMS .OHMM           1.40:   RESISTIVITY MUD SAMPLE
 MST .F                85:   MUD SAMPLE TEMPERATURE
 RMF .OHMM           0.85:   RESISTIVITY MUD FILTRATE SAMPLE
 MFST.F                87:   MUD FILTRATE SAMPLE TEMPERATURE
 MFSS.               MEAS:   MUD FILTRATE SAMPLE SOURCE
 RMB .OHMM           1.06:   RESISTIVITY MUD AT BHT
 BHT .F               112:   BOTTOM HOLE TEMPERATURE
 TCS .HRS               1:   TIME CURCULATED STOPPED
 MRT .F               112:   MAXIMUM RECORDED TEMPERATURE
 LUN .               7037:   LOGGING UNIT NUMBER
 LUL .                GLT:   LOGGING UNIT LOCATION
 ENGI.           KNOSTMAN:   RECORDING ENGINEER
 WITN.                MAY:   WITNESSED BY
 CLNT.            A2DTECH:   CLIENT CODE
 ORIG.         2.5" PRINT:   ORIGIN OF DATA
 UWI .       490251023100:   UNIQUE WELL ID
 DICO. A2D Technologies, Inc.:   DIGITIZING COMPANY
~OTHER INFORMATION
~A   DEPT       SPR        ILD       CILD       ASN         GR       CALD       CORR       DPHI       RHOB   
# ...
  507.5000   -35.4711     6.8523   149.9948     7.3682  -999.2500     9.3830     0.0147     0.0993     2.4963
  508.0000   -35.7699     6.9576   149.9696     7.3988  -999.2500     9.3831     0.0228     0.0975     2.5100
  508.5000   -36.0669     7.0083   149.9389     7.3991  -999.2500     9.3833     0.0251     0.0907     2.5206
  509.0000   -36.0599     7.0106   149.9088     7.3994  -999.2500     9.3834     0.0128     0.0879     2.5296
  509.5000   -36.3587     7.0784   148.5359     7.4360  -999.2500     9.3835     0.0128     0.0977     2.4796
  510.0000   -36.3526     7.1667   146.8085     7.4606  -999.2500     9.3837     0.0128     0.1120     2.4599
  510.5000   -36.3465     7.1689   146.2652     7.5216  -999.2500     9.3838     0.0097     0.1145     2.4674
  511.0000   -36.3404     7.1712   145.2280     7.5825  -999.2500     9.3840     0.0066     0.1170     2.4642
  511.5000   -36.2584     7.2550   143.6778     7.6436  -999.2500     9.3845     0.0083     0.1218     2.4447
  512.0000   -36.0243     7.3276   143.3436     7.7172  -999.2500     9.3860     0.0127     0.1194     2.4491
  512.5000   -36.0178     7.4242   140.5775     7.7778  -999.2500     9.3874     0.0118     0.1143     2.4748
  513.0000   -35.7082     7.4833   139.7112     7.8867  -999.2500     9.3889     0.0065     0.1081     2.4854
  513.5000   -35.3982     7.4856   137.4734     7.9476  -999.2500     9.3903     0.0018     0.1049     2.4823
  514.0000   -35.3921     7.4879   135.9257     8.0396  -999.2500     9.3917     0.0008     0.1079     2.4713
  514.5000   -35.3860     7.4902   134.3769     8.1812  -999.2500     9.3932     0.0080     0.1122     2.4671
  515.0000   -35.6830     7.4924   132.8268     8.3384  -999.2500     9.3946     0.0126     0.1080     2.4842
  515.5000   -35.6773     7.4948   132.7964     8.4337  -999.2500     9.3961     0.0142     0.1032     2.4905
  516.0000   -35.6717     7.4970   132.7604     8.4340  -999.2500     9.3975     0.0387     0.0917     2.5104
  516.5000   -35.9701     7.4992   131.2127     8.4026  -999.2500     9.3989     0.0303     0.0911     2.5124
  517.0000   -35.9635     7.5015   131.1847     8.3665  -999.2500     9.4004     0.0238     0.0968     2.5048
  517.5000   -35.9574     7.5038   131.1550     8.3136  -999.2500     9.4018     0.0180     0.0996     2.4972
  518.0000   -35.9514     7.5063   129.1490     8.3140  -999.2500     9.4033     0.0125     0.1049     2.4908
  518.5000   -35.9448     7.6600   127.3328     8.3749  -999.2500     9.4047     0.0110     0.1094     2.4736
  519.0000   -35.9392     7.8136   124.9799     8.5321  -999.2500     9.4062     0.0156     0.1184     2.4516
  519.5000   -35.9331     7.9092   121.9124     8.7790  -999.2500     9.4076     0.0156     0.1178     2.4668
  520.0000   -35.9271     8.0758   120.3647     9.0687  -999.2500     9.4079     0.0061     0.1094     2.4812
  520.5000   -35.9210     8.2096   118.2827     9.3458  -999.2500     9.4076    -0.0017     0.1058     2.4848
  521.0000   -35.9149     8.4846   114.7188     9.4067  -999.2500     9.4072    -0.0060     0.1095     2.4726
  521.5000   -35.9083     8.6511   113.0357     9.4722  -999.2500     9.4069     0.0095     0.1152     2.4605
  522.0000   -35.9027     8.7475   109.6007     9.5673  -999.2500     9.4066     0.0250     0.1077     2.4589
  522.5000   -35.8967     9.0574   108.6881     9.6793  -999.2500     9.4063     0.0308     0.0918     2.5007
  523.0000   -35.8906     9.1955   106.5046     9.8019  -999.2500     9.4060     0.0201     0.0907     2.5097
  523.5000   -35.8845     9.3497   104.6126     9.9537  -999.2500     9.4057     0.0139     0.0907     2.5124
  524.0000   -35.8775     9.3518   103.4043     9.9915  -999.2500     9.4054     0.0201     0.0907     2.5126
  524.5000   -35.8723     9.6569   103.3679    10.0009  -999.2500     9.4051     0.0312     0.0796     2.5193
  525.0000   -35.8663     9.6591   103.3400    10.0103  -999.2500     9.3746     0.0369     0.0714     2.5330
  525.5000   -35.6829     9.6614   103.3120    10.1670  -999.2500     9.3743     0.0275     0.0718     2.5390
  526.0000   -35.4151     9.6636   101.7629    10.0157  -999.2500     9.4042     0.0139     0.0783     2.5268
  526.5000   -35.2401     9.8179   103.2561    10.0161  -999.2500     9.4039     0.0030     0.1040     2.4975
  527.0000   -35.3354     9.8197   103.2219    10.0164  -999.2500     9.4036    -0.0016     0.1084     2.4825
  527.5000   -35.5319     9.8220   103.1862    10.0167  -999.2500     9.4033    -0.0001     0.1090     2.4752
  528.0000   -35.5258     9.7552   103.1611    10.0170  -999.2500     9.4030     0.0122     0.1090     2.4782
  528.5000   -35.5198     9.6747   103.1307    10.0173  -999.2500     9.3725     0.0168     0.1139     2.4630
  529.0000   -35.5137     9.6773   103.1003     9.9479  -999.2500     9.3722     0.0119     0.1134     2.4720
  529.5000   -35.5076     9.6795   104.7131     9.8664  -999.2500     9.3719     0.0086     0.1076     2.4826
  530.0000   -35.5006     9.6821   105.5091     9.8667  -999.2500     9.3414     0.0060     0.1018     2.4932
  530.5000   -35.4950     9.6842   106.5615     9.8564  -999.2500     9.3411     0.0060     0.1025     2.4824
  531.0000   -35.7933     9.6864   107.5380     9.6744  -999.2500     9.3408     0.0214     0.1037     2.4810
  531.5000   -35.7872     9.6887   107.5076     9.4130  -999.2500     9.3103     0.0367     0.0952     2.4910
  532.0000   -35.7812     9.6909   107.4772     9.4134  -999.2500     9.3100     0.0275     0.0886     2.5025
  532.5000   -35.7751     9.6932   108.0169     9.4137  -999.2500     9.3399     0.0243     0.0855     2.5105
  533.0000   -35.7681     9.6955   108.9362     9.5655  -999.2500     9.3395     0.0147     0.0850     2.5127
  533.5000   -35.4590     9.6977   108.9058     9.6097  -999.2500     9.3392     0.0105     0.0952     2.5050
  534.0000   -35.3009     9.7562   108.8740     9.7176  -999.2500     9.3390     0.0211     0.1028     2.4944
  534.5000   -35.1429     9.8538   108.9592     9.7179  -999.2500     9.3387     0.0382     0.0965     2.4898
  535.0000   -35.1368     9.8561   110.3378     9.8697  -999.2500     9.3409     0.0443     0.0838     2.5030
  535.5000   -35.1307     9.8583   111.8297     9.8856  -999.2500     9.3683     0.0320     0.0813     2.5138
  536.0000   -35.1237     9.8608   111.7933    10.0218  -999.2500     9.3982     0.0304     0.0857     2.5148
  536.5000   -34.8141     9.8629   110.2400    10.2509  -999.2500     9.3979     0.0243     0.0948     2.5107
  537.0000   -34.8085    10.0167   108.6923    10.3255  -999.2500     9.3976     0.0161     0.0998     2.5017
  537.5000   -34.4985    10.0189   106.9528    10.4773  -999.2500     9.3972     0.0082     0.1026     2.4956
  538.0000   -34.4924    10.1318   102.5532    10.6291  -999.2500     9.3970     0.0042     0.0966     2.5047
  538.5000   -34.4863    10.3265   101.0030    10.6294  -999.2500     9.4269     0.0086     0.0867     2.5169
  539.0000   -34.4802    10.3290    99.4480    10.6297  -999.2500     9.4266     0.0119     0.0797     2.5230
  539.5000   -34.4737    10.3311    99.4200    10.7816  -999.2500     9.4263     0.0124     0.0767     2.5258
  540.0000   -34.4681    10.4848    99.3921    10.6303  -999.2500     9.4260     0.0118     0.0828     2.5209
  540.5000   -34.4620    10.4871   100.8839    10.6099  -999.2500     9.4257     0.0088     0.0997     2.5097
  541.0000   -34.4559    10.3379   102.3757    10.3041  -999.2500     9.4254     0.0056     0.1010     2.5035
  541.5000   -34.4498    10.1890   104.6580    10.1503  -999.2500     9.4250     0.0026     0.1017     2.4999
  542.0000   -34.4428     9.8881   106.8651     9.9127  -999.2500     9.4247     0.0034     0.1022     2.4953
  542.5000   -34.4372     9.7386   108.3587     9.6016  -999.2500     9.4245     0.0078     0.1031     2.4897
  543.0000   -34.4316     9.4161   109.9239     9.5412  -999.2500     9.4544     0.0118     0.1058     2.4846
  543.5000   -34.4255     9.1368   111.6792     9.4795  -999.2500     9.4495     0.0179     0.1046     2.5001
