~VERSION INFORMATION
 VERS.                2.0:   CWLS LOG ASCII STANDARD - VERSION 2.0
 WRAP.                 NO:   ONE LINE PER DEPTH STEP
~WELL INFORMATION
#MNEM.UNIT      DATA TYPE    INFORMATION
#----------   ------------   ------------------------------
 STRT.F           30.0000:   START DEPTH
 STOP.F         2432.5000:   STOP DEPTH
 STEP.F            0.5000:   STEP LENGTH
 NULL.          -999.2500:   NO VALUE
 COMP. FENIX & SCISSON INC:   COMPANY
 WELL.     72 SHX 4 #72-4:   WELL
 FLD .             TEAPOT:   FIELD
 LOC .       S4 T38N R78W:   LOCATION
 CNTY.            NATRONA:   COUNTY
 STAT.            WYOMING:   STATE
 CTRY. UNITED STATES OF AMERICA:   COUNTRY
 SRVC.           BIRDWELL:   SERVICE COMPANY
 DATE.        05-MAR-1979:   LOGDATE
 API .       490251074300:   API NUMBER
~CURVE INFORMATION
#MNEM.UNIT       API CODE    CURVE DESCRIPTION
#----------   ------------   ------------------------------
 DEPT.F                  :   
 SPR .MV     05 010 01 00:   SPONTANEOUS POTENTIAL FROM RES.
 SN  .OHMM   05 040 16 00:   SHORT NORMAL 16"
 ILD .OHMM   05 120 46 00:   INDUCTION LOG DEEP
 CALD.IN     45 280 60 00:   CALIPER
 GRD .GAPI   45 310 01 00:   GAMMA RAY FROM DENSITY LOG
 RHOB.G/C3   45 350 01 00:   BULK DENSITY
 CORR.G/C3   45 356 01 00:   DENSITY CORRECTION
 DPHI.DEC    45 890 12 00:   DENSITY POROSITY SANDSTONE
~PARAMETER INFORMATION
#MNEM.UNIT          VALUE    DESCRIPTION
#----------   ------------   ------------------------------
 PD  .                 GL:   PERMANENT DATUM
 EPD .F              5194:   ELEVATION PERMANENT DATUM
 LMF .                 KB:   LOG MEASURED FROM
 DAPD.F                10:   FEET ABOVE PERMANENT DATUM
 DMF .                 KB:   DRILLING MEASURED FROM
 EKB .F              5204:   KELLING BUSHING
 EGL .F              5194:   GROUND LEVEL
 DATE.             3-5-79:   RUN DATE
 RUN .                  1:   RUN NUMBER
 DD  .F              2560:   DEPTH DRILLER
 DL  .F              2432:   DEPTH LOGGER
 BLI .F              2432:   BOTTOM LOG INTERVAL
 TLI .F               400:   TOP LOG INTERVAL
 CS  .IN            9.625:   CASING SIZE
 CBD .F               685:   CASING BOTTOM DRILLER
 CBL .F               685:   CASING BOTTOM LOGGER
 BS  .IN             8.75:   BIT SIZE
 BSD .F              2560:   BIT SIZE AT DEPTH
 DFT .                AIR:   DRILLING FLUID TYPE
 TCS .HRS               5:   TIME CURCULATED STOPPED
 LUN .               3006:   LOGGING UNIT NUMBER
 LUL .             CASPER:   LOGGING UNIT LOCATION
 ENGI.         B. ROLLINS:   RECORDING ENGINEER
 WITN.           DINSMORE:   WITNESSED BY
 CLNT.            A2DTECH:   CLIENT CODE
 ORIG.           5" PRINT:   ORIGIN OF DATA
 UWI .       490251074300:   UNIQUE WELL ID
 DICO. A2D Technologies, Inc.:   DIGITIZING COMPANY
~OTHER INFORMATION
~A   DEPT      SPR         SN        ILD        CALD       GRD       RHOB         CORR      DPHI  
# ...
  516.0000   -37.0930     9.4115    12.9043    12.3376    75.4928     2.4485     0.1948     0.1533
  516.5000   -36.9610     9.4216    12.8544    12.3386    75.3583     2.4481     0.1972     0.1559
  517.0000   -36.8290     9.4319    12.8046    12.3397    73.5919     2.4496     0.2329     0.1499
  517.5000   -36.6970     9.4415    12.7551    12.3408    71.9637     2.4643     0.2817     0.1412
  518.0000   -36.5648     9.5089    12.7058    12.3419    71.9418     2.4864     0.3308     0.1326
  518.5000   -36.4315     9.5757    12.6566    12.3430    72.0921     2.4992     0.3762     0.1244
  519.0000   -36.3061     9.6427    12.6077    12.3441    72.2812     2.4957     0.3771     0.1244
  519.5000   -36.3877     9.7102    12.5589    12.3452    73.0371     2.4918     0.3676     0.1298
  520.0000   -36.4789     9.7781    12.5103    12.3462    74.4312     2.4784     0.3539     0.1403
  520.5000   -36.5690     9.8465    12.4619    12.3473    75.8206     2.4575     0.3342     0.1508
  521.0000   -36.6590     9.9154    12.4460    12.3484    77.2184     2.4452     0.3149     0.1613
  521.5000   -36.7489     9.9848    12.6386    12.3495    78.6242     2.4375     0.3063     0.1648
  522.0000   -36.8388    10.0546    12.7947    12.3506    78.9837     2.4308     0.3345     0.1555
  522.5000   -36.9285    10.4125    13.3689    12.3517    78.3460     2.4443     0.3862     0.1453
  523.0000   -37.0169    10.8684    13.9882    12.3528    72.7299     2.4670     0.4189     0.1352
  523.5000   -37.1111    11.3443    14.6357    12.3515    69.0851     2.4817     0.3832     0.1312
  524.0000   -37.3596    11.8411    15.3127    12.3500    70.3030     2.4176     0.3098     0.1929
  524.5000   -37.5972    12.3596    16.0215    12.3486    72.1851     2.3458     0.2579     0.2315
  525.0000   -38.1422    12.8067    16.7621    12.3471    73.1826     2.3152     0.2614     0.2212
  525.5000   -38.8981    12.8694    17.5374    12.3457    72.4189     2.3358     0.2894     0.2080
  526.0000   -39.6628    12.9323    17.7265    12.3442    66.5154     2.3535     0.3091     0.1949
  526.5000   -40.0529    12.9955    17.8037    12.3428    63.9022     2.3716     0.3218     0.1931
  527.0000   -40.2784    13.0590    17.8662    12.3414    66.4724     2.3718     0.3282     0.2027
  527.5000   -40.5018    13.1229    17.9233    12.3399    69.7938     2.3565     0.3442     0.2098
  528.0000   -40.7268    13.1871    17.9804    12.3385    68.8149     2.3463     0.3666     0.2093
  528.5000   -40.9888    13.2517    18.0378    12.3370    67.7032     2.3763     0.3866     0.1724
  529.0000   -41.4083    13.3164    18.0954    12.3356    67.6924     2.4107     0.4002     0.1463
  529.5000   -41.7052    13.3977    18.1532    12.3342    67.8934     2.4457     0.3849     0.1463
  530.0000   -41.6478    13.2256    18.2113    12.3327    67.1413     2.4524     0.3560     0.1761
  530.5000   -41.4804    12.9999    18.2705    12.3313    67.4633     2.4027     0.3276     0.1967
  531.0000   -41.3147    12.7781    18.3242    12.3298    68.1982     2.3728     0.3139     0.1967
  531.5000   -41.1492    12.5601    18.1712    12.3284    68.3555     2.3730     0.3257     0.1899
  532.0000   -40.9839    12.3458    17.6960    12.3270    67.8793     2.3857     0.3404     0.1771
  532.5000   -40.8999    12.1352    17.0631    12.3255    67.4362     2.4079     0.3433     0.1637
  533.0000   -40.8999    11.9281    16.4529    12.3241    65.6789     2.4304     0.3330     0.1563
  533.5000   -40.8999    11.7246    15.8644    12.3226    63.7348     2.4369     0.3065     0.1728
  534.0000   -40.9000    11.5246    15.6686    12.3212    62.0270     2.4042     0.2802     0.1923
  534.5000   -40.9000    11.3509    15.6686    12.3197    62.0747     2.3784     0.2537     0.1935
  535.0000   -40.9000    11.3509    15.6686    12.3183    62.2673     2.3740     0.2350     0.1947
  535.5000   -40.9000    11.3509    15.6686    12.3169    62.7451     2.3716     0.2176     0.1966
  536.0000   -40.9000    11.3510    15.6687    12.3154    63.0829     2.3658     0.2128     0.1998
  536.5000   -40.9000    11.3510    15.6693    12.3140    62.8963     2.3597     0.2186     0.2030
  537.0000   -40.9000    11.3525    15.6709    12.3125    62.7221     2.3556     0.2278     0.2062
  537.5000   -40.9000    11.2762    15.5264    12.3125    62.5413     2.3530     0.2365     0.2087
  538.0000   -40.9000    11.1734    15.3726    12.3125    62.9344     2.3510     0.2349     0.2061
  538.5000   -40.9000    11.0716    15.2203    12.3125    63.6657     2.3545     0.2327     0.2035
  539.0000   -40.9000    10.9706    15.0694    12.3125    63.8858     2.3562     0.2203     0.2070
  539.5000   -40.9000    10.8707    14.9201    12.3125    63.8529     2.3447     0.2071     0.2210
  540.0000   -40.9000    10.7716    14.7723    12.3125    65.7424     2.3256     0.1927     0.2349
  540.5000   -40.9000    10.6735    14.6259    12.3125    68.1127     2.3064     0.1893     0.2488
  541.0000   -40.9000    10.5762    14.4809    12.3125    67.8759     2.2875     0.1911     0.2552
  541.5000   -40.9000    10.4479    14.2899    12.3125    65.6440     2.2740     0.2400     0.2386
  542.0000   -40.9000    10.5446    14.2952    12.3125    63.4696     2.3229     0.3029     0.1985
  542.5000   -40.9000    10.4853    14.3032    12.3125    62.4720     2.4015     0.3235     0.1611
  543.0000   -40.9000    10.4453    14.3111    12.3125    64.1265     2.4250     0.2778     0.1678
  543.5000   -40.9000    10.4054    14.3191    12.3125    66.6376     2.4095     0.2398     0.1781
  544.0000   -40.9000    10.3657    14.3270    12.3125    67.7072     2.3926     0.2139     0.1882
  544.5000   -40.9000    10.3262    14.3350    12.3125    66.8862     2.3811     0.1882     0.1979
  545.0000   -40.9000    10.2867    14.3430    12.3125    65.1581     2.3748     0.1624     0.1974
  545.5000   -40.9000    10.2475    14.3510    12.3125    63.4444     2.3751     0.1365     0.1958
  546.0000   -40.9000    10.2083    14.3589    12.3103    62.0328     2.3762     0.1198     0.1941
  546.5000   -40.9000    10.1698    14.3669    12.3066    62.7811     2.3774     0.1108     0.1931
  547.0000   -40.9000    10.1095    14.3749    12.3029    63.8970     2.3785     0.1101     0.1933
  547.5000   -40.9000    10.0458    14.3829    12.2992    65.0987     2.3802     0.1097     0.1926
  548.0000   -40.9000     9.9826    14.3909    12.2956    65.2377     2.3824     0.1093     0.1894
  548.5000   -40.9000     9.9199    14.3989    12.2919    65.1383     2.3847     0.1088     0.1867
  549.0000   -40.9000     9.8574    14.4071    12.2882    65.1135     2.3844     0.1074     0.1875
  549.5000   -40.9000     9.7954    14.4163    12.2845    65.4561     2.3835     0.1059     0.1915
  550.0000   -40.9002     9.7338    14.4221    12.2808    65.8235     2.3826     0.1245     0.1911
  550.5000   -40.8998     9.6726    14.2585    12.2771    65.7791     2.3860     0.1672     0.1828
  551.0000   -40.9014     9.6117    14.1108    12.2734    65.4644     2.3986     0.1929     0.1806
  551.5000   -40.7596     9.5513    13.9646    12.2697    63.6936     2.4014     0.2148     0.1811
  552.0000   -40.5298     9.4912    13.8200    12.2660    61.8138     2.4183     0.2366     0.1580
  552.5000   -40.2980     9.4315    13.6769    12.2624    61.4654     2.4588     0.2583     0.1350
  553.0000   -40.0662     9.3721    13.5352    12.2587    62.1133     2.4787     0.2581     0.1320
  553.5000   -39.8347     9.3132    13.3950    12.2550    64.5492     2.4611     0.2342     0.1566
  554.0000   -39.6027     9.2546    13.2563    12.2513    67.0817     2.4367     0.2179     0.1662
  554.5000   -39.3708     9.1964    13.1190    12.2476    68.3595     2.4210     0.2164     0.1695
  555.0000   -39.1662     9.1385    12.9831    12.2439    68.5627     2.4250     0.2146     0.1629
  555.5000   -38.9764     9.0837    12.8486    12.2402    69.6944     2.4295     0.2092     0.1595
  556.0000   -38.7850     9.0347    12.7155    12.2365    70.5713     2.4084     0.1782     0.1833
