~VERSION INFORMATION
 VERS.                2.0:   CWLS LOG ASCII STANDARD - VERSION 2.0
 WRAP.                 NO:   ONE LINE PER DEPTH STEP
~WELL INFORMATION
#MNEM.UNIT      DATA TYPE    INFORMATION
#----------   ------------   ------------------------------
 STRT.F           25.0000:   START DEPTH
 STOP.F          832.0000:   STOP DEPTH
 STEP.F            0.5000:   STEP LENGTH
 NULL.          -999.2500:   NO VALUE
 COMP.          U.S. NAVY:   COMPANY
 WELL. RES 3 TEAPOT DOM #32-S-2:   WELL
 FLD .        TEAPOT DOME:   FIELD
 LOC .       S2 T38N R78W:   LOCATION
 CNTY.            NATRONA:   COUNTY
 STAT.            WYOMING:   STATE
 CTRY. UNITED STATES OF AMERICA:   COUNTRY
 SRVC. Schlumberger Well Surveying Corp:   SERVICE COMPANY
 DATE.        03-AUG-1959:   LOGDATE
 API .       490250646800:   API NUMBER
~CURVE INFORMATION
#MNEM.UNIT       API CODE    CURVE DESCRIPTION
#----------   ------------   ------------------------------
 DEPT.F                  :   
 SPR .MV     05 010 01 00:   SPONTANEOUS POTENTIAL FROM RES.
 ILD .OHMM   05 120 46 00:   INDUCTION LOG DEEP
 CILD.MMHO   05 110 46 00:   CONDUCTIVITY INDUCTION LOG DEEP
 ASN .OHMM   05 041 16 00:   AMPLIFIED SHORT NORMAL 16"
~PARAMETER INFORMATION
#MNEM.UNIT          VALUE    DESCRIPTION
#----------   ------------   ------------------------------
 LMF .                 KB:   LOG MEASURED FROM
 DMF .                 KB:   DRILLING MEASURED FROM
 EKB .F              5126:   KELLING BUSHING
 EGL .F              5122:   GROUND LEVEL
 DATE.           8-3-1959:   RUN DATE
 RUN .                  1:   RUN NUMBER
 DD  .F               840:   DEPTH DRILLER
 DL  .F               841:   DEPTH LOGGER
 BLI .F               835:   BOTTOM LOG INTERVAL
 TLI .F                17:   TOP LOG INTERVAL
 CBD .F                17:   CASING BOTTOM DRILLER
 CBL .F                17:   CASING BOTTOM LOGGER
 BS  .IN             6.75:   BIT SIZE
 BSD .F               840:   BIT SIZE AT DEPTH
 DFT .                GEL:   DRILLING FLUID TYPE
 DFD .                9.5:   DRILLING FLUID DENSITY
 DFV .                100:   DRILLING FLUID VISCOSITY
 DFPH.                9.5:   DRILLING FLUID PH
 DFL .                  4:   DRILLING FLUID LOSS
 RMS .OHMM              4:   RESISTIVITY MUD SAMPLE
 MST .F                73:   MUD SAMPLE TEMPERATURE
 RMF .OHMM            3.9:   RESISTIVITY MUD FILTRATE SAMPLE
 MFST.F                73:   MUD FILTRATE SAMPLE TEMPERATURE
 RMC .OHMM            4.1:   RESISTIVITY MUD CAKE
 MCST.F                73:   MUD CAKE SAMPLE TEMPERATURE
 RMB .OHMM              4:   RESISTIVITY MUD AT BHT
 BHT .F                73:   BOTTOM HOLE TEMPERATURE
 TCS .HRS               1:   TIME CURCULATED STOPPED
 LUN .               2523:   LOGGING UNIT NUMBER
 LUL .              CSPR.:   LOGGING UNIT LOCATION
 ENGI.             ATWOOD:   RECORDING ENGINEER
 WITN.             MARTIN:   WITNESSED BY
 CLNT.            A2DTECH:   CLIENT CODE
 ORIG.           5" PRINT:   ORIGIN OF DATA
 UWI .       490250646800:   UNIQUE WELL ID
 DICO. A2D Technologies, Inc.:   DIGITIZING COMPANY
~OTHER INFORMATION
~A   DEPT      SPR        ILD       CILD        ASN   
# ...
  463.0000   -91.0866     8.5542   120.7448     8.9431
  463.5000   -91.0866     8.5233   121.6432     8.8968
  464.0000   -91.0867     8.4937   122.5469     8.8445
  464.5000   -91.0866     8.4633   123.4546     8.8117
  465.0000   -91.0869     8.4332   124.3627     8.8036
  465.5000   -91.0864     8.4031   125.2704     8.7910
  466.0000   -91.0877     8.3729   125.8993     8.7802
  466.5000   -91.0816     8.3432   126.1261     8.7694
  467.0000   -91.0310     8.3120   126.3504     8.7565
  467.5000   -90.9787     8.2869   126.5727     8.7485
  468.0000   -90.9269     8.3281   126.3889     8.7409
  468.5000   -90.8749     8.3860   125.6638     8.7912
  469.0000   -90.8230     8.4354   124.8970     8.9100
  469.5000   -90.7712     8.4966   122.9474     9.0180
  470.0000   -90.7220     8.5349   120.8769     9.1552
  470.5000   -90.6629     8.6359   118.8078     9.5062
  471.0000   -90.6114     8.8508   116.7341     9.8843
  471.5000   -90.5500     9.0517   114.6647    10.0047
  472.0000   -90.5089     9.2601   112.5953    10.0944
  472.5000   -90.4278     9.4648   110.5260    10.1907
  473.0000   -90.4236     9.6705   108.4566    10.2834
  473.5000   -90.1387     9.8779   106.3872    10.3792
  474.0000   -89.8402    10.0772   104.3178    10.4722
  474.5000   -88.8434    10.2673   102.2484    10.5684
  475.0000   -87.2405    10.4602   100.1790    10.6571
  475.5000   -85.8621    10.6517    98.1097    10.8012
  476.0000   -84.3372    10.8445    96.0403    11.0006
  476.5000   -83.1751    11.0359    93.9709    11.1932
  477.0000   -82.9796    11.2296    91.9015    11.3856
  477.5000   -82.8764    11.4100    89.8321    11.5827
  478.0000   -82.7632    11.5081    87.7628    11.7775
  478.5000   -82.6518    11.6004    85.6934    11.9644
  479.0000   -82.5430    11.6704    83.7064    11.9237
  479.5000   -82.4293    11.5924    83.7064    11.8271
  480.0000   -82.3997    11.5001    83.7064    11.7438
  480.5000   -82.4276    11.4107    84.7296    11.6542
  481.0000   -82.4432    11.3201    85.7043    11.5681
  481.5000   -82.4643    11.2302    86.6790    11.4800
  482.0000   -82.4825    11.1399    87.6537    11.3930
  482.5000   -82.5022    11.0497    88.6284    11.3055
  483.0000   -82.5212    10.9596    89.6031    11.2183
  483.5000   -82.5405    10.8692    90.5778    11.1307
  484.0000   -82.5596    10.7797    91.5525    11.0436
  484.5000   -82.5787    10.6886    92.5272    10.9554
  485.0000   -82.5978    10.6005    93.5019    10.8698
  485.5000   -82.6170    10.5064    94.4766    10.7793
  486.0000   -82.6364    10.4402    95.3447    10.6979
  486.5000   -82.6552    10.4882    94.7575    10.6103
  487.0000   -82.6753    10.5448    94.2282    10.7368
  487.5000   -82.6929    10.5962    93.6990    10.9804
  488.0000   -82.7151    10.6562    93.1697    11.1916
  488.5000   -82.7289    10.6812    92.6405    11.4181
  489.0000   -82.7588    10.5465    92.1112    11.5958
  489.5000   -82.6820    10.4108    91.5820    11.5205
  490.0000   -82.5386    10.2755    91.0527    11.3466
  490.5000   -82.4191    10.1408    90.8684    11.2018
  491.0000   -82.2890    10.0045    90.8684    11.0381
  491.5000   -82.1644     9.8714    94.5188    10.8950
  492.0000   -82.0371     9.7316    97.6679    10.7215
  492.5000   -81.9107     9.6281   100.8169    10.6053
  493.0000   -81.7847     9.8268   103.4020    10.2766
  493.5000   -81.6570     9.7405   102.3144     9.9304
  494.0000   -81.5330     9.6542   103.2116     9.6294
  494.5000   -81.4017     9.5678   104.1089     9.5163
  495.0000   -81.3101     9.4815   105.0061     9.4031
  495.5000   -80.9208     9.4552   105.6250     9.3680
  496.0000   -80.8926     9.3516   106.3520     9.2428
  496.5000   -81.0226     9.2652   107.2493     9.1663
  497.0000   -81.0936     9.1787   108.3016     9.1537
  497.5000   -81.8235     9.0920   108.5720     9.1217
  498.0000   -82.9068     9.0046   108.8988     9.0595
  498.5000   -83.9258     9.0183   109.2055     9.0980
  499.0000   -84.9725     9.0547   109.0190     9.2257
  499.5000   -86.0170     9.0857   108.8433     9.3064
  500.0000   -86.9421     9.1194   108.6676     9.3225
  500.5000   -87.3242     9.1519   108.4919     9.2972
  501.0000   -87.0558     9.1850   108.3016     9.2855
  501.5000   -86.9541     9.2181   107.9220     9.3730
  502.0000   -87.1267     9.2503   107.5078     9.4232
  502.5000   -87.2538     9.2846   107.6207     9.4491
  503.0000   -87.3951     9.3151   107.9244     9.4836
  503.5000   -87.5493     9.3474   108.3016     9.4407
  504.0000   -87.6257     9.1596   110.4321     9.3287
  504.5000   -87.5636     8.8795   113.2431     9.0654
  505.0000   -87.5220     8.6102   116.0540     8.7373
  505.5000   -87.4696     8.3449   118.8650     8.4713
  506.0000   -87.4227     8.0557   121.6759     8.2586
  506.5000   -87.3729     7.8553   124.4868     8.0663
  507.0000   -87.3245     7.7707   127.2978     7.9402
  507.5000   -87.2755     7.6613   130.1923     7.9036
  508.0000   -87.2268     7.5638   133.0253     7.9526
  508.5000   -87.1781     7.6283   134.6193     8.0551
  509.0000   -87.1294     7.7442   132.8759     8.1662
  509.5000   -87.0807     7.8448   130.1478     8.1792
  510.0000   -87.0321     7.9578   127.4225     8.2265
  510.5000   -86.9834     8.0551   125.3382     8.2941
  511.0000   -86.9347     8.1914   124.9960     8.3647
  511.5000   -86.8860     8.2792   124.7016     8.4073
  512.0000   -86.8373     8.2669   124.3599     8.3903
  512.5000   -86.7887     8.2737   124.0182     8.3854
  513.0000   -86.7400     8.2683   123.6765     8.3706
  513.5000   -86.6913     8.2737   123.3348     8.3894
  514.0000   -86.6426     8.2651   122.9932     8.4434
  514.5000   -86.5939     8.3257   122.4358     8.5201
  515.0000   -86.5453     8.4248   121.4392     8.6112
  515.5000   -86.4963     8.5086   120.4427     8.6943
  516.0000   -86.4478     8.5976   119.4462     8.7906
  516.5000   -86.3981     8.6860   118.4496     8.8513
  517.0000   -86.3510     8.7295   117.4530     8.8626
  517.5000   -86.2990     8.6954   116.4367     8.8855
  518.0000   -86.2560     8.6431   116.9621     8.8921
  518.5000   -86.1944     8.5923   117.4980     8.8294
  519.0000   -86.2226     8.5423   118.0370     8.7397
  519.5000   -86.3746     8.4893   118.5684     8.6519
  520.0000   -86.5144     8.4549   119.1012     8.6028
  520.5000   -86.6617     8.4800   119.6358     8.5981
  521.0000   -86.8044     8.5087   120.0467     8.6332
  521.5000   -86.9504     8.5372   119.5588     8.6669
  522.0000   -87.0935     8.5660   119.1630     8.7465
  522.5000   -87.2461     8.5941   118.7681     8.8162
  523.0000   -87.1687     8.6231   118.3731     8.8881
  523.5000   -87.0238     8.6334   117.9784     8.9560
  524.0000   -86.8915     8.6322   117.5848     8.9216
  524.5000   -86.7565     8.6327   117.1922     8.8624
  525.0000   -86.6144     8.6328   116.7993     8.8098
  525.5000   -86.4973     8.6321   116.4468     8.7879
  526.0000   -86.4147     8.6341   117.3711     8.7778
  526.5000   -86.3217     8.6250   118.2029     8.7258
  527.0000   -86.2335     8.5542   119.0318     8.6210
  527.5000   -86.1429     8.4837   119.8670     8.5476
  528.0000   -86.0535     8.4137   120.7022     8.5027
  528.5000   -85.9638     8.3436   121.5374     8.4578
  529.0000   -85.8736     8.2737   122.3727     8.4323
  529.5000   -85.7849     8.2036   123.2078     8.4006
  530.0000   -85.6931     8.1334   124.0431     8.3151
  530.5000   -85.6070     8.0637   124.8783     8.2184
  531.0000   -85.5100     7.9935   125.7135     8.1259
  531.5000   -85.4528     7.9127   126.3796     8.0284
  532.0000   -85.3912     7.7540   128.8141     7.9406
  532.5000   -85.2817     7.5516   131.9933     7.8199
  533.0000   -85.1872     7.3562   136.7888     7.6689
  533.5000   -85.0867     7.1564   141.5842     7.4113
  534.0000   -84.9878     6.9606   146.3796     7.1777
  534.5000   -84.8910     6.7453   149.3011     6.9372
  535.0000   -84.7870     6.5686   151.1992     6.7352
  535.5000   -84.7230     6.3627   153.8040     6.6875
