~VERSION INFORMATION
 VERS.                2.0:   CWLS LOG ASCII STANDARD - VERSION 2.0
 WRAP.                 NO:   ONE LINE PER DEPTH STEP
~WELL INFORMATION
#MNEM.UNIT      DATA TYPE    INFORMATION
#----------   ------------   ------------------------------
 STRT.F           84.0000:   START DEPTH
 STOP.F          849.5000:   STOP DEPTH
 STEP.F            0.5000:   STEP LENGTH
 NULL.          -999.2500:   NO VALUE
 COMP. U S NAVY/INTEX OIL CO:   COMPANY
 WELL.     NPR 3 #81-S-34:   WELL
 FLD .        TEAPOT DOME:   FIELD
 LOC .      S34 T39N R78W:   LOCATION
 CNTY.            NATRONA:   COUNTY
 STAT.            WYOMING:   STATE
 CTRY. UNITED STATES OF AMERICA:   COUNTRY
 SRVC.       Schlumberger:   SERVICE COMPANY
 DATE.        29-JUL-1963:   LOGDATE
 API .       490250656700:   API NUMBER
~CURVE INFORMATION
#MNEM.UNIT       API CODE    CURVE DESCRIPTION
#----------   ------------   ------------------------------
 DEPT.F                  :   
 CALS.IN     60 280 50 00:   CALIPER FROM SONIC LOG
 DT  .US/F   60 520 33 00:   INTERVAL TRANSIT TIME
 SPR .MV     05 010 01 00:   SPONTANEOUS POTENTIAL FROM RES.
 ILD .OHMM   05 120 46 00:   INDUCTION LOG DEEP
 ASN .OHMM   05 041 16 00:   AMPLIFIED SHORT NORMAL 16"
 CILD.MMHO   05 110 46 00:   CONDUCTIVITY INDUCTION LOG DEEP
 GR  .GAPI   30 310 01 00:   GAMMA RAY FROM RES.
~PARAMETER INFORMATION
#MNEM.UNIT          VALUE    DESCRIPTION
#----------   ------------   ------------------------------
 PD  .                 GL:   PERMANENT DATUM
 EPD .F              5067:   ELEVATION PERMANENT DATUM
 LMF .                 KB:   LOG MEASURED FROM
 DAPD.F                 5:   FEET ABOVE PERMANENT DATUM
 DMF .                 KB:   DRILLING MEASURED FROM
 EKB .F              5072:   KELLING BUSHING
 EGL .F              5067:   GROUND LEVEL
 DATE.          7-29-1963:   RUN DATE
 RUN .                  1:   RUN NUMBER
 DD  .F               850:   DEPTH DRILLER
 DL  .F               850:   DEPTH LOGGER
 BLI .F               849:   BOTTOM LOG INTERVAL
 TLI .F                90:   TOP LOG INTERVAL
 CS  .IN            8.625:   CASING SIZE
 CBD .F                10:   CASING BOTTOM DRILLER
 BS  .IN            7.875:   BIT SIZE
 BSD .F               850:   BIT SIZE AT DEPTH
 DFT .            GEL-OIL:   DRILLING FLUID TYPE
 DFD .                9.4:   DRILLING FLUID DENSITY
 DFV .                 40:   DRILLING FLUID VISCOSITY
 DFPH.                  9:   DRILLING FLUID PH
 DFL .                8.4:   DRILLING FLUID LOSS
 MSS .           FLOWLINE:   MUD SAMPLE SOURCE
 RMS .OHMM           3.08:   RESISTIVITY MUD SAMPLE
 MST .F                79:   MUD SAMPLE TEMPERATURE
 RMF .OHMM           2.39:   RESISTIVITY MUD FILTRATE SAMPLE
 MFST.F                79:   MUD FILTRATE SAMPLE TEMPERATURE
 RMC .OHMM           3.29:   RESISTIVITY MUD CAKE
 MCST.F                79:   MUD CAKE SAMPLE TEMPERATURE
 MFSS.                 MP:   MUD FILTRATE SAMPLE SOURCE
 MCSS.                 MP:   MUD CAKE SAMPLE SOURCE
 TCS .HRS               1:   TIME CURCULATED STOPPED
 LUN .               4507:   LOGGING UNIT NUMBER
 LUL .              CSPR.:   LOGGING UNIT LOCATION
 ENGI.             KNOBEL:   RECORDING ENGINEER
 WITN.          JORGENSON:   WITNESSED BY
 CLNT.            A2DTECH:   CLIENT CODE
 ORIG.           5" PRINT:   ORIGIN OF DATA
 UWI .       490250656700:   UNIQUE WELL ID
 DICO. A2D Technologies, Inc.:   DIGITIZING COMPANY
~OTHER INFORMATION
~A   DEPT     CALS         DT        SPR        ILD        ASN       CILD         GR   
# ...
  584.5000     7.8658    96.3526   -29.9513     8.2113     9.9100   126.2738  -999.2500
  585.0000     7.8981    96.2575   -29.8385     8.2105     9.9434   126.4996  -999.2500
  585.5000     7.8890    97.1255   -29.7258     8.2131     9.9664   126.7361  -999.2500
  586.0000     7.8338    97.9935   -29.6147     8.0940     9.8180   126.9683  -999.2500
  586.5000     7.7790    98.2570   -29.5617     8.0766     9.6868   127.2605  -999.2500
  587.0000     7.7234    97.8893   -29.6277     8.0547     9.5795   127.5824  -999.2500
  587.5000     7.6662    97.2831   -29.6916     8.0311     9.5745   127.9093  -999.2500
  588.0000     7.7156    97.3915   -29.7558     8.0010     9.6206   127.9289  -999.2500
  588.5000     7.7804    97.9314   -29.8199     8.1086     9.6231   127.2315  -999.2500
  589.0000     7.8458    97.7033   -29.8840     8.1057     9.4883   126.5342  -999.2500
  589.5000     7.8954    96.9464   -29.9481     8.1070     9.4262   126.3598  -999.2500
  590.0000     7.8261    96.1872   -30.0122     8.1079     9.4515   127.4059  -999.2500
  590.5000     7.7593    96.0578   -30.0763     8.0988     9.5655   128.4519  -999.2500
  591.0000     7.7366    95.8680   -30.1404     7.9508     9.5633   130.0558  -999.2500
  591.5000     7.7156    94.9701   -30.2046     7.8072     9.4553   132.9614  -999.2500
  592.0000     7.6944    95.8066   -30.2688     7.5767     9.2711   137.5523  -999.2500
  592.5000     7.6729    97.1431   -30.3317     7.3379     9.0548   142.8945  -999.2500
  593.0000     7.6277    98.6827   -30.3496     7.0970     8.7670   147.8045  -999.2500
  593.5000     7.5426    99.6185   -30.2633     6.8576     8.4420   151.7213  -999.2500
  594.0000     7.4588    99.8849   -30.1633     6.6377     8.2067   153.8917  -999.2500
  594.5000     7.4312    99.7656   -29.4631     6.5785     8.0799   155.9623  -999.2500
  595.0000     7.5087    99.6468   -28.6933     6.5085     7.9834   158.4728  -999.2500
  595.5000     7.5846    99.5267   -27.8957     6.4363     7.9039   158.4728  -999.2500
  596.0000     7.6620    99.4085   -28.1295     6.4917     7.9424   156.6049  -999.2500
  596.5000     7.6733    99.0418   -28.2590     6.7946     8.2170   152.8691  -999.2500
  597.0000     7.6608    98.4556   -28.4008     6.9564     8.2926   149.1333  -999.2500
  597.5000     7.7148    97.8694   -28.5401     7.0603     8.3192   147.6464  -999.2500
  598.0000     7.7741    97.2832   -28.6791     7.1681     8.3585   147.1234  -999.2500
  598.5000     7.8345    96.7390   -28.8162     7.1658     8.4446   146.6004  -999.2500
  599.0000     7.8341    96.5265   -28.9164     7.1652     8.5187   146.0774  -999.2500
  599.5000     7.8209    96.2538   -28.9080     7.1652     8.5748   144.6982  -999.2500
  600.0000     7.8086    96.4646   -28.8508     7.1638     8.5653   142.9520  -999.2500
  600.5000     7.7977    96.8904   -28.7928     7.2429     8.5326   141.2059  -999.2500
  601.0000     7.7972    97.3162   -28.7349     7.3527     8.5551   139.4597  -999.2500
  601.5000     7.8152    97.0832   -28.7248     7.4632     8.6401   137.7136  -999.2500
  602.0000     7.8397    96.4854   -28.7617     7.5736     8.7725   135.9674  -999.2500
  602.5000     7.8644    95.8835   -28.7988     7.6839     8.9762   134.2213  -999.2500
  603.0000     7.8907    95.8678   -28.8363     7.7947     9.1356   132.4751  -999.2500
  603.5000     7.8567    95.7096   -28.8729     7.9050     9.2927   131.0937  -999.2500
  604.0000     7.8033    94.5717   -28.9180     7.9982     9.3829   130.5114  -999.2500
  604.5000     7.7770    95.2306   -28.6037     7.9378     9.4467   130.2301  -999.2500
  605.0000     7.8268    95.4681   -28.1797     7.8791     9.4306   130.7495  -999.2500
  605.5000     7.8918    94.6724   -27.8758     7.8209     9.3489   132.3759  -999.2500
  606.0000     7.9372    95.0339   -28.0882     7.7926     9.2970   134.0023  -999.2500
  606.5000     7.8851    95.3685   -28.2875     7.7214     9.2701   135.6287  -999.2500
  607.0000     7.8198    96.1536   -28.4850     7.6436     9.1960   137.2551  -999.2500
  607.5000     7.8268    96.8889   -28.7138     7.5658     9.0771   138.8815  -999.2500
  608.0000     7.8446    97.6208   -28.9111     7.4884     8.9428   139.9535  -999.2500
  608.5000     7.8623    98.1400   -28.9276     7.4102     8.8053   140.5358  -999.2500
  609.0000     7.8800    98.4749   -28.6514     7.3778     8.7536   141.0403  -999.2500
  609.5000     7.8977    98.5146   -28.4653     7.3810     8.7553   141.5167  -999.2500
  610.0000     7.9152    98.4562   -28.3407     7.3921     8.8355   141.0640  -999.2500
  610.5000     7.9088    97.9495   -28.2197     7.4401     8.9228   139.8162  -999.2500
  611.0000     7.9008    97.4716   -28.0991     7.4943     9.0135   138.5684  -999.2500
  611.5000     7.8746    96.9938   -27.9789     7.5508     9.1067   137.3207  -999.2500
  612.0000     7.8938    96.5159   -27.8650     7.6068     9.0939   136.6200  -999.2500
  612.5000     7.9122    96.0380   -27.8226     7.6634     9.0364   136.9476  -999.2500
  613.0000     7.9006    95.8665   -27.7792     7.6649     8.9744   137.2751  -999.2500
  613.5000     7.8791    95.8665   -27.7354     7.6241     8.9824   137.6026  -999.2500
  614.0000     7.8681    96.0876   -27.6930     7.5828     9.0046   137.9302  -999.2500
  614.5000     7.8958    96.5847   -27.6817     7.5414     8.9697   138.2577  -999.2500
  615.0000     7.8794    97.0817   -27.7658     7.5000     8.9214   138.5983  -999.2500
  615.5000     7.8526    97.5787   -27.8530     7.4587     8.7610   138.5983  -999.2500
  616.0000     7.8372    98.0847   -27.7468     7.4173     8.5941   139.9188  -999.2500
  616.5000     7.8433    98.8302   -27.6921     7.3746     8.5667   141.2913  -999.2500
  617.0000     7.8734    99.5518   -27.7468     7.3092     8.5467   142.6639  -999.2500
  617.5000     7.9074    99.7249   -27.8027     7.2416     8.5246   144.0364  -999.2500
  618.0000     7.8966    99.3377   -27.8593     7.1739     8.4675   145.4090  -999.2500
  618.5000     7.8573    98.8358   -27.9157     7.1063     8.3780   146.7815  -999.2500
  619.0000     7.8576    99.3021   -27.9718     7.0391     8.2675   148.1540  -999.2500
  619.5000     7.8714    99.9648   -28.0264     6.9746     8.1570   149.5266  -999.2500
  620.0000     7.8705   100.2092   -28.0968     6.7384     8.0438   152.1967  -999.2500
  620.5000     7.7502    99.9502   -28.3916     6.4596     7.8856   160.6010  -999.2500
  621.0000     7.6371   100.2610   -28.6977     6.1792     7.7239   169.1765  -999.2500
  621.5000     7.6720   101.2342   -28.2730     5.8431     7.5192   177.7520  -999.2500
  622.0000     7.8824   103.0415   -27.6789     5.5019     7.2000   186.3275  -999.2500
  622.5000     8.0077   104.8307   -27.2319     5.4426     6.8779   190.9031  -999.2500
  623.0000     7.6671   104.3765   -27.4010     5.3964     6.6983   190.9296  -999.2500
  623.5000     7.3450   103.6355   -27.5744     5.3495     6.5485   190.9102  -999.2500
  624.0000     7.4137   104.1026   -27.6601     5.2998     6.5155   190.8996  -999.2500
  624.5000     7.4824   103.9241   -27.6592     5.4134     6.4954   189.8640  -999.2500
  625.0000     7.5532   102.6624   -27.5225     5.6285     6.6713   184.6234  -999.2500
  625.5000     7.6464   101.4008   -27.2443     5.8454     7.1205   174.8146  -999.2500
  626.0000     7.8120   100.6169   -26.9683     6.0624     7.3645   167.6683  -999.2500
  626.5000     7.9547   100.3873   -26.9597     6.2794     7.5447   160.5648  -999.2500
  627.0000     7.9554   100.5919   -27.2194     6.4956     7.6481   157.0502  -999.2500
  627.5000     7.9092   100.7586   -27.4779     6.7362     7.7053   154.2614  -999.2500
  628.0000     7.8334    99.7791   -27.7374     6.9237     7.7346   154.2887  -999.2500
  628.5000     7.6772    99.4597   -27.7259     6.8808     7.7759   154.2844  -999.2500
  629.0000     7.6068    99.6972   -27.4459     6.7891     7.8335   154.2887  -999.2500
  629.5000     7.7056    99.2503   -27.2092     6.6969     7.8429   154.2887  -999.2500
