~VERSION INFORMATION
 VERS.                2.0:   CWLS LOG ASCII STANDARD - VERSION 2.0
 WRAP.                 NO:   ONE LINE PER DEPTH STEP
~WELL INFORMATION
#MNEM.UNIT      DATA TYPE    INFORMATION
#----------   ------------   ------------------------------
 STRT.F           43.0000:   START DEPTH
 STOP.F          973.0000:   STOP DEPTH
 STEP.F            0.5000:   STEP LENGTH
 NULL.          -999.2500:   NO VALUE
 COMP. LAWRENCE/ALLISON INC:   COMPANY
 WELL.    68-11 SX #11-11:   WELL
 FLD .           NPR NO 3:   FIELD
 LOC .      S11 T38N R78W:   LOCATION
 CNTY.            NATRONA:   COUNTY
 STAT.            WYOMING:   STATE
 CTRY. UNITED STATES OF AMERICA:   COUNTRY
 SRVC.           Gearhart:   SERVICE COMPANY
 DATE.        15-MAY-1986:   LOGDATE
 API .       490251105800:   API NUMBER
~CURVE INFORMATION
#MNEM.UNIT       API CODE    CURVE DESCRIPTION
#----------   ------------   ------------------------------
 DEPT.F                  :   
 GRN .GAPI   42 310 01 00:   GAMMA RAY FROM COMPENSATED NEUTRON LOG
 CNS .DEC    42 890 01 00:   NEUTRON POROSITY LIMESTONE
~PARAMETER INFORMATION
#MNEM.UNIT          VALUE    DESCRIPTION
#----------   ------------   ------------------------------
 PD  .                 GL:   PERMANENT DATUM
 LMF .                 KB:   LOG MEASURED FROM
 DMF .                 KB:   DRILLING MEASURED FROM
 DATE.        15-MAY-1986:   RUN DATE
 RUN .                  1:   RUN NUMBER
 DD  .F               974:   DEPTH DRILLER
 DL  .F               974:   DEPTH LOGGER
 BLI .F               973:   BOTTOM LOG INTERVAL
 TLI .F                39:   TOP LOG INTERVAL
 CS  .IN              4.5:   CASING SIZE
 BS  .IN             7.87:   BIT SIZE
 BSD .F               974:   BIT SIZE AT DEPTH
 DFT .              WATER:   DRILLING FLUID TYPE
 DFD .               8.34:   DRILLING FLUID DENSITY
 BHT .F                66:   BOTTOM HOLE TEMPERATURE
 LUN .               6084:   LOGGING UNIT NUMBER
 LUL .           GILLETTE:   LOGGING UNIT LOCATION
 ENGI.              BAUER:   RECORDING ENGINEER
 WITN.       STRONG/FIVAS:   WITNESSED BY
 CLNT.            A2DTECH:   CLIENT CODE
 ORIG.           5" PRINT:   ORIGIN OF DATA
 UWI .       490251105800:   UNIQUE WELL ID
 DICO. A2D Technologies, Inc.:   DIGITIZING COMPANY
 R1  . POROSITY WITH LIMESTONE:   REMARKS 1
~OTHER INFORMATION
~A   DEPT       GRN       CNS   
# ...
  286.0000    91.8420     0.3142
  286.5000    91.2291     0.3036
  287.0000    89.3639     0.2833
  287.5000    86.9048     0.2699
  288.0000    80.0261     0.2566
  288.5000    73.0442     0.2503
  289.0000    75.1808     0.2520
  289.5000    85.8281     0.2689
  290.0000    94.0438     0.3009
  290.5000   100.1318     0.3389
  291.0000   101.6583     0.3597
  291.5000    97.4142     0.3570
  292.0000    94.6876     0.3576
  292.5000    92.5689     0.3612
  293.0000    93.7937     0.3524
  293.5000    94.7145     0.3430
  294.0000    93.8117     0.3212
  294.5000    90.7752     0.3151
  295.0000    88.6625     0.3037
  295.5000    88.9757     0.2896
  296.0000    89.2887     0.2800
  296.5000    88.6894     0.2857
  297.0000    86.2690     0.2920
  297.5000    84.4543     0.2905
  298.0000    86.5910     0.2854
  298.5000    90.2474     0.2791
  299.0000    92.0800     0.2757
  299.5000    91.1772     0.2793
  300.0000    89.0585     0.2899
  300.5000    88.7613     0.2926
  301.0000    89.6844     0.2938
  301.5000    90.9092     0.2986
  302.0000    90.0063     0.3246
  302.5000    87.5837     0.3520
  303.0000    86.6808     0.3650
  303.5000    88.5401     0.3505
  304.0000    89.1754     0.3360
  304.5000    89.6737     0.3231
  305.0000    88.8776     0.3155
  305.5000    87.6708     0.3116
  306.0000    91.0292     0.3291
  306.5000    93.1688     0.3490
  307.0000    95.6124     0.3891
  307.5000    95.9284     0.3994
  308.0000    94.1166     0.3955
  308.5000    89.2654     0.3806
  309.0000    87.4506     0.3577
  309.5000    88.0735     0.3329
  310.0000    89.6053     0.3219
  310.5000    92.0489     0.3270
  311.0000    93.2766     0.3382
  311.5000    90.5103     0.3357
  312.0000    87.4932     0.3285
  312.5000    87.2335     0.3192
  313.0000    91.1999     0.3122
  313.5000    92.4277     0.3131
  314.0000    90.0080     0.3195
  314.5000    86.3726     0.3273
  315.0000    85.1688     0.3394
  315.5000    83.9619     0.3460
  316.0000    86.1046     0.3635
  316.5000    85.5087     0.3825
  317.0000    84.0009     0.3994
  317.5000    84.6208     0.3994
  318.0000    87.0643     0.3991
  318.5000    87.9882     0.3991
  319.0000    86.1765     0.3994
  319.5000    84.3628     0.3997
  320.0000    84.0727     0.3882
  320.5000    85.0740     0.3738
  321.0000    86.8329     0.3363
  321.5000    86.5403     0.3068
  322.0000    85.0355     0.2941
  322.5000    84.1326     0.3008
  323.0000    86.5792     0.3131
  323.5000    89.3268     0.3231
  324.0000    89.9436     0.3327
  324.5000    87.8310     0.3403
  325.0000    87.5360     0.3472
  325.5000    87.5510     0.3378
  326.0000    87.5630     0.3321
  326.5000    87.8789     0.3365
  327.0000    89.4106     0.3448
  327.5000    90.3344     0.3520
  328.0000    90.3464     0.3478
  328.5000    88.8124     0.3403
  329.0000    88.5467     0.3376
  329.5000    88.8656     0.3421
  330.0000    89.4855     0.3508
  330.5000    87.3698     0.3665
  331.0000    86.1660     0.3925
  331.5000    84.9621     0.3997
  332.0000    86.1899     0.3985
  332.5000    87.4177     0.3867
  333.0000    86.8218     0.3653
  333.5000    84.7061     0.3662
  334.0000    84.4111     0.3665
  334.5000    87.4656     0.3579
  335.0000    89.9092     0.3412
  335.5000    90.8330     0.3376
  336.0000    90.2371     0.3312
  336.5000    88.1214     0.3222
  337.0000    88.4377     0.3149
  337.5000    88.0446     0.3104
  338.0000    86.0297     0.3116
  338.5000    87.2605     0.3195
  339.0000    88.7922     0.3282
  339.5000    90.6279     0.3421
  340.0000    92.4636     0.3575
  340.5000    94.9072     0.3816
  341.0000    97.3508     0.3991
  341.5000    97.3628     0.3994
  342.0000    95.5510     0.3994
  342.5000    92.2195     0.3994
  343.0000    88.2802     0.3938
  343.5000    87.0760     0.3891
  344.0000    86.1763     0.3925
  344.5000    86.1884     0.3834
  345.0000    86.5249     0.3644
  345.5000    88.4174     0.3472
  346.0000    90.1763     0.3303
  346.5000    90.1907     0.3279
  347.0000    88.3790     0.3252
  347.5000    88.0840     0.3243
  348.0000    87.7950     0.3297
  348.5000    85.3754     0.3370
  349.0000    84.7765     0.3496
  349.5000    87.2231     0.3596
  350.0000    92.5519     0.3391
  350.5000    93.4821     0.3229
  351.0000    92.3525     0.3131
  351.5000    89.3556     0.3231
  352.0000    89.4428     0.3575
  352.5000    90.3748     0.3958
  353.0000    90.9357     0.4000
  353.5000    87.2995     0.3994
  354.0000    82.7493     0.3841
  354.5000    81.2363     0.3554
  355.0000    81.8555     0.3537
  355.5000    83.0804     0.3494
  356.0000    85.2171     0.3451
  356.5000    87.0498     0.3529
  357.0000    86.1470     0.3779
  357.5000    82.5086     0.3994
  358.0000    81.6035     0.3997
  358.5000    81.3086     0.3996
  359.0000    81.9278     0.3996
  359.5000    85.5843     0.3996
  360.0000    88.0249     0.3996
  360.5000    88.3379     0.3993
  361.0000    87.4351     0.3990
  361.5000    85.9244     0.3987
  362.0000    83.8057     0.3752
  362.5000    82.5988     0.3568
  363.0000    82.9120     0.3474
  363.5000    83.8328     0.3435
  364.0000    86.6098     0.3420
  364.5000    91.1843     0.3411
  365.0000    93.3130     0.3396
  365.5000    93.8997     0.3384
  366.0000    93.6045     0.3437
  366.5000    92.7039     0.3507
  367.0000    93.0169     0.3516
  367.5000    93.3299     0.3565
  368.0000    94.5547     0.3724
  368.5000    97.2993     0.3990
  369.0000   100.3479     0.3993
  369.5000   103.0925     0.3990
  370.0000   104.6190     0.3990
  370.5000    99.7671     0.3990
  371.0000    98.2564     0.3990
  371.5000    96.4417     0.3981
  372.0000    94.3231     0.3748
  372.5000    94.3321     0.3575
  373.0000    94.3411     0.3348
  373.5000    93.1344     0.3217
  374.0000    90.1039     0.3296
  374.5000    88.2892     0.3440
  375.0000    87.3864     0.3525
  375.5000    87.3954     0.3504
  376.0000    88.3163     0.3401
  376.5000    89.5412     0.3271
  377.0000    89.2462     0.3217
  377.5000    88.3383     0.3199
  378.0000    86.4642     0.3274
  378.5000    84.7141     0.3383
  379.0000    85.4083     0.3440
  379.5000    87.5177     0.3416
  380.0000    89.6067     0.3220
  380.5000    89.9197     0.3150
  381.0000    89.9287     0.3120
  381.5000    90.2417     0.3105
  382.0000    92.0744     0.2988
  382.5000    92.6914     0.2933
  383.0000    92.7004     0.2918
  383.5000    93.0134     0.2962
  384.0000    93.9343     0.3031
  384.5000    95.7670     0.3036
  385.0000    96.6856     0.2975
  385.5000    95.7851     0.2939
  386.0000    94.5783     0.2963
  386.5000    92.7636     0.3108
  387.0000    92.1625     0.3201
  387.5000    91.5637     0.3159
  388.0000    91.5750     0.3102
  388.5000    89.7603     0.3041
  389.0000    90.6812     0.3075
  389.5000    90.7213     0.3111
  390.0000    89.1795     0.2945
  390.5000    87.0372     0.2872
  391.0000    84.4168     0.2790
  391.5000    81.9118     0.2791
  392.0000    81.6168     0.2703
  392.5000    83.9671     0.2655
  393.0000    87.4570     0.2698
  393.5000    87.4190     0.2825
  394.0000    88.6461     0.2949
  394.5000    88.6552     0.2910
  395.0000    87.7523     0.2788
  395.5000    87.4552     0.2733
  396.0000    89.2902     0.2760
  396.5000    90.2088     0.2803
  397.0000    88.3964     0.2920
  397.5000    86.8834     0.2956
  398.0000    85.9806     0.2938
  398.5000    85.6879     0.2956
  399.0000    85.6970     0.2999
  399.5000    86.0100     0.3059
  400.0000    87.6590     0.3276
  400.5000    92.0797     0.3490
  401.0000    96.4805     0.3739
  401.5000   104.7059     0.4000
  402.0000   112.8169     0.4000
  402.5000   114.3486     0.4000
  403.0000   113.4488     0.4000
  403.5000   110.7252     0.3994
  404.0000   105.2661     0.3988
  404.5000    99.1990     0.3710
  405.0000    89.7885     0.3240
  405.5000    84.0254     0.2935
  406.0000    82.2137     0.2788
  406.5000    81.6178     0.2598
  407.0000    81.3228     0.2549
