~VERSION INFORMATION
 VERS.                2.0:   CWLS LOG ASCII STANDARD - VERSION 2.0
 WRAP.                 NO:   ONE LINE PER DEPTH STEP
~WELL INFORMATION
#MNEM.UNIT      DATA TYPE    INFORMATION
#----------   ------------   ------------------------------
 STRT.F          283.5000:   START DEPTH
 STOP.F         3026.0000:   STOP DEPTH
 STEP.F            0.5000:   STEP LENGTH
 NULL.          -999.2500:   NO VALUE
 COMP. DEPARTMENT OF ENERGY:   COMPANY
 WELL. RES 3 TEAPOT DOM "AX" #62-29:   WELL
 FLD .        TEAPOT DOME:   FIELD
 LOC .      S29 T39N R78W:   LOCATION
 CNTY.            NATRONA:   COUNTY
 STAT.            WYOMING:   STATE
 CTRY. UNITED STATES OF AMERICA:   COUNTRY
 SRVC.       Schlumberger:   SERVICE COMPANY
 DATE.        27-JUL-1971:   LOGDATE
 API .       490250659800:   API NUMBER
~CURVE INFORMATION
#MNEM.UNIT       API CODE    CURVE DESCRIPTION
#----------   ------------   ------------------------------
 DEPT.F                  :   
 GRD .GAPI   45 310 01 00:   GAMMA RAY FROM DENSITY LOG
 CALD.IN     45 280 60 00:   CALIPER FROM DENSITY LOG
 RHOB.G/C3   45 350 01 00:   BULK DENSITY
 DPHI.DEC    45 890 12 00:   DENSITY POROSITY SANDSTONE
 CORR.G/C3   45 356 01 00:   DENSITY CORRECTION
 SPR .MV     05 010 01 00:   SPONTANEOUS POTENTIAL FROM RES.
 ASN .OHMM   05 041 16 00:   AMPLIFIED SHORT NORMAL 16"
 ILD .OHMM   05 120 46 00:   INDUCTION LOG DEEP
 CILD.MMHO   05 110 46 00:   CONDUCTIVITY INDUCTION LOG DEEP
~PARAMETER INFORMATION
#MNEM.UNIT          VALUE    DESCRIPTION
#----------   ------------   ------------------------------
 PD  .                 GL:   PERMANENT DATUM
 EPD .F              4998:   ELEVATION PERMANENT DATUM
 LMF .                 KB:   LOG MEASURED FROM
 DAPD.F                11:   FEET ABOVE PERMANENT DATUM
 DMF .                 KB:   DRILLING MEASURED FROM
 EKB .F              5009:   KELLING BUSHING
 EGL .F              4998:   GROUND LEVEL
 DATE.            7-27-71:   RUN DATE
 RUN .                  1:   RUN NUMBER
 DD  .F              3023:   DEPTH DRILLER
 DL  .F              3024:   DEPTH LOGGER
 BLI .F              3023:   BOTTOM LOG INTERVAL
 TLI .F               286:   TOP LOG INTERVAL
 CS  .IN            10.75:   CASING SIZE
 CBD .F               287:   CASING BOTTOM DRILLER
 CBL .F               286:   CASING BOTTOM LOGGER
 BS  .IN                9:   BIT SIZE
 BSD .F              3023:   BIT SIZE AT DEPTH
 DFT .      FRESH GEL MUD:   DRILLING FLUID TYPE
 DFD .                 10:   DRILLING FLUID DENSITY
 DFV .                 90:   DRILLING FLUID VISCOSITY
 DFPH.                7.6:   DRILLING FLUID PH
 DFL .                5.8:   DRILLING FLUID LOSS
 MSS .          FLOW LINE:   MUD SAMPLE SOURCE
 RMS .OHMM           1.74:   RESISTIVITY MUD SAMPLE
 MST .F                75:   MUD SAMPLE TEMPERATURE
 RMF .OHMM            1.5:   RESISTIVITY MUD FILTRATE SAMPLE
 MFST.F                75:   MUD FILTRATE SAMPLE TEMPERATURE
 MFSS.                  C:   MUD FILTRATE SAMPLE SOURCE
 RMB .OHMM           1.12:   RESISTIVITY MUD AT BHT
 BHT .F               116:   BOTTOM HOLE TEMPERATURE
 TCS .HRS               5:   TIME CURCULATED STOPPED
 MRT .F               116:   MAXIMUM RECORDED TEMPERATURE
 LUN .               7041:   LOGGING UNIT NUMBER
 LUL .               CSPR:   LOGGING UNIT LOCATION
 ENGI.             KNOBEL:   RECORDING ENGINEER
 WITN.                MAY:   WITNESSED BY
 CLNT.            A2DTECH:   CLIENT CODE
 ORIG.     1", 2.5" PRINT:   ORIGIN OF DATA
 UWI .       490250659800:   UNIQUE WELL ID
 DICO. A2D Technologies, Inc.:   DIGITIZING COMPANY
~OTHER INFORMATION
~A   DEPT      GRD       CALD       RHOB       DPHI       CORR        SPR        ASN        ILD       CILD   
# ...
 2072.0000   117.6076     9.5978     2.5416     0.0702     0.0615   -41.2333    12.5542     9.6820    96.0396
 2072.5000   120.0510     9.6089     2.5552     0.0556     0.0659   -41.1827    12.4417     9.7413    96.0396
 2073.0000   125.1793     9.6199     2.5441     0.0639     0.0673   -41.1425    12.4047     9.7930    96.0396
 2073.5000   130.1071     9.6310     2.5315     0.0731     0.0869   -41.1208    12.4823     9.8120    96.0396
 2074.0000   135.2431     9.6421     2.5256     0.0776     0.0985   -41.0894    12.6840     9.7976    96.0396
 2074.5000   137.9940     9.6531     2.5336     0.0696     0.1199   -41.0406    12.9402     9.7688    96.0396
 2075.0000   134.3463     9.6643     2.4354     0.1029     0.0126   -41.0451    13.1076     9.7421    96.0396
 2075.5000   130.9706     9.6752     2.4506     0.1203     0.0230   -41.1731    13.0791     9.7186    96.0396
 2076.0000   130.4630     9.6862     2.4635     0.1130     0.0163   -41.3687    12.8744     9.6932    96.0396
 2076.5000   135.8048     9.6983     2.4604     0.1177     0.0183   -41.4925    12.6115     9.6668    96.0396
 2077.0000   139.2716     9.7068     2.4719     0.1112     0.0266   -41.4948    12.4134     9.6438    96.0396
 2077.5000   135.9511     9.7214     2.4992     0.1005     0.0332   -41.4571    12.3457     9.6226    96.0396
 2078.0000   131.5543     9.7249     2.5054     0.0897     0.0409   -41.4559    12.4032     9.6011    96.0396
 2078.5000   125.7100     9.7909     2.5173     0.0802     0.0489   -41.4753    12.5297     9.5931    96.0396
 2079.0000   124.9842     9.8648     2.5237     0.0746     0.0483   -41.4754    12.6664     9.6318    96.0396
 2079.5000   124.1071     9.7967     2.5109     0.0832     0.0389   -41.4645    12.7951     9.7512    94.2041
 2080.0000   122.8315     9.7130     2.4975     0.1004     0.0300   -41.4663    12.9214     9.9517    92.3077
 2080.5000   121.5083     9.7213     2.4795     0.1100     0.0216   -41.4732    13.0402    10.1790    90.4113
 2081.0000   121.3214     9.7197     2.4865     0.1051     0.0270   -41.4690    13.1683    10.3492    88.5148
 2081.5000   120.9755     9.7121     2.4933     0.0973     0.0286   -41.4637    13.3772    10.4152    86.1386
 2082.0000   116.9849     9.7087     2.4921     0.0948     0.0199   -41.4733    13.6909    10.4061    86.1386
 2082.5000   113.2629     9.7029     2.4963     0.0960     0.0211   -41.4806    13.9542    10.3879    86.1386
 2083.0000   116.1562     9.6979     2.5012     0.0937     0.0263   -41.4453    13.9445    10.3931    86.1386
 2083.5000   126.0684     9.6929     2.4982     0.1007     0.0129   -41.3542    13.6666    10.4049    86.1386
 2084.0000   135.2040     9.6878     2.4564     0.1183     0.0061   -41.2385    13.4119    10.3948    86.1386
 2084.5000   142.9681     9.6827     2.4476     0.1207     0.0247   -41.1328    13.4265    10.3485    86.1386
 2085.0000   136.7478     9.6776     2.4419     0.1192     0.0223   -41.0402    13.6254    10.2659    86.1386
 2085.5000   130.7126     9.6725     2.4472     0.1221     0.0211   -40.9446    13.7415    10.1643    87.3478
 2086.0000   128.1053     9.6674     2.4669     0.1169     0.0317   -40.8421    13.6638    10.0769    88.6627
 2086.5000   128.1012     9.6623     2.4845     0.1116     0.0418   -40.7415    13.5015    10.0219    89.9776
 2087.0000   126.9136     9.6572     2.4776     0.1063     0.0364   -40.6453    13.3716     9.9777    91.2924
 2087.5000   124.9581     9.6520     2.4685     0.1010     0.0305   -40.5470    13.2713     9.9123    92.6073
 2088.0000   124.8423     9.6470     2.4793     0.0957     0.0381   -40.4452    13.1549     9.8269    94.0594
 2088.5000   131.8669     9.6420     2.5043     0.0913     0.0514   -40.3467    13.0232     9.7472    96.0396
 2089.0000   133.8171     9.6418     2.5160     0.0826     0.0636   -40.2518    12.8992     9.6785    97.4502
 2089.5000   130.6761     9.6412     2.4999     0.0946     0.0441   -40.1514    12.7836     9.5951    98.3943
 2090.0000   127.9763     9.6397     2.4878     0.1040     0.0440   -40.0448    12.6644     9.4795    99.3385
 2090.5000   127.9896     9.6381     2.4992     0.0983     0.0501   -39.9521    12.5412     9.3454   100.2827
 2091.0000   128.9036     9.6366     2.5044     0.0929     0.0566   -39.8938    12.4197     9.2186   101.2269
 2091.5000   125.7873     9.6350     2.5024     0.0842     0.0666   -39.8633    12.2995     9.1073   102.1711
 2092.0000   123.3080     9.6335     2.5103     0.0882     0.0598   -39.8349    12.1782     9.0032   103.1152
 2092.5000   123.1833     9.6320     2.4929     0.0981     0.0523   -39.7962    12.0574     8.9022   104.0594
 2093.0000   122.8083     9.6304     2.4987     0.0935     0.0602   -39.7558    11.9377     8.8088   105.0036
 2093.5000   120.2092     9.6289     2.5098     0.0842     0.0816   -39.7212    11.8160     8.7233   105.9478
 2094.0000   117.8748     9.6273     2.5211     0.0742     0.1076   -39.6882    11.6939     8.6361   106.8919
 2094.5000   124.0807     9.6258     2.5053     0.0897     0.1010   -39.6525    11.5747     8.5442   107.8361
 2095.0000   131.5170     9.6243     2.4496     0.1130     0.0534   -39.6168    11.4649     8.4574   108.7803
 2095.5000   129.9438     9.6227     2.4600     0.1079     0.0376   -39.5819    11.3596     8.3765   109.7245
 2096.0000   126.8949     9.6212     2.5034     0.0960     0.0471   -39.5451    11.2284     8.2850   110.6686
 2096.5000   123.9613     9.6196     2.5223     0.0839     0.0420   -39.5101    11.0317     8.1815   111.6128
 2097.0000   121.0069     9.6181     2.5280     0.0707     0.0396   -39.4873    10.7939     8.0993   112.5570
 2097.5000   119.4007     9.6166     2.5424     0.0596     0.0376   -39.4810    10.6263     8.0787   113.8614
 2098.0000   119.7843     9.6150     2.5422     0.0644     0.0351   -39.4834    10.6005     8.1348   113.5564
 2098.5000   121.5444     9.6135     2.5352     0.0715     0.0332   -39.4851    10.6410     8.2526   113.0634
 2099.0000   121.0118     9.6119     2.5272     0.0748     0.0337   -39.4840    10.6540     8.3700   112.5703
 2099.5000   119.0070     9.6103     2.5104     0.0826     0.0349   -39.4832    10.6913     8.3714   111.8812
 2100.0000   119.4091     9.6089     2.5189     0.0746     0.0402   -39.4837    10.8122     8.1624   116.1510
 2100.5000   121.0814     9.6072     2.5491     0.0655     0.0517   -39.4842    10.8742     7.7719   123.2389
 2101.0000   115.1686     9.6058     2.5444     0.0588     0.0508   -39.4840    10.6890     7.3228   130.3267
 2101.5000   104.1628     9.6044     2.5275     0.0646     0.0407   -39.4835    10.2984     6.8984   137.4146
 2102.0000   103.7542     9.6018     2.5155     0.0810     0.0383   -39.4835     9.8511     6.5120   144.5025
 2102.5000   105.0848     9.6133     2.5200     0.0786     0.0451   -39.4841     9.3318     6.2058   151.5903
 2103.0000   107.5921     9.6445     2.5308     0.0692     0.0621   -39.4843     8.7022     6.0581   157.4257
 2103.5000   109.8727     9.6736     2.5431     0.0588     0.0524   -39.4835     8.1776     6.0447   157.4257
 2104.0000   111.8898     9.7056     2.5466     0.0652     0.0571   -39.4829     8.0313     6.0327   157.4257
 2104.5000   110.1585     9.7335     2.5515     0.0612     0.0711   -39.4844     8.2359     5.9930   156.4653
 2105.0000   109.2528     9.7554     2.5557     0.0612     0.0802   -39.4857     8.5777     6.0888   155.4455
 2105.5000   106.4490     9.6926     2.4941     0.0953     0.0416   -39.4828     8.9780     6.4321   151.4852
 2106.0000   103.2777     9.6362     2.4982     0.0884     0.0281   -39.4802     9.4242     6.8714   144.2016
 2106.5000    99.6861     9.6062     2.5252     0.0809     0.0359   -39.4910     9.7694     7.1702   136.5815
 2107.0000    99.4661     9.6467     2.5194     0.0778     0.0375   -39.5233     9.8915     7.3094   128.9613
 2107.5000   104.4483     9.6401     2.5182     0.0810     0.0330   -39.5699     9.8449     7.4489   117.8218
 2108.0000   108.7411     9.6418     2.5254     0.0754     0.0290   -39.6184    10.0655     7.6668   117.8218
