~VERSION INFORMATION
 VERS.                2.0:   CWLS LOG ASCII STANDARD - VERSION 2.0
 WRAP.                 NO:   ONE LINE PER DEPTH STEP
~WELL INFORMATION
#MNEM.UNIT      DATA TYPE    INFORMATION
#----------   ------------   ------------------------------
 STRT.F           42.0000:   START DEPTH
 STOP.F          533.0000:   STOP DEPTH
 STEP.F            0.5000:   STEP LENGTH
 NULL.          -999.2500:   NO VALUE
 COMP.    FENIX & SCISSON:   COMPANY
 WELL.      NPR-3 #38S3-3:   WELL
 FLD .             TEAPOT:   FIELD
 LOC .       S3 T38N R78W:   LOCATION
 CNTY.            NATRONA:   COUNTY
 STAT.            WYOMING:   STATE
 CTRY. UNITED STATES OF AMERICA:   COUNTRY
 SRVC.           BIRDWELL:   SERVICE COMPANY
 DATE.        29-JUN-1978:   LOGDATE
 API .       490251066300:   API NUMBER
~CURVE INFORMATION
#MNEM.UNIT       API CODE    CURVE DESCRIPTION
#----------   ------------   ------------------------------
 DEPT.F                  :   
 ILD .OHMM   05 120 46 00:   INDUCTION LOG DEEP
 SN  .OHMM   05 040 16 00:   SHORT NORMAL 16"
 SPR .MV     05 010 01 00:   SPONTANEOUS POTENTIAL FROM RES.
 CALD.IN     45 280 60 00:   CALIPER FROM DENSITY LOG
 CORR.G/C3   45 356 01 00:   DENSITY CORRECTION
 DPHI.DEC    45 890 12 00:   DENSITY POROSITY SANDSTONE
 GRD .GAPI   45 310 01 00:   GAMMA RAY FROM DENSITY LOG
 RHOB.G/C3   45 350 01 00:   BULK DENSITY
~PARAMETER INFORMATION
#MNEM.UNIT          VALUE    DESCRIPTION
#----------   ------------   ------------------------------
 PD  .                 GL:   PERMANENT DATUM
 EPD .F              5238:   ELEVATION PERMANENT DATUM
 LMF .                 KB:   LOG MEASURED FROM
 DAPD.F                 4:   FEET ABOVE PERMANENT DATUM
 DMF .                 KB:   DRILLING MEASURED FROM
 EKB .F              5242:   KELLING BUSHING
 EGL .F              5238:   GROUND LEVEL
 DATE.        29-JUN-1978:   RUN DATE
 RUN .                  1:   RUN NUMBER
 DD  .F               530:   DEPTH DRILLER
 DL  .F               540:   DEPTH LOGGER
 BLI .F               533:   BOTTOM LOG INTERVAL
 TLI .F                40:   TOP LOG INTERVAL
 CS  .IN            8.625:   CASING SIZE
 CBD .F                40:   CASING BOTTOM DRILLER
 BS  .IN            7.875:   BIT SIZE
 BSD .F               530:   BIT SIZE AT DEPTH
 DFT .                KCL:   DRILLING FLUID TYPE
 DFD .                8.7:   DRILLING FLUID DENSITY
 DFV .                 34:   DRILLING FLUID VISCOSITY
 DFPH.                9.5:   DRILLING FLUID PH
 MSS .           FLOWLINE:   MUD SAMPLE SOURCE
 RMS .OHMM            0.2:   RESISTIVITY MUD SAMPLE
 MST .F                82:   MUD SAMPLE TEMPERATURE
 RMF .OHMM           0.18:   RESISTIVITY MUD FILTRATE SAMPLE
 MFST.F                82:   MUD FILTRATE SAMPLE TEMPERATURE
 RMC .OHMM           0.14:   RESISTIVITY MUD CAKE
 MCST.F                82:   MUD CAKE SAMPLE TEMPERATURE
 MFSS.               MEAS:   MUD FILTRATE SAMPLE SOURCE
 TCS .HRS               1:   TIME CURCULATED STOPPED
 LUN .               2958:   LOGGING UNIT NUMBER
 LUL .             CASPER:   LOGGING UNIT LOCATION
 ENGI.             MILLER:   RECORDING ENGINEER
 WITN.         ZARGARNIAN:   WITNESSED BY
 CLNT.            A2DTECH:   CLIENT CODE
 ORIG.           5" PRINT:   ORIGIN OF DATA
 UWI .       490251066300:   UNIQUE WELL ID
 DICO. A2D Technologies, Inc.:   DIGITIZING COMPANY
~OTHER INFORMATION
~A   DEPT      ILD         SN        SPR       CALD       CORR       DPHI         GRD      RHOB   
# ...
   82.5000     8.7376     8.2195   -15.8814     7.2537     0.0363     0.1504    79.6329     2.4553
   83.0000     8.9212     8.2536   -16.0902     7.5530     0.0363     0.1492    80.5297     2.4538
   83.5000     9.1719     8.3109   -16.0877     7.6576     0.0304     0.1450    82.9235     2.4500
   84.0000     9.3002     8.3109   -15.9398     7.7024     0.0214     0.1297    85.0179     2.4673
   84.5000     9.3008     8.3686   -15.7895     7.7322     0.0140     0.1381    85.7695     2.4726
   85.0000     9.3014     8.4266   -15.8145     7.7320     0.0155     0.1482    85.0147     2.4553
   85.5000     9.1113     8.4266   -15.9398     7.7169     0.0350     0.1449    81.4205     2.4741
   86.0000     8.9250     8.4266   -16.0902     7.7018     0.0574     0.1344    77.9759     2.4793
   86.5000     8.8639     8.4266   -16.0902     7.6418     0.0873     0.1248    77.0763     2.4794
   87.0000     8.6828     8.3686   -16.2957     7.5817     0.1037     0.1173    76.9252     2.4921
   87.5000     8.3309     8.2536   -16.3910     7.5367     0.1113     0.0972    78.1210     2.5285
   88.0000     8.1043     8.0842   -16.6917     7.4916     0.1008     0.0945    80.3651     2.5334
   88.5000     8.0489     7.9732   -16.6917     7.4465     0.0695     0.1227    82.6092     2.5161
   89.0000     7.9391     7.9182   -16.6917     7.4015     0.0352     0.1335    85.0029     2.4914
   89.5000     7.8849     7.9182   -16.6917     7.3265     0.0143     0.1383    86.0589     2.4749
   90.0000     7.7772     7.9182   -16.6917     7.2515     0.0158     0.1401    86.3474     2.4697
   90.5000     7.7242     7.9182   -16.3910     7.1615     0.0203     0.1401    86.3456     2.4660
   91.0000     7.7248     7.9182   -16.3910     7.1164     0.0248     0.1400    86.3442     2.4660
   91.5000     7.7790     7.9182   -16.0902     7.0819     0.0293     0.1370    84.9955     2.4668
   92.0000     7.7795     7.9182   -15.9398     7.0563     0.0309     0.1346    83.6467     2.4705
   92.5000     7.8339     7.9182   -15.7895     7.0561     0.0279     0.1292    85.2917     2.4782
   93.0000     7.9435     7.9182   -15.7895     7.0710     0.0190     0.1319    86.0391     2.4833
   93.5000     7.9992     7.9182   -15.7895     7.0708     0.0086     0.1466    84.3906     2.4616
   94.0000     8.0552     7.9182   -15.7895     7.0856     0.0086     0.1538    82.8922     2.4443
   94.5000     8.1115     7.9182   -15.6391     7.1056     0.0176     0.1502    83.0694     2.4444
   95.0000     8.2250     7.8637   -15.6391     7.1153     0.0221     0.1400    84.2363     2.4497
   95.5000     8.2826     7.8637   -15.6391     7.1316     0.0191     0.1364    84.3849     2.4684
   96.0000     8.3406     7.8637   -15.7895     7.1748     0.0192     0.1379    80.7903     2.4691
   96.5000     8.3990     7.9182   -15.7895     7.2196     0.0177     0.1459    79.8907     2.4677
   97.0000     8.4578     7.9182   -15.7895     7.2584     0.0192     0.1498    80.5135     2.4632
   97.5000     8.5171     7.9182   -15.7895     7.3091     0.0222     0.1507    81.5342     2.4497
   98.0000     8.5177     7.9485   -15.7895     7.3689     0.0243     0.1381    82.0988     2.4527
   98.5000     8.5773     7.9732   -15.7895     7.4286     0.0253     0.1314    82.8786     2.4692
   99.0000     8.4601     7.9732   -15.7895     7.5033     0.0238     0.1264    83.6257     2.4790
   99.5000     8.4025     7.9182   -15.7895     7.5780     0.0194     0.1279    84.0734     2.4820
  100.0000     8.2307     7.9182   -15.7895     7.6677     0.0164     0.1303    83.4724     2.4820
  100.5000     8.1182     7.9182   -15.8550     7.7570     0.0135     0.1366    83.4521     2.4790
  101.0000     8.0075     7.9304   -15.9653     7.8163     0.0166     0.1439    84.6510     2.4753
  101.5000     7.9527     7.9859   -16.0757     7.8008     0.0225     0.1500    85.8401     2.4663
  102.0000     7.7111     7.9864   -16.1204     7.7554     0.0300     0.1452    86.4326     2.4513
  102.5000     7.6575     7.9833   -16.1216     7.7098     0.0330     0.1320    83.7274     2.4573
  103.0000     7.4484     7.8779   -15.8221     7.6944     0.0360     0.1245    82.8186     2.4844
  103.5000     7.2951     7.7170   -15.8233     7.6939     0.0360     0.1213    84.1575     2.4956
  104.0000     7.1946     7.5593   -15.8248     7.6634     0.0361     0.1360    87.4425     2.4904
  104.5000     7.0955     7.4562   -15.8259     7.6168     0.0361     0.1417    87.9312     2.4716
  105.0000     6.9977     7.4054   -15.8271     7.5126     0.0376     0.1375    84.4295     2.4619
  105.5000     6.8538     7.4059   -15.8283     7.4074     0.0294     0.1285    84.7204     2.4636
  106.0000     6.7593     7.4064   -15.8296     7.3171     0.0233     0.1235    86.2090     2.4813
  106.5000     6.6661     7.4069   -15.8310     7.2266     0.0188     0.1350    88.4460     2.4910
  107.0000     6.5291     7.4074   -15.8322     7.1513     0.0188     0.1362    90.2319     2.4790
  107.5000     6.4837     7.5110   -15.8334     7.0956     0.0187     0.1410    91.1216     2.4713
  108.0000     6.4833     7.6159   -15.8346     7.0455     0.0202     0.1419    91.5623     2.4624
  108.5000     6.4828     7.7223   -15.8361     7.0000     0.0231     0.1425    91.4041     2.4624
  109.0000     6.5725     7.7229   -15.8371     6.9622     0.0231     0.1416    89.5972     2.4639
  109.5000     6.7096     7.8308   -15.8383     6.9241     0.0230     0.1377    86.4450     2.4678
  110.0000     6.8970     7.8856   -15.8397     6.8787     0.0215     0.1299    82.0952     2.4810
  110.5000     7.0896     7.8862   -15.8409     6.8632     0.0199     0.1315    81.3383     2.4818
  111.0000     7.2876     7.8867   -15.9927     6.8778     0.0214     0.1368    81.0283     2.4796
  111.5000     7.4912     7.8872   -16.1586     6.9071     0.0214     0.1380    80.5708     2.4748
  112.0000     7.6475     7.8877   -16.2957     6.9681     0.0213     0.1419    79.3647     2.4667
  112.5000     7.7533     7.8884   -16.4474     7.0557     0.0198     0.1500    78.3084     2.4599
  113.0000     7.8606     7.8889   -16.7494     7.1600     0.0212     0.1581    77.5514     2.4517
  113.5000     7.9145     7.8894   -16.9012     7.2793     0.0230     0.1656    78.5888     2.4447
  114.0000     7.9688     7.8899   -17.0525     7.4433     0.0256     0.1626    79.1791     2.4344
  114.5000     7.9682     7.8906   -16.7530     7.5626     0.0300     0.1530    79.4701     2.4261
  115.0000     7.8042     7.8367   -16.4534     7.6369     0.0360     0.1419    78.8607     2.4395
  115.5000     7.5389     7.8373   -16.1541     7.6814     0.0389     0.1323    80.0499     2.4669
  116.0000     7.4350     7.8378   -15.8546     7.6958     0.0404     0.1233    84.5325     2.4889
  116.5000     7.4345     7.8926   -15.8561     7.6952     0.0418     0.1185    86.1707     2.4964
  117.0000     7.5374     7.9480   -15.7066     7.6798     0.0403     0.1146    86.1602     2.5009
  117.5000     7.6416     7.9485   -15.5574     7.6493     0.0387     0.1104    85.8523     2.5093
  118.0000     7.6411     7.8942   -15.2581     7.6188     0.0342     0.1137    85.2451     2.5135
  118.5000     7.6406     7.9495   -15.2425     7.5883     0.0297     0.1167    83.7275     2.5075
  119.0000     7.6930     8.0051   -14.9601     7.5729     0.0237     0.1209    81.6332     2.5015
  119.5000     7.7458     8.0612   -14.9613     7.5424     0.0206     0.1260    80.1278     2.4945
  120.0000     7.7452     8.0618   -14.9625     7.5269     0.0176     0.1299    79.8199     2.4797
  120.5000     7.6385     8.1182   -15.1140     7.5264     0.0176     0.1332    80.7335     2.4842
  121.0000     7.5332     8.1187   -15.1153     7.5108     0.0190     0.1350    81.8967     2.4834
  121.5000     7.5327     8.1194   -15.1167     7.5104     0.0190     0.1356    81.7386     2.4780
  122.0000     7.5321     8.0639   -15.1179     7.4949     0.0189     0.1353    82.0295     2.4736
  122.5000     7.5316     8.0645   -15.0553     7.4944     0.0189     0.1346    82.9291     2.4766
