~VERSION INFORMATION
 VERS.                2.0:   CWLS LOG ASCII STANDARD - VERSION 2.0
 WRAP.                 NO:   ONE LINE PER DEPTH STEP
~WELL INFORMATION
#MNEM.UNIT      DATA TYPE    INFORMATION
#----------   ------------   ------------------------------
 STRT.F            0.0000:   START DEPTH
 STOP.F         3024.5000:   STOP DEPTH
 STEP.F            0.5000:   STEP LENGTH
 NULL.          -999.2500:   NO VALUE
 COMP. LAWRENCE/ALLISON INC:   COMPANY
 WELL.   NPR 3 77X #77-28:   WELL
 FLD .           N.P.R. 3:   FIELD
 LOC .      S28 T39N R78W:   LOCATION
 CNTY.            NATRONA:   COUNTY
 STAT.            WYOMING:   STATE
 CTRY. UNITED STATES OF AMERICA:   COUNTRY
 SRVC.      Dresser Atlas:   SERVICE COMPANY
 DATE.        19-OCT-1986:   LOGDATE
 API .       490251110400:   API NUMBER
~CURVE INFORMATION
#MNEM.UNIT       API CODE    CURVE DESCRIPTION
#----------   ------------   ------------------------------
 DEPT.F                  :   
 PORD.DEC    45 890 12 00:   DENSITY POROSITY SANDSTONE
 CNC .DEC    42 890 03 00:   NEUTRON POROSITY SANDSTONE
 DEN .G/C3   45 350 01 00:   COMPENSATED BULK DENSTIY
 CORR.G/C3   45 356 01 00:   DENSITY CORRECTION
 CALD.IN     45 280 60 00:   CALIPER FROM DENSITY LOG
 GRR .GAPI   07 310 01 00:   GAMMA RAY FROM RES. LOG.
 RFOC.OHMM   07 220 04 00:   RESISTIVITY FOCUSED LOG
 RILD.OHMM   07 120 46 00:   INDUCTION LOG DEEP RESISTIVITY
 RILM.OHMM   07 120 44 00:   INDUCTION LOG MEDIUM RESISTIVITY
 SPR .MV     07 010 01 00:   SPONTANEOUS POTENTIAL
~PARAMETER INFORMATION
#MNEM.UNIT          VALUE    DESCRIPTION
#----------   ------------   ------------------------------
 PD  .                 GL:   PERMANENT DATUM
 EPD .F              5074:   ELEVATION PERMANENT DATUM
 LMF .                 KB:   LOG MEASURED FROM
 DAPD.F                12:   FEET ABOVE PERMANENT DATUM
 DMF .                 KB:   DRILLING MEASURED FROM
 EKB .F              5086:   KELLING BUSHING
 EGL .F              5074:   GROUND LEVEL
 DATE.           10-19-86:   RUN DATE
 RUN .                  1:   RUN NUMBER
 DD  .F              3021:   DEPTH DRILLER
 DL  .F              3025:   DEPTH LOGGER
 BLI .F              3023:   BOTTOM LOG INTERVAL
 CS  .IN            8.625:   CASING SIZE
 CBD .F               620:   CASING BOTTOM DRILLER
 CBL .F               615:   CASING BOTTOM LOGGER
 BS  .IN            7.875:   BIT SIZE
 BSD .F              3021:   BIT SIZE AT DEPTH
 DFT .        KCL POLYMER:   DRILLING FLUID TYPE
 DFD .                8.9:   DRILLING FLUID DENSITY
 DFV .                 38:   DRILLING FLUID VISCOSITY
 DFPH.                9.5:   DRILLING FLUID PH
 DFL .               11.2:   DRILLING FLUID LOSS
 MSS .           FLOWLINE:   MUD SAMPLE SOURCE
 RMS .OHMM            .25:   RESISTIVITY MUD SAMPLE
 MST .F                65:   MUD SAMPLE TEMPERATURE
 RMF .OHMM           .203:   RESISTIVITY MUD FILTRATE SAMPLE
 MFST.F                65:   MUD FILTRATE SAMPLE TEMPERATURE
 RMC .OHMM            .31:   RESISTIVITY MUD CAKE
 MCST.F                65:   MUD CAKE SAMPLE TEMPERATURE
 MFSS.               MEAS:   MUD FILTRATE SAMPLE SOURCE
 MCSS.               CALC:   MUD CAKE SAMPLE SOURCE
 RMB .OHMM           .136:   RESISTIVITY MUD AT BHT
 BHT .F               119:   BOTTOM HOLE TEMPERATURE
 TCS .HRS               5:   TIME CURCULATED STOPPED
 MRT .F               119:   MAXIMUM RECORDED TEMPERATURE
 LUN .               6274:   LOGGING UNIT NUMBER
 LUL .               GLTE:   LOGGING UNIT LOCATION
 ENGI.             RAUTIO:   RECORDING ENGINEER
 WITN.             STRONG:   WITNESSED BY
 CLNT.            A2DTECH:   CLIENT CODE
 ORIG.       2", 5" PRINT:   ORIGIN OF DATA
 UWI .       490251110400:   UNIQUE WELL ID
 DICO. A2D Technologies, Inc.:   DIGITIZING COMPANY
~OTHER INFORMATION
~A    DEPT    PORD        CNC        DEN       CORR       CALD        GRR       RFOC       RILD       RILM        SPR   
# ...
 2680.0000     0.0722     0.1896     2.5290    -0.0025    10.1398   115.7608     8.7375     7.4743     7.6577   -75.0509
 2680.5000     0.0690     0.1901     2.5342     0.0001    10.1280   111.4453     8.7375     7.5778     7.7482   -75.0919
 2681.0000     0.0657     0.1869     2.5394    -0.0089    10.1162   107.1473     8.8127     7.6827     7.8398   -75.1321
 2681.5000     0.0624     0.1845     2.5446     0.0005    10.1044   102.8550     8.9610     7.7891     7.9325   -75.1724
 2682.0000     0.0592     0.1852     2.5498     0.0126    10.0925    99.9719     9.1117     7.8965     8.0263   -75.2125
 2682.5000     0.0584     0.1875     2.5516     0.0164    10.0807   100.5140     9.3188     8.0263     8.1175   -75.2526
 2683.0000     0.0545     0.1897     2.5558     0.0057    10.0689   103.5139     9.0335     8.1578     8.2981   -75.2928
 2683.5000     0.0480     0.1897     2.5665     0.0123    10.0570   106.6003     8.6130     8.2914     8.4757   -75.3329
 2684.0000     0.0414     0.1826     2.5792     0.0443    10.0452   109.4564     8.4218     8.4273     8.6572   -75.3730
 2684.5000     0.0335     0.1748     2.5919     0.0478    10.0334   105.3230     9.2897     8.5653     8.8425   -75.4131
 2685.0000     0.0358     0.1681     2.5898     0.0189    10.0215   100.8142    10.3003     8.7056     9.0321   -75.4532
 2685.5000     0.0394     0.1744     2.5844    -0.0034    10.0097    96.2451    11.4252     8.8482     9.2252   -75.4934
 2686.0000     0.0430     0.1826     2.5789     0.0003     9.9979    95.2285    12.0633     8.9932     9.4050   -75.5335
 2686.5000     0.0463     0.1908     2.5736     0.0037     9.9860    96.3486    11.4634     9.0651     9.4050   -75.5737
 2687.0000     0.0514     0.1990     2.5639     0.0069     9.9742    97.6404    10.6593     8.8681     9.2180   -75.6138
 2687.5000     0.0561     0.2006     2.5536     0.0070     9.9624    98.9246     9.9151     8.6079     9.0547   -75.6470
 2688.0000     0.0611     0.1948     2.5476     0.0124     9.9506   100.2118     9.2229     8.3552     8.8998   -75.6460
 2688.5000     0.0565     0.1901     2.5518     0.0228     9.9387   100.4000     8.5789     8.1100     8.8998   -75.6451
 2689.0000     0.0507     0.1901     2.5639     0.0332     9.9269   100.1254     8.2683     7.8965     8.8998   -75.6475
 2689.5000     0.0448     0.1891     2.5759     0.0439     9.9151    99.1389     8.8248     7.8965     8.7067   -75.8684
 2690.0000     0.0431     0.1858     2.5776     0.0372     9.8930    98.1646     9.4788     7.8965     8.4450   -76.1150
 2690.5000     0.0452     0.1824     2.5747     0.0287     9.8613    97.2760    10.1813     7.8965     8.1907   -76.3581
 2691.0000     0.0503     0.1836     2.5703     0.0338     9.8296    96.7299    10.6000     7.6207     7.9441   -76.5917
 2691.5000     0.0578     0.1929     2.5584     0.0362     9.7979   102.2411     9.9498     7.3001     7.7051   -76.8320
 2692.0000     0.0653     0.2022     2.5459     0.0126     9.7662   109.6225     9.0451     6.9917     7.4732   -77.0125
 2692.5000     0.0670     0.2115     2.5395     0.0030     9.7345   115.7325     8.2227     6.6965     7.2484   -77.3562
 2693.0000     0.0607     0.2200     2.5483     0.0122     9.7062   113.1462     7.7525     6.4139     7.0710   -77.6989
 2693.5000     0.0603     0.2234     2.5503     0.0230     9.6991   110.7527     7.6815     6.1431     6.7279   -78.0422
 2694.0000     0.0639     0.2270     2.5430     0.0283     9.6915   109.5081     7.4327     5.8839     6.4002   -78.3848
 2694.5000     0.0676     0.2277     2.5373     0.0461     9.6839   110.2135     7.0627     5.6356     6.0885   -78.7375
 2695.0000     0.0646     0.2210     2.5417     0.0637     9.6762   110.9805     6.6912     5.5156     5.7752   -79.1747
 2695.5000     0.0607     0.2197     2.5476     0.0663     9.6686   111.7502     6.6299     5.2532     5.3392   -79.4404
 2696.0000     0.0584     0.2235     2.5527     0.0461     9.6609   113.2556     6.6299     4.7110     4.8674   -79.4213
 2696.5000     0.0610     0.2276     2.5484     0.0258     9.6533   117.2963     6.2317     4.2247     4.4373   -79.4229
 2697.0000     0.0653     0.2357     2.5419     0.0053     9.6475   122.8863     5.7278     3.7887     3.9481   -79.4241
 2697.5000     0.0738     0.2470     2.5274     0.0007     9.6476   128.5562     5.2558     3.3097     3.4168   -79.5173
 2698.0000     0.0826     0.2582     2.5028     0.0160     9.6476   134.2841     4.7617     2.7265     2.9570   -79.8411
 2698.5000     0.1029     0.2706     2.4626     0.0295     9.6476   141.5690     4.3141     2.2461     2.5591   -80.1505
 2699.0000     0.1269     0.2830     2.4234     0.0228     9.6476   156.5013     3.8231     1.9009     2.2147   -80.4311
 2699.5000     0.1507     0.2946     2.3917     0.0148     9.6476   170.7552     3.2835     1.6707     1.9167   -80.4159
 2700.0000     0.1748     0.3061     2.3606     0.0068     9.6476   198.9486     2.8201     1.4541     1.6884   -80.2899
 2700.5000     0.1949     0.3222     2.3298     0.0031     9.6476   217.7971     2.4220     1.3574     1.5071   -79.7507
 2701.0000     0.2021     0.3266     2.3151     0.0034     9.6476   212.2378     2.1380     1.2592     1.4320   -79.2344
 2701.5000     0.2021     0.3352     2.3155    -0.0060     9.6473   202.1489     2.5237     1.1682     1.3567   -78.7202
 2702.0000     0.2583     0.3563     2.2822    -0.0463     9.6464   190.5656     3.1076     1.1542     1.2853   -78.2100
 2702.5000     0.4019     0.3733     2.0021    -0.0874     9.6524   179.9742     3.4498     1.2035     1.2654   -77.5222
 2703.0000     0.4688     0.3099     2.0025    -0.1285     9.9570   174.2946     2.4370     1.2849     1.4519   -76.8449
 2703.5000     0.5160     0.3023     2.0025    -0.1469    10.3764   153.9318     1.7786     1.4133     1.7904   -76.1739
 2704.0000     0.3758     0.2975     2.0025    -0.1157     9.7160   136.4822     2.4911     1.6282     2.2079   -75.7131
 2704.5000     0.2381     0.2846     2.1758    -0.0870     9.3823   119.0308     3.7483     1.8758     2.7227   -76.1628
 2705.0000     0.1675     0.2449     2.3491    -0.0239     9.3847   109.1736     6.2708     2.1620     3.2645   -76.5918
 2705.5000     0.1096     0.2505     2.4611     0.0237     9.3856   107.6213     6.1340     2.5506     3.2934   -77.0203
 2706.0000     0.1032     0.2578     2.4765     0.0163     9.3859   106.0105     5.9369     3.0426     3.7735   -77.4476
 2706.5000     0.1038     0.2578     2.4770    -0.0034     9.3868   105.9363     5.9369     3.7031     4.3358   -77.8791
 2707.0000     0.1055     0.2443     2.4757    -0.0150     9.3890   106.5301     5.9381     4.5115     5.0257   -78.0300
 2707.5000     0.1054     0.2431     2.4755    -0.0112     9.3913   107.2229     5.9324     4.9663     5.5128   -78.0327
 2708.0000     0.0958     0.2447     2.4775    -0.0029     9.3935   107.5810     6.1195     5.4889     6.0809   -78.0321
 2708.5000     0.0854     0.2231     2.4957     0.0054     9.3957   106.3911     6.5282     6.1048     6.7144   -78.0320
 2709.0000     0.0750     0.1956     2.5183     0.0075     9.3979   104.5834     7.1462     6.7898     7.5974   -78.0321
 2709.5000     0.0646     0.1680     2.5410    -0.0015     9.4002    97.4365     8.1175     7.5658     8.7049   -78.0305
 2710.0000     0.0542     0.1405     2.5634    -0.0045     9.4024    90.1204    11.6834     8.4370     9.9754   -77.9607
 2710.5000     0.0478     0.1201     2.5686     0.0063     9.4047    82.7533    17.2206     9.4086    11.4321   -77.8127
 2711.0000     0.0527     0.1136     2.5643     0.0077     9.4109    79.4094    21.3305    10.4920    12.9867   -77.6651
 2711.5000     0.0576     0.1211     2.5561     0.0036     9.4244    77.7139    18.6577    11.7002    12.9799   -77.5192
 2712.0000     0.0625     0.1307     2.5479     0.0010     9.4379    78.8110    16.7446    12.0573    12.4880   -77.4969
 2712.5000     0.0662     0.1402     2.5397     0.0010     9.4513    80.4645    15.6171    11.7809    12.0611   -77.6389
 2713.0000     0.0684     0.1495     2.5376     0.0011     9.4648    82.1765    14.7069    11.3151    11.6488   -77.7801
