~VERSION INFORMATION
 VERS.                2.0:   CWLS LOG ASCII STANDARD - VERSION 2.0
 WRAP.                 NO:   ONE LINE PER DEPTH STEP
~WELL INFORMATION
#MNEM.UNIT      DATA TYPE    INFORMATION
#----------   ------------   ------------------------------
 STRT.F            0.0000:   START DEPTH
 STOP.F          528.0000:   STOP DEPTH
 STEP.F            0.5000:   STEP LENGTH
 NULL.          -999.2500:   NO VALUE
 COMP.   FLUOR DANIEL INC:   COMPANY
 WELL. NAVAL PETROLEUM RESERVE 3 SX-3 53 #2-3:   WELL
 FLD .             TEAPOT:   FIELD
 LOC .       S3 T38N R78W:   LOCATION
 CNTY.            NATRONA:   COUNTY
 STAT.            WYOMING:   STATE
 CTRY. UNITED STATES OF AMERICA:   COUNTRY
 SRVC.      Western Atlas:   SERVICE COMPANY
 DATE.        06-JUL-1995:   LOGDATE
 API .       490252273900:   API NUMBER
~CURVE INFORMATION
#MNEM.UNIT       API CODE    CURVE DESCRIPTION
#----------   ------------   ------------------------------
 DEPT.F                  :   
 GRR .GAPI   07 310 01 00:   GAMMA RAY FROM RES. LOG.
 RILD.OHMM   07 120 46 00:   INDUCTION LOG DEEP RESISTIVITY
 RILM.OHMM   07 120 44 00:   INDUCTION LOG MEDIUM
~PARAMETER INFORMATION
#MNEM.UNIT          VALUE    DESCRIPTION
#----------   ------------   ------------------------------
 PD  .                 GL:   PERMANENT DATUM
 EPD .F              5146:   ELEVATION PERMANENT DATUM
 LMF .                 KB:   LOG MEASURED FROM
 DAPD.F                10:   FEET ABOVE PERMANENT DATUM
 DMF .                 KB:   DRILLING MEASURED FROM
 EKB .F              5156:   KELLING BUSHING
 EDF .F              5155:   DRILLING FLOOR
 EGL .F              5146:   GROUND LEVEL
 DATE.             7-6-95:   RUN DATE
 RUN .                  1:   RUN NUMBER
 DD  .F               535:   DEPTH DRILLER
 DL  .F               536:   DEPTH LOGGER
 BLI .F               528:   BOTTOM LOG INTERVAL
 TLI .F                53:   TOP LOG INTERVAL
 CS  .IN            9.625:   CASING SIZE
 CBD .F                52:   CASING BOTTOM DRILLER
 CBL .F                53:   CASING BOTTOM LOGGER
 BS  .IN             8.75:   BIT SIZE
 BSD .F               535:   BIT SIZE AT DEPTH
 DFT .                AIR:   DRILLING FLUID TYPE
 BHT .F               102:   BOTTOM HOLE TEMPERATURE
 MRT .F               102:   MAXIMUM RECORDED TEMPERATURE
 LUN .            HL 6530:   LOGGING UNIT NUMBER
 LUL .             CASPER:   LOGGING UNIT LOCATION
 ENGI.             RAUTIO:   RECORDING ENGINEER
 WITN.             STRONG:   WITNESSED BY
 CLNT.            A2DTECH:   CLIENT CODE
 ORIG. 2", 2.5", 5" PRINT:   ORIGIN OF DATA
 UWI .       490252273900:   UNIQUE WELL ID
 DICO. A2D Technologies, Inc.:   DIGITIZING COMPANY
~OTHER INFORMATION
~A    DEPT      GRR      RILD       RILM   
# ...
  455.0000   108.1720    11.9939    11.5095
  455.5000   107.8195    11.9074    11.1743
  456.0000   108.7429    11.8059    10.8140
  456.5000   109.6496    11.7058    10.9873
  457.0000   110.7648    11.6067    11.1847
  457.5000   111.9675    11.5077    11.4303
  458.0000   112.5327    11.3716    11.2761
  458.5000   111.5598    11.0816    11.0208
  459.0000   110.6819    10.8007    10.7712
  459.5000   111.5781    10.5267    10.5273
  460.0000   112.8534    10.2596    10.2890
  460.5000   114.1444     9.9994     9.8982
  461.0000   115.4450     9.7457     9.4717
  461.5000   116.1070     9.4985     9.1553
  462.0000   116.0437     9.0953     8.7142
  462.5000   114.6184     8.6263     8.1250
  463.0000   114.3254     7.9029     7.3980
  463.5000   116.9626     7.2130     6.7361
  464.0000   123.7501     6.5837     6.1335
  464.5000   130.5126     6.0093     5.5847
  465.0000   137.0632     5.7129     5.1128
  465.5000   143.0741     5.7129     5.0191
  466.0000   148.4617     5.7129     5.6057
  466.5000   147.3378     5.9144     6.1101
  467.0000   136.8703     6.1232     6.6599
  467.5000   124.1000     6.4191     7.2591
  468.0000   119.2446     7.1872     7.9122
  468.5000   116.6117     8.0471     8.6241
  469.0000   114.1596     9.0099     9.2477
  469.5000   111.6280     9.6103     9.5561
  470.0000   109.9071     9.8212     9.8748
  470.5000   110.6760    10.0366    10.1356
  471.0000   112.2391    10.2573    10.2669
  471.5000   114.0715    10.4740    10.3984
  472.0000   115.8872    10.6759    10.5358
  472.5000   117.2676    10.8816    10.7121
  473.0000   117.9663    11.0913    10.8914
  473.5000   117.9085    11.3050    11.0737
  474.0000   116.6164    11.5229    11.2590
  474.5000   115.2804    11.7171    11.4474
  475.0000   115.2594    11.8805    11.6390
  475.5000   116.6761    12.0462    11.8338
  476.0000   118.1102    12.2143    12.0318
  476.5000   119.5136    12.3847    12.2131
  477.0000   119.7434    12.5574    12.3106
  477.5000   118.2054    12.6872    12.4089
  478.0000   116.6831    12.7615    12.5080
  478.5000   115.5636    12.8363    12.6079
  479.0000   114.8045    12.9115    12.7085
  479.5000   114.0519    12.9872    12.8100
  480.0000   113.7040    13.0633    12.9123
  480.5000   113.4413    13.1399    13.0154
  481.0000   113.1848    13.2170    13.1310
  481.5000   112.6947    13.2949    13.1166
  482.0000   112.5002    13.3758    13.0957
  482.5000   113.1275    13.3287    13.0749
  483.0000   113.2835    13.2789    13.0541
  483.5000   112.6994    13.2293    13.0334
  484.0000   112.1227    13.1799    13.0127
  484.5000   111.5115    13.1307    12.9920
  485.0000   110.1640    13.0816    12.9713
  485.5000   110.8504    13.0327    12.9507
  486.0000   110.3500    12.9841    12.9302
  486.5000   108.5737    12.9352    12.9097
  487.0000   106.5159    12.8924    12.8976
  487.5000   107.2126    12.7267    12.6872
  488.0000   111.3270    12.5436    12.4994
  488.5000   112.5694    12.3618    12.3144
  489.0000   111.6372    12.1828    12.1321
  489.5000   113.6566    12.0065    11.9525
  490.0000   116.7968    11.8327    11.7757
  490.5000   119.9954    11.6615    11.6014
  491.0000   122.3967    11.4419    11.4297
  491.5000   122.0333    11.2208    11.2605
  492.0000   120.6097    11.0038    11.0938
  492.5000   121.0019    10.7911    10.9296
  493.0000   121.7919    10.6944    10.7679
  493.5000   122.0876    10.6149    10.6085
  494.0000   120.8041    10.5361    10.4515
  494.5000   120.1965    10.4578    10.2968
  495.0000   122.8935    10.3801    10.2028
  495.5000   126.2026    10.3028    10.1574
  496.0000   129.5522    10.2303    10.1113
  496.5000   129.1961    10.1825    10.0655
  497.0000   127.3297    10.1271    10.0199
  497.5000   127.5761    10.0721     9.9744
  498.0000   126.6288    10.0173     9.9292
  498.5000   122.6080     9.9629     9.8842
  499.0000   118.5639     9.9091     9.8160
  499.5000   118.9157     9.8583     9.7168
  500.0000   123.2360     9.7370     9.6185
  500.5000   127.6482     9.6245     9.5212
  501.0000   126.9018     9.5134     9.4249
  501.5000   124.8831     9.4035     9.3296
  502.0000   125.0055     9.2949     9.2352
  502.5000   126.7432     9.1876     9.1418
  503.0000   128.2444     9.0815     9.0493
  503.5000   129.2501     8.9766     8.9578
  504.0000   128.4002     8.8730     8.8364
  504.5000   127.2473     8.7699     8.6743
  505.0000   127.8714     8.6621     8.5151
  505.5000   129.2700     8.6310     8.3588
  506.0000   131.4364     8.5894     8.2054
  506.5000   134.6897     8.4200     8.0548
  507.0000   137.9842     8.1644     7.9069
  507.5000   138.0638     7.9165     7.7618
  508.0000   136.6664     7.6761     7.6193
  508.5000   135.1120     7.4410     7.4795
  509.0000   133.5481     7.4012     7.3996
  509.5000   132.2424     7.5631     7.6417
  510.0000   132.4126     7.7208     7.8414
  510.5000   132.8173     7.8818     8.0465
  511.0000   131.1708     8.0459     8.2569
  511.5000   129.3272     8.2720     8.4727
  512.0000  -999.2500     8.2698     8.7703
  512.5000  -999.2500     8.7282     9.0878
  513.0000  -999.2500     9.1015     9.4186
  513.5000  -999.2500     9.4907     9.7613
  514.0000  -999.2500     9.8967    10.1165
  514.5000  -999.2500    10.0918    10.5175
  515.0000  -999.2500    10.1649    10.5140
  515.5000  -999.2500    10.2386    10.5041
  516.0000  -999.2500    10.3248    10.4957
  516.5000  -999.2500    10.2878    10.4877
  517.0000  -999.2500    10.2300    10.4796
  517.5000  -999.2500    10.1728    10.4716
  518.0000  -999.2500    10.1160    10.4636
  518.5000  -999.2500    10.0595    10.4556
  519.0000  -999.2500    10.0033    10.4476
  519.5000  -999.2500     9.9475    10.4396
  520.0000  -999.2500     9.8919    10.4318
  520.5000  -999.2500     9.8332    10.4235
  521.0000  -999.2500     9.7694    10.3788
  521.5000  -999.2500     9.7060    10.3126
  522.0000  -999.2500     9.6430    10.2466
  522.5000  -999.2500     9.5805    10.1810
  523.0000  -999.2500     9.5183    10.1154
  523.5000  -999.2500     9.4566    10.0538
  524.0000  -999.2500     9.3340     9.7936
  524.5000  -999.2500     9.0655     9.5160
  525.0000  -999.2500     8.8047     9.2448
  525.5000  -999.2500     8.5514     8.9826
  526.0000  -999.2500     8.3054     8.7416
  526.5000  -999.2500     8.0665     8.3950
  527.0000  -999.2500     7.8235     8.0818
  527.5000  -999.2500     7.3829     7.7803
  528.0000  -999.2500     6.8409     7.2048
