~VERSION INFORMATION
 VERS.                2.0:   CWLS LOG ASCII STANDARD - VERSION 2.0
 WRAP.                 NO:   ONE LINE PER DEPTH STEP
~WELL INFORMATION
#MNEM.UNIT      DATA TYPE    INFORMATION
#----------   ------------   ------------------------------
 STRT.F           38.0000:   START DEPTH
 STOP.F          663.5000:   STOP DEPTH
 STEP.F            0.5000:   STEP LENGTH
 NULL.          -999.2500:   NO VALUE
 COMP. FENIX & SCISSON INC:   COMPANY
 WELL.   NPR SX #3 #35-34:   WELL
 FLD .             TEAPOT:   FIELD
 LOC .      S34 T39N R78W:   LOCATION
 CNTY.            NATRONA:   COUNTY
 STAT.            WYOMING:   STATE
 CTRY. UNITED STATES OF AMERICA:   COUNTRY
 SRVC.       Schlumberger:   SERVICE COMPANY
 DATE.        21-MAR-1977:   LOGDATE
 API .       490251031500:   API NUMBER
~CURVE INFORMATION
#MNEM.UNIT       API CODE    CURVE DESCRIPTION
#----------   ------------   ------------------------------
 DEPT.F                  :   
 SPR .MV     07 010 01 00:   SPONTANEOUS POTENTIAL
 LL8 .OHMM   07 220 08 00:   LATEROLOG-8 RES.
 ILD .OHMM   07 120 46 00:   INDUCTION LOG DEEP
 ILM .OHMM   07 120 44 00:   INDUCTION LOG MEDIUM
 CALD.IN     45 280 60 00:   CALIPER
 RHOB.G/C3   45 350 01 00:   BULK DENSITY
 DPHI.DEC    45 890 12 00:   DENSITY POROSITY SANDSTONE
 CORR.G/C3   45 356 01 00:   DENSITY CORRECTION
 GRD .GAPI   45 310 01 00:   GAMMA RAY FROM DENSITY LOG
~PARAMETER INFORMATION
#MNEM.UNIT          VALUE    DESCRIPTION
#----------   ------------   ------------------------------
 PD  .                 GL:   PERMANENT DATUM
 EPD .F              5081:   ELEVATION PERMANENT DATUM
 LMF .                 GL:   LOG MEASURED FROM
 DMF .                 KB:   DRILLING MEASURED FROM
 EKB .F              5086:   KELLING BUSHING
 EGL .F              5081:   GROUND LEVEL
 DATE.          3-21-1977:   RUN DATE
 RUN .                  1:   RUN NUMBER
 DD  .F               670:   DEPTH DRILLER
 DL  .F               665:   DEPTH LOGGER
 BLI .F               659:   BOTTOM LOG INTERVAL
 TLI .F                40:   TOP LOG INTERVAL
 CS  .IN            8.625:   CASING SIZE
 CBD .F                40:   CASING BOTTOM DRILLER
 CBL .F                40:   CASING BOTTOM LOGGER
 BS  .IN            7.875:   BIT SIZE
 BSD .F               670:   BIT SIZE AT DEPTH
 DFT .           CHEM GEL:   DRILLING FLUID TYPE
 DFV .                 33:   DRILLING FLUID VISCOSITY
 MSS .           MUD TANK:   MUD SAMPLE SOURCE
 RMS .OHMM           4.98:   RESISTIVITY MUD SAMPLE
 MST .F                53:   MUD SAMPLE TEMPERATURE
 RMF .OHMM           4.94:   RESISTIVITY MUD FILTRATE SAMPLE
 MFST.F                53:   MUD FILTRATE SAMPLE TEMPERATURE
 RMC .OHMM            2.5:   RESISTIVITY MUD CAKE
 MCST.F                53:   MUD CAKE SAMPLE TEMPERATURE
 MFSS.                  M:   MUD FILTRATE SAMPLE SOURCE
 MCSS.                  C:   MUD CAKE SAMPLE SOURCE
 RMB .OHMM              4:   RESISTIVITY MUD AT BHT
 BHT .F                65:   BOTTOM HOLE TEMPERATURE
 TCS .HRS            1000:   TIME CURCULATED STOPPED
 TLAB.HRS            1400:   TIME LOGGER AT BOTTOM
 MRT .F                65:   MAXIMUM RECORDED TEMPERATURE
 LUN .               7742:   LOGGING UNIT NUMBER
 LUL .                GLT:   LOGGING UNIT LOCATION
 ENGI.               LANE:   RECORDING ENGINEER
 WITN.              BURKE:   WITNESSED BY
 CLNT.            A2DTECH:   CLIENT CODE
 ORIG.       2", 5" PRINT:   ORIGIN OF DATA
 UWI .       490251031500:   UNIQUE WELL ID
 DICO. A2D Technologies, Inc.:   DIGITIZING COMPANY
~OTHER INFORMATION
~A   DEPT      SPR        LL8        ILD        ILM       CALD       RHOB       DPHI       CORR         GRD  
   38.0000  -999.2500  -999.2500  -999.2500  -999.2500  -999.2500  -999.2500  -999.2500  -999.2500    58.3267
   38.5000  -999.2500  -999.2500  -999.2500  -999.2500  -999.2500  -999.2500  -999.2500  -999.2500    61.3950
   39.0000    -0.5311  -999.2500  -999.2500  -999.2500  -999.2500  -999.2500  -999.2500  -999.2500    68.0233
   39.5000   -12.7194  -999.2500  -999.2500  -999.2500  -999.2500  -999.2500  -999.2500  -999.2500    73.2580
   40.0000   -16.3086  -999.2500  -999.2500  -999.2500     8.6713     2.1565     0.2470     0.0058    77.7391
   40.5000   -19.2638     6.3094  -999.2500  -999.2500     8.3066     2.3326     0.1863     0.0231    79.9623
   41.0000   -22.9599    11.3327     1.4610  -999.2500     8.2888     2.3615     0.1815     0.0194    81.6764
   41.5000   -26.6555    12.1180     2.5740  -999.2500     8.2887     2.3477     0.1870     0.0151    81.8819
   42.0000   -30.3533    11.7020     4.8946     7.1681     8.2900     2.3347     0.1947     0.0109    82.2762
   42.5000   -34.0793    11.4378     8.1847    12.0738     8.2873     2.3342     0.1865     0.0185    84.5122
   43.0000   -36.3293    12.5654    15.5639    12.9704     8.2788     2.3549     0.1773     0.0292    83.4786
   43.5000   -38.1807    13.6177    28.7804    13.7354     8.2704     2.3705     0.1681     0.0398    81.1009
   44.0000   -39.1504    14.7582    23.5794    14.7554     8.2620     2.3900     0.1591     0.0534    78.7347
   44.5000   -40.0809    15.4200    22.1780    15.9446     8.2537     2.3748     0.1697     0.0454    76.5230
   45.0000   -41.0110    15.5964    15.7254    21.4793     8.2453     2.3509     0.1822     0.0327    76.0972
   45.5000   -41.9453    15.7747    11.8078    31.8231     8.2369     2.3350     0.1939     0.0223    76.1756
   46.0000   -42.6096    15.9551    11.1255    24.7865     8.2285     2.3436     0.1860     0.0284    78.0440
   46.5000   -43.0558    16.0924    11.7588    33.0213     8.2202     2.3546     0.1804     0.0338    81.9163
   47.0000   -43.4932    15.9522    16.4323    93.7698     8.2116     2.3459     0.1877     0.0224    86.9512
   47.5000   -43.9311    15.8405    24.6019    43.0453     8.2089     2.3353     0.1936     0.0115    90.2737
   48.0000   -44.3698    15.7297    18.9791    21.0300     8.2074     2.3324     0.1944     0.0058    92.5260
   48.5000   -44.7856    15.6196    16.0189    13.5045     8.2060     2.3518     0.1784     0.0165    94.5707
   49.0000   -44.9290    15.5103    14.2919    13.4886     8.2046     2.3640     0.1755     0.0181    92.6518
   49.5000   -45.2922    15.3668    12.7511    13.4172     8.2031     2.3624     0.1768     0.0126    88.4179
   50.0000   -45.9348    15.4165    11.7588    13.3001     8.2017     2.3646     0.1751     0.0218    87.4969
   50.5000   -46.5751    15.4904    12.9055    13.1353     8.2003     2.3709     0.1719     0.0486    87.1276
   51.0000   -47.2174    15.5913    13.5511    12.9725     8.1988     2.3665     0.1711     0.0428    84.1220
   51.5000   -47.8595    15.7411    13.8888    12.8118     8.1974     2.3590     0.1784     0.0299    80.8269
   52.0000   -48.5069    15.9446    14.2220    12.6597     8.1960     2.3511     0.1837     0.0207    79.1338
   52.5000   -49.1673    15.7673    14.5660    13.2490     8.1945     2.3433     0.1884     0.0169    84.3585
   53.0000   -49.1447    15.7009    14.9183    13.8400     8.1931     2.3394     0.1916     0.0126    88.9615
   53.5000   -49.0744    15.6348    15.2791    14.4574     8.1916     2.3419     0.1882     0.0214    93.0450
   54.0000   -49.0083    15.5690    15.6487    15.1024     8.1899     2.3330     0.1926     0.0158    93.1764
   54.5000   -48.9434    15.5035    16.0924    15.3710     8.2008     2.3219     0.2019     0.0111    93.4195
   55.0000   -48.8754    15.4383    15.8633    15.3720     8.2140     2.3207     0.2048     0.0201    94.6971
   55.5000   -48.7951    15.3733    15.5944    14.6924     8.2271     2.3399     0.1894     0.0299    95.8591
   56.0000   -49.0533    15.0693    15.3273    14.1755     8.2402     2.3501     0.1837     0.0396    93.9983
   56.5000   -49.1675    14.7455    15.0660    13.6763     8.2533     2.3587     0.1792     0.0511    91.5644
   57.0000   -49.2771    14.4285    14.8099    13.1947     8.2670     2.3667     0.1724     0.0440    91.3853
   57.5000   -49.3844    14.0094    14.8968    12.6605     8.2519     2.3686     0.1704     0.0327    91.1598
   58.0000   -49.4906    14.1403    14.9836    12.7929     8.2183     2.3743     0.1690     0.0221    86.9584
   58.5000   -49.6085    14.4214    15.0715    12.9504     8.1841     2.3824     0.1651     0.0298    80.3584
   59.0000   -49.9940    14.7107    15.1596    13.1120     8.1691     2.3919     0.1579     0.0393    79.4239
   59.5000   -50.3873    15.0046    15.2483    13.2747     8.1657     2.4055     0.1507     0.0486    80.1726
   60.0000   -50.7789    15.3043    15.3356    13.4395     8.1626     2.4332     0.1229     0.0579    77.3419
   60.5000   -51.1711    15.6100    15.4523    13.6063     8.1596     2.4385     0.1186     0.0670    69.6261
   61.0000   -51.5823    16.2362    15.4723    14.1195     8.1565     2.4918     0.1086     0.0774    58.8024
   61.5000   -52.0244    17.1648    17.6124    15.2094     8.1535     2.5453     0.0759     0.1207    49.0110
   62.0000   -52.4663    19.9169    19.8502    17.3452     8.1499     2.5984     0.0281     0.1630    41.6278
   62.5000   -52.9085    23.7249    23.2594    20.1868     8.1798     2.6063     0.0265     0.2104    39.1380
   63.0000   -53.3472    29.4655    27.2652    23.4939     8.2208     2.5781     0.0488     0.1698    44.2283
   63.5000   -53.6078    36.5949    31.9608    27.3428     8.2366     2.5268     0.0804     0.0908    55.7321
   64.0000   -53.6122    40.9746    37.4652    30.7008     8.1922     2.4845     0.0950     0.0370    67.6995
   64.5000   -53.7587    41.1928    43.9175    29.9375     8.1485     2.5047     0.0882     0.0438    75.8087
   65.0000   -53.6786    43.7966    51.4811    24.9775     8.1372     2.4801     0.1084     0.0214    83.0310
   65.5000   -53.5276    47.3701    54.9067    20.8393     8.1487     2.4468     0.1293     0.0167    89.2514
   66.0000   -53.3806    41.2531    43.5789    17.3867     8.1607     2.4137     0.1502     0.0226    93.8165
   66.5000   -53.2344    30.6909    35.9948    14.9815     8.1702     2.3804     0.1693     0.0157    97.0741
   67.0000   -53.0883    22.8330    29.7306    13.3852     8.1700     2.3473     0.1858     0.0084    97.9426
   67.5000   -52.9421    18.3831    24.5565    11.9589     8.1700     2.3284     0.1961     0.0023    97.9549
   68.0000   -52.7957    15.7590    20.2829    11.3083     8.1700     2.3294     0.1966     0.0077    97.9114
   68.5000   -52.6485    14.4056    16.7530    10.8775     8.1700     2.3358     0.1925     0.0132    98.7463
   69.0000   -52.5045    14.4056    15.6457    10.4632     8.1700     2.3415     0.1875     0.0190   102.6810
   69.5000   -52.4704    14.1481    14.9630    10.3338     8.1700     2.3572     0.1758     0.0342   106.5322
   70.0000   -52.8859    13.3002    14.2732    10.3338     8.1700     2.3702     0.1696     0.0422   109.5446
   70.5000   -53.6735    12.2036    14.1826    10.3338     8.1700     2.3764     0.1673     0.0367   111.2225
   71.0000   -54.4562    12.3434    14.0938    10.3338     8.1693     2.3807     0.1629     0.0311   112.8822
   71.5000   -55.2392    12.6051    14.0040    10.3339     8.1684     2.3849     0.1621     0.0254   114.9937
   72.0000   -56.0276    12.8660    13.9112    10.3359     8.1674     2.3896     0.1597     0.0198   121.0508
   72.5000   -57.0532    13.1323    13.2694    10.3299     8.1665     2.4046     0.1516     0.0140   129.6147
   73.0000   -58.1655    13.2575    12.1257    10.3338     8.1656     2.4199     0.1422     0.0210   132.7703
   73.5000   -59.2696    12.0889    11.0810     9.1912     8.1646     2.4343     0.1328     0.0266   132.9905
   74.0000   -60.6574    10.4855    10.1255     8.3013     8.1637     2.4383     0.1327     0.0192   133.4035
