~VERSION INFORMATION
 VERS.                2.0:   CWLS LOG ASCII STANDARD - VERSION 2.0
 WRAP.                 NO:   ONE LINE PER DEPTH STEP
~WELL INFORMATION
#MNEM.UNIT      DATA TYPE    INFORMATION
#----------   ------------   ------------------------------
 STRT.F           32.0000:   START DEPTH
 STOP.F          551.0000:   STOP DEPTH
 STEP.F            0.5000:   STEP LENGTH
 NULL.          -999.2500:   NO VALUE
 COMP.    FENIX & SCISSON:   COMPANY
 WELL.   NPR ##3 84-SX-10:   WELL
 FLD .              NPR 3:   FIELD
 LOC .      S10 T38N R78W:   LOCATION
 CNTY.            NATRONA:   COUNTY
 STAT.            WYOMING:   STATE
 CTRY. UNITED STATES OF AMERICA:   COUNTRY
 SRVC.              Welex:   SERVICE COMPANY
 DATE.        25-JAN-1978:   LOGDATE
 API .       490251033700:   API NUMBER
~CURVE INFORMATION
#MNEM.UNIT       API CODE    CURVE DESCRIPTION
#----------   ------------   ------------------------------
 DEPT.F                  :   
 SPR .MV     07 010 01 00:   SPONTANEOUS POTENTIAL FROM RES.
 ILD .OHMM   07 120 46 00:   INDUCTION LOG DEEP
 ILM .OHMM   07 120 44 00:   INDUCTION LOG MEDIUM
 SGRD.OHMM   07 220 05 00:   SHALLOW GUARD RESISTIVITY
 CALD.IN     45 280 60 00:   CALIPER FROM DENSITY LOG
 GRD .GAPI   45 310 01 00:   GAMMA RAY FROM DENSITY LOG
 CORR.G/C3   45 356 01 00:   DENSITY CORRECTION
 RHOB.G/C3   45 350 01 00:   BULK DENSITY
 DPHI.DEC    45 890 12 00:   DENSITY POROSITY SANDSTONE
~PARAMETER INFORMATION
#MNEM.UNIT          VALUE    DESCRIPTION
#----------   ------------   ------------------------------
 CLNT.            A2DTECH:   CLIENT CODE
 ORIG.           5" PRINT:   ORIGIN OF DATA
 UWI .       490251033700:   UNIQUE WELL ID
 DICO. A2D Technologies, Inc.:   DIGITIZING COMPANY
~OTHER INFORMATION
~A   DEPT      SPR        ILD        ILM       SGRD         CALD      GRD       CORR       RHOB       DPHI   
# ...
   68.5000  -999.2500     7.7267     7.7072     9.2970     8.3202   121.2096     0.0559     2.5195     0.0816
   69.0000  -999.2500     7.8870     7.9806     9.0396     8.3346   120.7562     0.0604     2.5315     0.0738
   69.5000  -999.2500     8.1066     8.1978     9.1002     8.3189   120.7533     0.0634     2.5502     0.0651
   70.0000  -999.2500     8.2748     8.4248     9.6899     8.2432   120.7504     0.0694     2.5674     0.0528
   70.5000  -999.2500     8.5052     8.5990    11.7554     8.1524   120.7475     0.0648     2.5758     0.0477
   71.0000  -999.2500     8.6817     8.8379    14.0747     8.1067   121.0449     0.0558     2.5419     0.0541
   71.5000  -999.2500     8.8006     8.8966    10.9620     8.1512   121.3423     0.0468     2.5186     0.0749
   72.0000  -999.2500     8.8591     8.8938    11.3466     8.1808   121.9399     0.0422     2.5088     0.0880
   72.5000  -999.2500     8.8570     8.8291    10.0813     8.2401   122.5677     0.0407     2.5064     0.0899
   73.0000  -999.2500     8.7331     8.6449    10.0786     8.2395   123.8853     0.0467     2.5111     0.0872
   73.5000  -999.2500     8.6702     8.5826    10.5035     8.2691   124.7833     0.0526     2.5215     0.0824
   74.0000  -999.2500     8.4314     8.4036    11.8970     8.2684   125.9816     0.0556     2.5252     0.0809
   74.5000   -23.8667     8.2560     8.3430    12.4864     8.2828   127.6303     0.0511     2.5230     0.0815
   75.0000   -25.8258     8.1405     8.3405    12.5700     8.2671   129.1289     0.0465     2.5207     0.0833
   75.5000   -27.4847     8.0266     8.4542    12.8303     8.2665   128.9758     0.0435     2.5169     0.0851
   76.0000   -27.6406     8.0247     8.5689    13.3708     8.2659   128.6566     0.0450     2.5131     0.0872
   76.5000   -28.0968     8.0228     8.7461    13.1832     8.2807   129.2733     0.0465     2.5077     0.0909
   77.0000   -28.5530     8.0208     8.8660    12.9982     8.2798   130.9370     0.0464     2.5033     0.0954
   77.5000   -29.4597     8.0185     8.6804    13.1763     8.2643   131.9671     0.0434     2.5010     0.0957
   78.0000   -31.2733     8.0166     8.4407    13.5434     8.2787   131.3629     0.0389     2.4995     0.0942
   78.5000   -32.0252     8.0147     8.3219    13.6340     8.2780   129.8585     0.0328     2.4980     0.0946
   79.0000   -32.7817     8.0127     8.3188    13.2566     8.2773   128.6543     0.0328     2.4972     0.0963
   79.5000   -33.0877     8.0665     8.3163    13.1624     8.2767   128.9517     0.0343     2.4949     0.0982
   80.0000   -33.0935     8.0645     8.3715    13.5283     8.2761   130.7506     0.0402     2.4911     0.0985
   80.5000   -33.2494     8.0065     8.3112    13.7145     8.2605   131.3483     0.0447     2.4851     0.0994
   81.0000   -33.2432     8.0607     8.3087    13.7100     8.2750   132.1000     0.0387     2.4836     0.1009
   81.5000   -33.1107     8.0583     8.3061    13.7023     8.2744   132.8648     0.0356     2.4896     0.1051
   82.0000   -32.9664     8.0564     8.2457    13.4198     8.2737   134.6421     0.0341     2.4805     0.1066
   82.5000   -32.6718     8.0545     8.1298    13.6037     8.2732   135.6902     0.0326     2.4737     0.1106
   83.0000   -32.6790     8.0525     8.1273    13.9836     8.2726   137.0387     0.0325     2.4790     0.1085
   83.5000   -32.9851     8.0501     8.1248    14.1752     8.2719   136.2850     0.0325     2.4744     0.1103
   84.0000   -33.2913     8.0482     8.1223    14.1706     8.2713   136.8827     0.0325     2.4661     0.1121
   84.5000   -33.2983     7.9907     8.1198    14.2654     8.2707   138.0809     0.0325     2.4676     0.1127
   85.0000   -33.1525     7.9888     8.1167    14.0643     8.2701   138.9789     0.0324     2.4691     0.1127
   85.5000   -33.1597     7.9869     8.1142    13.8669     8.2696   138.2112     0.0309     2.4683     0.1127
   86.0000   -33.6159     7.9299     8.0558    13.6723     8.2690   136.0482     0.0249     2.4637     0.1140
   86.5000   -34.3724     7.8728     8.0533    13.5743     8.2834   135.2157     0.0173     2.4517     0.1188
   87.0000   -34.3784     7.8166     7.9953    13.3838     8.2678   134.4620     0.0143     2.4457     0.1272
   87.5000   -34.3853     7.8148     7.9377    13.3879     8.2672   133.4081     0.0218     2.4479     0.1239
   88.0000   -34.8415     7.8129     7.8804    13.4699     8.2665   132.6544     0.0262     2.4614     0.1164
   88.5000   -35.5981     7.8110     7.9328    13.4654     8.2659   132.2010     0.0277     2.4667     0.1131
   89.0000   -35.6038     7.7552     7.8751    13.4619     8.2653   133.8497     0.0277     2.4674     0.1131
   89.5000   -35.4594     7.6994     7.8727    13.4584     8.2648   133.3964     0.0292     2.4674     0.1128
   90.0000   -35.0162     7.4356     7.8703    13.2695     8.2792   132.0421     0.0291     2.4689     0.1119
   90.5000   -34.8718     7.2810     7.8136    12.7071     8.2786   133.6901     0.0306     2.4711     0.1114
   91.0000   -34.8775     7.1296     7.6973    12.1183     8.2780   134.8884     0.0321     2.4741     0.1108
   91.5000   -35.0334     6.9813     7.4387    11.7022     8.2774   134.8855     0.0335     2.4786     0.1093
   92.0000   -35.3395     6.8837     7.2333    11.3790     8.2767   133.8315     0.0395     2.4846     0.1071
   92.5000   -35.5055     6.8341     7.1316    11.3761     8.2761   132.6274     0.0455     2.4906     0.1036
   93.0000   -35.6527     6.8804     7.1294    11.2164     8.2755   131.5734     0.0440     2.5011     0.1000
   93.5000   -35.5069     6.9265     7.1768    11.0495     8.2750   130.8197     0.0409     2.4973     0.0961
   94.0000   -35.5141     6.9726     7.2244    11.3664     8.2744   129.9159     0.0424     2.4905     0.0985
   94.5000   -35.2181     7.0681     7.3224    12.2642     8.2738   128.9991     0.0424     2.5002     0.0961
   95.0000   -35.2253     7.1650     7.3716    13.0507     8.2582   127.9574     0.0393     2.5047     0.0931
   95.5000   -35.5315     7.3132     7.5234    12.8676     8.2576   127.2037     0.0348     2.5047     0.0922
   96.0000   -35.9890     7.4650     7.6260    12.5993     8.2570   126.1497     0.0333     2.4979     0.0946
   96.5000   -36.4452     7.5155     7.7301    12.8995     8.2716   124.9456     0.0392     2.5009     0.0937
   97.0000   -36.9014     7.5659     7.8354    13.5910     8.2707   124.3421     0.0422     2.5054     0.0911
   97.5000   -36.9072     7.5637     7.8324    13.2148     8.2701   125.3902     0.0437     2.5076     0.0908
   98.0000   -36.9130     7.6144     7.8300    13.0294     8.2696   126.8888     0.0407     2.5069     0.0911
   98.5000   -36.7467     7.6121     7.8277    13.0259     8.2540   127.7868     0.0376     2.5061     0.0932
   99.0000   -36.4740     7.6636     7.8802    12.9325     8.2684   127.7838     0.0376     2.5030     0.0962
   99.5000   -36.4812     7.6085     7.9321    12.6485     8.2678   127.3298     0.0331     2.4978     0.0953
  100.0000   -36.7869     7.5748     7.9295    12.4852     8.2640   127.1774     0.0315     2.4908     0.0991
  100.5000   -36.9385     7.4291     7.8711    12.8302     8.2468   128.0787     0.0315     2.4880     0.1047
  101.0000   -36.9400     7.4804     7.7944    12.2212     8.2363   127.3211     0.0270     2.4955     0.1005
  101.5000   -36.9414     7.5321     7.7388    12.3055     8.2358   126.4173     0.0209     2.5007     0.0966
  102.0000   -36.9432     7.5318     7.7369    12.5635     8.2505   126.1141     0.0179     2.5022     0.0960
  102.5000   -37.0948     7.6366     7.7888    12.5626     8.2499   127.4619     0.0194     2.4962     0.0994
  103.0000   -37.0963     7.6893     7.8411    12.6491     8.2494   128.3600     0.0238     2.4856     0.1053
  103.5000   -37.0977     7.7424     7.8937    12.9142     8.2490   128.8082     0.0313     2.4818     0.1074
  104.0000   -37.2493     7.7959     7.9466    13.6502     8.2486   129.1057     0.0343     2.4856     0.1071
  104.5000   -37.2508     7.7955     7.9442    14.1312     8.2482   129.1021     0.0388     2.4908     0.1056
