~VERSION INFORMATION
 VERS.                2.0:   CWLS LOG ASCII STANDARD - VERSION 2.0
 WRAP.                 NO:   ONE LINE PER DEPTH STEP
~WELL INFORMATION
#MNEM.UNIT      DATA TYPE    INFORMATION
#----------   ------------   ------------------------------
 STRT.F            0.0000:   START DEPTH
 STOP.F          675.0000:   STOP DEPTH
 STEP.F            0.5000:   STEP LENGTH
 NULL.          -999.2500:   NO VALUE
 COMP.       F D SERV INC:   COMPANY
 WELL. NAVEL PETROLEUM RESERVE 3 SX-2 #18-1-2:   WELL
 FLD .             TEAPOT:   FIELD
 LOC .       S2 T38N R78W:   LOCATION
 CNTY.            NATRONA:   COUNTY
 STAT.            WYOMING:   STATE
 CTRY. UNITED STATES OF AMERICA:   COUNTRY
 SRVC.     Atlas Wireline:   SERVICE COMPANY
 DATE.        23-DEC-1991:   LOGDATE
 API .       490252247200:   API NUMBER
~CURVE INFORMATION
#MNEM.UNIT       API CODE    CURVE DESCRIPTION
#----------   ------------   ------------------------------
 DEPT.F                  :   
 GRR .GAPI   07 310 01 00:   GAMMA RAY FROM RES. LOG.
 SPR .MV     07 010 01 00:   SPONTANEOUS POTENTIAL
 SFL .OHMM   07 220 01 00:   SHALLOW FOCUSED LOG RESISTIVITY
 ILD .OHMM   07 120 46 00:   INDUCTION LOG DEEP
 ILM .OHMM   07 120 44 00:   INDUCTION LOG MEDIUM
~PARAMETER INFORMATION
#MNEM.UNIT          VALUE    DESCRIPTION
#----------   ------------   ------------------------------
 PD  .                 GL:   PERMANENT DATUM
 EPD .F              5148:   ELEVATION PERMANENT DATUM
 LMF .                 KB:   LOG MEASURED FROM
 DAPD.F                10:   FEET ABOVE PERMANENT DATUM
 DMF .                 KB:   DRILLING MEASURED FROM
 EKB .F              5158:   KELLING BUSHING
 EGL .F              5148:   GROUND LEVEL
 DATE.        23-DEC-1991:   RUN DATE
 RUN .                  1:   RUN NUMBER
 DD  .F               630:   DEPTH DRILLER
 DL  .F               678:   DEPTH LOGGER
 BLI .F               675:   BOTTOM LOG INTERVAL
 CS  .IN            9.625:   CASING SIZE
 CBD .F                44:   CASING BOTTOM DRILLER
 CBL .F                48:   CASING BOTTOM LOGGER
 BS  .IN             8.75:   BIT SIZE
 BSD .F               680:   BIT SIZE AT DEPTH
 DFT .           CHEM GEL:   DRILLING FLUID TYPE
 DFD .                9.7:   DRILLING FLUID DENSITY
 DFV .                 79:   DRILLING FLUID VISCOSITY
 DFPH.                  9:   DRILLING FLUID PH
 DFL .                 10:   DRILLING FLUID LOSS
 MSS .           MUD TANK:   MUD SAMPLE SOURCE
 RMS .OHMM            .82:   RESISTIVITY MUD SAMPLE
 MST .F                54:   MUD SAMPLE TEMPERATURE
 RMF .OHMM           1.02:   RESISTIVITY MUD FILTRATE SAMPLE
 MFST.F                54:   MUD FILTRATE SAMPLE TEMPERATURE
 RMC .OHMM            .51:   RESISTIVITY MUD CAKE
 MCST.F                54:   MUD CAKE SAMPLE TEMPERATURE
 MFSS.               CALC:   MUD FILTRATE SAMPLE SOURCE
 MCSS.               CALC:   MUD CAKE SAMPLE SOURCE
 RMB .OHMM            .43:   RESISTIVITY MUD AT BHT
 BHT .F               102:   BOTTOM HOLE TEMPERATURE
 TCS .HRS               2:   TIME CURCULATED STOPPED
 MRT .F               102:   MAXIMUM RECORDED TEMPERATURE
 LUN .            HL-6307:   LOGGING UNIT NUMBER
 LUL .             CASPER:   LOGGING UNIT LOCATION
 ENGI.            WADDELL:   RECORDING ENGINEER
 WITN.              FJVAS:   WITNESSED BY
 CLNT.            A2DTECH:   CLIENT CODE
 ORIG.      2" & 5" PRINT:   ORIGIN OF DATA
 UWI .       490252247200:   UNIQUE WELL ID
 DICO. A2D Technologies, Inc.:   DIGITIZING COMPANY
~OTHER INFORMATION
~A    DEPT      GRR       SPR        SFL        ILD        ILM   
# ...
  488.0000    81.1015   -62.2406    18.7860    15.2132    17.8714
  488.5000    80.6046   -62.1354    18.8151    15.1267    17.8378
  489.0000    80.0917   -61.7138    18.8310    15.0409    17.7810
  489.5000    80.5496   -61.2962    18.5397    14.9559    17.6576
  490.0000    81.5203   -60.8770    18.3423    14.8715    17.5351
  490.5000    82.4657   -60.4582    18.1464    14.7876    17.4134
  491.0000    82.4536   -60.0331    17.9524    14.7041    17.2764
  491.5000    81.0185   -59.8140    17.8112    14.6211    17.0958
  492.0000    79.6936   -59.6234    17.9485    14.5385    16.9170
  492.5000    79.1428   -59.4368    18.0763    14.3856    16.7401
  493.0000    80.3611   -59.2490    18.1458    14.2236    16.5651
  493.5000    80.2655   -59.0602    17.6832    14.0635    16.3919
  494.0000    78.8991   -58.8980    17.3277    13.9052    16.2205
  494.5000    78.2368   -59.0468    17.0064    13.7486    16.0509
  495.0000    80.0682   -59.1976    16.9520    13.5938    15.8829
  495.5000    81.9124   -59.3467    16.8936    13.4408    15.7165
  496.0000    83.0523   -59.4954    16.8477    13.2421    15.5012
  496.5000    80.3400   -59.6433    16.6030    13.2917    15.5593
  497.0000    79.7418   -59.7939    16.3764    13.3645    15.6445
  497.5000    80.0753   -60.0097    16.1546    13.4376    15.7302
  498.0000    81.1135   -60.4662    16.0865    13.5112    15.8163
  498.5000    81.8674   -60.9068    16.5381    13.5852    15.9029
  499.0000    82.4428   -61.3454    16.8481    13.6596    15.9900
  499.5000    81.7529   -61.8007    17.1639    13.7421    16.0865
  500.0000    79.4969   -61.6774    17.3243    13.4982    15.9511
  500.5000    76.4456   -61.5859    16.8040    13.3177    15.7593
  501.0000    76.9639   -61.3703    16.4604    13.1631    15.5698
  501.5000    78.6298   -60.8859    16.2329    13.0104    15.3826
  502.0000    79.7069   -60.4035    16.2388    12.8594    15.1976
  502.5000    79.5059   -59.9185    15.8866    12.7101    15.0224
  503.0000    80.7885   -59.7895    15.5199    12.5626    14.8638
  503.5000    83.2787   -59.6789    15.1617    12.4167    14.7069
  504.0000    85.7480   -59.5663    15.0077    12.2726    14.5516
  504.5000    87.3877   -59.4532    14.9153    12.1302    14.3980
  505.0000    85.5682   -59.3399    14.8249    12.0244    14.2459
  505.5000    82.5398   -59.2254    14.7351    11.9039    14.0955
  506.0000    77.1369   -59.1016    14.6629    11.7846    13.9467
  506.5000    75.4687   -59.4755    14.6629    11.6665    13.7995
  507.0000    75.8113   -59.9572    14.6629    11.5496    13.6404
  507.5000    78.0745   -60.4433    14.6629    11.4339    13.3949
  508.0000    79.8125   -60.9029    14.4092    11.3193    13.1539
  508.5000    80.3456   -60.7433    14.0111    11.2058    12.9171
  509.0000    80.9828   -60.5377    13.7523    11.0935    12.8581
  509.5000    82.8166   -60.3329    13.6153    10.9823    12.8331
  510.0000    84.6202   -60.1297    13.6153    10.9005    12.8081
  510.5000    85.5277   -59.9330    13.6153    10.9005    12.7832
  511.0000    84.2451   -59.6199    13.6153    10.9005    12.7584
  511.5000    82.8548   -59.2986    13.6153    10.8599    12.7336
  512.0000    82.8346   -58.9765    13.6153    10.8140    12.7088
  512.5000    84.2280   -58.6550    13.6153    10.7682    12.6841
  513.0000    84.9021   -58.3332    13.6153    10.7226    12.6593
  513.5000    84.5388   -58.0117    13.6156    10.6772    12.6312
  514.0000    83.4990   -57.6941    13.6144    10.6319    12.5287
  514.5000    82.2366   -57.4566    13.6192    10.5869    12.4272
  515.0000    83.2582   -57.3476    13.3928    10.5421    12.3265
  515.5000    84.3747   -57.2339    13.1574    10.4974    12.2278
  516.0000    83.7683   -57.1185    12.9261    10.4529    12.1531
  516.5000    80.3712   -57.1652    12.6992    10.4086    12.0732
  517.0000    80.7191   -57.3416    12.4762    10.3645    11.9928
  517.5000    84.4718   -57.7734    12.2960    10.3206    11.9130
  518.0000    85.2175   -58.2039    12.5236    10.2769    11.8338
  518.5000    83.1505   -58.6273    12.7201    10.2334    11.7551
  519.0000    82.4390   -58.7510    12.9989    10.1900    11.6770
  519.5000    83.4603   -58.3870    12.8766    10.1468    11.5993
  520.0000    85.2837   -58.0304    12.6777    10.1039    11.5237
  520.5000    84.6166   -57.6723    12.4819    10.0611    11.5441
  521.0000    85.0201   -57.3145    12.3978    10.0281    11.5640
  521.5000    88.3316   -56.9564    12.3779    10.0285    11.5843
  522.0000    91.3022   -56.5983    12.3580    10.0287    11.6054
  522.5000    90.4356   -56.2625    12.3379    10.0284    11.6234
  523.0000    87.5940   -56.1347    12.3174    10.0772    11.7352
  523.5000    84.9179   -56.0161    12.2935    10.1234    11.8051
  524.0000    85.4457   -55.8912    12.5504    10.1699    11.8661
  524.5000    87.0325   -56.0471    12.8469    10.2165    11.9277
  525.0000    86.9441   -56.3125    13.2421    10.2634    11.9896
  525.5000    86.5578   -56.5824    13.0878    10.3105    12.0702
  526.0000    85.0361   -56.8521    12.8714    10.3578    12.0416
  526.5000    83.7443   -57.1220    12.6426    10.4053    12.0015
  527.0000    84.5414   -57.3939    12.7790    10.4531    11.9589
  527.5000    85.3100   -57.6699    12.9303    10.6017    11.6817
  528.0000    86.1310   -57.4517    13.0001    10.5156    11.3916
  528.5000    88.1018   -57.1457    12.4397    10.4007    11.1777
  529.0000    89.7476   -56.8393    12.1502    10.2870    10.9680
  529.5000    90.3427   -56.5337    12.0609    10.1746    10.7655
  530.0000    88.5666   -56.2283    11.9718    10.0634    10.5664
  530.5000    86.7259   -55.9228    11.8848     9.9535    10.3709
  531.0000    88.2542   -55.6174    11.8334     9.8447    10.2160
  531.5000    89.7993   -55.3118    11.7973     9.7370    10.2362
  532.0000    91.2382   -55.0053    11.7606     9.6305    10.2705
  532.5000    90.3845   -54.6941    11.7393     9.5256    10.3049
  533.0000    89.5276   -54.7155    11.8956     9.4852    10.3392
  533.5000    90.0816   -54.8039    12.0073     9.4864    10.3739
  534.0000    90.6744   -55.0930    12.1200     9.4808    10.4071
  534.5000    90.7175   -55.6548    12.2290     9.8420    10.7551
  535.0000    89.2508   -56.2145    12.3333    10.4315    11.1819
  535.5000    86.2321   -56.7898    12.5309    11.0510    11.9823
  536.0000    82.6236   -57.9422    12.9944    11.8223    13.8766
  536.5000    81.5663   -59.8002    13.6549    12.9797    16.0550
  537.0000    81.2010   -61.6506    15.0763    14.2504    18.5215
  537.5000    79.1863   -63.5023    21.8151    16.2928    21.1649
  538.0000    73.3721   -65.3150    30.6054    18.9889    24.2163
  538.5000    68.0928   -66.2748    36.5705    21.5268    27.3865
  539.0000    65.4915   -66.9730    37.1298    23.2760    28.3326
  539.5000    65.0828   -66.2177    37.3818    24.6779    29.3932
  540.0000    65.4118   -65.3924    33.8324    25.5664    28.9860
  540.5000    67.2844   -64.5787    31.5499    24.7813    28.4451
  541.0000    69.2810   -64.3818    30.9783    23.7614    27.3353
  541.5000    68.8136   -64.7011    30.8340    22.8056    26.0881
  542.0000    66.5703   -65.0981    30.2460    21.5810    24.8978
  542.5000    65.3876   -65.5047    28.8660    20.7569    23.7646
  543.0000    67.7409   -65.8286    27.5489    20.2349    22.8671
  543.5000    71.1227   -66.0053    26.2920    19.7259    22.6802
  544.0000    71.2905   -66.1836    25.4471    19.2298    22.4812
  544.5000    70.2242   -66.4107    25.3306    18.7461    22.2852
  545.0000    71.5058   -66.5014    24.7391    18.2906    21.8546
  545.5000    74.7671   -66.4338    24.1680    17.9786    21.3796
  546.0000    77.3025   -66.3571    23.6097    17.6719    20.9149
  546.5000    79.0427   -66.6687    23.3023    17.3705    20.6593
  547.0000    77.5609   -67.0341    23.0452    17.3023    20.7655
  547.5000    74.5563   -67.4006    22.7904    17.2762    20.8678
  548.0000    72.3152   -67.7662    22.4560    17.2502    20.9707
  548.5000    74.0648   -68.1317    22.6443    17.2242    21.0457
