~VERSION INFORMATION
 VERS.                2.0:   CWLS LOG ASCII STANDARD - VERSION 2.0
 WRAP.                 NO:   ONE LINE PER DEPTH STEP
~WELL INFORMATION
#MNEM.UNIT      DATA TYPE    INFORMATION
#----------   ------------   ------------------------------
 STRT.F           30.0000:   START DEPTH
 STOP.F         1358.0000:   STOP DEPTH
 STEP.F            0.5000:   STEP LENGTH
 NULL.          -999.2500:   NO VALUE
 COMP. FENIX & SCISSON INC:   COMPANY
 WELL.      3 SX14 #85-14:   WELL
 FLD .             TEAPOT:   FIELD
 LOC .      S14 T38N R78W:   LOCATION
 CNTY.            NATRONA:   COUNTY
 STAT.            WYOMING:   STATE
 CTRY. UNITED STATES OF AMERICA:   COUNTRY
 SRVC.              Welex:   SERVICE COMPANY
 DATE.        10-FEB-1977:   LOGDATE
 API .       490251027500:   API NUMBER
~CURVE INFORMATION
#MNEM.UNIT       API CODE    CURVE DESCRIPTION
#----------   ------------   ------------------------------
 DEPT.F                  :   
 ILM .OHMM   07 120 44 00:   INDUCTION LOG MEDIUM
 ILD .OHMM   07 120 46 00:   INDUCTION LOG DEEP
 CALD.IN     45 280 60 00:   CALIPER
 GRD .GAPI   45 310 01 00:   GAMMA RAY FROM DENSITY LOG
 RHOB.G/C3   45 350 01 00:   BULK DENSITY
 DPHI.DEC    45 890 12 00:   DENSITY POROSITY SANDSTONE
 CORR.G/C3   45 356 01 00:   DENSITY CORRECTION
~PARAMETER INFORMATION
#MNEM.UNIT          VALUE    DESCRIPTION
#----------   ------------   ------------------------------
 PD  .                 GL:   PERMANENT DATUM
 EPD .F              5345:   ELEVATION PERMANENT DATUM
 LMF .                 GL:   LOG MEASURED FROM
 DMF .                 GL:   DRILLING MEASURED FROM
 EGL .F              5345:   GROUND LEVEL
 DATE.          2-10-1977:   RUN DATE
 RUN .                  1:   RUN NUMBER
 DD  .F              1362:   DEPTH DRILLER
 DL  .F              1361:   DEPTH LOGGER
 BLI .F              1359:   BOTTOM LOG INTERVAL
 TLI .F                43:   TOP LOG INTERVAL
 CS  .IN            8.625:   CASING SIZE
 CBD .F                43:   CASING BOTTOM DRILLER
 CBL .F                43:   CASING BOTTOM LOGGER
 BS  .IN            7.875:   BIT SIZE
 BSD .F              1362:   BIT SIZE AT DEPTH
 DFT .           AIR MIST:   DRILLING FLUID TYPE
 TCS .HRS               4:   TIME CURCULATED STOPPED
 MRT .F               104:   MAXIMUM RECORDED TEMPERATURE
 LUN .               8611:   LOGGING UNIT NUMBER
 LUL .           GILLETTE:   LOGGING UNIT LOCATION
 ENGI.               DOAK:   RECORDING ENGINEER
 WITN. PETTINGILL/STUEBINGER:   WITNESSED BY
 CLNT.            A2DTECH:   CLIENT CODE
 ORIG.       2", 5" PRINT:   ORIGIN OF DATA
 UWI .       490251027500:   UNIQUE WELL ID
 DICO. A2D Technologies, Inc.:   DIGITIZING COMPANY
~OTHER INFORMATION
~A   DEPT      ILM        ILD         CALD      GRD         RHOB     DPHI        CORR  
# ...
  985.5000     7.1810     6.4462     8.0870   127.8615     2.5095     0.1045     0.0078
  986.0000     7.0831     6.3482     8.0949   126.7348     2.5043     0.1081     0.0014
  986.5000     6.9866     6.2517     8.1029   125.6063     2.4924     0.1118    -0.0050
  987.0000     6.8914     6.1567     8.1118   125.7958     2.4810     0.1160    -0.0113
  987.5000     6.8151     6.0630     8.1345   127.4735     2.4743     0.1189    -0.0176
  988.0000     6.8434     5.9917     8.1348   129.1568     2.4935     0.1143    -0.0162
  988.5000     6.8898     6.1129     8.1270   129.6549     2.5127     0.1013     0.0007
  989.0000     6.9363     6.1771     8.1195   129.0005     2.5336     0.0861     0.0174
  989.5000     6.9831     6.2419     8.1121   128.5535     2.5501     0.0877     0.0337
  990.0000     7.0302     6.3075     8.1046   129.2854     2.5380     0.0910     0.0330
  990.5000     7.0776     6.3737     8.0973   129.9965     2.5268     0.0944     0.0315
  991.0000     7.1253     6.4406     8.0955   130.6998     2.5275     0.0927     0.0301
  991.5000     7.1734     6.5083     8.0930   130.8970     2.5305     0.0910     0.0288
  992.0000     7.2217     6.5766     8.0905   130.2645     2.5290     0.0912     0.0274
  992.5000     7.2705     6.6457     8.0879   129.6427     2.5245     0.0939     0.0260
  993.0000     7.3195     6.7155     8.0853   129.0250     2.5202     0.0961     0.0246
  993.5000     7.3689     6.7860     8.0828   128.4077     2.5240     0.0950     0.0232
  994.0000     7.4186     6.8572     8.0802   128.1653     2.5288     0.0937     0.0219
  994.5000     7.4686     6.9292     8.0776   128.6006     2.5280     0.0924     0.0205
  995.0000     7.5189     7.0062     8.0751   127.7860     2.5260     0.0915     0.0197
  995.5000     7.6111     6.9889     8.0725   126.5374     2.5240     0.0925     0.0197
  996.0000     7.6815     6.9658     8.0699   125.3253     2.5219     0.0949     0.0207
  996.5000     7.6248     6.9427     8.0674   126.0388     2.5198     0.0973     0.0228
  997.0000     7.5845     6.9198     8.0648   127.0754     2.5192     0.0990     0.0250
  997.5000     7.5444     6.8969     8.0622   128.1033     2.5218     0.0959     0.0271
  998.0000     7.5046     6.8741     8.0597   128.7173     2.5274     0.0930     0.0293
  998.5000     7.4649     6.8514     8.0571   127.9312     2.5332     0.0902     0.0315
  999.0000     7.4254     6.8287     8.0558   127.1072     2.5346     0.0905     0.0330
  999.5000     7.3862     6.8062     8.0660   126.2805     2.5313     0.0916     0.0342
 1000.0000     7.3472     6.7836     8.0774   125.4517     2.5284     0.0919     0.0354
 1000.5000     7.3083     6.7612     8.0889   124.6197     2.5349     0.0888     0.0366
 1001.0000     7.2695     6.7389     8.1004   123.7952     2.5430     0.0860     0.0378
 1001.5000     7.2316     6.7166     8.1119   123.7414     2.5507     0.0832     0.0390
 1002.0000     7.2030     6.6912     8.1234   124.4920     2.5584     0.0804     0.0402
 1002.5000     7.3896     6.7624     8.1352   125.1540     2.5661     0.0778     0.0414
 1003.0000     7.5437     6.8709     8.1354   125.5573     2.5708     0.0798     0.0424
 1003.5000     7.7011     6.9812     8.1237   124.9513     2.5640     0.0816     0.0404
 1004.0000     7.8618     7.0932     8.1122   124.3794     2.5552     0.0835     0.0384
 1004.5000     8.0259     7.2070     8.1008   123.7941     2.5503     0.0847     0.0363
 1005.0000     8.1933     7.3226     8.0893   123.1392     2.5522     0.0841     0.0343
 1005.5000     8.4218     7.4489     8.0779   122.4458     2.5542     0.0838     0.0323
 1006.0000     8.5782     7.5975     8.0764   121.3775     2.5556     0.0848     0.0303
 1006.5000     8.7214     7.7491     8.0764   119.0231     2.5524     0.0858     0.0282
 1007.0000     8.8736     7.9038     8.0764   116.7537     2.5488     0.0867     0.0262
 1007.5000     9.0283     8.0615     8.0765   114.6154     2.5451     0.0877     0.0242
 1008.0000     9.1858     8.2224     8.0765   110.9295     2.5414     0.0887     0.0221
 1008.5000     9.3460     8.3865     8.0765   107.3115     2.5400     0.0894     0.0240
 1009.0000     9.5090     8.5539     8.0765   108.3373     2.5420     0.0885     0.0266
 1009.5000     9.6748     8.7246     8.0765   109.4552     2.5472     0.0872     0.0293
 1010.0000     9.8435     8.8987     8.0765   110.6157     2.5518     0.0859     0.0320
 1010.5000    10.0152     9.0763     8.0765   109.9594     2.5565     0.0846     0.0348
 1011.0000    10.1899     9.2335     8.0764   108.5263     2.5613     0.0832     0.0375
 1011.5000    10.3729     9.2654     8.0764   107.0724     2.5660     0.0813     0.0402
 1012.0000    10.5085     9.3083     8.0768   105.6254     2.5707     0.0797     0.0428
 1012.5000    10.5044     9.3514     8.0765   104.4588     2.5755     0.0782     0.0443
 1013.0000    10.5238     9.3948     8.0989   105.7291     2.5802     0.0782     0.0433
 1013.5000    10.5338     9.4382     8.0951   107.1201     2.5815     0.0787     0.0423
 1014.0000    10.5441     9.4919     8.0931   108.5249     2.5757     0.0795     0.0413
 1014.5000    10.5543     9.4490     8.0915   109.9277     2.5693     0.0802     0.0403
 1015.0000    10.5646     9.3938     8.0898   111.3278     2.5630     0.0809     0.0393
 1015.5000    10.5750     9.3388     8.0881   112.7278     2.5588     0.0817     0.0384
 1016.0000    10.5840     9.2842     8.0864   114.1356     2.5614     0.0824     0.0374
 1016.5000    10.6000     9.2299     8.0847   115.1041     2.5617     0.0828     0.0364
 1017.0000    10.5029     9.1760     8.0829   115.8427     2.5578     0.0815     0.0354
 1017.5000    10.4738     9.1223     8.0812   116.5871     2.5540     0.0829     0.0344
 1018.0000    10.4375     9.0690     8.0795   116.2345     2.5502     0.0842     0.0335
 1018.5000    10.4013     9.0159     8.0778   115.4931     2.5464     0.0854     0.0324
 1019.0000    10.3652     8.9632     8.0764   115.2574     2.5427     0.0861     0.0327
 1019.5000    10.3293     8.9104     8.0765   116.1372     2.5389     0.0820     0.0337
 1020.0000    10.2935     8.8995     8.0831   115.4965     2.5416     0.0773     0.0348
 1020.5000    10.2578     8.9175     8.0990   114.1093     2.5519     0.0728     0.0359
 1021.0000    10.2222     8.9323     8.1150   112.7290     2.5623     0.0678     0.0369
 1021.5000    10.1868     8.9470     8.1176   111.3529     2.5726     0.0630     0.0380
 1022.0000    10.1506     8.9617     8.1135   111.1964     2.5793     0.0575     0.0360
 1022.5000    10.1234     8.9763     8.1091   112.2695     2.5645     0.0634     0.0325
 1023.0000     9.9562     8.9831     8.1048   113.3557     2.5499     0.0706     0.0289
 1023.5000     9.8380     8.8546     8.1005   113.9830     2.5359     0.0777     0.0252
 1024.0000     9.7213     8.7533     8.0962   112.8172     2.5357     0.0824     0.0244
 1024.5000     9.6059     8.6529     8.0919   111.5901     2.5407     0.0857     0.0252
 1025.0000     9.4919     8.5538     8.0876   111.7511     2.5456     0.0851     0.0260
 1025.5000     9.3793     8.4557     8.0833   112.7802     2.5505     0.0840     0.0268
 1026.0000     9.2680     8.3588     8.0791   113.8129     2.5547     0.0866     0.0276
 1026.5000     9.1580     8.2630     8.0747   114.8138     2.5429     0.0904     0.0245
 1027.0000     9.0493     8.1683     8.0704   114.3682     2.5296     0.0942     0.0187
 1027.5000     8.9418     8.0747     8.0661   113.7346     2.5162     0.0979     0.0127
 1028.0000     8.8356     7.9822     8.0619   113.3583     2.5028     0.1017     0.0102
 1028.5000     8.7308     7.8965     8.0576   113.8038     2.4914     0.1055     0.0086
 1029.0000     8.6575     7.7541     8.0615   114.1870     2.4904     0.1093     0.0074
 1029.5000     8.6860     7.7580     8.0710   113.8808     2.4929     0.1105     0.0084
 1030.0000     8.7081     7.7741     8.0806   110.6571     2.4953     0.1096     0.0094
 1030.5000     8.7304     7.7844     8.0902   107.5191     2.4966     0.1087     0.0104
