~VERSION INFORMATION
 VERS.                2.0:   CWLS LOG ASCII STANDARD - VERSION 2.0
 WRAP.                 NO:   ONE LINE PER DEPTH STEP
~WELL INFORMATION
#MNEM.UNIT      DATA TYPE    INFORMATION
#----------   ------------   ------------------------------
 STRT.F            6.0000:   START DEPTH
 STOP.F          640.0000:   STOP DEPTH
 STEP.F            0.5000:   STEP LENGTH
 NULL.          -999.2500:   NO VALUE
 COMP. LAWRENCE/ALLISON INC:   COMPANY
 WELL. NPR 3 #81-11-SX-15:   WELL
 FLD .             TEAPOT:   FIELD
 LOC .      S15 T38N R78W:   LOCATION
 CNTY.            NATRONA:   COUNTY
 STAT.            WYOMING:   STATE
 CTRY. UNITED STATES OF AMERICA:   COUNTRY
 SRVC.           Gearhart:   SERVICE COMPANY
 DATE.        15-JUL-1987:   LOGDATE
 API .       490251115100:   API NUMBER
~CURVE INFORMATION
#MNEM.UNIT       API CODE    CURVE DESCRIPTION
#----------   ------------   ------------------------------
 DEPT.F                  :   
 GRR .GAPI   07 310 01 00:   GAMMA RAY
 RILD.OHMM   07 120 46 00:   INDUCTION LOG DEEP RESISTIVITY
 RILM.OHMM   07 120 44 00:   INDUCTION LOG MEDIUM RESISTIVITY
~PARAMETER INFORMATION
#MNEM.UNIT          VALUE    DESCRIPTION
#----------   ------------   ------------------------------
 PD  .                 GL:   PERMANENT DATUM
 EPD .F            5265.4:   ELEVATION PERMANENT DATUM
 LMF .                 KB:   LOG MEASURED FROM
 DAPD.F                 8:   FEET ABOVE PERMANENT DATUM
 DMF .                 KB:   DRILLING MEASURED FROM
 EKB .F            5273.4:   KELLING BUSHING
 EDF .F            5271.4:   DRILLING FLOOR
 EGL .F            5265.4:   GROUND LEVEL
 DATE.        15-JUL-1987:   RUN DATE
 RUN .                  1:   RUN NUMBER
 DD  .F               646:   DEPTH DRILLER
 DL  .F               648:   DEPTH LOGGER
 BLI .F               640:   BOTTOM LOG INTERVAL
 TLI .F                 6:   TOP LOG INTERVAL
 CS  .IN            8.625:   CASING SIZE
 CBD .F                50:   CASING BOTTOM DRILLER
 CBL .F                50:   CASING BOTTOM LOGGER
 BS  .IN             7.87:   BIT SIZE
 BSD .F               646:   BIT SIZE AT DEPTH
 DFT .                AIR:   DRILLING FLUID TYPE
 TCS .HRS            2400:   TIME CURCULATED STOPPED
 TLAB.HRS            0112:   TIME LOGGER AT BOTTOM
 LUN .               7597:   LOGGING UNIT NUMBER
 LUL .           GILLETTE:   LOGGING UNIT LOCATION
 ENGI.           JOHNSTON:   RECORDING ENGINEER
 WITN.         MR. STRONG:   WITNESSED BY
 CLNT.            A2DTECH:   CLIENT CODE
 ORIG.      2" , 5" PRINT:   ORIGIN OF DATA
 UWI .       490251115100:   UNIQUE WELL ID
 DICO. A2D Technologies, Inc.:   DIGITIZING COMPANY
~OTHER INFORMATION
~A    DEPT     GRR       RILD       RILM   
# ...
  188.0000   127.5404     9.8024     9.5394
  188.5000   128.1513     9.6681     9.3332
  189.0000   127.5058     9.6019     9.2135
  189.5000   126.3475     9.5361     9.2135
  190.0000   125.1444     9.5369     9.0863
  190.5000   123.3347     9.4714     9.0429
  191.0000   120.9199     9.4065     9.0863
  191.5000   118.4428     9.4073     9.0863
  192.0000   116.0903     9.3428     9.0234
  192.5000   118.8207     9.2148     8.8988
  193.0000   119.7342     9.2154     8.7760
  193.5000   120.6477     9.2160     8.7760
  194.0000   121.8800     9.1529     8.7760
  194.5000   124.5941     9.1536     8.7152
  195.0000   127.9282     9.1541     8.7760
  195.5000   130.3546     9.1369     8.7760
  196.0000   129.7552     9.0921     8.7788
  196.5000   121.5795     9.0927     8.8372
  197.0000   112.2190     9.1567     8.8372
  197.5000   114.0402     9.1573     8.8372
  198.0000   115.2563     9.1580     8.8372
  198.5000   115.5632     9.1864     8.8988
  199.0000   114.6626     9.2873     8.8988
  199.5000   114.7121     9.2879     8.8372
  200.0000   118.0040     9.2190     8.7760
  200.5000   121.9432     9.0978     8.7152
  201.0000   124.0670     9.0355     8.7152
  201.5000   121.9548     9.0361     8.6548
  202.0000   121.6299     8.9048     8.4762
  202.5000   121.0586     8.8511     8.3591
  203.0000   122.8812     8.9135     8.3012
  203.5000   125.3076     8.9761     8.2437
  204.0000   127.7340     9.0164     8.1866
  204.5000   127.7136     9.0399     8.1866
  205.0000   122.3007     9.1036     8.3012
  205.5000   116.5576     9.1834     8.4762
  206.0000   113.8402     9.2963     8.5948
  206.5000   113.2394     9.2970     8.7897
  207.0000   114.4569     9.3978     8.9609
  207.5000   115.0678     9.5601     9.1497
  208.0000   114.4685     9.5607     9.2135
  208.5000   116.2911     9.6280     9.2135
  209.0000   119.9277     9.6286     9.2135
  209.5000   121.7489     9.5626     9.2778
  210.0000   120.5043     9.5634     9.2135
  210.5000   119.3399     9.3668     9.2135
  211.0000   119.6949     9.3026     9.1497
  211.5000   122.4579     9.1752     9.0863
  212.0000   125.5633     9.0493     9.0234
  212.5000   127.9117     8.9253     8.9609
  213.0000   126.4099     8.8027     8.7760
  213.5000   126.1139     8.6820     8.7152
  214.0000   125.8224     8.6826     8.7152
  214.5000   123.1080     9.0081     8.7152
  215.0000   120.9989     8.9467     8.5353
  215.5000   119.4948     8.8860     8.4762
  216.0000   119.2011     8.8875     8.3012
  216.5000   120.4224     8.8272     8.1866
  217.0000   118.6158     8.7674     8.1299
  217.5000   117.4121     8.7635     8.0736
  218.0000   119.2385     8.7091     8.0736
  218.5000   119.8525     8.7103     8.0177
  219.0000   119.5588     8.7117     8.0177
  219.5000   116.2393     8.7129     7.9621
  220.0000   119.8790     8.7141     7.9621
  220.5000   121.7388     8.7513     8.0177
  221.0000   123.5297     8.8382     8.0736
  221.5000   124.4462     8.8400     8.1939
  222.0000   122.9422     8.9643     8.4175
  222.5000   122.0411     9.0282     8.5948
  223.0000   122.0521     9.1209     8.7152
  223.5000   122.9686     9.2206     8.7760
  224.0000   120.5569     9.3508     8.8372
  224.5000   116.5719     9.3520     8.8988
  225.0000   112.6071     9.4184     8.9609
  225.5000   109.9955     9.4853     9.0234
  226.0000   109.0944     9.5527     9.0863
  226.5000   111.2235     9.5543     9.0863
  227.0000   113.9554     9.4892     9.0863
  227.5000   116.3848     9.5569     9.0234
  228.0000   116.0911     9.6247     9.0234
  228.5000   112.7716     9.4930     9.0234
  229.0000   111.2676     9.4286     9.0234
  229.5000   114.0017     9.3649     8.9609
  230.0000   116.1285     9.3015     8.9609
  230.5000   117.6502     9.3027     8.9609
  231.0000   117.9594     9.3691     8.9609
  231.5000   116.7601     9.5013     8.9609
  232.0000   118.5844     9.6340     9.0234
  232.5000   119.5009     9.9080     9.0234
  233.0000   120.4176    10.0479     9.1497
  233.5000   121.0318    10.2090     9.3425
  234.0000   121.3450    10.3335     9.5394
  234.5000   121.6564    10.4831     9.6747
  235.0000   121.6653    10.6397     9.8471
  235.5000   121.0689    10.8687    10.0805
  236.0000   119.8675    11.0824    10.2974
  236.5000   116.5480    11.2501    10.4637
  237.0000   115.0439    11.4770    10.6616
  237.5000   115.1034    11.6445    10.8109
  238.0000   116.8792    11.9683    10.9918
  238.5000   117.1884    12.1372    11.1498
  239.0000   116.2917    12.4420    11.4291
  239.5000   113.5774    12.6572    11.6775
  240.0000   110.8631    12.7765    11.9989
  240.5000   108.7539    13.0170    12.2518
  241.0000   106.6447    13.1095    12.4233
  241.5000   104.2280    13.1112    12.5972
  242.0000   102.6889    13.2042    12.8627
  242.5000   101.8300    13.2981    12.8627
  243.0000   103.6565    13.2999    12.8627
  243.5000   106.0859    13.2097    12.8627
  244.0000   107.9101    13.2119    12.8627
  244.5000   110.0369    13.2137    12.8627
  245.0000   111.5586    13.2152    12.6851
  245.5000   108.2391    13.1254    12.6449
  246.0000   104.8795    13.0368    12.5100
  246.5000   102.5101    12.8931    12.4233
  247.0000   101.6090    12.7716    12.3373
  247.5000   102.2252    12.5900    12.2518
  248.0000   104.6546    12.5118    11.9989
  248.5000   105.8737    12.4273    11.9147
  249.0000   106.1851    12.3431    11.7416
  249.5000   103.4708    12.2589    11.5891
  250.0000   103.4796    12.1758    11.5088
  250.5000   105.9445    12.1778    11.5088
  251.0000   106.2226    12.1795    11.4291
  251.5000   105.0211    12.1811    11.4291
  252.0000   104.4248    12.1828    11.4291
  252.5000   104.4336    12.2697    11.5088
  253.0000   104.4417    12.1865    11.5088
  253.5000   104.4512    12.1038    11.5088
  254.0000   104.4601    12.0217    11.5088
  254.5000   104.8018    11.9398    11.5088
  255.0000   106.9491    11.8591    11.3499
  255.5000   109.6324    11.6972    11.1932
  256.0000   111.1541    11.5376    10.8863
  256.5000   110.5578    11.3804    10.8109
  257.0000   108.7512    11.2247    10.5877
  257.5000   106.0369    11.0718    10.5144
  258.0000   102.4148    10.9963    10.4416
  258.5000   103.6339    10.9218    10.3587
  259.0000   106.4266    10.8477    10.1552
  259.5000   108.1923    10.7744    10.1552
  260.0000   106.9909    10.7759    10.0993
  260.5000   103.3688    10.6962    10.1395
  261.0000   101.5622    10.6141    10.1003
  261.5000   101.8736    10.3180     9.8242
  262.0000   104.0004    10.1123     9.6892
  262.5000   105.2195    10.0428     9.6227
  263.0000   104.3006     9.9740     9.6233
  263.5000   101.2587     9.9058     9.6240
  264.0000   102.2225     9.9755     9.6248
  264.5000   105.2570    10.0458     9.6733
  265.0000   106.4739    10.1164     9.7607
  265.5000   103.7618    10.1876     9.8295
  266.0000   101.0475    10.1882     9.9006
  266.5000    99.5434    10.2394     9.9686
  267.0000    98.9471    10.1896    10.0388
  267.5000    98.3508    10.1904    10.0394
  268.0000   100.1773    10.0506    10.0401
  268.5000   103.5144     9.9127     9.9332
  269.0000   106.8515     9.6421     9.7661
  269.5000   109.5834     9.3138     9.4991
  270.0000   111.1051     9.1225     9.1752
  270.5000   110.2073     8.9972     8.9242
  271.0000   109.0056     8.8731     8.6108
  271.5000   107.5014     8.7521     8.2685
  272.0000   106.6021     8.7528     8.1548
  272.5000   106.0058     8.7534     8.2696
  273.0000   106.0166     8.7540     8.3278
  273.5000   106.3278     8.8156     8.3866
  274.0000   106.6390     8.8854     8.4457
  274.5000   108.1605     8.9628     8.5051
  275.0000   113.6175     9.0657     8.5650
  275.5000   116.6519     9.1294     8.6663
  276.0000   119.3836     9.1936     8.7467
  276.5000   117.5768     9.1943     8.7473
  277.0000   113.6480     9.2590     8.7479
  277.5000   111.2422     9.3241     8.8096
  278.0000   110.6436     9.3897     8.9609
  278.5000   114.2852     9.3903     9.0593
