~VERSION INFORMATION
 VERS.                2.0:   CWLS LOG ASCII STANDARD - VERSION 2.0
 WRAP.                 NO:   ONE LINE PER DEPTH STEP
~WELL INFORMATION
#MNEM.UNIT      DATA TYPE    INFORMATION
#----------   ------------   ------------------------------
 STRT.F           24.0000:   START DEPTH
 STOP.F          464.0000:   STOP DEPTH
 STEP.F            0.5000:   STEP LENGTH
 NULL.          -999.2500:   NO VALUE
 COMP.    FENIX & SCISSON:   COMPANY
 WELL.       NPR #62-S-10:   WELL
 FLD .             TEAPOT:   FIELD
 LOC .      S10 T38N R78W:   LOCATION
 CNTY.            NATRONA:   COUNTY
 STAT.            WYOMING:   STATE
 CTRY. UNITED STATES OF AMERICA:   COUNTRY
 SRVC.              Welex:   SERVICE COMPANY
 DATE.        12-APR-1977:   LOGDATE
 API .       490251033300:   API NUMBER
~CURVE INFORMATION
#MNEM.UNIT       API CODE    CURVE DESCRIPTION
#----------   ------------   ------------------------------
 DEPT.F                  :   
 SPR .MV     07 010 01 00:   SPONTANEOUS POTENTIAL
 ILD .OHMM   07 120 46 00:   INDUCTION LOG DEEP
 ILM .OHMM   07 120 44 00:   INDUCTION LOG MEDIUM
 SGRD.OHMM   07 221 05 00:   SHALLOW SHORT GUARD RESISTIVITY
 GRD .GAPI   45 310 01 00:   GAMMA RAY FROM DENSITY LOG
 CALD.IN     45 280 60 00:   CALIPER FROM DENSITY LOG
 CORR.G/C3   45 356 01 00:   DENSITY CORRECTION
 RHOB.G/C3   45 350 01 00:   BULK DENSITY
 DPHI.DEC    45 890 12 00:   DENSITY POROSITY SANDSTONE
~PARAMETER INFORMATION
#MNEM.UNIT          VALUE    DESCRIPTION
#----------   ------------   ------------------------------
 PD  .                 GL:   PERMANENT DATUM
 EPD .F              5155:   ELEVATION PERMANENT DATUM
 LMF .                 GL:   LOG MEASURED FROM
 DMF .                 GL:   DRILLING MEASURED FROM
 EGL .F              5155:   GROUND LEVEL
 DATE.        12-APR-1977:   RUN DATE
 RUN .                  1:   RUN NUMBER
 DD  .F               460:   DEPTH DRILLER
 DL  .F               464:   DEPTH LOGGER
 BLI .F               462:   BOTTOM LOG INTERVAL
 TLI .F                30:   TOP LOG INTERVAL
 CS  .IN            8.625:   CASING SIZE
 BS  .IN            7.875:   BIT SIZE
 BSD .F               460:   BIT SIZE AT DEPTH
 DFT .            KCL GEL:   DRILLING FLUID TYPE
 DFD .                8.8:   DRILLING FLUID DENSITY
 TCS .HRS            0100:   TIME CURCULATED STOPPED
 MRT .F                65:   MAXIMUM RECORDED TEMPERATURE
 ENGI.        E. CALLAHAN:   RECORDING ENGINEER
 WITN.            R. LYON:   WITNESSED BY
 CLNT.            A2DTECH:   CLIENT CODE
 ORIG.           5" PRINT:   ORIGIN OF DATA
 UWI .       490251033300:   UNIQUE WELL ID
 DICO. A2D Technologies, Inc.:   DIGITIZING COMPANY
~OTHER INFORMATION
~A   DEPT      SPR        ILD        ILM       SGRD        GRD       CALD       CORR       RHOB       DPHI   
# ...
  279.5000   -30.7590    17.4064    22.5594    34.7095    89.0824     8.0945     0.0457     2.4516     0.1122
  280.0000   -30.7440    17.2954    23.3697    31.3072    89.3968     8.1109     0.0443     2.4374     0.1221
  280.5000   -30.7291    17.0727    23.7118    24.0864    88.6713     8.1124     0.0445     2.4284     0.1332
  281.0000   -30.7141    16.7338    21.9890    22.4897    88.5360     8.1139     0.0447     2.4232     0.1368
  281.5000   -30.5499    16.4017    19.6980    22.1931    88.4054     8.1154     0.0448     2.4217     0.1392
  282.0000   -30.5349    16.0761    18.5213    22.2054    88.4296     8.1169     0.0450     2.4195     0.1407
  282.5000   -30.3707    15.5406    19.1867    22.2178    88.5989     8.1184     0.0436     2.4173     0.1415
  283.0000   -30.3557    15.1272    19.6027    22.2301    88.7682     8.1198     0.0438     2.4166     0.1418
  283.5000   -30.3408    14.6233    19.4809    22.2425    89.2374     8.1213     0.0454     2.4174     0.1421
  284.0000   -30.3258    14.2342    19.2247    22.2548    89.7065     8.1078     0.0456     2.4205     0.1406
  284.5000   -30.3109    13.9493    18.7116    22.2672    90.0258     8.0944     0.0457     2.4267     0.1360
  285.0000   -30.2959    13.6724    18.0783    22.4342    90.4949     8.0959     0.0459     2.4335     0.1327
  285.5000   -30.2809    13.4033    17.9782    22.6024    90.6642     8.0973     0.0460     2.4351     0.1312
  286.0000   -30.4190    13.4127    18.3681    22.6149    90.9855     8.0988     0.0462     2.4358     0.1308
  286.5000   -30.5532    13.8941    18.2539    22.4685    91.3028     8.1003     0.0448     2.4336     0.1308
  287.0000   -30.6875    13.9978    18.2761    21.8707    91.9310     8.1018     0.0405     2.4328     0.1311
  287.5000   -30.6688    13.6254    18.2584    20.9936    93.1909     8.1183     0.0361     2.4306     0.1320
  288.0000   -30.5046    13.3550    17.2958    20.4322    96.7586     8.1048     0.0287     2.4276     0.1331
  288.5000   -30.4897    13.1695    16.6027    19.8859    95.5202     8.0913     0.0184     2.4233     0.1352
  289.0000   -30.4747    13.0990    16.2842    19.6209    94.3528     8.0778     0.0050     2.4181     0.1382
  289.5000   -30.4597    13.1083    16.2957    19.6346    93.7921     8.0628    -0.0009     2.4174     0.1424
  290.0000   -30.2985    13.0268    16.3070    20.0572    93.6872     8.0508    -0.0023     2.4212     0.1411
  290.5000   -30.2836    12.9420    16.4480    20.7744    93.7114     8.0524    -0.0006     2.4266     0.1363
  291.0000   -30.2687    12.7748    16.6722    20.2189    94.0306     8.0539     0.0101     2.4425     0.1230
  291.5000   -30.4036    12.6104    16.5682    19.6782    95.0995     8.0707     0.0358     2.4809     0.1128
  292.0000   -30.3881    12.6192    16.2007    19.4188    95.4139     8.0721     0.0510     2.4930     0.0977
  292.5000   -30.5229    12.6279    15.5701    19.2930    94.3886     8.0886     0.0572     2.4856     0.0989
  293.0000   -30.6572    12.6367    15.1742    18.9100    93.8035     8.0901     0.0528     2.4773     0.1067
  293.5000   -30.6423    12.6455    15.1873    18.6581    93.2280     8.1065     0.0484     2.4699     0.1109
  294.0000   -30.7766    12.5669    15.5166    18.9552    92.9427     8.1380     0.0426     2.4609     0.1145
  294.5000   -30.9109    12.5758    16.0739    19.2276    92.8121     8.1241     0.0382     2.4512     0.1180
  295.0000   -31.0452    12.5846    16.8833    19.3695    92.3866     8.1110     0.0353     2.4414     0.1216
  295.5000   -31.0299    12.6807    17.0094    19.7841    91.2065     8.1125     0.0325     2.4317     0.1264
  296.0000   -31.0149    12.7776    16.4423    20.3668    90.6214     8.1140     0.0296     2.4227     0.1336
  296.5000   -31.0000    13.0545    16.3402    21.0558    92.2948     8.1155     0.0283     2.4250     0.1393
  297.0000   -30.8358    13.1542    16.4678    20.6207    93.8134     8.1170     0.0299     2.4251     0.1396
  297.5000   -30.6716    13.0704    16.5936    20.0716    94.1326     8.1184     0.0316     2.4259     0.1377
  298.0000   -30.5075    12.9893    16.6051    19.9556    93.2524     8.1046     0.0332     2.4290     0.1344
  298.5000   -30.3433    12.9110    16.7319    20.2519    92.3723     8.1064     0.0334     2.4336     0.1302
  299.0000   -30.3284    12.8310    16.8598    20.6807    92.2369     8.1079     0.0320     2.4366     0.1232
  299.5000   -30.1642    12.8399    16.8714    20.4056    92.4110     8.0941     0.0322     2.4420     0.1208
  300.0000   -30.0000    12.7185    16.0844    19.7253    92.7614     8.0656     0.0323     2.4497     0.1193
  300.5000   -30.1004    12.4821    15.9801    19.2884    92.9787     8.0791     0.0358     2.4571     0.1186
  301.0000   -30.1274    12.2458    15.9912    19.0735    93.3626     8.1139     0.0385     2.4640     0.1150
  301.5000   -30.1126    12.0038    15.7779    19.0827    93.6789     8.1154     0.0446     2.4648     0.1156
  302.0000   -30.1007    11.7634    15.3557    18.9604    93.5413     8.1169     0.0462     2.4498     0.1206
  302.5000   -30.0888    11.6066    15.0486    18.7091    92.9622     8.1183     0.0538     2.4596     0.1170
  303.0000   -30.2261    11.5302    14.5469    18.4610    91.9292     8.1198     0.0599     2.4733     0.1125
  303.5000   -30.2142    11.6162    14.4525    18.3427    90.5963     8.1213     0.0690     2.4786     0.1097
  304.0000   -30.3516    11.7017    14.5630    18.3517    89.1135     8.1228     0.0841     2.4854     0.1037
  304.5000   -30.4919    11.9519    14.7741    18.4880    87.1809     8.1243     0.0932     2.4938     0.0946
  305.0000   -30.7785    12.2075    15.0924    19.0157    85.2483     8.1258     0.0993     2.5006     0.0910
  305.5000   -31.0627    12.7299    15.8502    19.5584    83.6156     8.1273     0.0993     2.5016     0.0994
  306.0000   -31.0502    13.3667    17.8388    20.5384    81.8330     8.0988     0.0859     2.4842     0.1132
  306.5000   -31.0383    14.3296    20.3566    21.7170    80.5001     8.0704     0.0724     2.4270     0.1354
  307.0000   -31.0264    15.2560    22.9106    24.7781    78.8674     8.0719     0.0725     2.3984     0.1538
  307.5000   -30.8653    16.6978    24.3963    30.0859    77.0847     8.0734     0.0756     2.3985     0.1540
  308.0000   -30.7041    18.1500    25.9784    37.0393    75.1521     8.0749     0.0741     2.3910     0.1645
  308.5000   -30.6922    19.8653    27.6630    66.7005    74.8681     8.0763     0.0622     2.3677     0.1783
  309.0000   -30.8299    21.1496    28.6528    66.2730    75.9347     8.0479     0.0517     2.3317     0.1903
  309.5000   -30.8177    22.2076    28.4710    45.0173    77.3004     8.0194     0.0518     2.3340     0.1936
  310.0000   -30.8058    22.9984    28.4867    38.1520    78.8161     8.0210     0.0519     2.3378     0.1903
  310.5000   -30.6446    23.6531    28.1108    38.9706    78.3828     8.0224     0.0520     2.3354     0.1894
  311.0000   -30.6327    24.3265    28.3217    40.9231    77.0499     8.0089     0.0490     2.3264     0.1917
  311.5000   -30.6208    24.8467    28.5341    41.8011    76.9160     8.0108     0.0416     2.3173     0.1962
  312.0000   -30.6089    25.0295    29.1488    42.1116    76.6327     8.0272     0.0326     2.3100     0.2007
  312.5000   -30.5970    25.0398    29.5714    42.1320    76.0495     8.0287     0.0222     2.3026     0.2058
  313.0000   -30.5851    24.8774    30.6294    42.7394    75.3166     8.0302     0.0208     2.3005     0.2106
  313.5000   -30.5731    24.7162    31.7253    44.2644    74.2836     8.0317     0.0209     2.3074     0.2087
  314.0000   -30.7106    24.7266    32.4043    46.4821    73.7001     8.0332     0.0224     2.3172     0.2045
  314.5000   -30.8479    24.5663    30.6804    47.8719    73.1171     8.0347     0.0240     2.3210     0.2000
  315.0000   -30.8358    24.4071    30.0667    42.5273    73.1336     8.0362     0.0257     2.3226     0.1987
  315.5000   -30.9734    24.0820    29.6658    40.2582    73.5998     8.0526     0.0288     2.3212     0.1978
