~VERSION INFORMATION
 VERS.                2.0:   CWLS LOG ASCII STANDARD - VERSION 2.0
 WRAP.                 NO:   ONE LINE PER DEPTH STEP
~WELL INFORMATION
#MNEM.UNIT      DATA TYPE    INFORMATION
#----------   ------------   ------------------------------
 STRT.F           19.5000:   START DEPTH
 STOP.F         1292.5000:   STOP DEPTH
 STEP.F            0.5000:   STEP LENGTH
 NULL.          -999.2500:   NO VALUE
 COMP. FENIX & SCISSON INC:   COMPANY
 WELL.  NPR-3 "SX" #74-14:   WELL
 FLD .             TEAPOT:   FIELD
 LOC .      S14 T38N R78W:   LOCATION
 CNTY.            NATRONA:   COUNTY
 STAT.            WYOMING:   STATE
 CTRY. UNITED STATES OF AMERICA:   COUNTRY
 SRVC.            Unknown:   SERVICE COMPANY
 DATE.        22-MAR-1978:   LOGDATE
 API .       490251060300:   API NUMBER
~CURVE INFORMATION
#MNEM.UNIT       API CODE    CURVE DESCRIPTION
#----------   ------------   ------------------------------
 DEPT.F                  :   
 SPR .MV     05 010 01 00:   SPONTANEOUS POTENTIAL
 SN  .OHMM   05 040 16 00:   SHORT NORMAL 16'
 ILD .OHMM   05 120 46 00:   INDUCTION LOG DEEP
 CALD.IN     45 280 60 00:   CALIPER
 GRD .GAPI   45 310 01 00:   GAMMA RAY FROM DENSITY LOG
 CORR.G/C3   45 356 01 00:   DENSITY CORRECTION
 RHOB.G/C3   45 350 01 00:   BULK DENSITY
 DPHI.DEC    45 890 12 00:   DENSITY POROSITY SANDSTONE
~PARAMETER INFORMATION
#MNEM.UNIT          VALUE    DESCRIPTION
#----------   ------------   ------------------------------
 PD  .                 GL:   PERMANENT DATUM
 EPD .F              5312:   ELEVATION PERMANENT DATUM
 LMF .                 KB:   LOG MEASURED FROM
 DMF .                 KB:   DRILLING MEASURED FROM
 EKB .F              5316:   KELLING BUSHING
 EGL .F              5312:   GROUND LEVEL
 DATE.          3-22-1978:   RUN DATE
 RUN .                  1:   RUN NUMBER
 DD  .F              1280:   DEPTH DRILLER
 DL  .F              1292:   DEPTH LOGGER
 BLI .F              1286:   BOTTOM LOG INTERVAL
 TLI .F                50:   TOP LOG INTERVAL
 CS  .IN            8.625:   CASING SIZE
 CBD .F                50:   CASING BOTTOM DRILLER
 CBL .F                50:   CASING BOTTOM LOGGER
 BS  .IN            7.875:   BIT SIZE
 BSD .F              1280:   BIT SIZE AT DEPTH
 DFT .                KCL:   DRILLING FLUID TYPE
 DFD .                8.6:   DRILLING FLUID DENSITY
 DFV .                 31:   DRILLING FLUID VISCOSITY
 DFPH.               10.5:   DRILLING FLUID PH
 DFL .               11.6:   DRILLING FLUID LOSS
 MSS .            MUD PIT:   MUD SAMPLE SOURCE
 RMS .OHMM            .38:   RESISTIVITY MUD SAMPLE
 MST .F                52:   MUD SAMPLE TEMPERATURE
 RMF .OHMM            .32:   RESISTIVITY MUD FILTRATE SAMPLE
 MFST.F                66:   MUD FILTRATE SAMPLE TEMPERATURE
 RMC .OHMM             .4:   RESISTIVITY MUD CAKE
 MCST.F                68:   MUD CAKE SAMPLE TEMPERATURE
 MFSS.           MEASURED:   MUD FILTRATE SAMPLE SOURCE
 RMB .OHMM            .24:   RESISTIVITY MUD AT BHT
 BHT .F                82:   BOTTOM HOLE TEMPERATURE
 TCS .HRS               4:   TIME CURCULATED STOPPED
 MRT .F                82:   MAXIMUM RECORDED TEMPERATURE
 LUN .               2958:   LOGGING UNIT NUMBER
 LUL .               CASP:   LOGGING UNIT LOCATION
 ENGI.            POINTER:   RECORDING ENGINEER
 WITN.           MCGINLEY:   WITNESSED BY
 CLNT.            A2DTECH:   CLIENT CODE
 ORIG.        2" 5" PRINT:   ORIGIN OF DATA
 UWI .       490251060300:   UNIQUE WELL ID
 DICO. A2D Technologies, Inc.:   DIGITIZING COMPANY
~OTHER INFORMATION
~A   DEPT      SPR         SN        ILD       CALD         GRD      CORR       RHOB       DPHI   
# ...
  222.0000   -47.9493     7.1876     7.5409     8.1808    90.0349     0.0380     2.4573     0.1198
  222.5000   -48.1466     7.1876     7.5964     8.1878    84.3502     0.0149     2.4385     0.1333
  223.0000   -48.2910     7.1876     7.4623     8.1948    79.9328     0.0138     2.4131     0.1425
  223.5000   -48.2473     7.1876     7.3587     8.2018    78.9774     0.0140     2.3953     0.1409
  224.0000   -48.2057     7.0401     7.2116     8.2088    80.0828     0.0215     2.3947     0.1388
  224.5000   -48.1641     6.9015     7.0426     8.2160    81.5858     0.0298     2.3937     0.1366
  225.0000   -48.1209     6.7656     6.8776     8.2178    81.7767     0.0342     2.3976     0.1344
  225.5000   -48.2812     6.6133     6.7164     8.2178    81.9570     0.0350     2.4031     0.1347
  226.0000   -48.6297     6.4596     6.5546     8.2178    83.8871     0.0357     2.4013     0.1378
  226.5000   -48.9851     6.3095     6.4398     8.2178    87.7643     0.0364     2.3945     0.1409
  227.0000   -48.9193     6.1629     6.3238     8.2178    90.3107     0.0371     2.3877     0.1441
  227.5000   -48.7055     6.0197     6.2099     8.2179    87.9473     0.0378     2.3867     0.1441
  228.0000   -48.9393     5.8681     6.0885     8.2178    81.1261     0.0385     2.3867     0.1437
  228.5000   -49.1745     5.8555     6.0754     8.2169    77.0936     0.0392     2.3867     0.1433
  229.0000   -49.4026     5.8377     6.0570     8.2454    79.2019     0.0401     2.3866     0.1407
  229.5000   -49.7230     5.8201     6.0387     8.2789    80.8382     0.0461     2.3923     0.1368
  230.0000   -49.6920     5.8142     6.0327     8.3127    83.0356     0.0522     2.3993     0.1321
  230.5000   -49.1291     5.8377     6.0570     8.3465    84.7564     0.0582     2.4064     0.1285
  231.0000   -48.7820     5.8598     6.0799     8.3806    86.0688     0.0630     2.4122     0.1269
  231.5000   -49.5158     5.8821     6.1030     8.4144    85.4557     0.0657     2.4141     0.1312
  232.0000   -50.2615     5.9044     6.1262     8.4056    82.9230     0.0684     2.4053     0.1354
  232.5000   -50.6386     5.9268     6.1494     8.3942    79.7351     0.0712     2.3965     0.1396
  233.0000   -50.4192     5.9493     6.1730     8.3829    81.1301     0.0739     2.3945     0.1407
  233.5000   -49.9711     5.9718     6.1967     8.3718    84.3360     0.0767     2.3941     0.1409
  234.0000   -49.2009     6.0177     6.2438     8.3606    84.7265     0.0835     2.3938     0.1421
  234.5000   -48.8177     6.0911     6.3199     8.3494    87.0902     0.0933     2.3893     0.1443
  235.0000   -48.6642     6.1654     6.3970     8.3383    87.2145     0.1032     2.3835     0.1465
  235.5000   -48.4699     6.2018     6.4348     8.3326    87.2683     0.1136     2.3809     0.1487
  236.0000   -47.9805     6.1174     6.3838     8.3265    87.1976     0.1277     2.3812     0.1495
  236.5000   -47.3882     6.0254     6.3279     8.3204    85.1586     0.1377     2.3815     0.1490
  237.0000   -46.8039     5.9348     6.2725     8.3131    82.6335     0.1093     2.3845     0.1486
  237.5000   -46.2172     5.8456     6.2175     8.3038    81.5614     0.0913     2.3488     0.1678
  238.0000   -45.7751     5.7577     6.1631     8.2945    82.6253     0.0642     2.3531     0.1859
  238.5000   -45.4839     5.7080     6.1091     8.2853    85.3454     0.0679     2.3087     0.1920
  239.0000   -45.1925     5.5637     5.9950     8.2761    87.2233     0.0678     2.2997     0.1767
  239.5000   -44.9017     5.3925     5.7747     8.2668    88.8631     0.0678     2.3364     0.1666
  240.0000   -44.6091     5.2266     5.5622     8.2576    87.5998     0.0637     2.3457     0.1671
  240.5000   -44.3335     5.1517     5.3505     8.2484    81.1215     0.0548     2.3560     0.1675
  241.0000   -44.4447     5.1415     5.2732     8.2392    76.7140     0.0429     2.3520     0.1680
  241.5000   -44.6877     5.1311     5.2366     8.2299    78.4964     0.0272     2.3450     0.1780
  242.0000   -45.1356     5.1203     5.2046     8.2203    79.9527     0.0122     2.3379     0.1744
  242.5000   -45.5210     5.1081     5.3014     8.2203    80.2820     0.0083     2.3309     0.1660
  243.0000   -45.5242     5.1076     5.5709     8.2236    81.3966     0.0090     2.3389     0.1575
  243.5000   -46.0741     5.5391     5.8839     8.2271    80.9218     0.0097     2.3558     0.1506
  244.0000   -47.1335     5.8932     6.2138     8.2306    79.1970     0.0156     2.3714     0.1459
  244.5000   -48.0997     6.2701     6.5621     8.2340    78.0043     0.0247     2.3772     0.1413
  245.0000   -47.8298     6.6710     6.9299     8.2375    84.2065     0.0337     2.3830     0.1365
  245.5000   -47.4051     6.7467     7.0001     8.2409    89.2381     0.0356     2.4012     0.1322
  246.0000   -46.9526     6.7659     7.0201     8.2444    91.7418     0.0372     2.4094     0.1286
  246.5000   -47.7966     6.7851     7.0400     8.2478    92.8627     0.0362     2.4142     0.1269
  247.0000   -48.8617     6.8008     7.0563     8.2513    90.7874     0.0331     2.4163     0.1272
  247.5000   -48.9979     6.7384     6.9915     8.2547    87.2962     0.0302     2.4185     0.1277
  248.0000   -48.5144     6.7580     6.9915     8.2582    85.2725     0.0362     2.4134     0.1281
  248.5000   -48.7135     6.7837     7.0260     8.2616    84.9363     0.0430     2.4090     0.1285
  249.0000   -48.8056     6.8008     7.2700     8.2651    84.5720     0.0498     2.4144     0.1272
  249.5000   -48.4147     6.9997     7.5224     8.2685    84.4315     0.0565     2.4145     0.1258
  250.0000   -49.0553     7.2208     7.7836     8.2720    85.0482     0.0609     2.4210     0.1222
  250.5000   -48.6489     7.4489     8.0285     8.2754    86.4017     0.0631     2.4302     0.1190
  251.0000   -48.2133     7.6842     8.0285     8.2772    86.6872     0.0653     2.4283     0.1245
  251.5000   -47.9003     7.8095     8.0285     8.2772    83.9734     0.0658     2.4227     0.1233
  252.0000   -47.9084     7.7924     8.0285     8.2772    87.5200     0.0659     2.4210     0.1241
  252.5000   -47.9085     7.7766     8.0285     8.2772    89.7758     0.0659     2.4195     0.1258
  253.0000   -47.9078     7.7608     8.0282     8.2773    88.5317     0.0659     2.4179     0.1271
  253.5000   -47.8624     7.7450     7.9752     8.2772    85.9860     0.0668     2.4182     0.1283
  254.0000   -47.7628     7.7293     7.9252     8.2749    85.7752     0.0713     2.4163     0.1281
  254.5000   -47.6664     7.7136     7.8753     8.2625    84.0011     0.0759     2.4107     0.1274
  255.0000   -47.5702     7.6979     7.8259     8.2503    81.1547     0.0834     2.4164     0.1257
  255.5000   -47.9426     7.6823     7.7767     8.2376    80.9337     0.0909     2.4146     0.1224
  256.0000   -48.9591     7.6668     7.7378     8.2156    80.9997     0.0953     2.4207     0.1221
  256.5000   -48.6404     7.6712     7.7881     8.1927    86.3714     0.0911     2.4244     0.1243
  257.0000   -48.4464     7.6824     7.8302     8.1699    91.8300     0.0726     2.4218     0.1266
  257.5000   -48.6749     7.6936     7.8724     8.1470    89.1749     0.0540     2.4166     0.1290
  258.0000   -47.6726     7.7047     7.9149     8.1241    89.2454     0.0349     2.4056     0.1368
  258.5000   -47.5504     7.7159     7.9576     8.1017    85.2171     0.0298     2.3945     0.1437
  259.0000   -47.2244     7.7271     8.0005     8.1124    84.5434     0.0292     2.3958     0.1381
  259.5000   -46.8624     7.7383     8.0323     8.1275    79.8908     0.0288     2.4001     0.1299
  260.0000   -46.7146     7.7496     8.0431     8.1426    76.7174     0.0283     2.4066     0.1258
  260.5000   -46.6935     7.7608     8.0539     8.1576    83.1761     0.0277     2.4166     0.1242
  261.0000   -46.5682     7.7721     8.0648     8.1728    88.2751     0.0354     2.4201     0.1219
  261.5000   -46.6282     7.7834     8.0756     8.1782    90.1896     0.0437     2.4234     0.1170
  262.0000   -46.8264     7.7944     8.0868     8.1782    88.0523     0.0439     2.4290     0.1197
