~VERSION INFORMATION
 VERS.                2.0:   CWLS LOG ASCII STANDARD - VERSION 2.0
 WRAP.                 NO:   ONE LINE PER DEPTH STEP
~WELL INFORMATION
#MNEM.UNIT      DATA TYPE    INFORMATION
#----------   ------------   ------------------------------
 STRT.F          906.5000:   START DEPTH
 STOP.F         2710.5000:   STOP DEPTH
 STEP.F            0.5000:   STEP LENGTH
 NULL.          -999.2500:   NO VALUE
 COMP.   FLUOR DANIEL INC:   COMPANY
 WELL. NAVAL PETROLEUM RESERVE 3 X-4 #77-4:   WELL
 FLD .             TEAPOT:   FIELD
 LOC .       S4 T38N R78W:   LOCATION
 CNTY.            NATRONA:   COUNTY
 STAT.            WYOMING:   STATE
 CTRY. UNITED STATES OF AMERICA:   COUNTRY
 SRVC.            Unknown:   SERVICE COMPANY
 DATE.        21-JUN-1995:   LOGDATE
 API .       490252273600:   API NUMBER
~CURVE INFORMATION
#MNEM.UNIT       API CODE    CURVE DESCRIPTION
#----------   ------------   ------------------------------
 DEPT.F                  :   
 TGAS.UNITS  91 830 01 00:   TOTAL GAS FROM HOTWIRE
 ROP .MIN/FT 91 810 01 00:   RAT OF DRILLING PENETRATION
~PARAMETER INFORMATION
#MNEM.UNIT          VALUE    DESCRIPTION
#----------   ------------   ------------------------------
 EKB .F              5291:   KELLING BUSHING
 EGL .F              5281:   GROUND LEVEL
 DATE.            6-21-95:   RUN DATE
 DD  .F              2711:   DEPTH DRILLER
 CBD .F               893:   CASING BOTTOM DRILLER
 ENGI.               HUSK:   RECORDING ENGINEER
 WITN.              TOWER:   WITNESSED BY
 CLNT.            A2DTECH:   CLIENT CODE
 ORIG.           5" PRINT:   ORIGIN OF DATA
 UWI .       490252273600:   UNIQUE WELL ID
 DICO. A2D Technologies, Inc.:   DIGITIZING COMPANY
~OTHER INFORMATION
~A   DEPT      TGAS         ROP 
# ...
 1271.0000   234.4034     0.6192
 1271.5000   233.8614     0.6175
 1272.0000   233.8889     0.6158
 1272.5000   233.3415     0.6141
 1273.0000   233.3689     0.6123
 1273.5000   233.3910     0.6106
 1274.0000   233.4135     0.6089
 1274.5000   234.0042     0.6071
 1275.0000   234.0262     0.6054
 1275.5000   234.0482     0.6037
 1276.0000   234.6341     0.6019
 1276.5000   234.0866     0.6002
 1277.0000   234.6780     0.5985
 1277.5000   235.2639     0.5967
 1278.0000   235.2859     0.5385
 1278.5000   235.3083     0.5045
 1279.0000   235.3353     0.5045
 1279.5000   235.9212     0.5045
 1280.0000   236.5070     0.5049
 1280.5000   236.5290     0.5096
 1281.0000   236.5510     0.5143
 1281.5000   236.5730     0.5189
 1282.0000   236.5949     0.5236
 1282.5000   236.6169     0.5283
 1283.0000   236.6391     0.5329
 1283.5000   236.6617     0.5376
 1284.0000   236.6883     0.5432
 1284.5000   236.7103     0.5322
 1285.0000   236.7323     0.5214
 1285.5000   236.7542     0.5222
 1286.0000   236.7762     0.5227
 1286.5000   236.7982     0.5161
 1287.0000   236.8201     0.5161
 1287.5000   236.8421     0.5161
 1288.0000   236.8647     0.5275
 1288.5000   236.8915     0.5275
 1289.0000   236.9135     0.5294
 1289.5000   236.9355     0.5390
 1290.0000   236.9574     0.5390
 1290.5000   236.4155     0.5275
 1291.0000   236.4375     0.5275
 1291.5000   235.8947     0.5275
 1292.0000   235.9175     0.5275
 1292.5000   236.5038     0.5275
 1293.0000   236.5263     0.5275
 1293.5000   236.5528     0.5161
 1294.0000   236.5748     0.5046
 1294.5000   236.5968     0.5046
 1295.0000   236.6187     0.5161
 1295.5000   236.6407     0.5161
 1296.0000   236.6627     0.5275
 1296.5000   236.6846     0.5505
 1297.0000   236.7215     0.5505
 1297.5000   237.2932     0.5505
 1298.0000   237.3200     0.5505
 1298.5000   237.3419     0.5390
 1299.0000   237.3639     0.5390
 1299.5000   237.3859     0.5390
 1300.0000   236.2745     0.5390
 1300.5000   236.2903     0.5269
 1301.0000   236.3015     0.5379
 1301.5000   236.3127     0.5372
 1302.0000   236.3238     0.5251
 1302.5000   236.3350     0.5131
 1303.0000   236.3462     0.5011
 1303.5000   236.3573     0.5005
 1304.0000   236.3685     0.5000
 1304.5000   236.3797     0.4879
 1305.0000   236.3909     0.4759
 1305.5000   236.4020     0.4753
 1306.0000   236.4132     0.4747
 1306.5000   236.4244     0.4741
 1307.0000   236.4356     0.4735
 1307.5000   236.4467     0.4730
 1308.0000   236.4579     0.4724
 1308.5000   236.4691     0.4835
 1309.0000   236.4803     0.4944
 1309.5000   236.4914     0.4937
 1310.0000   236.5026     0.4931
 1310.5000   236.5138     0.4925
 1311.0000   236.5249     0.4919
 1311.5000   236.5361     0.4913
 1312.0000   236.5473     0.4907
 1312.5000   236.5585     0.4902
 1313.0000   236.5696     0.4896
 1313.5000   236.5808     0.4891
 1314.0000   236.5920     0.4885
 1314.5000   236.6032     0.4879
 1315.0000   236.6143     0.4874
 1315.5000   236.6255     0.4983
 1316.0000   236.6367     0.4976
 1316.5000   236.6479     0.4970
 1317.0000   236.6590     0.4850
 1317.5000   236.6702     0.4844
 1318.0000   236.6814     0.4955
 1318.5000   236.6926     0.6209
 1319.0000   236.7037     0.6320
 1319.5000   236.7149     0.6428
 1320.0000   236.7293     0.6422
 1320.5000   236.7547     0.6403
 1321.0000   236.7801     0.6370
 1321.5000   236.8054     0.6337
 1322.0000   236.8308     0.9518
 1322.5000   236.8562     0.9862
 1323.0000   236.8816     0.9977
 1323.5000   236.9069     0.9977
 1324.0000   236.9323     0.9748
 1324.5000   236.9577     0.7339
 1325.0000   236.9831     0.7454
 1325.5000   237.0085     0.7569
 1326.0000   237.0338     0.7569
 1326.5000   237.0592     0.9862
 1327.0000   237.0846     0.9862
 1327.5000   237.1100     0.9862
 1328.0000   237.1353     0.9977
 1328.5000   237.1607     0.9977
 1329.0000   237.1861     0.9977
 1329.5000   237.2115     0.9977
 1330.0000   237.2368     0.7913
 1330.5000   237.2622     0.7339
 1331.0000   237.2876     0.7569
 1331.5000   237.3130     0.7569
 1332.0000   237.3383     0.7683
 1332.5000   237.3637     1.0321
 1333.0000   237.3891     1.0321
 1333.5000   237.4145     1.0321
 1334.0000   237.4398     0.9735
 1334.5000   237.4652     0.7110
 1335.0000   237.4906     0.7110
 1335.5000   237.5160     0.7110
 1336.0000   237.5414     0.7110
 1336.5000   237.5667     0.7110
 1337.0000   237.5921     0.7110
 1337.5000   237.6175     0.7225
 1338.0000   237.6429     0.7225
 1338.5000   237.6682     0.7339
 1339.0000   237.6936     0.7339
 1339.5000   237.7190     0.7339
 1340.0000   237.7444     0.6193
 1340.5000   237.7697     0.6190
 1341.0000   237.7951     0.6187
 1341.5000   237.8205     0.6184
 1342.0000   237.8459     0.6181
 1342.5000   237.8712     0.6178
 1343.0000   237.8966     0.6175
 1343.5000   237.9220     0.6173
 1344.0000   237.9474     0.6170
 1344.5000   237.9727     0.6167
 1345.0000   237.9981     0.6164
 1345.5000   238.0235     0.6161
 1346.0000   238.0489     0.6158
 1346.5000   238.0742     0.6155
 1347.0000   238.0996     0.6153
 1347.5000   238.1250     0.6150
 1348.0000   238.1504     0.7523
 1348.5000   238.1758     0.7520
 1349.0000   238.2011     0.7517
 1349.5000   238.2265     0.7514
 1350.0000   238.2519     0.7511
 1350.5000   238.2773     0.9688
 1351.0000   238.3026     0.9800
 1351.5000   238.3280     0.9796
 1352.0000   238.3534     0.6812
 1352.5000   238.3788     0.6121
 1353.0000   238.4041     0.6118
 1353.5000   238.4295     0.6115
 1354.0000   238.4549     0.6112
 1354.5000   238.4803     0.6109
 1355.0000   238.5056     0.6106
 1355.5000   238.5310     0.6104
 1356.0000   238.5564     0.6101
 1356.5000   238.5818     0.6098
 1357.0000   238.6071     0.6095
 1357.5000   238.6325     0.6092
 1358.0000   238.6579     0.6089
 1358.5000   238.6833     0.6086
 1359.0000   238.7086     0.6084
 1359.5000   238.7340     0.6081
 1360.0000   238.5369     0.6448
 1360.5000   237.7559     0.6335
 1361.0000   236.9749     0.6335
 1361.5000   236.1939     0.6335
 1362.0000   235.4128     0.6321
 1362.5000   234.6318     0.6297
 1363.0000   233.8508     0.6273
 1363.5000   233.0698     0.6249
 1364.0000   232.2887     0.6222
 1364.5000   231.6523     0.6222
 1365.0000   231.6832     0.6222
 1365.5000   231.7079     0.6227
 1366.0000   231.7331     0.6249
 1366.5000   231.7635     0.6270
 1367.0000   232.3521     0.6292
 1367.5000   232.3768     0.6314
 1368.0000   232.9655     1.0068
 1368.5000   232.9902     1.0055
 1369.0000   234.1427     1.0042
 1369.5000   234.1674     1.0028
 1370.0000   234.7560     1.0015
 1370.5000   235.3449     1.0001
 1371.0000   235.3703     0.9988
 1371.5000   235.4003     0.9974
 1372.0000   235.4250     0.9961
 1372.5000   234.8796     0.6448
 1373.0000   234.9105     0.6335
 1373.5000   234.9352     0.6335
 1374.0000   234.9600     0.6335
 1374.5000   234.4201     0.6335
 1375.0000   234.4455     0.6339
 1375.5000   233.9063     0.6351
 1376.0000   233.3671     0.6362
 1376.5000   233.9619     0.6374
 1377.0000   233.9866     0.6386
 1377.5000   234.0114     0.6397
 1378.0000   234.0361     0.6409
 1378.5000   233.4969     0.6421
 1379.0000   233.5216     0.6432
 1379.5000   232.4182     0.6444
 1380.0000   231.3154     0.9955
 1380.5000   231.3412     0.9459
 1381.0000   231.3710     0.9458
 1381.5000   231.3957     0.9457
 1382.0000   231.9843     0.9455
 1382.5000   232.0090     0.9454
 1383.0000   232.4263     0.9452
 1383.5000   232.1943     0.9566
 1384.0000   231.9624     1.2431
 1384.5000   231.7305     1.2430
 1385.0000   231.4985     1.2428
 1385.5000   231.2666     1.2427
 1386.0000   230.4965     1.2655
 1386.5000   230.5212     1.7241
 1387.0000   229.4120     1.7354
 1387.5000   228.8790     1.7352
 1388.0000   228.9037     1.7351
 1388.5000   228.9284     1.3106
 1389.0000   229.5170     0.9665
 1389.5000   229.5423     0.9893
 1390.0000   229.5726     1.2643
 1390.5000   229.5973     1.2756
 1391.0000   229.6221     1.2755
 1391.5000   230.2107     1.2869
 1392.0000   230.7993     0.9656
