~VERSION INFORMATION
 VERS.                2.0:   CWLS LOG ASCII STANDARD - VERSION 2.0
 WRAP.                 NO:   ONE LINE PER DEPTH STEP
~WELL INFORMATION
#MNEM.UNIT      DATA TYPE    INFORMATION
#----------   ------------   ------------------------------
 STRT.F           14.0000:   START DEPTH
 STOP.F          549.0000:   STOP DEPTH
 STEP.F            0.5000:   STEP LENGTH
 NULL.          -999.2500:   NO VALUE
 COMP.   LAWRENCE-ALLISON:   COMPANY
 WELL.    NPR 3 #58-64SX3:   WELL
 FLD .           NPR NO 3:   FIELD
 LOC .       S3 T38N R78W:   LOCATION
 CNTY.            NATRONA:   COUNTY
 STAT.            WYOMING:   STATE
 CTRY. UNITED STATES OF AMERICA:   COUNTRY
 SRVC.      Dresser Atlas:   SERVICE COMPANY
 DATE.        05-DEC-1984:   LOGDATE
 API .       490251099700:   API NUMBER
~CURVE INFORMATION
#MNEM.UNIT       API CODE    CURVE DESCRIPTION
#----------   ------------   ------------------------------
 DEPT.F                  :   
 RFOC.OHMM   07 220 04 00:   RESISTIVITY FOCUSED LOG
 RILD.OHMM   07 120 46 00:   INDUCTION LOG DEEP RESISTIVITY
 RILM.OHMM   07 120 44 00:   INDUCTION LOG MEDIUM RESISTIVITY
 SPR .MV     07 010 01 00:   SPONTANEOUS POTENTIAL
 DT  .US/F   60 520 00 00:   INTERVAL TRANSIT TIME
 CALD.IN     45 280 60 00:   CALIPER FROM DENSITY LOG
 CORR.G/C3   45 356 01 00:   DENSITY CORRECTION
 CNC .DEC    42 890 03 00:   NEUTRON POROSITY SANDSTONE
 DEN .G/C3   45 350 01 00:   COMPENSATED BULK DENSTIY
 GRD .GAPI   45 310 01 00:   GAMMA RAY FROM DENSITY LOG
 PORD.DEC    45 890 12 00:   POROSITY DENSITY SANDSTONE
~PARAMETER INFORMATION
#MNEM.UNIT          VALUE    DESCRIPTION
#----------   ------------   ------------------------------
 PD  .                 GL:   PERMANENT DATUM
 EPD .F              5188:   ELEVATION PERMANENT DATUM
 LMF .                 KB:   LOG MEASURED FROM
 DMF .                 KB:   DRILLING MEASURED FROM
 EGL .F              5188:   GROUND LEVEL
 DATE.        05-DEC-1984:   RUN DATE
 RUN .                  1:   RUN NUMBER
 DD  .F               556:   DEPTH DRILLER
 DL  .F               551:   DEPTH LOGGER
 BLI .F               548:   BOTTOM LOG INTERVAL
 CS  .IN            8.625:   CASING SIZE
 CBD .F                20:   CASING BOTTOM DRILLER
 CBL .F                20:   CASING BOTTOM LOGGER
 BS  .IN            7.875:   BIT SIZE
 BSD .F               556:   BIT SIZE AT DEPTH
 DFT .          KCL WATER:   DRILLING FLUID TYPE
 MSS .           FLOWLINE:   MUD SAMPLE SOURCE
 RMS .OHMM            .36:   RESISTIVITY MUD SAMPLE
 MST .F                70:   MUD SAMPLE TEMPERATURE
 RMF .OHMM            .26:   RESISTIVITY MUD FILTRATE SAMPLE
 MFST.F                70:   MUD FILTRATE SAMPLE TEMPERATURE
 RMC .OHMM            .46:   RESISTIVITY MUD CAKE
 MCST.F                70:   MUD CAKE SAMPLE TEMPERATURE
 MFSS.               CALC:   MUD FILTRATE SAMPLE SOURCE
 MCSS.               CALC:   MUD CAKE SAMPLE SOURCE
 RMB .OHMM            .29:   RESISTIVITY MUD AT BHT
 BHT .F                85:   BOTTOM HOLE TEMPERATURE
 TCS .HRS               3:   TIME CURCULATED STOPPED
 MRT .F               100:   MAXIMUM RECORDED TEMPERATURE
 LUN .               6274:   LOGGING UNIT NUMBER
 LUL .               GLTE:   LOGGING UNIT LOCATION
 ENGI.             PAUTIO:   RECORDING ENGINEER
 WITN.       GROONS/LUERS:   WITNESSED BY
 CLNT.            A2DTECH:   CLIENT CODE
 ORIG.           5" PRINT:   ORIGIN OF DATA
 UWI .       490251099700:   UNIQUE WELL ID
 DICO. A2D Technologies, Inc.:   DIGITIZING COMPANY
~OTHER INFORMATION
~A   DEPT     RFOC       RILD       RILM        SPR         DT       CALD       CORR          CNC      DEN         GRD      PORD   
# ...
  502.0000     8.7109     9.2047     8.5090   -56.1003    98.1225     8.0200     0.0216     0.2824     2.4838   121.5278     0.1133
  502.5000     8.6602     9.1973     8.5012   -56.5869    98.6074     8.0188     0.0134     0.2792     2.4829   122.1258     0.1156
  503.0000     8.6070     9.1880     8.3702   -57.0735    99.0906     8.0177     0.0180     0.2741     2.4837   122.7238     0.1131
  503.5000     8.5389     9.1119     8.1812   -57.4063    99.5765     8.0165     0.0258     0.2580     2.4923   123.3218     0.1087
  504.0000     8.3486     9.0364     7.9383   -57.7391    99.8984     8.0154     0.0336     0.2612     2.5058   123.3025     0.0992
  504.5000     8.0443     8.8962     7.6466   -58.0719    99.9863     8.0142     0.0446     0.2724     2.5153   122.0357     0.0973
  505.0000     6.9473     8.7581     7.3120   -58.0969    99.9932     8.0131     0.0524     0.2880     2.5128   120.7433     0.0991
  505.5000     6.7431     8.6207     7.0432   -57.9673    99.9191     8.0119     0.0424     0.2928     2.5030   119.5409     0.1036
  506.0000     6.6897     8.3042     6.7844   -57.8385    99.7673     8.0108     0.0289     0.2820     2.4926   120.8076     0.1089
  506.5000     6.7355     8.1157     6.6798   -57.5558   100.0141     8.0096     0.0232     0.2776     2.4840   124.4368     0.1159
  507.0000     6.7300     7.7593     6.7719   -57.5819   100.4973     8.0240     0.0325     0.2786     2.4799   128.4301     0.1185
  507.5000     6.8246     7.4730     6.8668   -57.7608   101.3773     8.0228     0.0387     0.2825     2.4822   132.7319     0.1179
  508.0000     6.9712     7.4585     7.0622   -57.9397   102.1779     8.0217     0.0434     0.2809     2.4861   133.6436     0.1144
  508.5000     7.1209     7.6234     7.2649   -58.1186   104.4944     8.0360     0.0464     0.2784     2.4932   129.2987     0.1065
  509.0000     7.2739     7.7847     7.4734   -58.2976   105.2185     8.0527     0.0494     0.2765     2.5027   125.5759     0.1008
  509.5000     7.3772     8.1257     7.7574   -58.3226   104.8990     8.0646     0.0540     0.2805     2.5129   123.7050     0.0970
  510.0000     7.5897     8.5440     8.0951   -58.0338   103.4774     8.0632     0.0602     0.2963     2.5200   123.0686     0.0929
  510.5000     7.9823     8.8533     8.3249   -57.7574   102.0557     8.0778     0.0409     0.2951     2.5247   122.4322     0.0910
  511.0000     8.3343     9.1739     8.4990   -57.6224   101.1103     8.0921     0.0312     0.2840     2.5263   122.1061     0.0904
  511.5000     8.6385     9.6461     8.7377   -57.4936   100.0856     8.0906     0.0260     0.2704     2.5230   121.1611     0.0894
  512.0000     8.7867     9.8527     8.9231   -57.5250    99.2195     8.0895     0.0372     0.2618     2.5261   121.4506     0.0873
  512.5000     9.0150     9.9878     9.1791   -57.5500    98.4328     8.0883     0.0466     0.2599     2.5356   122.3829     0.0854
  513.0000     9.1416    10.1221     9.3740   -57.7290    97.8049     8.0872     0.0513     0.2616     2.5371   126.1446     0.0839
  513.5000     9.2027    10.1119     9.5033   -57.7540    97.0923     8.0860     0.0608     0.2638     2.5370   130.7676     0.0833
  514.0000     9.2326    10.0280     9.4942   -57.7791    96.5281     8.0849     0.0810     0.2686     2.5417   130.2212     0.0820
  514.5000     9.2581     9.9448     9.4855   -57.8042    96.0798     8.0838     0.0809     0.2738     2.5456   127.8319     0.0795
  515.0000     9.2522     9.8624     9.4767   -57.8293    96.2472     8.0826     0.0791     0.2731     2.5392   125.6523     0.0818
  515.5000     9.2462     9.7806     9.4680   -57.8519    96.4923     8.0815     0.0710     0.2719     2.5288   124.0900     0.0857
  516.0000     9.2404     9.7706     9.4593   -57.8794    96.6580     8.0803     0.0485     0.2751     2.5255   122.5277     0.0936
  516.5000     9.2143     9.6190     9.4506   -57.7444    96.9030     8.0792     0.0388     0.2790     2.5262   120.9654     0.0924
  517.0000     9.1613     9.6108     9.4418   -57.7757    97.0687     8.0780     0.0418     0.2809     2.5286   119.7117     0.0905
  517.5000     9.1556     9.6012     9.4331   -57.8008    97.0757     8.0769     0.0449     0.2794     2.5293   117.2235     0.0892
  518.0000     9.1498     9.5915     9.4255   -57.8259    97.0827     8.0757     0.0494     0.2747     2.5324   114.4314     0.0873
  518.5000     9.1439     9.6612     9.4157   -57.6971    96.7722     8.0746     0.0525     0.2703     2.5363   117.8026     0.0855
  519.0000     9.1377     9.7139     9.4071   -57.5621    96.3720     8.0734     0.0491     0.2693     2.5362   120.5613     0.0837
  519.5000     9.1318     9.7036     9.3984   -57.5904    95.7544     8.0723     0.0473     0.2684     2.5306   120.2336     0.0872
  520.0000     9.1264     9.7654     9.3897   -57.6185    96.3980     8.1020     0.0471     0.2669     2.5258   118.9799     0.0933
  520.5000     9.1201     9.7552     9.3811   -57.6436    96.8018     8.1163     0.0501     0.2733     2.5201   118.3435     0.0968
  521.0000     9.1142     9.7454     9.4411   -57.6687    97.4437     8.0997     0.0550     0.2827     2.5185   118.0158     0.0956
  521.5000     9.1083     9.7358     9.4324   -57.8476    98.4030     8.0985     0.0609     0.2865     2.5200   118.6140     0.0940
  522.0000     9.1025     9.7973     9.4259   -57.7126    99.2036     8.0974     0.0496     0.2899     2.5207   119.2122     0.0953
  522.5000     9.0966     9.8240     9.4862   -57.7439    99.6074     8.0962     0.0430     0.2922     2.5182   120.1190     0.0970
  523.0000     9.0907     9.9034     9.4773   -57.7654    99.8525     8.0641     0.0461     0.2929     2.5166   121.3345     0.0980
  523.5000     9.1529     9.9116     9.5381   -57.7904   100.0183     8.0630     0.0507     0.2916     2.5133   122.8588     0.0986
  524.0000     9.1456     9.9015     9.5294   -57.9730   100.1947     8.0616     0.0425     0.2898     2.5125   121.9136     0.0980
  524.5000     9.1397     9.8915     9.5904   -57.8380   100.4307     8.0604     0.0264     0.2872     2.5132   123.1545     0.0971
  525.0000     9.2696     9.8815     9.5815   -57.8693   100.5947     8.0595     0.0167     0.2838     2.5147   126.8647     0.0971
  525.5000     9.3315     9.8714     9.6431   -57.8944   100.2065     8.0582     0.0182     0.2803     2.5162   129.9575     0.0981
  526.0000     9.3922     9.9343     9.7050   -57.9154    99.8960     8.0725     0.0228     0.2794     2.5098  -999.2500     0.1020
  526.5000     9.3862    10.1440     9.8388   -57.9445    99.5856     8.0713     0.0162     0.2782     2.5034  -999.2500     0.1074
  527.0000     9.3814    10.2081     9.7577   -57.9696    99.5114     8.0859     0.0096     0.2779     2.4961  -999.2500     0.1116
  527.5000     9.3072    10.3481     9.6778   -57.9947    99.6789     8.0846     0.0079     0.2796     2.4937  -999.2500     0.1107
  528.0000     9.3013    10.4162     9.6688   -58.1736    99.6518     8.0679     0.0077     0.2853     2.4969  -999.2500     0.1085
  528.5000     9.2277    10.4820     9.6599   -58.0448    99.6614     8.0513     0.0091     0.2915     2.4999  -999.2500     0.1069
  529.0000     9.1503    10.5483     9.6510   -58.0699    99.4319     8.0501     0.0121     0.2854     2.5022  -999.2500     0.1047
  529.5000     9.0824    10.4581     9.6421   -58.0950    99.3586     8.0490     0.0167     0.2711     2.5045  -999.2500     0.1032
  530.0000     9.0106    10.4475     9.6332   -58.1201    99.1311     8.0478     0.0245     0.2689     2.4981  -999.2500     0.1073
  530.5000     9.0048    10.3609     9.6243   -58.1452    99.0578     8.0312     0.0307     0.2689     2.4948  -999.2500     0.1105
  531.0000     8.9336    10.3504     9.6155   -58.3241    98.9883     8.0301     0.0480     0.2642     2.4956  -999.2500     0.1125
  531.5000     8.8629    10.3399     9.6066   -58.3492    98.9170     8.0289     0.0717     0.2337     2.4995  -999.2500     0.1081
  532.0000     8.7928    10.1794     9.5977   -58.3692    98.9249     8.0123     0.0796     0.2214     2.5050  -999.2500     0.0999
