~VERSION INFORMATION
 VERS.                2.0:   CWLS LOG ASCII STANDARD - VERSION 2.0
 WRAP.                 NO:   ONE LINE PER DEPTH STEP
~WELL INFORMATION
#MNEM.UNIT      DATA TYPE    INFORMATION
#----------   ------------   ------------------------------
 STRT.F           20.0000:   START DEPTH
 STOP.F          964.0000:   STOP DEPTH
 STEP.F            0.5000:   STEP LENGTH
 NULL.          -999.2500:   NO VALUE
 COMP. FENIX & SCISSON INC:   COMPANY
 WELL.    NPR-3 SX #58-11:   WELL
 FLD .             TEAPOT:   FIELD
 LOC .      S11 T38N R78W:   LOCATION
 CNTY.            NATRONA:   COUNTY
 STAT.            WYOMING:   STATE
 CTRY. UNITED STATES OF AMERICA:   COUNTRY
 SRVC.            Unknown:   SERVICE COMPANY
 DATE.        09-MAR-1978:   LOGDATE
 API .       490251060100:   API NUMBER
~CURVE INFORMATION
#MNEM.UNIT       API CODE    CURVE DESCRIPTION
#----------   ------------   ------------------------------
 DEPT.F                  :   
 SPR .MV     05 010 01 00:   SPONTANEOUS POTENTIAL FROM RES.
 SN  .OHMM   05 040 16 00:   SHORT NORMAL 16"
 ILD .OHMM   05 120 46 00:   INDUCTION LOG DEEP
 CALD.IN     45 280 60 00:   CALIPER
 GRD .GAPI   45 310 01 00:   GAMMA RAY FROM DENSITY LOG
 CORR.G/C3   45 356 01 00:   DENSITY CORRECTION
 RHOB.G/C3   45 350 01 00:   BULK DENSITY
 DPHI.DEC    45 890 12 00:   DENSITY POROSITY SANDSTONE
~PARAMETER INFORMATION
#MNEM.UNIT          VALUE    DESCRIPTION
#----------   ------------   ------------------------------
 PD  .                 GL:   PERMANENT DATUM
 EPD .F              5219:   ELEVATION PERMANENT DATUM
 LMF .                 KB:   LOG MEASURED FROM
 DAPD.F                 4:   FEET ABOVE PERMANENT DATUM
 DMF .                 KB:   DRILLING MEASURED FROM
 EKB .F              5223:   KELLING BUSHING
 EGL .F              5219:   GROUND LEVEL
 DATE.           3-9-1978:   RUN DATE
 RUN .                  1:   RUN NUMBER
 DD  .F               963:   DEPTH DRILLER
 DL  .F               966:   DEPTH LOGGER
 BLI .F               960:   BOTTOM LOG INTERVAL
 TLI .F                80:   TOP LOG INTERVAL
 CS  .IN            8.625:   CASING SIZE
 CBD .F                40:   CASING BOTTOM DRILLER
 BS  .IN            7.875:   BIT SIZE
 BSD .F               963:   BIT SIZE AT DEPTH
 DFT .         LIGNO SULF:   DRILLING FLUID TYPE
 DFD .                8.6:   DRILLING FLUID DENSITY
 DFV .                 30:   DRILLING FLUID VISCOSITY
 DFPH.               10.5:   DRILLING FLUID PH
 DFL .                4.8:   DRILLING FLUID LOSS
 MSS .          FLOW LINE:   MUD SAMPLE SOURCE
 RMS .OHMM            1.7:   RESISTIVITY MUD SAMPLE
 MST .F                60:   MUD SAMPLE TEMPERATURE
 RMF .OHMM            1.5:   RESISTIVITY MUD FILTRATE SAMPLE
 MFST.F                74:   MUD FILTRATE SAMPLE TEMPERATURE
 RMC .OHMM            2.8:   RESISTIVITY MUD CAKE
 MCST.F                68:   MUD CAKE SAMPLE TEMPERATURE
 MFSS.               MEAS:   MUD FILTRATE SAMPLE SOURCE
 MCSS.               MEAS:   MUD CAKE SAMPLE SOURCE
 RMB .OHMM           1.38:   RESISTIVITY MUD AT BHT
 BHT .F                74:   BOTTOM HOLE TEMPERATURE
 TCS .HRS               4:   TIME CURCULATED STOPPED
 MRT .F                74:   MAXIMUM RECORDED TEMPERATURE
 LUN .               2958:   LOGGING UNIT NUMBER
 LUL .               CASP:   LOGGING UNIT LOCATION
 ENGI.             MILLER:   RECORDING ENGINEER
 WITN.         HARRINGTON:   WITNESSED BY
 CLNT.            A2DTECH:   CLIENT CODE
 ORIG.      2" , 5" PRINT:   ORIGIN OF DATA
 UWI .       490251060100:   UNIQUE WELL ID
 DICO. A2D Technologies, Inc.:   DIGITIZING COMPANY
~OTHER INFORMATION
~A   DEPT      SPR         SN        ILD       CALD         GRD      CORR       RHOB       DPHI   
# ...
  587.0000   -26.1503     9.0452     7.2295     7.9000    83.0425     0.0251     2.5049     0.0952
  587.5000   -26.1954     9.1202     7.1975     7.9000    86.0447     0.0282     2.5009     0.0970
  588.0000   -26.2412     8.9533     7.1657     7.8998    86.8484     0.0308     2.4967     0.0952
  588.5000   -26.2109     8.9962     7.1340     7.8994    85.2202     0.0334     2.5042     0.0913
  589.0000   -26.1546     9.0332     7.1024     7.8990    84.2456     0.0365     2.5170     0.0865
  589.5000   -26.0978     8.4714     7.0710     7.8986    83.9458     0.0361     2.5169     0.0879
  590.0000   -26.0409     8.2242     7.0397     7.8983    87.0759     0.0354     2.5142     0.0896
  590.5000   -25.9842     8.1548     7.0085     7.8979    88.9997     0.0345     2.5116     0.0913
  591.0000   -25.9288     8.0895     6.9775     7.8975    85.7817     0.0338     2.5088     0.0926
  591.5000   -25.8720     7.9857     6.9467     7.8971    83.0898     0.0329     2.5060     0.0935
  592.0000   -26.0112     7.8638     6.9159     7.8967    82.6836     0.0321     2.5043     0.0944
  592.5000   -26.2714     7.7445     6.8853     7.8964    82.6601     0.0313     2.5027     0.0954
  593.0000   -26.5360     7.6521     6.8549     7.8960    82.8150     0.0305     2.5009     0.0963
  593.5000   -26.5504     7.6379     6.8449     7.8956    82.8986     0.0297     2.4994     0.0969
  594.0000   -26.3930     7.6239     6.8344     7.8952    82.9221     0.0289     2.4978     0.0958
  594.5000   -26.2341     7.6099     6.8240     7.8949    84.3055     0.0281     2.4953     0.0940
  595.0000   -26.0736     7.5957     6.8135     7.8945    89.7947     0.0273     2.4979     0.0922
  595.5000   -25.9135     7.5811     6.8032     7.8941    88.9697     0.0265     2.5062     0.0905
  596.0000   -25.7541     7.5125     6.7928     7.8937    86.0327     0.0257     2.5118     0.0911
  596.5000   -25.6474     7.5758     6.7861     7.8934    85.8041     0.0249     2.5111     0.0923
  597.0000   -25.6860     7.6605     6.8514     7.8930    85.7565     0.0241     2.5108     0.0936
  597.5000   -25.7257     7.7460     6.9205     7.8926    84.8437     0.0233     2.5102     0.0905
  598.0000   -25.7654     7.8326     6.9902     7.8922    83.5664     0.0225     2.5087     0.0890
  598.5000   -25.8051     7.9201     7.0606     7.8918    82.3143     0.0217     2.5062     0.0892
  599.0000   -25.8448     8.0086     7.1317     7.8915    83.0229     0.0209     2.5076     0.0894
  599.5000   -25.8845     8.0883     7.2036     7.8911    83.9380     0.0201     2.5096     0.0896
  600.0000   -25.9242     8.1141     7.2395     7.8907    83.4541     0.0193     2.5069     0.0921
  600.5000   -25.9639     8.1428     7.2366     7.8903    81.8413     0.0184     2.5001     0.0960
  601.0000   -26.0041     8.1716     7.2326     7.8900    80.5031     0.0177     2.4975     0.0957
  601.5000   -26.0425     8.2008     7.2285     7.8896    78.9306     0.0171     2.4959     0.0952
  602.0000   -25.9391     8.2384     7.2245     7.8892    80.5792     0.0201     2.4920     0.0992
  602.5000   -25.8153     8.1639     7.2205     7.8888    83.9560     0.0231     2.4795     0.1032
  603.0000   -25.6822     8.1571     7.2165     7.8885    84.3755     0.0262     2.4825     0.1048
  603.5000   -25.8564     8.1491     7.2124     7.8881    82.9539     0.0293     2.4836     0.1040
  604.0000   -26.1628     8.1414     7.2084     7.8877    81.5530     0.0324     2.4783     0.1056
  604.5000   -26.4724     8.1338     7.2044     7.8873    83.0025     0.0357     2.4732     0.1082
  605.0000   -26.7228     8.1262     7.2003     7.8869    85.1347     0.0364     2.4667     0.1103
  605.5000   -26.8267     8.1186     7.1963     7.8866    87.3181     0.0352     2.4691     0.1084
  606.0000   -26.1144     8.1110     7.1923     7.8862    88.8668     0.0342     2.4725     0.1072
  606.5000   -25.7705     8.1034     7.1883     7.8858    87.4074     0.0332     2.4763     0.1045
  607.0000   -25.6378     8.0958     7.1844     7.8854    86.8603     0.0322     2.4818     0.1024
  607.5000   -25.5078     8.0883     7.1804     7.8851    86.4467     0.0312     2.4871     0.1002
  608.0000   -25.3775     8.0959     7.1762     7.8847    85.9652     0.0302     2.4936     0.0976
  608.5000   -25.2559     8.1163     7.1729     7.8843    83.6106     0.0292     2.4927     0.0995
  609.0000   -25.3611     8.1372     7.3082     7.8839    81.2324     0.0282     2.4891     0.1024
  609.5000   -25.4757     8.1625     7.4263     7.8836    81.1048     0.0272     2.4854     0.1014
  610.0000   -25.5894     8.0994     7.5466     7.8832    81.2030     0.0262     2.4848     0.0988
  610.5000   -25.7027     8.0142     7.6523     7.8828    81.3172     0.0253     2.4927     0.0962
  611.0000   -25.8163     7.9402     7.6522     7.8824    82.0324     0.0239     2.4970     0.0966
  611.5000   -25.9307     8.4712     7.8019     7.8820    83.3517     0.0227     2.4882     0.0989
  612.0000   -26.0434     9.0852     7.9674     7.8817    83.8462     0.0211     2.4825     0.1016
  612.5000   -26.0173     9.8147     8.1371     7.8813    84.1896     0.0261     2.4875     0.1001
  613.0000   -25.9835     9.8871     8.3111     7.8809    85.6786     0.0333     2.4942     0.0963
  613.5000   -25.9502     9.9688     8.4705     7.8805    83.6105     0.0362     2.5011     0.0925
  614.0000   -25.9169    10.0496     8.8710     7.8801    80.9684     0.0328     2.5082     0.0887
  614.5000   -25.8826    10.1299     8.9770     7.8798    78.3618     0.0304     2.5126     0.0865
  615.0000   -25.8524    10.1895     9.0997     7.8794    78.6294     0.0275     2.5129     0.0885
  615.5000   -26.0753    10.3578     9.2241     7.8790    78.9048     0.0245     2.5141     0.0905
  616.0000   -26.3239    10.5576     9.3499     7.8786    78.3395     0.0166     2.5110     0.0925
  616.5000   -26.5733    10.7611     9.4778     7.8783    77.6672     0.0081     2.5053     0.0944
  617.0000   -26.8204    10.9685     9.5516     7.8779    77.2894     0.0056     2.4998     0.0964
  617.5000   -26.7775    11.1756     9.7408     7.8775    77.1735     0.0078     2.4948     0.0984
  618.0000   -26.6788    11.2005     9.9285     7.8771    77.0309     0.0094     2.4886     0.1000
  618.5000   -26.5792    11.2420    10.0029     7.8767    76.8750     0.0111     2.4910     0.0994
  619.0000   -26.4799    11.2835     9.9350     7.8764    76.7535     0.0129     2.4943     0.0992
  619.5000   -26.3806    11.3248     9.8678     7.8760    76.6311     0.0146     2.4977     0.1016
  620.0000   -26.2815    11.3840     9.8010     7.8756    77.1892     0.0163     2.4954     0.1036
  620.5000   -26.1823    11.3271     9.7347     7.8752    77.7379     0.0180     2.4931     0.1056
  621.0000   -26.0820    11.1767     9.6688     7.8749    78.1544     0.0197     2.4905     0.1076
  621.5000   -26.0483    11.0285     9.5579     7.8745    77.6494     0.0215     2.4882     0.1080
  622.0000   -26.0479    10.8820     9.4130     7.8741    77.2363     0.0231     2.4889     0.1076
  622.5000   -26.0478    10.7376     9.2703     7.8737    76.7697     0.0247     2.4966     0.1064
  623.0000   -26.0472    10.6513     9.1190     7.8734    76.6076     0.0235     2.5013     0.1044
  623.5000   -26.0684    10.6135     9.1197     7.8730    75.9146     0.0222     2.4950     0.1024
  624.0000   -26.0930    10.5730     9.1105     7.8726    73.5649     0.0208     2.4893     0.1000
  624.5000   -26.1179    10.4935     9.1046     7.8722    73.5099     0.0194     2.4857     0.1010
  625.0000   -26.1427    10.3832     9.0989     7.8719    73.5758     0.0181     2.4862     0.1034
  625.5000   -26.1675    10.2840     9.0932     7.8715    73.7192     0.0167     2.4861     0.1058
  626.0000   -26.1921    10.2748     9.0875     7.8711    73.7765     0.0153     2.4861     0.1088
  626.5000   -26.2171    10.2560     9.0818     7.8707    73.0020     0.0140     2.4857     0.1101
  627.0000   -26.2435    10.2372     9.0761     7.8703    72.0211     0.0131     2.4848     0.1119
