~VERSION INFORMATION
 VERS.                2.0:   CWLS LOG ASCII STANDARD - VERSION 2.0
 WRAP.                 NO:   ONE LINE PER DEPTH STEP
~WELL INFORMATION
#MNEM.UNIT      DATA TYPE    INFORMATION
#----------   ------------   ------------------------------
 STRT.F            0.0000:   START DEPTH
 STOP.F          612.5000:   STOP DEPTH
 STEP.F            0.5000:   STEP LENGTH
 NULL.          -999.2500:   NO VALUE
 COMP.   FLUOR DANIEL INC:   COMPANY
 WELL. NAVAL PETROLEUM RESERVE 3 SX-3 82 #2-3:   WELL
 FLD .             TEAPOT:   FIELD
 LOC .       S3 T38N R78W:   LOCATION
 CNTY.            NATRONA:   COUNTY
 STAT.            WYOMING:   STATE
 CTRY. UNITED STATES OF AMERICA:   COUNTRY
 SRVC.      Western Atlas:   SERVICE COMPANY
 DATE.        28-JUL-1995:   LOGDATE
 API .       490252274000:   API NUMBER
~CURVE INFORMATION
#MNEM.UNIT       API CODE    CURVE DESCRIPTION
#----------   ------------   ------------------------------
 DEPT.F                  :   
 GRR .GAPI   07 310 01 00:   GAMMA RAY FROM RES. LOG.
 RILD.OHMM   07 120 46 00:   INDUCTION LOG DEEP RESISTIVITY
 RILM.OHMM   07 120 44 00:   INDUCTION LOG MEDIUM RESISTIVITY
~PARAMETER INFORMATION
#MNEM.UNIT          VALUE    DESCRIPTION
#----------   ------------   ------------------------------
 PD  .                 GL:   PERMANENT DATUM
 EPD .F              5123:   ELEVATION PERMANENT DATUM
 LMF .                 KB:   LOG MEASURED FROM
 DAPD.F                10:   FEET ABOVE PERMANENT DATUM
 DMF .                 KB:   DRILLING MEASURED FROM
 EKB .F              5133:   KELLING BUSHING
 EDF .F              5132:   DRILLING FLOOR
 EGL .F              5123:   GROUND LEVEL
 DATE.            7-28-95:   RUN DATE
 RUN .                  1:   RUN NUMBER
 DD  .F               620:   DEPTH DRILLER
 DL  .F               620:   DEPTH LOGGER
 BLI .F               612:   BOTTOM LOG INTERVAL
 TLI .F                54:   TOP LOG INTERVAL
 CS  .IN            9.625:   CASING SIZE
 CBD .F                53:   CASING BOTTOM DRILLER
 CBL .F                54:   CASING BOTTOM LOGGER
 BS  .IN             8.75:   BIT SIZE
 BSD .F               620:   BIT SIZE AT DEPTH
 DFT .                AIR:   DRILLING FLUID TYPE
 BHT .F                91:   BOTTOM HOLE TEMPERATURE
 MRT .F                91:   MAXIMUM RECORDED TEMPERATURE
 LUN .            HL 6530:   LOGGING UNIT NUMBER
 LUL .             CASPER:   LOGGING UNIT LOCATION
 ENGI.          RASMUSSEN:   RECORDING ENGINEER
 WITN.              HARDY:   WITNESSED BY
 CLNT.            A2DTECH:   CLIENT CODE
 ORIG.       2", 5" PRINT:   ORIGIN OF DATA
 UWI .       490252274000:   UNIQUE WELL ID
 DICO. A2D Technologies, Inc.:   DIGITIZING COMPANY
~OTHER INFORMATION
~A    DEPT      GRR      RILD       RILM   
# ...
  182.0000   137.1193     7.9396     8.4825
  182.5000   128.8607     8.0582     8.6725
  183.0000   122.7822     8.2668     8.8667
  183.5000   121.6589     8.5049     9.0854
  184.0000   126.4469     8.7158     9.0846
  184.5000   129.4955     8.7561     9.2440
  185.0000   128.1814     8.7561     9.3406
  185.5000   127.0889     8.7567     9.2497
  186.0000   127.1130     8.7568     9.1498
  186.5000   127.1197     8.6850     9.0510
  187.0000   127.0305     8.6214     8.9532
  187.5000   125.5762     8.5580     8.8565
  188.0000   125.5030     8.4951     8.7609
  188.5000   126.7254     8.4000     8.6358
  189.0000   130.3581     8.3613     8.5960
  189.5000   135.1874     8.3613     8.6788
  190.0000   139.6654     8.3613     8.7717
  190.5000   141.9093     8.4388     8.8723
  191.0000   139.5207     8.5040     8.9901
  191.5000   137.7789     8.5979     9.1094
  192.0000   136.9955     8.6929     9.2303
  192.5000   133.5275     8.7889     9.3405
  193.0000   132.2037     8.8373     9.2975
  193.5000   132.1854     8.8372     9.2499
  194.0000   132.4846     8.8373     9.2026
  194.5000   131.9238     8.8373     9.1556
  195.0000   129.1431     8.8366     9.1087
  195.5000   122.9423     8.8379     9.0854
  196.0000   120.4308     8.7857     9.0543
  196.5000   120.3704     8.7400     9.0262
  197.0000   124.5470     8.6940     8.9982
  197.5000   131.6908     8.6483     8.9702
  198.0000   134.6642     8.6028     8.9423
  198.5000   135.3654     8.5576     8.9145
  199.0000   135.9162     8.5170     8.8868
  199.5000   134.9147     8.5041     8.8592
  200.0000   133.5199     8.4857     8.8316
  200.5000   133.2767     8.4673     8.8042
  201.0000   134.9595     8.4490     8.7768
  201.5000   135.1211     8.4307     8.7495
  202.0000   132.8494     8.4124     8.7223
  202.5000   128.7876     8.3942     8.6951
  203.0000   126.9043     8.3760     8.6756
  203.5000   131.2708     8.3579     8.6758
  204.0000   135.0417     8.3398     8.6757
  204.5000   133.5661     8.3217     8.6757
  205.0000   131.9167     8.3037     8.6757
  205.5000   133.4200     8.2857     8.6756
  206.0000   135.6939     8.2677     8.6758
  206.5000   135.5007     8.2498     8.6773
  207.0000   133.9474     8.2319     8.6340
  207.5000   133.9876     8.2141     8.5843
  208.0000   135.5056     8.1963     8.5350
  208.5000   137.0025     8.1785     8.4860
  209.0000   138.4855     8.1608     8.4374
  209.5000   139.9715     8.1432     8.3891
  210.0000   140.6936     8.1330     8.3613
  210.5000   138.6514     8.1330     8.3954
  211.0000   133.8528     8.1328     8.4776
  211.5000   128.9183     8.1334     8.5607
  212.0000   126.2760     8.1320     8.6446
  212.5000   127.5133     8.2264     8.7292
  213.0000   128.2872     8.3450     8.8148
  213.5000   127.4270     8.4642     8.9011
  214.0000   126.4683     8.5924     8.9575
  214.5000   125.8747     8.6716     9.0061
  215.0000   126.3895     8.7743     9.0549
  215.5000   129.3674     8.8373     9.0854
  216.0000   131.6018     8.8174     9.0649
  216.5000   133.6215     8.7642     9.0103
  217.0000   134.5009     8.7114     8.9560
  217.5000   134.6774     8.6589     8.9019
  218.0000   133.0899     8.6067     8.8483
  218.5000   130.3937     8.5548     8.7949
  219.0000   131.5453     8.5032     8.7419
  219.5000   133.5248     8.4519     8.6892
  220.0000   135.1871     8.4125     8.6487
  220.5000   139.1669     8.3612     8.5960
  221.0000   142.3765     8.2527     8.4650
  221.5000   144.3241     8.1380     8.3272
  222.0000   143.7198     8.0250     8.1982
  222.5000   142.7670     7.9134     8.1166
  223.0000   140.5318     7.8137     8.0359
  223.5000   137.5199     7.7372     7.9561
  224.0000   135.8643     7.6613     7.8771
  224.5000   135.5486     7.6242     7.8382
  225.0000   135.8040     7.6550     7.8699
  225.5000   136.4671     7.6991     7.9152
  226.0000   136.7374     7.7435     7.9842
  226.5000   135.5009     7.7662     7.9835
  227.0000   134.6439     7.8836     8.1054
  227.5000   133.7064     7.9931     8.2181
  228.0000   134.3146     8.1040     8.3332
  228.5000   136.3125     8.2084     8.4388
  229.0000   136.1573     8.3427     8.5769
  229.5000   133.1937     8.4303     8.6670
  230.0000   130.6601     8.5188     8.7580
  230.5000   131.8352     8.6083     8.8499
  231.0000   131.6871     8.6757     8.9193
  231.5000   130.6164     8.6887     9.0086
  232.0000   129.5567     8.7088     9.1697
  232.5000   130.1004     8.7289     9.0775
  233.0000   131.4650     8.7569     9.0042
  233.5000   133.4591     8.7570     8.9315
  234.0000   134.9749     8.6786     8.8593
  234.5000   133.4692     8.5851     8.7878
  235.0000   132.5036     8.4927     8.7168
  235.5000   132.1821     8.4097     8.6455
  236.0000   131.9298     8.3394     8.5735
  236.5000   132.0856     8.2845     8.5170
  237.0000   133.6412     8.2715     8.5037
  237.5000   136.2568     8.2084     8.4388
  238.0000   136.4238     8.2905     8.5238
  238.5000   133.2460     8.3952     8.6313
  239.0000   132.0293     8.4954     8.7603
  239.5000   130.4036     8.6432     8.9811
  240.0000   128.1304     8.7936     9.2074
  240.5000   125.8673     8.9465     9.4399
  241.0000   126.3252     9.1020     9.6782
  241.5000   126.6951     9.2041     9.8681
  242.0000   125.6220     9.4111    10.0197
  242.5000   123.4495     9.6227    10.1744
  243.0000   121.2199     9.8391    10.3315
  243.5000   120.4574    10.0604    10.4910
  244.0000   120.7366    10.2866    10.6480
  244.5000   122.4346    10.5311    10.8165
  245.0000   124.1785    10.8267    11.1195
  245.5000   123.9933    11.1009    11.5531
  246.0000   123.5864    11.4002    12.0337
  246.5000   120.9677    11.7076    12.5275
  247.0000   117.2276    11.9835    12.7832
  247.5000   111.4897    12.1095    13.0214
  248.0000   108.9106    12.2338    12.9391
  248.5000   111.1246    12.3200    12.7818
  249.0000   112.5393    12.4342    12.6264
  249.5000   113.1529    12.2128    12.4729
  250.0000   114.2395    12.0464    12.3212
  250.5000   115.8019    11.8822    12.1714
  251.0000   118.3186    11.7203    12.0234
  251.5000   119.6677    11.5606    11.8772
  252.0000   120.2066    11.4031    11.7329
  252.5000   119.8100    11.2339    11.5902
  253.0000   119.1137    11.1282    11.4812
  253.5000   116.0105    10.9243    11.3493
  254.0000   113.4672    10.8267    11.2339
  254.5000   112.6480    10.8569    11.2339
  255.0000   113.9583    10.8841    11.2339
  255.5000   115.3911    10.9114    11.4431
  256.0000   114.2962    10.9387    11.5198
  256.5000   112.0430    10.9660    11.6269
  257.0000   110.9363    10.9935    11.7644
  257.5000   110.2061    11.0211    11.6924
  258.0000   109.5245    11.0283    11.6385
  258.5000   109.6958    11.0287    11.5848
  259.0000   112.0857    11.0289    11.5098
  259.5000   113.6373    10.8034    11.2231
  260.0000   114.9875    10.5682    10.9436
  260.5000   116.3335    10.3380    10.6711
  261.0000   117.4664    10.0555    10.4053
  261.5000   116.8360    10.0564    10.3110
  262.0000   114.4321     9.9524    10.2319
  262.5000   111.1844     9.8761    10.1533
  263.0000   113.0219     9.8004    10.0754
  263.5000   117.1408     9.7253     9.9639
  264.0000   118.8767     9.6602     9.9804
  264.5000   117.4312     9.5712    10.0268
  265.0000   117.3350     9.4829    10.0561
  265.5000   115.2387     9.3956     9.8873
  266.0000   111.5277     9.3090     9.7440
  266.5000   109.4278     9.2545     9.6028
  267.0000   112.0599     9.2547     9.5145
  267.5000   113.3287     9.2547     9.5145
  268.0000   112.7828     9.2547     9.5145
  268.5000   113.4840     9.2547     9.5145
  269.0000   116.4112     9.2662     9.5404
  269.5000   119.3928     9.2781     9.5672
  270.0000   119.7165     9.2901     9.5941
  270.5000   118.6107     9.3020     9.6210
  271.0000   114.7016     9.3140     9.6480
  271.5000   111.2655     9.3261     9.6751
  272.0000   110.6059     9.3382     9.7051
  272.5000   112.1657     9.3400     9.7396
