~VERSION INFORMATION
 VERS.                2.0:   CWLS LOG ASCII STANDARD - VERSION 2.0
 WRAP.                 NO:   ONE LINE PER DEPTH STEP
~WELL INFORMATION
#MNEM.UNIT      DATA TYPE    INFORMATION
#----------   ------------   ------------------------------
 STRT.F            0.0000:   START DEPTH
 STOP.F         3030.0000:   STOP DEPTH
 STEP.F            0.5000:   STEP LENGTH
 NULL.          -999.2500:   NO VALUE
 COMP. LAWRENCE/ALLISON INC:   COMPANY
 WELL. NAVAL PETROLEUM RESERVE 3 AX-3 #36  X 34-34:   WELL
 FLD .         N. P. R #3:   FIELD
 LOC .      S34 T39N R78W:   LOCATION
 CNTY.            NATRONA:   COUNTY
 STAT.            WYOMING:   STATE
 CTRY. UNITED STATES OF AMERICA:   COUNTRY
 SRVC.      Dresser Atlas:   SERVICE COMPANY
 DATE.        29-JUN-1985:   LOGDATE
 API .       490251103200:   API NUMBER
~CURVE INFORMATION
#MNEM.UNIT       API CODE    CURVE DESCRIPTION
#----------   ------------   ------------------------------
 DEPT.F                  :   
 RFOC.OHMM   07 220 01 00:   RESISTIVITY FOCUSED LOG
 RILM.OHMM   07 120 44 00:   RESITIVITY LONG MEDIUM
 SPR .MV     07 010 01 00:   SPONTANEOUS POTENTIAL
 RILD.OHMM   07 120 46 00:   INDUCTION LOG DEEP RESITIVITY
 GRR .GAPI   07 310 01 00:   GAMMA RAY
 DT  .US/F   60 520 00 00:   INTERVAL TRANSIT TIME
 CALD.IN     45 280 60 00:   CALIPER FROM DENSITY LOG
 CORR.G/C3   45 356 01 00:   DENSITY CORRECTION
 CNC .DEC    42 890 03 00:   NEUTRON POROSITY SANDSTONE
 DEN .G/C3   45 350 01 00:   COMPENSATED BULK DENSTIY
 PORD.DEC    45 890 12 00:   POROSITY DENSITY SANDSTONE
~PARAMETER INFORMATION
#MNEM.UNIT          VALUE    DESCRIPTION
#----------   ------------   ------------------------------
 PD  .                 GL:   PERMANENT DATUM
 EPD .F              5108:   ELEVATION PERMANENT DATUM
 LMF .                 KB:   LOG MEASURED FROM
 DAPD.F                12:   FEET ABOVE PERMANENT DATUM
 DMF .                 KB:   DRILLING MEASURED FROM
 EKB .F              5120:   KELLING BUSHING
 EGL .F              5108:   GROUND LEVEL
 DATE.       29-JUNE-1985:   RUN DATE
 RUN .                  1:   RUN NUMBER
 DD  .F              3033:   DEPTH DRILLER
 DL  .F              3033:   DEPTH LOGGER
 BLI .F              3030:   BOTTOM LOG INTERVAL
 CS  .IN            8.625:   CASING SIZE
 CBD .F               601:   CASING BOTTOM DRILLER
 CBL .F               601:   CASING BOTTOM LOGGER
 BS  .IN            7.875:   BIT SIZE
 BSD .F              3033:   BIT SIZE AT DEPTH
 DFT .   FOAM & KCL WATER:   DRILLING FLUID TYPE
 MSS .           FLOWLINE:   MUD SAMPLE SOURCE
 RMS .OHMM           0.44:   RESISTIVITY MUD SAMPLE
 MST .F                82:   MUD SAMPLE TEMPERATURE
 RMF .OHMM           0.44:   RESISTIVITY MUD FILTRATE SAMPLE
 MFST.F                82:   MUD FILTRATE SAMPLE TEMPERATURE
 MFSS.               MEAS:   MUD FILTRATE SAMPLE SOURCE
 RMB .OHMM           0.31:   RESISTIVITY MUD AT BHT
 BHT .F               116:   BOTTOM HOLE TEMPERATURE
 TCS .HRS               3:   TIME CURCULATED STOPPED
 MRT .F               116:   MAXIMUM RECORDED TEMPERATURE
 LUN .               6274:   LOGGING UNIT NUMBER
 LUL .               GLTE:   LOGGING UNIT LOCATION
 ENGI.             RAUTIO:   RECORDING ENGINEER
 WITN.       MR. JENNINGS:   WITNESSED BY
 CLNT.            A2DTECH:   CLIENT CODE
 ORIG.        2" 5" PRINT:   ORIGIN OF DATA
 UWI .       490251103200:   UNIQUE WELL ID
 DICO. A2D Technologies, Inc.:   DIGITIZING COMPANY
~OTHER INFORMATION
~A    DEPT    RFOC       RILM        SPR       RILD         GRR        DT       CALD       CORR        CNC        DEN       PORD   
# ...
 2775.5000     5.1836     3.9471    42.1276     3.9889   121.8309    91.0121     7.5663    -0.0296     0.3036     2.4764     0.1038
 2776.0000     5.0786     3.8945    41.9717     3.9635   121.2361    91.3097     7.5813    -0.0325     0.3066     2.4689     0.1093
 2776.5000     4.9752     3.8431    41.9888     3.9109   122.1593    91.3062     7.5813    -0.0322     0.3124     2.4682     0.1101
 2777.0000     4.9419     3.8451    42.1460     3.9138   123.3827    91.2273     7.5813    -0.0247     0.3170     2.4719     0.1061
 2777.5000     4.9785     3.8204    42.4547     3.8889   124.3031    91.2236     7.5813    -0.0171     0.3196     2.4765     0.1052
 2778.0000     4.9459     3.8496    42.7648     3.8647   124.6202    91.2193     7.5813    -0.0305     0.3178     2.4698     0.1066
 2778.5000     4.9132     3.8786    42.9219     3.8670   124.6315    91.5169     7.5813    -0.0410     0.3138     2.4630     0.1136
 2779.0000     4.9148     3.9077    43.0791     3.8963   124.6806    92.7935     7.5813    -0.0439     0.3075     2.4585     0.1154
 2779.5000     4.9168     3.9376    43.3879     3.9264   123.7478    93.5429     7.5813    -0.0272     0.3005     2.4623     0.1139
 2780.0000     4.9873     3.9396    43.6979     3.9562   123.1502    93.7652     7.5813    -0.0196     0.3026     2.4691     0.1093
 2780.5000     5.1298     3.9417    44.0066     3.9585   123.4673    93.6102     7.5813    -0.0180     0.3092     2.4707     0.1078
 2781.0000     5.0959     3.9718    44.1638     3.9614   124.4063    93.6066     7.5813    -0.0012     0.3123     2.4722     0.1060
 2781.5000     5.0271     3.9739    44.6254     3.9637   125.9170    93.7536     7.5813     0.0468     0.3141     2.4933     0.0957
 2782.0000     4.9592     4.0037    44.9341     3.9660   124.4131    94.5965     7.5964     0.0905     0.3149     2.5038     0.0869
 2782.5000     4.9268     3.9780    45.7545     3.9683   123.2123    95.1772     7.5964     0.2018     0.3149     2.4888     0.0927
 2783.0000     4.8602     3.9806    46.7645     3.9431   122.0114    94.9469     7.6265     0.2605     0.3153     2.4550     0.1129
 2783.5000     4.8285     3.9270    47.0732     3.9459   121.7197    94.1150     7.6566     0.2971     0.3267     2.4145     0.1377
 2784.0000     4.8300     3.9451    47.5334     3.9482   122.6429    93.6596     7.6867     0.3058     0.3379     2.4077     0.1470
 2784.5000     4.8657     3.9596    47.6920     3.9788   125.7674    94.7847     7.9277     0.3074     0.3370     2.4183     0.1391
 2785.0000     4.8336     4.0173    47.6977     4.0369   124.1834    96.8895     8.2741     0.3240     0.3327     2.4138     0.1400
 2785.5000     4.5100     4.1618    47.4003     4.0393   122.3765    98.8438     8.4699     0.3437     0.3315     2.4161     0.1427
 2786.0000     4.3571     4.2853    46.9312     4.0700   121.7817    99.2176     8.3343     0.3016     0.3318     2.4319     0.1385
 2786.5000     4.6085     4.3446    45.7464     4.0729   123.6140    97.8970     7.5449     0.2312     0.3306     2.4432     0.1294
 2787.0000     4.8740     4.3161    44.2369     4.0464   124.5344    93.7870     7.4157     0.1667     0.3290     2.4487     0.1243
 2787.5000     5.0836     4.1710    42.5759     4.0212   125.7578    92.0515     7.4458     0.1052     0.3266     2.4673     0.1194
 2788.0000     5.0504     3.9751    41.3694     3.9679   126.9840    91.5961     7.4458     0.0106     0.3263     2.4891     0.1124
 2788.5000     5.0165     3.8678    41.0720     3.9159   126.0862    93.1739     7.4307     0.0258     0.3290     2.5012     0.0913
 2789.0000     4.9491     3.7897    40.9262     3.8639   123.9763    94.2990     7.4458     0.0319     0.3284     2.4847     0.0901
 2789.5000     4.8485     3.7133    40.9333     3.7084   122.4415    95.1237     7.4608     0.0305     0.3229     2.4682     0.1006
 2790.0000     4.8121     3.6639    40.9403     3.6339   121.5746    96.3249     7.4608    -0.0100     0.3178     2.4667     0.1106
 2790.5000     4.6861     3.5904    41.0975     3.5361   126.1342    97.1497     7.4759    -0.0294     0.3181     2.4780     0.1069
 2791.0000     4.5904     3.5167    41.1032     3.4637   129.7818    97.6732     7.4910    -0.0173     0.3187     2.4788     0.1033
 2791.5000     4.4658     3.4231    41.4133     3.4190   131.9171    97.8194     7.4910     0.0144     0.3174     2.4750     0.1036
 2792.0000     4.3753     3.4011    41.7220     3.3972   133.1377    98.7947     7.4910     0.0370     0.3162     2.4721     0.1054
 2792.5000     4.3162     3.3329    41.8791     3.3761   130.7276    99.0179     7.4910     0.0296     0.3156     2.4699     0.1069
 2793.0000     4.2582     3.2889    42.3394     3.3313   130.1328    98.7123     7.4910     0.0237     0.3189     2.4677     0.1081
 2793.5000     4.2304     3.3368    42.4979     3.3338   132.8742    98.4721     7.4910     0.0584     0.3386     2.4662     0.1096
 2794.0000     4.2318     3.3853    42.5036     3.3590   136.2188    98.1771     7.4910     0.0960     0.3398     2.4741     0.1108
 2794.5000     4.2034     3.4347    42.2062     3.4082   137.1392    98.0983     7.4910     0.0871     0.3261     2.4895     0.1086
 2795.0000     4.2051     3.4851    41.9089     3.4345   132.6078    97.8688     7.4759     0.0437     0.3183     2.4971     0.0992
 2795.5000     4.4478     3.5113    41.7630     3.4365   130.4979    97.6378     7.4759     0.0177     0.3157     2.4978     0.0917
 2796.0000     4.5431     3.5624    41.7701     3.4626   128.3880    97.0325     7.4759    -0.0012     0.3155     2.4776     0.0920
 2796.5000     4.5763     3.5896    41.9273     3.5137   126.5839    96.5771     7.4910    -0.0266     0.3158     2.4491     0.1004
 2797.0000     4.5145     3.6166    42.2374     3.5651   127.5043    96.4991     7.4910    -0.0326     0.3131     2.4393     0.1161
 2797.5000     4.4847     3.6438    42.2430     3.5921   129.3338    96.8711     7.4910    -0.0295     0.3100     2.4341     0.1257
 2798.0000     4.5178     3.6461    42.4002     3.5947   130.8630    96.8675     7.4966    -0.0203     0.3070     2.4289     0.1300
 2798.5000     4.6147     3.6480    42.7103     3.5968   129.3591    96.7878     7.5060    -0.0458     0.3058     2.4236     0.1333
 2799.0000     4.6488     3.6499    43.0190     3.6241   123.6129    96.4830     7.5060    -0.0562     0.3085     2.4214     0.1363
 2799.5000     4.6177     3.6784    43.3277     3.6262   119.9878    96.1030     7.5211    -0.0606     0.3156     2.4282     0.1372
 2800.0000     4.6195     3.7314    43.6364     3.6798   122.1231    95.9488     7.5286    -0.0605     0.3206     2.4388     0.1302
 2800.5000     4.5890     3.7333    43.7950     3.7336   121.5255    95.9443     7.5361    -0.0513     0.3199     2.4501     0.1202
 2801.0000     4.6229     3.8141    44.1036     3.8147   120.9333    96.0170     7.5361    -0.0422     0.3190     2.4547     0.1175
 2801.5000     4.6567     3.8972    44.2608     3.8939   121.8567    95.8619     7.5211    -0.0316     0.3174     2.4539     0.1175
 2802.0000     4.7239     3.9540    44.4182     3.9537   123.9892    95.7077     7.5211    -0.0180     0.3075     2.4562     0.1166
 2802.5000     4.7585     4.0115    44.3197     4.0118   123.3945    95.3127     7.5060     0.0019     0.3011     2.4615     0.1138
 2803.0000     4.8944     4.0727    44.1090     4.0139   120.0724    94.1937     7.4759     0.0093     0.2961     2.4645     0.1117
 2803.5000     5.1813     4.1011    43.9611     4.0441   118.8716    92.9043     7.4568    -0.0041     0.2911     2.4615     0.1117
 2804.0000     5.5165     4.0183    43.9640     3.9903   118.5798    91.0929     7.4307    -0.0341     0.2878     2.4585     0.1138
 2804.5000     5.5573     3.9372    43.9669     3.9344   119.2013    90.3353     7.4157    -0.0565     0.2927     2.4586     0.1153
 2805.0000     5.3321     3.8315    44.1213     3.8049   121.6383    90.4063     7.4458    -0.0319     0.3120     2.4586     0.1156
 2805.5000     4.9409     3.7800    44.2758     3.7277   128.3163    91.3114     7.4759    -0.0127     0.3422     2.4601     0.1152
