~VERSION INFORMATION
 VERS.                2.0:   CWLS LOG ASCII STANDARD - VERSION 2.0
 WRAP.                 NO:   ONE LINE PER DEPTH STEP
~WELL INFORMATION
#MNEM.UNIT      DATA TYPE    INFORMATION
#----------   ------------   ------------------------------
 STRT.F           90.0000:   START DEPTH
 STOP.F          784.0000:   STOP DEPTH
 STEP.F            0.5000:   STEP LENGTH
 NULL.          -999.2500:   NO VALUE
 COMP.               NAVY:   COMPANY
 WELL. RES 3 TEAPOT DOM #41S-11:   WELL
 FLD .             TEAPOT:   FIELD
 LOC .      S11 T38N R78W:   LOCATION
 CNTY.            NATRONA:   COUNTY
 STAT.            WYOMING:   STATE
 CTRY. UNITED STATES OF AMERICA:   COUNTRY
 SRVC.       Schlumberger:   SERVICE COMPANY
 DATE.        14-JUL-1962:   LOGDATE
 API .       490250638000:   API NUMBER
~CURVE INFORMATION
#MNEM.UNIT       API CODE    CURVE DESCRIPTION
#----------   ------------   ------------------------------
 DEPT.F                  :   
 GR  .GAPI   30 310 01 00:   GAMMA RAY
 SPR .MV     05 010 01 00:   SPONTANEOUS POTENTIAL FROM RES.
 ASN .OHMM   05 041 16 00:   AMPLIFIED SHORT NORMAL 16"
 ILD .OHMM   05 120 46 00:   INDUCTION LOG DEEP
 CILD.MMHO   05 110 46 00:   CONDUCTIVITY INDUCTION LOG DEEP
~PARAMETER INFORMATION
#MNEM.UNIT          VALUE    DESCRIPTION
#----------   ------------   ------------------------------
 LMF .                 KB:   LOG MEASURED FROM
 DMF .                 KB:   DRILLING MEASURED FROM
 EKB .F              5162:   KELLING BUSHING
 EGL .F              5157:   GROUND LEVEL
 DATE.        14-JUL-1962:   RUN DATE
 RUN .                  1:   RUN NUMBER
 DD  .F               785:   DEPTH DRILLER
 DL  .F               785:   DEPTH LOGGER
 BLI .F               784:   BOTTOM LOG INTERVAL
 TLI .F               100:   TOP LOG INTERVAL
 CBD .F                10:   CASING BOTTOM DRILLER
 BS  .IN             6.75:   BIT SIZE
 BSD .F               785:   BIT SIZE AT DEPTH
 DFT .           OIL EMUL:   DRILLING FLUID TYPE
 DFD .               10.2:   DRILLING FLUID DENSITY
 DFV .                 43:   DRILLING FLUID VISCOSITY
 DFL .                4.6:   DRILLING FLUID LOSS
 RMS .OHMM            5.2:   RESISTIVITY MUD SAMPLE
 MST .F                78:   MUD SAMPLE TEMPERATURE
 RMF .OHMM            5.2:   RESISTIVITY MUD FILTRATE SAMPLE
 MFST.F                78:   MUD FILTRATE SAMPLE TEMPERATURE
 RMC .OHMM              6:   RESISTIVITY MUD CAKE
 MCST.F                78:   MUD CAKE SAMPLE TEMPERATURE
 TCS .HRS              .5:   TIME CURCULATED STOPPED
 LUN .               2503:   LOGGING UNIT NUMBER
 LUL .               CSPR:   LOGGING UNIT LOCATION
 ENGI.           ELLERMAN:   RECORDING ENGINEER
 WITN.          JORGENSON:   WITNESSED BY
 CLNT.            A2DTECH:   CLIENT CODE
 ORIG.           5" PRINT:   ORIGIN OF DATA
 UWI .       490250638000:   UNIQUE WELL ID
 DICO. A2D Technologies, Inc.:   DIGITIZING COMPANY
~OTHER INFORMATION
~A   DEPT       GR        SPR          ASN        ILD       CILD 
# ...
  700.0000    50.2695   -49.3959    12.3614    12.3867    74.2430
  700.5000    43.7959   -48.7884    12.2028    12.2558    74.6884
  701.0000    46.8277   -48.0302    12.0441    12.1249    75.7738
  701.5000    45.7841   -48.3295    11.8556    11.9359    78.0538
  702.0000    47.4553   -48.3258    11.7793    11.8609    78.8186
  702.5000    42.6412   -48.1719    11.7031    11.7863    79.5834
  703.0000    43.2568   -47.4137    11.7024    11.7115    79.5909
  703.5000    44.6264   -46.5045    11.6261    11.6367    80.3572
  704.0000    46.2978   -45.7261    11.5499    11.5618    80.3645
  704.5000    44.6509   -45.1385    11.5490    11.4870    80.3717
  705.0000    43.8763   -44.9845    11.4727    11.4879    79.6213
  705.5000    43.4429   -45.1334    11.4720    11.5642    79.6288
  706.0000    43.9950   -45.4320    11.4713    11.6406    79.6376
  706.5000    48.3883   -45.7312    11.4706    11.6413    79.6448
  707.0000    54.5128   -45.7275    11.5454    11.7176    78.8927
  707.5000    51.7949   -45.7247    11.5445    11.7183    78.1439
  708.0000    53.0289   -45.7218    11.6194    11.7946    78.1515
  708.5000    56.9627   -45.8707    11.6943    11.7953    78.9180
  709.0000    59.6358   -46.0181    11.7689    11.7962    79.6828
  709.5000    56.8332   -45.8641    11.6926    11.7214    80.4476
  710.0000    55.1863   -45.4074    11.5407    11.5711    81.2124
  710.5000    61.3856   -44.8003    11.3889    11.3452    81.9773
  711.0000    65.0177   -43.8910    11.2371    11.1924    82.7438
  711.5000    65.6332   -43.1328    11.1609    11.0447    84.2662
  712.0000    66.2487   -42.9789    11.0846    11.0454    85.0310
  712.5000    68.2187   -43.2781    11.0082    11.1217    85.7958
  713.0000    57.3742   -43.7277    11.0075    11.1224    86.5606
  713.5000    59.4980   -44.1780    11.0067    11.1231    87.3272
  714.0000    60.2644   -44.4779    11.0060    11.1238    88.0920
  714.5000    62.3852   -44.4743    11.0053    11.0490    88.0992
  715.0000    56.0656   -43.7154    10.9289    10.9742    88.1064
  715.5000    45.5197   -42.8062    10.9281    10.9751    88.1136
  716.0000    41.5700   -41.8969    10.7764    10.9003    88.1227
  716.5000    35.5863   -41.7437    10.7001    10.8255    88.1299
  717.0000    44.3206   -42.6465    10.6238    10.7507    88.1371
  717.5000    51.5988   -43.0967    10.5476    10.7516    88.1444
  718.0000    52.0634   -42.7910    10.5467    10.7523    87.3939
  718.5000    57.2038   -42.4860    10.6217    10.8286    86.6437
  719.0000    54.3500   -42.0299    10.6208    10.8293    85.8933
  719.5000    57.0774   -41.7249    10.6958    10.9056    85.1430
  720.0000    59.2611   -42.0242    10.7704    10.9820    85.1520
  720.5000    55.7443   -42.6255    10.7695    11.0582    85.9168
  721.0000    51.8350   -42.4708    10.7688    11.0590    86.0150
  721.5000    45.3585   -42.1666    10.7680    11.0597    87.4482
  722.0000    54.5743   -42.4658    10.6918    10.9849    87.4554
  722.5000    59.8625   -42.6133    10.6155    10.8345    87.4627
  723.0000    49.9230   -42.5950    10.5393    10.6844    88.9850
  723.5000    40.5838   -42.1536    10.4629    10.5341    90.5076
  724.0000    44.0651   -41.5464    10.3866    10.4591    91.2740
  724.5000    53.5796   -40.9393    10.2348    10.3089    92.7964
  725.0000    52.0804   -40.3322    10.2341    10.2341    94.3188
  725.5000    60.2374   -39.8735    10.1579    10.1593    95.0836
  726.0000    53.3145   -39.5704    10.1570    10.0845    95.0909
  726.5000    51.7287   -39.8696    10.1562    10.0854    95.8574
  727.0000    46.6953   -40.3199    10.1555    10.0106    95.8646
  727.5000    45.5050   -41.0723    10.1548    10.0113    95.8719
  728.0000    55.7818   -41.5226    10.1541    10.0877    95.8791
  728.5000    54.5770   -41.6708    10.1533    10.0885    95.8863
  729.0000    53.2339   -41.3651    10.2282    10.1647    95.8954
  729.5000    51.2850   -41.3622    10.3030    10.2410    95.1450
  730.0000    59.8948   -41.5111    10.4531    10.3927    95.1522
  730.5000    55.2313   -41.9606    10.6034    10.5447    94.4001
  731.0000    53.8861   -42.1088    10.8318    10.7720    92.8940
  731.5000    48.0159   -41.9541    11.4326    11.2259    87.6000
  732.0000    39.5817   -41.9512    12.3383    11.9819    79.2739
  732.5000    37.7839   -41.7973    13.2439    12.9645    72.4629
  733.0000    35.3829   -41.7944    14.3761    14.1362    64.8944
  733.5000    28.1553   -42.8489    15.6594    15.8362    57.3258
  734.0000    26.3545   -46.6525    16.9073    17.2720    51.0501
  734.5000    28.3305   -51.7548    18.6034    18.6322    42.9482
  735.0000    31.5101   -54.3199    21.2461    20.4457    39.1675
  735.5000    33.4831   -54.9219    22.4539    22.2680    35.3869
  736.0000    34.5511   -53.4078    22.6898    23.8461    33.8789
  736.5000    31.3959   -55.3912    22.3014    23.6202    33.8864
  737.0000    22.6600   -55.6678    22.5271    23.0922    34.6528
  737.5000    18.7476   -53.7005    23.0550    22.6398    35.4176
  738.0000    29.0705   -53.2444    23.4320    22.4894    36.1824
  738.5000    35.0217   -52.0331    23.7333    22.0949    36.9472
  739.0000    38.5429   -50.9677    23.4305    21.2071    38.4697
  739.5000    35.9910   -52.5934    21.7230    20.5280    39.9937
  740.0000    35.9728   -55.0448    21.3141    20.0001    41.5161
  740.5000    40.9928   -53.9845    21.4646    19.6231    43.7961
  741.0000    53.0714   -51.8669    21.2371    19.2411    45.3184
  741.5000    54.7427   -50.9576    20.6322    18.6429    46.0833
  742.0000    56.7127   -50.4816    20.1733    18.3413    46.0923
  742.5000    54.3116   -49.2895    19.9508    18.0401    46.0995
  743.0000    53.5696   -48.9845    19.7235    17.8898    46.8643
  743.5000    54.9424   -48.9816    19.4962    17.8150    48.3867
  744.0000    48.6197   -50.7914    19.4201    17.6646    49.9091
  744.5000    41.9955   -50.4864    19.4192    17.5145    49.9181
  745.0000    37.7844   -50.1807    18.8896    17.4397    49.9253
  745.5000    42.0199   -49.7246    18.2846    17.2893    49.9326
  746.0000    28.7591   -48.9664    18.0573    16.8369    49.9398
  746.5000    30.4304   -47.9061    17.9811    16.2259    52.2197
  747.0000    34.2134   -46.5437    17.7538    15.6300    55.2591
  747.5000    36.3372   -45.7855    17.1235    15.2531    57.5390
  748.0000    25.4866   -46.5372    16.1660    15.1026    59.0614
  748.5000    28.0844   -46.8372    16.3919    15.0278    59.0686
  749.0000    28.3911   -45.1719    16.6178    15.1042    59.0759
  749.5000    28.5399   -43.6585    16.8438    15.1050    58.3255
  750.0000    28.5520   -43.2024    16.9184    15.1814    57.5752
  750.5000    27.5084   -43.6520    16.4644    15.1036    57.2628
  751.0000    25.7107   -44.7076    16.0817    15.0262    57.6141
  751.5000    29.7953   -46.0937    16.3811    15.1755    56.8720
  752.0000    35.2374   -46.7829    17.0581    15.4002    55.3783
  752.5000    36.9087   -46.0167    17.1309    15.7760    54.6391
  753.0000    37.0717   -46.9093    16.2966    15.9253    52.3848
  753.5000    34.9723   -47.3515    15.6897    15.9230    51.6456
  754.0000    29.5547   -46.5852    16.1401    15.7701    53.1838
  754.5000    24.8912   -45.9700    16.5906    15.5417    56.2325
  755.0000    21.8267   -46.1102    16.0591    15.1622    58.5237
  755.5000    19.7436   -45.9479    15.2256    14.7072    60.0573
  756.0000    17.6605   -45.6093    14.3869    14.2522    61.5909
  756.5000  -999.2500   -45.0169    14.0865    14.0993    62.3674
  757.0000  -999.2500   -44.4017    14.0837    14.0200    63.9050
  757.5000  -999.2500   -43.7865    14.0810    13.8689    64.6810
  758.0000  -999.2500   -43.3223    14.0027    13.7912    66.2146
  758.5000  -999.2500   -43.3114    13.8490    13.7138    67.7481
  759.0000  -999.2500   -43.4514    13.6952    13.6365    69.2817
  759.5000  -999.2500   -43.4403    13.5394    13.5591    70.0577
  760.0000  -999.2500   -43.4290    13.3749    13.4062    70.8337
  760.5000  -999.2500   -43.2647    13.1576    13.3289    71.6315
