~VERSION INFORMATION
 VERS.                2.0:   CWLS LOG ASCII STANDARD - VERSION 2.0
 WRAP.                 NO:   ONE LINE PER DEPTH STEP
~WELL INFORMATION
#MNEM.UNIT      DATA TYPE    INFORMATION
#----------   ------------   ------------------------------
 STRT.F         1005.5000:   START DEPTH
 STOP.F         2315.0000:   STOP DEPTH
 STEP.F            0.5000:   STEP LENGTH
 NULL.          -999.2500:   NO VALUE
 COMP. LAWRENCE/ALLISON INC:   COMPANY
 WELL.  32 SHX 15 #32 -15:   WELL
 FLD .             TEAPOT:   FIELD
 LOC .      S15 T38N R78W:   LOCATION
 CNTY.            NATRONA:   COUNTY
 STAT.            WYOMING:   STATE
 CTRY. UNITED STATES OF AMERICA:   COUNTRY
 SRVC.            Unknown:   SERVICE COMPANY
 DATE.        10-SEP-1988:   LOGDATE
 API .       490251124500:   API NUMBER
~CURVE INFORMATION
#MNEM.UNIT       API CODE    CURVE DESCRIPTION
#----------   ------------   ------------------------------
 DEPT.F                  :   
 ROP .MIN/FT 91 810 01 00:   RATE OF DRILLING PENETRATION
 TGAS.UNITS  91 830 01 00:   TOTAL GAS FROM HOTWIRE
~PARAMETER INFORMATION
#MNEM.UNIT          VALUE    DESCRIPTION
#----------   ------------   ------------------------------
 EKB .F              5259:   KELLING BUSHING
 EGL .F              5249:   GROUND LEVEL
 DATE.        10-SEP-1988:   RUN DATE
 RUN .                  1:   RUN NUMBER
 DD  .F              2316:   DEPTH DRILLER
 TLI .F              1005:   TOP LOG INTERVAL
 CS  .IN                7:   CASING SIZE
 CBD .F               991:   CASING BOTTOM DRILLER
 ENGI. R. HUSK/D. PETERSON:   RECORDING ENGINEER
 CLNT.            A2DTECH:   CLIENT CODE
 ORIG.           5" PRINT:   ORIGIN OF DATA
 UWI .       490251124500:   UNIQUE WELL ID
 DICO. A2D Technologies, Inc.:   DIGITIZING COMPANY
~OTHER INFORMATION
~A  DEPT         ROP       TGAS 
# ...
 1127.0000     0.3472     4.4939
 1127.5000     0.3476     4.5056
 1128.0000     0.3478     4.5172
 1128.5000     0.3481     4.5289
 1129.0000     0.3377     4.5405
 1129.5000     0.3486     4.5522
 1130.0000     0.3277     4.5638
 1130.5000     0.3174     4.5755
 1131.0000     0.3070     4.5871
 1131.5000     0.3074     4.5988
 1132.0000     0.3076     4.6104
 1132.5000     0.3079     4.6221
 1133.0000     0.3188     4.6337
 1133.5000     0.3190     4.6454
 1134.0000     0.3193     4.6570
 1134.5000     0.3089     4.6687
 1135.0000     0.3092     4.6803
 1135.5000     0.3095     4.6920
 1136.0000     0.3203     4.7036
 1136.5000     0.3523     4.7153
 1137.0000     0.3949     4.7269
 1137.5000     0.4374     4.7386
 1138.0000     0.4482     4.7502
 1138.5000     0.4273     4.7619
 1139.0000     0.4064     4.7735
 1139.5000     0.4067     4.7852
 1140.0000     0.4387     4.7968
 1140.5000     0.4390     4.8085
 1141.0000     0.4393     4.8201
 1141.5000     0.4712     4.8318
 1142.0000     0.4821     4.8434
 1142.5000     0.4400     4.8551
 1143.0000     0.3980     4.8667
 1143.5000     0.3560     4.8784
 1144.0000     0.3245     4.8900
 1144.5000     0.3460     4.9017
 1145.0000     0.3991     4.9142
 1145.5000     0.4311     4.9097
 1146.0000     0.4419     4.9048
 1146.5000     0.4315     4.8998
 1147.0000     0.4106     4.8949
 1147.5000     0.4003     4.8900
 1148.0000     0.3901     4.8850
 1148.5000     0.3692     4.8801
 1149.0000     0.3695     4.8752
 1149.5000     0.3698     4.8702
 1150.0000     0.3700     4.8653
 1150.5000     0.3596     4.8604
 1151.0000     0.3600     4.8555
 1151.5000     0.3602     4.8505
 1152.0000     0.3711     4.8456
 1152.5000     0.4030     4.8407
 1153.0000     0.4139     4.8357
 1153.5000     0.4353     4.8308
 1154.0000     0.4461     4.8259
 1154.5000     0.4464     4.8210
 1155.0000     0.4466     4.8160
 1155.5000     0.4575     4.8111
 1156.0000     0.4471     4.8062
 1156.5000     0.4474     4.8012
 1157.0000     0.4477     4.7963
 1157.5000     0.4373     4.7914
 1158.0000     0.4165     4.7864
 1158.5000     0.4168     4.7815
 1159.0000     0.4064     4.7766
 1159.5000     0.3961     4.7717
 1160.0000     0.3647     4.7667
 1160.5000     0.3544     4.7618
 1161.0000     0.3335     4.7569
 1161.5000     0.3232     4.7519
 1162.0000     0.3235     4.7470
 1162.5000     0.3238     4.7421
 1163.0000     0.3346     4.7372
 1163.5000     0.3560     4.7322
 1164.0000     0.3668     4.7273
 1164.5000     0.4094     4.7224
 1165.0000     0.4202     4.7174
 1165.5000     0.4522     4.7125
 1166.0000     0.4525     4.7076
 1166.5000     0.4527     4.7026
 1167.0000     0.4530     4.6977
 1167.5000     0.4215     4.6928
 1168.0000     0.4112     4.6879
 1168.5000     0.4009     4.6829
 1169.0000     0.4012     4.6780
 1169.5000     0.4120     4.6731
 1170.0000     0.4123     4.6681
 1170.5000     0.4443     4.6632
 1171.0000     0.4551     4.6583
 1171.5000     0.4554     4.6534
 1172.0000     0.4556     4.6484
 1172.5000     0.4241     4.6435
 1173.0000     0.4033     4.6386
 1173.5000     0.3718     4.6336
 1174.0000     0.3404     4.6287
 1174.5000     0.3407     4.6238
 1175.0000     0.3303     4.6188
 1175.5000     0.3200     4.6139
 1176.0000     0.2992     4.6090
 1176.5000     0.2994     4.6041
 1177.0000     0.2997     4.5991
 1177.5000     0.2893     4.5942
 1178.0000     0.2897     4.5893
 1178.5000     0.3005     4.5843
 1179.0000     0.3325     4.5794
 1179.5000     0.3433     4.5745
 1180.0000     0.3753     4.5695
 1180.5000     0.3861     4.5646
 1181.0000     0.4181     4.5597
 1181.5000     0.4289     4.5548
 1182.0000     0.4609     4.5498
 1182.5000     0.4717     4.5449
 1183.0000     0.4931     4.5400
 1183.5000     0.4934     4.5350
 1184.0000     0.4619     4.5301
 1184.5000     0.4305     4.5252
 1185.0000     0.4096     4.5203
 1185.5000     0.3781     4.5153
 1186.0000     0.3785     4.5104
 1186.5000     0.3787     4.5055
 1187.0000     0.3790     4.5005
 1187.5000     0.3793     4.4956
 1188.0000     0.3795     4.4907
 1188.5000     0.3480     4.4857
 1189.0000     0.3377     4.4808
 1189.5000     0.3169     4.4759
 1190.0000     0.3065     4.4710
 1190.5000     0.3069     4.4660
 1191.0000     0.3283     4.4611
 1191.5000     0.3391     4.4562
 1192.0000     0.3499     4.4512
 1192.5000     0.3608     4.4463
 1193.0000     0.3716     4.4414
 1193.5000     0.3507     4.4365
 1194.0000     0.3510     4.4315
 1194.5000     0.3512     4.4266
 1195.0000     0.3515     4.4217
 1195.5000     0.3518     4.4167
 1196.0000     0.3414     4.4118
 1196.5000     0.3417     4.4069
 1197.0000     0.3420     4.4019
 1197.5000     0.3317     4.3970
 1198.0000     0.3107     4.3921
 1198.5000     0.3111     4.3872
 1199.0000     0.3219     4.3822
 1199.5000     0.3433     4.3773
 1200.0000     0.3436     4.3724
 1200.5000     0.3544     4.3674
 1201.0000     0.3547     4.3625
 1201.5000     0.3440     4.3576
 1202.0000     0.3442     4.3527
 1202.5000     0.3444     4.3477
 1203.0000     0.3445     4.3428
 1203.5000     0.3447     4.3336
 1204.0000     0.3660     4.3228
 1204.5000     0.3767     4.3121
 1205.0000     0.3875     4.3013
 1205.5000     0.3876     4.2906
 1206.0000     0.3878     4.2798
 1206.5000     0.3985     4.2691
 1207.0000     0.3881     4.2583
 1207.5000     0.3882     4.2476
 1208.0000     0.3566     4.2368
 1208.5000     0.3462     4.2260
 1209.0000     0.3147     4.2153
 1209.5000     0.3149     4.2045
 1210.0000     0.3256     4.1938
 1210.5000     0.3469     4.1830
 1211.0000     0.3576     4.1723
 1211.5000     0.3895     4.1615
 1212.0000     0.4214     4.1507
 1212.5000     0.4321     4.1400
 1213.0000     0.4746     4.1292
 1213.5000     0.4747     4.1185
 1214.0000     0.4537     4.1077
 1214.5000     0.4433     4.0970
 1215.0000     0.4329     4.0862
 1215.5000     0.4330     4.0755
 1216.0000     0.4015     4.0647
 1216.5000     0.4017     4.0539
 1217.0000     0.3912     4.0432
 1217.5000     0.3914     4.0324
 1218.0000     0.4021     4.0217
 1218.5000     0.4023     4.0109
 1219.0000     0.4236     4.0002
 1219.5000     0.4343     3.9894
 1220.0000     0.4345     3.9787
 1220.5000     0.4452     3.9679
 1221.0000     0.4454     3.9571
 1221.5000     0.4455     3.9464
 1222.0000     0.4457     3.9356
 1222.5000     0.4669     3.9249
 1223.0000     0.4354     3.9141
 1223.5000     0.4039     3.9034
 1224.0000     0.3617     3.8926
 1224.5000     0.3513     3.8819
 1225.0000     0.3938     3.8711
 1225.5000     0.4362     3.8603
 1226.0000     0.4364     3.8496
 1226.5000     0.4365     3.8388
 1227.0000     0.4050     3.8281
 1227.5000     0.3945     3.8173
 1228.0000     0.3630     3.8066
 1228.5000     0.3526     3.7958
 1229.0000     0.3316     3.7851
 1229.5000     0.3212     3.7743
 1230.0000     0.3214     3.7635
 1230.5000     0.3215     3.7528
 1231.0000     0.3428     3.7420
 1231.5000     0.3641     3.7313
 1232.0000     0.3960     3.7205
 1232.5000     0.4173     3.7098
 1233.0000     0.4386     3.6990
 1233.5000     0.4705     3.6882
 1234.0000     0.4812     3.6775
 1234.5000     0.4919     3.6667
 1235.0000     0.4921     3.6560
 1235.5000     0.4923     3.6452
 1236.0000     0.4818     3.6345
 1236.5000     0.4714     3.6237
 1237.0000     0.4399     3.6130
 1237.5000     0.4400     3.6022
 1238.0000     0.4296     3.5914
 1238.5000     0.4298     3.5807
 1239.0000     0.4299     3.5699
 1239.5000     0.4301     3.5592
 1240.0000     0.4091     3.5484
 1240.5000     0.3987     3.5377
 1241.0000     0.3777     3.5269
 1241.5000     0.3567     3.5162
 1242.0000     0.3569     3.5054
 1242.5000     0.3571     3.4946
 1243.0000     0.3678     3.4839
 1243.5000     0.3997     3.4731
 1244.0000     0.4210     3.4624
 1244.5000     0.4528     3.4516
 1245.0000     0.4847     3.4409
 1245.5000     0.4954     3.4301
 1246.0000     0.4956     3.4194
 1246.5000     0.4851     3.4086
 1247.0000     0.4430     3.3978
 1247.5000     0.4009     3.3871
 1248.0000     0.3588     3.3763
