~VERSION INFORMATION
 VERS.                2.0:   CWLS LOG ASCII STANDARD - VERSION 2.0
 WRAP.                 NO:   ONE LINE PER DEPTH STEP
~WELL INFORMATION
#MNEM.UNIT      DATA TYPE    INFORMATION
#----------   ------------   ------------------------------
 STRT.F           30.0000:   START DEPTH
 STOP.F          715.0000:   STOP DEPTH
 STEP.F            0.5000:   STEP LENGTH
 NULL.          -999.2500:   NO VALUE
 COMP. FENIX & SCISSON INC:   COMPANY
 WELL.   NPR-3 #84SX15-15:   WELL
 FLD .             TEAPOT:   FIELD
 LOC .      S15 T38N R78W:   LOCATION
 CNTY.            NATRONA:   COUNTY
 STAT.            WYOMING:   STATE
 CTRY. UNITED STATES OF AMERICA:   COUNTRY
 SRVC.            Unknown:   SERVICE COMPANY
 DATE.        15-MAY-1978:   LOGDATE
 API .       490251064000:   API NUMBER
~CURVE INFORMATION
#MNEM.UNIT       API CODE    CURVE DESCRIPTION
#----------   ------------   ------------------------------
 DEPT.F                  :   
 SPR .MV     05 010 01 00:   SPONTANEOUS POTENTIAL FROM RES.
 SN  .OHMM   05 040 16 00:   SHORT NORMAL 16"
 ILD .OHMM   05 120 46 00:   INDUCTION LOG DEEP
 CALD.IN     45 280 60 00:   CALIPER FROM DENSITY LOG
 GRD .GAPI   45 310 01 00:   GAMMA RAY FROM DENSITY LOG
 CORR.G/C3   45 356 01 00:   DENSITY CORRECTION
 DPHI.DEC    45 890 12 00:   DENSITY POROSITY SANDSTONE
 DEN .G/C3   45 350 01 00:   COMPENSATED BULK DENSITY
~PARAMETER INFORMATION
#MNEM.UNIT          VALUE    DESCRIPTION
#----------   ------------   ------------------------------
 PD  .                 GL:   PERMANENT DATUM
 EPD .F              5247:   ELEVATION PERMANENT DATUM
 LMF .                 KB:   LOG MEASURED FROM
 DMF .                 KB:   DRILLING MEASURED FROM
 EKB .F              5251:   KELLING BUSHING
 EGL .F              5247:   GROUND LEVEL
 DATE.        15-MAY-1978:   RUN DATE
 RUN .                  1:   RUN NUMBER
 DD  .F               725:   DEPTH DRILLER
 DL  .F               720:   DEPTH LOGGER
 BLI .F               713:   BOTTOM LOG INTERVAL
 TLI .F                40:   TOP LOG INTERVAL
 CS  .IN            8.625:   CASING SIZE
 CBD .F                40:   CASING BOTTOM DRILLER
 CBL .F                40:   CASING BOTTOM LOGGER
 BS  .IN            7.875:   BIT SIZE
 BSD .F               725:   BIT SIZE AT DEPTH
 DFT .                KCL:   DRILLING FLUID TYPE
 DFD .                8.6:   DRILLING FLUID DENSITY
 DFV .                 33:   DRILLING FLUID VISCOSITY
 DFPH.                9.5:   DRILLING FLUID PH
 DFL .                 12:   DRILLING FLUID LOSS
 MSS .           FLOWLINE:   MUD SAMPLE SOURCE
 RMS .OHMM             .2:   RESISTIVITY MUD SAMPLE
 MST .F                80:   MUD SAMPLE TEMPERATURE
 RMF .OHMM            .18:   RESISTIVITY MUD FILTRATE SAMPLE
 MFST.F                83:   MUD FILTRATE SAMPLE TEMPERATURE
 RMC .OHMM            .26:   RESISTIVITY MUD CAKE
 MCST.F                83:   MUD CAKE SAMPLE TEMPERATURE
 MFSS.               MEAS:   MUD FILTRATE SAMPLE SOURCE
 RMB .OHMM             .2:   RESISTIVITY MUD AT BHT
 BHT .F                80:   BOTTOM HOLE TEMPERATURE
 TCS .HRS            0200:   TIME CURCULATED STOPPED
 MRT .F                80:   MAXIMUM RECORDED TEMPERATURE
 LUN .               3006:   LOGGING UNIT NUMBER
 LUL .               CASP:   LOGGING UNIT LOCATION
 ENGI.             MILLER:   RECORDING ENGINEER
 WITN.           MCGINLEY:   WITNESSED BY
 CLNT.            A2DTECH:   CLIENT CODE
 ORIG.           5" PRINT:   ORIGIN OF DATA
 UWI .       490251064000:   UNIQUE WELL ID
 DICO. A2D Technologies, Inc.:   DIGITIZING COMPANY
~OTHER INFORMATION
~A   DEPT      SPR         SN        ILD       CALD         GRD      CORR       DPHI        DEN   
# ...
  111.0000   -45.7143     4.6602     4.5790     7.8463    68.9319    -0.0056     0.3466     2.1225
  111.5000   -45.7143     4.1425     4.1541     7.9757    68.3491     0.0061     0.3777     2.0624
  112.0000   -45.7143     3.5572     3.7293     8.0413    73.6848     0.0117     0.4092     1.9983
  112.5000   -45.7143     3.0546     3.2070     8.1124    82.9618     0.0133     0.4362     1.9407
  113.0000   -45.2632     2.8303     2.5192     8.1674    90.0991     0.0162     0.4517     1.8870
  113.5000   -44.6617     2.5333     1.9941     8.2126    93.1699     0.0342     0.4607     1.8459
  114.0000   -43.4586     2.2364     1.6706     8.2508    91.9990     0.0639     0.4676     1.8049
  114.5000   -41.6541     2.1451     1.6156     8.2956    89.3266     0.2039     0.4554     1.8583
  115.0000   -40.6015     2.1746     1.6744     8.3891    86.1412     0.2084     0.3215     2.0052
  115.5000   -40.3008     2.2505     1.7966     8.4077    81.3541     0.0941     0.2263     2.2598
  116.0000   -40.3008     2.3945     2.0691     8.2971    73.0511     0.0249     0.1682     2.3984
  116.5000   -40.3008     2.5654     2.6597     8.1352    68.2891     0.0308     0.1565     2.4124
  117.0000   -40.4511     2.6551     2.9141     7.9408    66.7156     0.0518     0.1590     2.4135
  117.5000   -40.4511     3.1774     3.4098     7.6372    67.1530     0.0578     0.1627     2.4085
  118.0000   -40.4511     3.8288     5.0048     7.4072    68.4914     0.0435     0.1681     2.3960
  118.5000   -40.4511     4.5819     6.1691     7.2275    69.6796     0.0290     0.1750     2.3779
  119.0000   -40.4523     5.4079     7.4216     7.2109    67.5646     0.0213     0.1823     2.3659
  119.5000   -40.5588     5.9153     8.3390     7.2093    64.0100     0.0154     0.1864     2.3636
  120.0000   -40.6652     6.2505     9.6053     7.2077    61.9319     0.0125     0.1907     2.3665
  120.5000   -40.7716     6.6046     9.1070     7.2061    61.3695     0.0109     0.1973     2.3507
  121.0000   -40.8781     6.8358     8.2073     7.2196    61.7548     0.0049     0.2077     2.3356
  121.5000   -40.7519     6.8341     7.3965     7.2649    62.4607     0.0048     0.2208     2.3236
  122.0000   -40.9023     6.7388     6.7586     7.3257    63.8799     0.0048     0.2343     2.3113
  122.5000   -40.7519     6.6449     6.2618     7.3865    66.3251     0.0153     0.2382     2.2962
  123.0000   -40.9023     6.1145     5.6431     7.4474    69.6586     0.0348     0.2382     2.2859
  123.5000   -40.7519     5.5877     5.0856     7.5109    76.4707     0.0498     0.2133     2.3039
  124.0000   -40.7519     5.0711     4.7272     7.5841    83.4330     0.0542     0.1876     2.3406
  124.5000   -40.2773     4.7641     4.6343     7.6565    84.1264     0.0527     0.1694     2.3735
  125.0000   -39.1979     4.6977     4.6979     7.7510    79.0390     0.0406     0.1575     2.3960
  125.5000   -37.6913     4.7952     4.8067     7.8118    72.4877     0.0345     0.1637     2.4052
  126.0000   -36.1844     5.1020     5.1857     7.8727    68.2638     0.0345     0.1672     2.4033
  126.5000   -35.4887     5.6194     5.9016     7.9214    66.9677     0.0390     0.1659     2.3997
  127.0000   -35.4887     6.1893     6.3513     7.9510    66.9980     0.0434     0.1640     2.3998
  127.5000   -35.1880     6.3616     6.9388     7.9805    67.3536     0.0464     0.1676     2.3982
  128.0000   -34.7368     6.8156     8.2449     8.0101    67.5841     0.0388     0.1744     2.3901
  128.5000   -34.1353     7.2018     9.3911     7.9980    67.6081     0.0298     0.1796     2.3811
  129.0000   -33.5338     7.5053     9.6271     7.9673    68.0429     0.0282     0.1834     2.3708
  129.5000   -32.7820     7.8216     9.6250     7.9405    68.1801     0.0282     0.1870     2.3648
  130.0000   -32.0301     7.8746     9.7566     7.9076    64.1130     0.0281     0.1864     2.3647
  130.5000   -31.4286     7.9276     9.7546     7.8535    64.2502     0.0281     0.1862     2.3624
  131.0000   -30.8271     8.0917     9.8208     7.7894    66.6396     0.0280     0.1916     2.3586
  131.5000   -30.2256     8.4327    10.4487     7.7252    69.1792     0.0295     0.1917     2.3555
  132.0000   -29.9248     8.7276    10.8890     7.6045    67.4134     0.0294     0.1903     2.3555
  132.5000   -29.9248     9.0327    11.1921     7.4824    66.2237     0.0279     0.1921     2.3554
  133.0000   -29.9248     9.2201    11.4243     7.3754    65.6096     0.0263     0.1944     2.3538
  133.5000   -29.9248     9.0916    11.5018     7.2835    64.8140     0.0158     0.1968     2.3523
  134.0000   -29.9248     9.0897    11.4988     7.2066    62.6546     0.0157     0.1928     2.3527
  134.5000   -29.9248     9.1509    11.6565     7.0992    61.2773     0.0157     0.1865     2.3578
  135.0000   -29.9248     9.2129    11.7356     7.0188    62.8278     0.0202     0.1809     2.3661
  135.5000   -29.9248     9.3643    11.8145     6.9294    64.2095     0.0216     0.1845     2.3724
  136.0000   -29.9248     9.5331    12.0591     6.9139    65.1031     0.0216     0.1929     2.3603
  136.5000   -29.9248     9.5972    12.1408     6.9099    65.5088     0.0185     0.1965     2.3550
  137.0000   -29.9248     9.5951    12.3067     6.8868    65.5766     0.0200     0.1953     2.3558
  137.5000   -29.9248     9.5931    12.8254     6.8348    65.8071     0.0214     0.1941     2.3589
  138.0000   -29.9248     9.5911    13.5520     6.7707    65.6497     0.0274     0.1930     2.3606
  138.5000   -29.9248     9.5891    14.4192     6.7340    65.1044     0.0322     0.1927     2.3601
  139.0000   -29.9248     9.5871    14.8205     6.7739    64.8218     0.0336     0.1913     2.3603
  139.5000   -29.9248     9.5852    15.1280     6.8462    64.5455     0.0348     0.1858     2.3633
  140.0000   -29.9248     9.5832    15.3363     6.9257    64.6697     0.0345     0.1898     2.3635
  140.5000   -29.9248     9.5897    15.7623     6.9934    65.6822     0.0330     0.1945     2.3580
  141.0000   -29.9248     9.6458    15.9793     7.0847    67.1180     0.0271     0.1957     2.3557
  141.5000   -29.9248     9.6436    16.0869     7.2402    67.8557     0.0271     0.1936     2.3565
  142.0000   -29.9248     9.5752    15.9719     7.4246    66.9419     0.0331     0.1849     2.3667
  142.5000   -29.9248     9.5733    15.9686     7.5311    66.3283     0.0421     0.1745     2.3843
  143.0000   -29.9248     9.5713    15.8553     7.5630    66.4655     0.0555     0.1704     2.3931
  143.5000   -29.9248     9.5693    15.7427     7.5872    67.0838     0.0630     0.1672     2.3972
  144.0000   -29.9248     9.5673    15.5233     7.6060    67.8774     0.0675     0.1642     2.4023
  144.5000   -29.9183     9.5654    15.0967     7.6427    68.9400     0.0689     0.1619     2.4054
  145.0000   -29.8889     9.6341    14.7837     7.6640    69.8398     0.0704     0.1621     2.4077
  145.5000   -29.8595     9.7618    14.4772     7.6655    70.5145     0.0673     0.1676     2.3999
  146.0000   -29.8300     9.8311    14.3744     7.4829    70.5886     0.0568     0.1759     2.3901
  146.5000   -29.8006     9.9623    14.2724     7.4211    69.9494     0.0462     0.1798     2.3780
  147.0000   -29.7712    10.0989    14.2525     7.5400    69.3103     0.0416     0.1774     2.3809
  147.5000   -29.7418    10.0968    14.1961     7.5986    68.6712     0.0386     0.1756     2.3869
  148.0000   -29.7124    10.0947    14.1397     7.3550    67.9695     0.0400     0.1801     2.3816
  148.5000   -29.6830    10.1626    14.0832     7.2942    67.2427     0.0430     0.1850     2.3688
  149.0000   -29.6536    10.2310    14.0621     7.3515    66.6036     0.0429     0.1866     2.3627
  149.5000   -29.6241    10.2999    14.0592     7.4868    66.6151     0.0429     0.1884     2.3597
  150.0000   -30.0752    10.2977    14.0639     7.4398    68.7162     0.0383     0.1920     2.3582
  150.5000   -30.5263    10.2090    14.1054     7.3474    70.3919     0.0374     0.1938     2.3557
  151.0000   -31.2782    10.1202    14.1540     7.2713    69.5025     0.0350     0.1971     2.3537
