~VERSION INFORMATION
 VERS.                2.0:   CWLS LOG ASCII STANDARD - VERSION 2.0
 WRAP.                 NO:   ONE LINE PER DEPTH STEP
~WELL INFORMATION
#MNEM.UNIT      DATA TYPE    INFORMATION
#----------   ------------   ------------------------------
 STRT.F            0.0000:   START DEPTH
 STOP.F          700.0000:   STOP DEPTH
 STEP.F            0.5000:   STEP LENGTH
 NULL.          -999.2500:   NO VALUE
 COMP. FENIX & SCISSON INC:   COMPANY
 WELL. 37-11 SX 11 WP #11-11:   WELL
 FLD .             TEAPOT:   FIELD
 LOC .      S11 T38N R78W:   LOCATION
 CNTY.            NATRONA:   COUNTY
 STAT.            WYOMING:   STATE
 CTRY. UNITED STATES OF AMERICA:   COUNTRY
 SRVC.      Dresser Atlas:   SERVICE COMPANY
 DATE.        21-AUG-1980:   LOGDATE
 API .       490251084200:   API NUMBER
~CURVE INFORMATION
#MNEM.UNIT       API CODE    CURVE DESCRIPTION
#----------   ------------   ------------------------------
 DEPT.F                  :   
 SPR .MV     07 010 01 00:   SPONTANEOUS POTENTIAL
 RFOC.OHMM   07 220 04 00:   RESISTIVITY FOCUSED LOG
 RILD.OHMM   07 120 46 00:   INDUCTION LOG DEEP RESISTIVITY
 RILM.OHMM   07 120 44 00:   INDUCTION LOG MEDIUM RESISTIVITY
 GRD .GAPI   45 310 01 00:   GAMMA RAY FROM DENSITY LOG
 CALD.IN     45 280 60 00:   CALIPER
 RHOB.G/C3   45 350 01 00:   BULK DENSITY
 CORR.G/C3   45 356 01 00:   DENSITY CORRECTION
 CNC .DEC    42 890 03 00:   NEUTRON POROSITY SANDSTONE
 PORD.DEC    45 890 12 00:   POROSITY DENSITY SANDSTONE
~PARAMETER INFORMATION
#MNEM.UNIT          VALUE    DESCRIPTION
#----------   ------------   ------------------------------
 PD  .                 GL:   PERMANENT DATUM
 EPD .F              5194:   ELEVATION PERMANENT DATUM
 LMF .                 KB:   LOG MEASURED FROM
 DAPD.F                 5:   FEET ABOVE PERMANENT DATUM
 DMF .                 KB:   DRILLING MEASURED FROM
 EKB .F              5199:   KELLING BUSHING
 EDF .F              5198:   DRILLING FLOOR
 EGL .F              5194:   GROUND LEVEL
 DATE.            8-21-80:   RUN DATE
 RUN .                  1:   RUN NUMBER
 DD  .F               695:   DEPTH DRILLER
 DL  .F               700:   DEPTH LOGGER
 BLI .F               699:   BOTTOM LOG INTERVAL
 BS  .IN            7.875:   BIT SIZE
 BSD .F               695:   BIT SIZE AT DEPTH
 DFT .      DISPERSED KCL:   DRILLING FLUID TYPE
 DFD .               2.68:   DRILLING FLUID DENSITY
 DFV .                 50:   DRILLING FLUID VISCOSITY
 DFPH.                 14:   DRILLING FLUID PH
 DFL .                 18:   DRILLING FLUID LOSS
 MSS .           FLOWLINE:   MUD SAMPLE SOURCE
 RMS .OHMM           .256:   RESISTIVITY MUD SAMPLE
 MST .F                70:   MUD SAMPLE TEMPERATURE
 RMF .OHMM           .393:   RESISTIVITY MUD FILTRATE SAMPLE
 MFST.F                66:   MUD FILTRATE SAMPLE TEMPERATURE
 RMC .OHMM           .858:   RESISTIVITY MUD CAKE
 MCST.F                66:   MUD CAKE SAMPLE TEMPERATURE
 MFSS.               MEAS:   MUD FILTRATE SAMPLE SOURCE
 MCSS.               MEAS:   MUD CAKE SAMPLE SOURCE
 RMB .OHMM            .53:   RESISTIVITY MUD AT BHT
 BHT .F                99:   BOTTOM HOLE TEMPERATURE
 TCS .HRS               3:   TIME CURCULATED STOPPED
 MRT .F                99:   MAXIMUM RECORDED TEMPERATURE
 LUN .               9369:   LOGGING UNIT NUMBER
 LUL .       ROCK SPRINGS:   LOGGING UNIT LOCATION
 ENGI.            PAULSON:   RECORDING ENGINEER
 WITN.              SCOTT:   WITNESSED BY
 CLNT.            A2DTECH:   CLIENT CODE
 ORIG.       2", 5" PRINT:   ORIGIN OF DATA
 UWI .       490251084200:   UNIQUE WELL ID
 DICO. A2D Technologies, Inc.:   DIGITIZING COMPANY
~OTHER INFORMATION
~A    DEPT     SPR       RFOC       RILD       RILM        GRD       CALD       RHOB       CORR        CNC         PORD 
# ...
  402.0000   -90.1803     7.3822     6.8248     7.0557   101.0288     8.0262     2.5429     0.0684     0.2704     0.1121
  402.5000   -89.4165     7.4270     6.8605     7.0779    98.8877     8.0262     2.5506     0.0729     0.2819     0.1013
  403.0000   -88.9274     7.4722     6.9106     7.1551    96.6105     8.0262     2.5210     0.0692     0.2978     0.0984
  403.5000   -89.4207     7.5370     6.9859     7.2370    94.6833     8.0262     2.4958     0.0578     0.2949     0.1018
  404.0000   -89.9364     7.6081     7.0774     7.3198    94.9083     8.0262     2.4920     0.0502     0.2860     0.1062
  404.5000   -90.4537     7.6798     7.0500     7.4036    97.4286     8.0262     2.5041     0.0537     0.2715     0.1066
  405.0000   -90.9384     7.7523     7.0158     7.4883    99.5646     8.0262     2.5122     0.0569     0.2688     0.1065
  405.5000   -91.1472     7.8254     6.9819     7.5740    98.7120     8.0262     2.5052     0.0590     0.2835     0.1039
  406.0000   -91.3589     7.8381     6.9481     7.6225    96.2126     8.0262     2.4996     0.0533     0.2962     0.1011
  406.5000   -91.3740     7.8663     6.9144     7.5000    93.7413     8.0262     2.5001     0.0511     0.2907     0.1094
  407.0000   -91.3319     7.9122     6.8832     7.4160    92.0652     8.0262     2.5004     0.0553     0.2851     0.1185
  407.5000   -90.6308     7.9106     6.8488     7.3328    91.8159     8.0262     2.5033     0.0593     0.2838     0.1189
  408.0000   -88.5481     7.7231     6.8167     7.2508    92.2961     8.0262     2.5069     0.0577     0.2797     0.1073
  408.5000   -85.5825     7.5533     6.7848     7.1984    94.0386     8.0262     2.4963     0.0484     0.2707     0.0983
  409.0000   -83.7037     7.3872     6.7530     7.1762    96.0110     8.0262     2.4809     0.0424     0.2648     0.1019
  409.5000   -83.2379     7.2702     6.7214     7.1537    98.0971     8.0262     2.4809     0.0503     0.2659     0.1076
  410.0000   -83.6265     7.2489     6.6943     7.1314    98.1027     8.0262     2.4966     0.0626     0.2702     0.1109
  410.5000   -84.6004     7.2275     6.6976     7.1091    98.5704     8.0262     2.5102     0.0755     0.2756     0.1342
  411.0000   -85.8757     7.2093     6.7201     7.0869    98.4272     8.0262     2.5048     0.0731     0.2732     0.1476
  411.5000   -87.3489     7.2588     6.7427     7.0022    97.8553     8.0262     2.4967     0.0667     0.2651     0.1388
  412.0000   -88.8246     7.3229     6.7566     6.8719    97.3991     8.0262     2.4878     0.0589     0.2617     0.1206
  412.5000   -90.2103     7.3876     6.4511     6.7081    97.2657     8.0262     2.4622     0.0452     0.2805     0.1109
  413.0000   -91.5810     7.4133     6.2382     6.4340    97.1294     8.0262     2.4279     0.0341     0.2997     0.1108
  413.5000   -92.9286     7.3689     6.0314     6.1711    96.7659     8.0262     2.4450     0.0429     0.2990     0.1134
  414.0000   -94.7913     7.3449     5.7990     5.9189    95.6622     8.0262     2.4773     0.0520     0.2865     0.1194
  414.5000   -96.6892     7.0503     5.4571     5.5522    93.3418     8.0262     2.4929     0.0600     0.2580     0.1289
  415.0000   -98.6667     6.7771     5.1429     5.1858    92.6999     8.0262     2.4912     0.0597     0.2538     0.1330
  415.5000   -99.8434     6.5145     4.6667     4.7017    93.3814     8.0262     2.4852     0.0589     0.2752     0.1425
  416.0000   -99.7103     6.2834     4.0685     4.0792    93.2903     8.0262     2.4736     0.0536     0.2986     0.1627
  416.5000   -96.0251     6.1137     3.5469     3.4785    93.7312     8.0271     2.4565     0.0517     0.3449     0.1859
  417.0000   -90.1431     5.9338     3.0922     2.9703    96.5594     8.0285     2.4503     0.0516     0.3523     0.1923
  417.5000   -83.1236     5.6057     2.6958     2.5045    98.7133     8.0300     2.4317     0.0494     0.3553     0.2209
  418.0000   -76.6283     4.9280     2.3949     2.2861    97.6310     8.0314     2.4065     0.0397     0.3714     0.2540
  418.5000   -74.5589     4.2237     2.2584     2.0804    96.4382     8.0329     2.3739     0.0318     0.3795     0.2704
  419.0000   -73.6908     3.6201     2.1297     2.0804    97.0561     8.0343     2.3411     0.0370     0.3683     0.2675
  419.5000   -72.5130     3.1028     2.0998     2.1800    97.6133     8.0358     2.2986     0.0270     0.3574     0.2417
  420.0000   -71.2368     2.8783     2.1506     2.2567    94.5956     8.0372     2.2523     0.0157     0.3540     0.2221
  420.5000   -71.5003     3.3514     2.2044     2.3361    89.1596     8.0386     2.2233     0.0093     0.3480     0.2034
  421.0000   -72.9600     3.9142     2.2596     2.5407    87.3862     8.0401     2.2487     0.0044     0.3441     0.1883
  421.5000   -75.3119     4.2889     2.3681     2.8570    87.1827     8.0415     2.2818    -0.0004     0.3118     0.1637
  422.0000   -77.8481     3.6295     2.7075     3.2127    86.6007     8.0430     2.3129    -0.0014     0.2865     0.1391
  422.5000   -79.1617     3.5959     3.0920     3.6127    86.0215     8.0444     2.3399     0.0060     0.2640     0.1073
  423.0000   -76.9782     5.1391     3.5322     4.0279    87.7235     8.0459     2.3698     0.0183     0.2640     0.1016
  423.5000   -72.5105     6.5945     3.9189     4.3820    90.0325     8.0457     2.4164     0.0237     0.2761     0.1078
  424.0000   -68.0640     7.0774     4.2821     4.7621    92.3167     8.0447     2.4637     0.0270     0.2836     0.1154
  424.5000   -65.7599     6.9159     4.6796     5.0214    95.6207     8.0436     2.5083     0.0372     0.2860     0.1130
  425.0000   -66.0023     6.7904     5.0687     5.2842    98.8743     8.0426     2.5074     0.0372     0.2903     0.1080
  425.5000   -65.9848     6.6307     5.2413     5.5095   101.0531     8.0415     2.4921     0.0344     0.2998     0.0960
  426.0000   -63.6162     6.6641     5.4113     5.5608   102.2987     8.0405     2.4834     0.0315     0.3063     0.0952
  426.5000   -61.0442     6.7776     5.3202     5.4896   103.5129     8.0394     2.4921     0.0302     0.3111     0.1032
  427.0000   -59.6657     7.1302     5.0638     5.2804   104.7727     8.0384     2.5104     0.0344     0.3027     0.1081
  427.5000   -59.5315     7.5780     4.8197     5.0793   106.0662     8.0373     2.5188     0.0386     0.2910     0.1284
  428.0000   -60.1415     8.0605     4.5874     4.8858   106.3193     8.0363     2.5166     0.0385     0.2797     0.1444
  428.5000   -60.7457     8.1378     4.4289     4.6996   106.6828     8.0352     2.4978     0.0359     0.2862     0.1492
  429.0000   -61.3459     6.4123     4.3209     4.5206   107.5714     8.0342     2.4713     0.0263     0.2925     0.1365
  429.5000   -61.9463     5.4082     4.2154     4.4099   108.1429     8.0332     2.4439     0.0211     0.2948     0.1239
  430.0000   -62.5231     5.3583     4.1126     4.3033   108.6179     8.0321     2.4284     0.0294     0.2992     0.1121
  430.5000   -63.0670     5.8248     4.0946     4.2889   110.3478     8.0311     2.4431     0.0458     0.3002     0.1143
  431.0000   -63.6078     5.7131     4.0946     4.4780   112.2313     8.0300     2.4622     0.0625     0.2926     0.1157
  431.5000   -64.1538     5.6126     4.1327     4.6692   112.6082     8.0290     2.4849     0.0757     0.2990     0.1142
  432.0000   -65.0203     5.9958     4.3426     4.8686   109.2169     8.0279     2.4898     0.0831     0.3186     0.1151
  432.5000   -65.8752     6.5106     4.5512     5.0764   103.5997     8.0269     2.4868     0.0735     0.3057     0.1208
  433.0000   -66.7271     6.4275     4.7699     5.2932    98.8581     8.0262     2.4866     0.0639     0.2850     0.1222
  433.5000   -67.5788     6.2734     4.9991     5.5192    94.7051     8.0262     2.4882     0.0622     0.2752     0.1132
  434.0000   -68.4207     6.5122     5.2394     5.7549    92.6422     8.0262     2.4808     0.0613     0.2756     0.1004
  434.5000   -69.1052     6.8653     5.4916     6.0007    94.8462     8.0262     2.4736     0.0572     0.3081     0.1008
  435.0000   -69.3917     7.2375     5.7537     6.2572    98.6062     8.0262     2.4746     0.0530     0.3223     0.1057
