~VERSION INFORMATION
 VERS.                2.0:   CWLS LOG ASCII STANDARD - VERSION 2.0
 WRAP.                 NO:   ONE LINE PER DEPTH STEP
~WELL INFORMATION
#MNEM.UNIT      DATA TYPE    INFORMATION
#----------   ------------   ------------------------------
 STRT.F           36.0000:   START DEPTH
 STOP.F          521.0000:   STOP DEPTH
 STEP.F            0.5000:   STEP LENGTH
 NULL.          -999.2500:   NO VALUE
 COMP. FENIX & SCISSON INC:   COMPANY
 WELL.        NPR-3 #36-3:   WELL
 FLD .             TEAPOT:   FIELD
 LOC .       S3 T38N R78W:   LOCATION
 CNTY.            NATRONA:   COUNTY
 STAT.            WYOMING:   STATE
 CTRY. UNITED STATES OF AMERICA:   COUNTRY
 SRVC.            Unknown:   SERVICE COMPANY
 DATE.        09-JUL-1978:   LOGDATE
 API .       490251066200:   API NUMBER
~CURVE INFORMATION
#MNEM.UNIT       API CODE    CURVE DESCRIPTION
#----------   ------------   ------------------------------
 DEPT.F                  :   
 CALD.IN     45 280 60 00:   CALIPER FROM DENSITY LOG
 GRD .GAPI   45 310 01 00:   GAMMA RAY FROM DENSITY LOG
 CORR.G/C3   45 356 01 00:   DENSITY CORRECTION
 DPHI.DEC    45 890 12 00:   DENSITY POROSITY SANDSTONE
 RHOB.G/C3   45 350 01 00:   BULK DENSITY
 SPR .MV     07 010 01 00:   SPONTANEOUS POTENTIAL
 ILD .OHMM   07 120 46 00:   INDUCTION LOG DEEP
 SN  .OHMM   07 040 16 00:   SHORT NORMAL 16"
~PARAMETER INFORMATION
#MNEM.UNIT          VALUE    DESCRIPTION
#----------   ------------   ------------------------------
 PD  .                 GL:   PERMANENT DATUM
 EPD .F              5216:   ELEVATION PERMANENT DATUM
 LMF .                 KB:   LOG MEASURED FROM
 DAPD.F                 4:   FEET ABOVE PERMANENT DATUM
 DMF .                 KB:   DRILLING MEASURED FROM
 EKB .F              5220:   KELLING BUSHING
 EGL .F              5216:   GROUND LEVEL
 DATE.        09-JUL-1978:   RUN DATE
 RUN .                  1:   RUN NUMBER
 DD  .F               520:   DEPTH DRILLER
 DL  .F               524:   DEPTH LOGGER
 BLI .F               519:   BOTTOM LOG INTERVAL
 TLI .F                50:   TOP LOG INTERVAL
 CS  .IN            8.625:   CASING SIZE
 CBD .F                40:   CASING BOTTOM DRILLER
 BS  .IN            7.875:   BIT SIZE
 BSD .F               520:   BIT SIZE AT DEPTH
 DFT .                KCL:   DRILLING FLUID TYPE
 DFD .                8.6:   DRILLING FLUID DENSITY
 DFV .                 32:   DRILLING FLUID VISCOSITY
 DFPH.                9.5:   DRILLING FLUID PH
 DFL .               14.4:   DRILLING FLUID LOSS
 MSS .           FLOWLINE:   MUD SAMPLE SOURCE
 RMS .OHMM           0.24:   RESISTIVITY MUD SAMPLE
 MST .F                70:   MUD SAMPLE TEMPERATURE
 RMF .OHMM           0.24:   RESISTIVITY MUD FILTRATE SAMPLE
 MFST.F                70:   MUD FILTRATE SAMPLE TEMPERATURE
 RMC .OHMM           0.42:   RESISTIVITY MUD CAKE
 MCST.F                72:   MUD CAKE SAMPLE TEMPERATURE
 MFSS.               MEAS:   MUD FILTRATE SAMPLE SOURCE
 BHT .F                80:   BOTTOM HOLE TEMPERATURE
 TCS .HRS               3:   TIME CURCULATED STOPPED
 MRT .F                80:   MAXIMUM RECORDED TEMPERATURE
 LUN .               2958:   LOGGING UNIT NUMBER
 LUL .               CASP:   LOGGING UNIT LOCATION
 ENGI.             MILLER:   RECORDING ENGINEER
 WITN.           MCGINLEY:   WITNESSED BY
 CLNT.            A2DTECH:   CLIENT CODE
 ORIG.           5" PRINT:   ORIGIN OF DATA
 UWI .       490251066200:   UNIQUE WELL ID
 DICO. A2D Technologies, Inc.:   DIGITIZING COMPANY
~OTHER INFORMATION
~A   DEPT     CALD        GRD       CORR       DPHI       RHOB        SPR        ILD         SN   
# ...
  157.5000     7.2638    79.7156     0.0216     0.1246     2.4797   -16.6619    13.3085    13.2362
  158.0000     7.5777    81.6641     0.0232     0.1216     2.4820   -16.6804    13.4910    13.5105
  158.5000     7.6978    84.3555     0.0307     0.1135     2.4903   -16.6989    13.6760    13.6962
  159.0000     7.9967    84.8115     0.0442     0.1141     2.4933   -16.5672    13.6726    13.7869
  159.5000     8.0723    84.8203     0.0428     0.1161     2.4934   -16.4401    13.6699    13.7831
  160.0000     8.0879    84.6780     0.0413     0.1224     2.4922   -16.4586    13.2947    13.6836
  160.5000     8.0888    81.7084     0.0414     0.1286     2.4775   -16.4771    12.9297    13.3987
  161.0000     8.0424    79.4818     0.0478     0.1301     2.4678   -16.4956    12.4882    12.8500
  161.5000     7.9119    78.1494     0.0614     0.1313     2.4764   -16.3685    11.1784    12.1542
  162.0000     7.8383    79.9466     0.0610     0.1220     2.4817   -16.3870    10.7967    11.5547
  162.5000     7.8241    79.8063     0.0565     0.1205     2.4824   -16.4054    10.7945    10.9486
  163.0000     7.7951    79.9643     0.0521     0.1201     2.4832   -16.4239    10.7924    10.8701
  163.5000     7.7811    81.7616     0.0461     0.1324     2.4691   -16.4430    10.7903    10.8673
  164.0000     7.7375    82.8137     0.0357     0.1291     2.4781   -16.4655    10.7876    10.8644
  164.5000     7.7384    80.6890     0.0298     0.1362     2.4632   -16.4840    10.7855    10.8614
  165.0000     7.5604    78.3308     0.0253     0.1290     2.4610   -16.5024    10.7833    10.8579
  165.5000     7.5015    77.1770     0.0298     0.1272     2.4715   -16.5210    10.7812    10.8551
  166.0000     7.5473    78.7541     0.0359     0.1251     2.4783   -16.5440    10.7049    10.8522
  166.5000     7.5482    80.0264     0.0284     0.1316     2.4664   -16.7126    10.6290    10.7745
  167.0000     7.4895    78.2491     0.0240     0.1355     2.4619   -16.7311    10.6264    10.6776
  167.5000     7.3711    75.4263     0.0210     0.1331     2.4605   -16.7496    10.5512    10.0476
  168.0000     7.3720    74.2429     0.0226     0.1292     2.4702   -16.7726    10.5491     9.7031
  168.5000     7.3729    74.1006     0.0226     0.1309     2.4726   -16.7911    10.4744     9.7006
  169.0000     7.3585    78.2845     0.0227     0.1348     2.4606   -16.8096    10.4722     9.8333
  169.5000     7.3150    79.3366     0.0227     0.1345     2.4614   -16.9782    10.4697     9.9770
  170.0000     7.2692    80.6867     0.0243     0.1470     2.4553   -17.1471    10.4677    10.1041
  170.5000     7.2246    83.8252     0.0243     0.1500     2.4374   -17.3201    10.4656    10.1716
  171.0000     7.1985    84.7261     0.0243     0.1508     2.4399   -17.3386    10.4635    10.2390
  171.5000     7.2145    82.6507     0.0244     0.1541     2.4279   -17.5072    10.4614    10.2362
  172.0000     7.2153    80.8712     0.0244     0.1606     2.4213   -17.5256    10.3153    10.2335
  172.5000     7.2162    81.1781     0.0245     0.1582     2.4250   -17.5487    10.1718    10.2302
  173.0000     7.2171    78.9515     0.0260     0.1615     2.4169   -17.5672    10.0997    10.2275
  173.5000     7.2029    78.5111     0.0261     0.1575     2.4259   -17.5857    10.0282    10.2248
  174.0000     7.2189    80.0125     0.0245     0.1498     2.4386   -17.6042    10.0188    10.1515
  174.5000     7.2794    80.6174     0.0168     0.1551     2.4282   -17.6231     9.9547     9.7267
  175.0000     7.5187    80.6263     0.0127     0.1572     2.4238   -17.6457     9.8162     9.2081
  175.5000     7.7580    80.6352     0.0188     0.1485     2.4418   -17.6642     9.6795     9.0164
  176.0000     7.9229    80.7931     0.0263     0.1383     2.4493   -17.8328     9.4791     9.0772
  176.5000     8.0132    81.6961     0.0323     0.1353     2.4598   -18.0035     9.4120     9.0742
  177.0000     8.0587    81.8540     0.0369     0.1338     2.4643   -18.1747     9.3448     9.1349
  177.5000     8.0447    82.0119     0.0339     0.1320     2.4629   -18.3433     9.3430     9.1959
  178.0000     8.0456    81.8717     0.0355     0.1400     2.4532   -18.3618     9.2130     9.1929
  178.5000     8.0465    79.1312     0.0415     0.1448     2.4458   -18.3802     9.1477     9.1905
  179.0000     8.0474    77.8656     0.0490     0.1349     2.4503   -18.3994     8.9538     8.9991
  179.5000     8.0483    77.8748     0.0521     0.1352     2.4742   -18.4218     8.7723     8.8647
  180.0000     8.0640    78.4817     0.0446     0.1420     2.4810   -18.5904     8.7102     8.7481
  180.5000     8.0500    82.9614     0.0252     0.1459     2.4631   -19.0594     8.7085     8.6854
  181.0000     8.0360    83.8645     0.0177     0.1471     2.4400   -19.3783     8.8279     8.7441
  181.5000     7.9626    84.0224     0.0223     0.1410     2.4498   -19.5514     9.0145     8.9247
  182.0000     7.7548    83.1371     0.0208     0.1401     2.4588   -19.5698     9.1975     9.1729
  182.5000     7.6812    78.6750     0.0179     0.1389     2.4588   -19.5883     9.1957     9.0444
  183.0000     7.6371    76.2993     0.0133     0.1417     2.4556   -19.6068     9.3223     9.2953
  183.5000     7.6382    74.8179     0.0060     0.1392     2.4447   -19.7800     9.3200     9.3581
  184.0000     7.6391    75.5719    -0.0017     0.1433     2.4485   -19.7985     9.1244     9.0994
  184.5000     7.6400    77.9653     0.0091     0.1478     2.4463   -19.8170     8.9375     8.9017
  185.0000     7.6409    80.2096     0.0091     0.1552     2.4344   -19.8354     8.8131     8.7239
  185.5000     7.6418    80.0672     0.0032     0.1609     2.4232   -19.8543     8.6306     8.7216
  186.0000     7.6576    82.0157     0.0032     0.1555     2.4248   -19.8770     8.3359     8.7193
  186.5000     7.7628    82.1736     0.0138     0.1507     2.4338   -19.8955     7.9958     8.7776
  187.0000     7.7636    83.2257     0.0078     0.1522     2.4390   -19.7592     7.9388     8.8362
  187.5000     7.7645    84.2778     0.0032     0.1599     2.4212   -19.4820     7.9372     8.8953
  188.0000     7.7662    84.5825     0.0004     0.1661     2.4107   -19.5051     7.9910     8.9547
  188.5000     7.8408    81.6129     0.0039     0.1631     2.4115   -19.5235     8.1564     8.8900
  189.0000     7.8417    78.4921     0.0200     0.1538     2.4310   -19.5420     8.2687     8.8877
  189.5000     7.8428    77.9046     0.0200     0.1473     2.4415   -19.7106     8.3817     8.8852
  190.0000     7.8437    78.0627     0.0216     0.1356     2.4535   -19.7297     8.4381     8.9447
  190.5000     7.8446    79.7109     0.0246     0.1365     2.4573   -19.7522     8.4360     8.8800
  191.0000     7.8454    81.0641     0.0246     0.1415     2.4506   -19.7707     8.4933     8.8777
  191.5000     7.8612    82.4243     0.0262     0.1427     2.4499   -19.7892     8.6093     8.8754
  192.0000     7.8770    83.0162     0.0247     0.1371     2.4575   -19.8078     8.6673     8.8729
  192.5000     7.8928    82.4290     0.0188     0.1334     2.4627   -19.8307     8.6055     8.9323
  193.0000     7.8937    82.2888     0.0129     0.1402     2.4545   -19.8492     8.4857     8.9914
  193.5000     7.8200    82.3264     0.0084     0.1468     2.4456   -19.8677     8.5433     9.0515
  194.0000     7.7166    82.4577     0.0084     0.1402     2.4434   -19.8861     8.6004     9.0491
  194.5000     7.7324    82.4666     0.0160     0.1372     2.4539   -19.9092     8.4219     9.1096
  195.0000     7.7333    82.6245     0.0205     0.1380     2.4562   -19.9277     8.5374     9.1066
  195.5000     7.7342    82.7824     0.0131     0.1383     2.4548   -19.9462     8.6545     9.1681
  196.0000     7.7499    82.7913     0.0071     0.1395     2.4526   -19.9646     8.8340     9.2294
  196.5000     7.7657    82.6511     0.0027     0.1424     2.4489   -19.8330     8.9551     9.2263
  197.0000     7.7666    81.4677     0.0012     0.1436     2.4459   -19.8561     9.0154     9.2238
  197.5000     7.7675    81.3253     0.0013     0.1397     2.4557   -19.7198     9.0762     9.2208
