~VERSION INFORMATION
 VERS.                2.0:   CWLS LOG ASCII STANDARD - VERSION 2.0
 WRAP.                 NO:   ONE LINE PER DEPTH STEP
~WELL INFORMATION
#MNEM.UNIT      DATA TYPE    INFORMATION
#----------   ------------   ------------------------------
 STRT.F            0.0000:   START DEPTH
 STOP.F          497.0000:   STOP DEPTH
 STEP.F            0.5000:   STEP LENGTH
 NULL.          -999.2500:   NO VALUE
 COMP. LAWRENCE/ALLISON INC:   COMPANY
 WELL.   73-66 STX #10-10:   WELL
 FLD .             TEAPOT:   FIELD
 LOC .      S10 T38N R78W:   LOCATION
 CNTY.            NATRONA:   COUNTY
 STAT.            WYOMING:   STATE
 CTRY. UNITED STATES OF AMERICA:   COUNTRY
 SRVC.           Gearhart:   SERVICE COMPANY
 DATE.        15-JUN-1987:   LOGDATE
 API .       490251112900:   API NUMBER
~CURVE INFORMATION
#MNEM.UNIT       API CODE    CURVE DESCRIPTION
#----------   ------------   ------------------------------
 DEPT.F                  :   
 RILD.OHMM   07 120 46 00:   INDUCTION LOG DEEP RESISTIVITY
 RILM.OHMM   07 120 44 00:   INDUCTION LOG MEDIUM RESISTIVITY
 GRR .GAPI   07 310 01 00:   GAMMA RAY FROM RES. LOG.
~PARAMETER INFORMATION
#MNEM.UNIT          VALUE    DESCRIPTION
#----------   ------------   ------------------------------
 PD  .                 GL:   PERMANENT DATUM
 EPD .F              5174:   ELEVATION PERMANENT DATUM
 LMF .                 KB:   LOG MEASURED FROM
 DAPD.F                 8:   FEET ABOVE PERMANENT DATUM
 DMF .                 KB:   DRILLING MEASURED FROM
 EKB .F              5182:   KELLING BUSHING
 EDF .F              5180:   DRILLING FLOOR
 EGL .F              5174:   GROUND LEVEL
 DATE.            6-15-87:   RUN DATE
 RUN .                  1:   RUN NUMBER
 DD  .F               550:   DEPTH DRILLER
 DL  .F               505:   DEPTH LOGGER
 BLI .F               502:   BOTTOM LOG INTERVAL
 TLI .F                41:   TOP LOG INTERVAL
 CS  .IN            8.625:   CASING SIZE
 CBD .F                47:   CASING BOTTOM DRILLER
 CBL .F                41:   CASING BOTTOM LOGGER
 BS  .IN            7.875:   BIT SIZE
 BSD .F               550:   BIT SIZE AT DEPTH
 DFT .               FOAM:   DRILLING FLUID TYPE
 TCS .HRS            1715:   TIME CURCULATED STOPPED
 TLAB.HRS            2144:   TIME LOGGER AT BOTTOM
 LUN .               7597:   LOGGING UNIT NUMBER
 LUL .           GILLETTE:   LOGGING UNIT LOCATION
 ENGI.             SLATKY:   RECORDING ENGINEER
 WITN.             STRONG:   WITNESSED BY
 CLNT.            A2DTECH:   CLIENT CODE
 ORIG.     1", 2.5" PRINT:   ORIGIN OF DATA
 UWI .       490251112900:   UNIQUE WELL ID
 DICO. A2D Technologies, Inc.:   DIGITIZING COMPANY
~OTHER INFORMATION
~A    DEPT    RILD       RILM         GRR  
    0.0000  -999.2500  -999.2500    13.2530
    0.5000  -999.2500  -999.2500    18.0723
    1.0000  -999.2500  -999.2500    29.2319
    1.5000  -999.2500  -999.2500    41.3959
    2.0000  -999.2500  -999.2500    55.2559
    2.5000  -999.2500  -999.2500    71.0843
    3.0000  -999.2500  -999.2500    79.0542
    3.5000  -999.2500  -999.2500    83.5946
    4.0000  -999.2500  -999.2500    92.3756
    4.5000  -999.2500  -999.2500    92.1693
    5.0000  -999.2500  -999.2500    89.7661
    5.5000  -999.2500  -999.2500    87.5429
    6.0000  -999.2500  -999.2500    86.3610
    6.5000  -999.2500  -999.2500    85.4004
    7.0000  -999.2500  -999.2500    84.7708
    7.5000  -999.2500  -999.2500    84.7819
    8.0000  -999.2500  -999.2500    85.1973
    8.5000  -999.2500  -999.2500    86.5812
    9.0000  -999.2500  -999.2500    88.9769
    9.5000  -999.2500  -999.2500    91.3334
   10.0000  -999.2500  -999.2500    90.8854
   10.5000  -999.2500  -999.2500    89.3174
   11.0000  -999.2500  -999.2500    87.6210
   11.5000  -999.2500  -999.2500    87.8140
   12.0000  -999.2500  -999.2500    89.0467
   12.5000  -999.2500  -999.2500    90.2657
   13.0000  -999.2500  -999.2500    89.3910
   13.5000  -999.2500  -999.2500    88.4350
   14.0000  -999.2500  -999.2500    87.3551
   14.5000  -999.2500  -999.2500    86.2377
   15.0000  -999.2500  -999.2500    84.2794
   15.5000  -999.2500  -999.2500    82.5353
   16.0000  -999.2500  -999.2500    84.3435
   16.5000  -999.2500  -999.2500    86.1475
   17.0000  -999.2500  -999.2500    88.0246
   17.5000  -999.2500  -999.2500    89.4334
   18.0000  -999.2500  -999.2500    88.1281
   18.5000  -999.2500  -999.2500    86.9553
   19.0000  -999.2500  -999.2500    86.5038
   19.5000  -999.2500  -999.2500    87.1896
   20.0000  -999.2500  -999.2500    88.6496
   20.5000  -999.2500  -999.2500    90.1675
   21.0000  -999.2500  -999.2500    89.2699
   21.5000  -999.2500  -999.2500    86.0012
   22.0000  -999.2500  -999.2500    83.3789
   22.5000  -999.2500  -999.2500    83.7085
   23.0000  -999.2500  -999.2500    84.4820
   23.5000  -999.2500  -999.2500    85.4071
   24.0000  -999.2500  -999.2500    83.1944
   24.5000  -999.2500  -999.2500    81.0537
   25.0000  -999.2500  -999.2500    80.1037
   25.5000  -999.2500  -999.2500    81.0869
   26.0000  -999.2500  -999.2500    81.8854
   26.5000  -999.2500  -999.2500    82.7377
   27.0000  -999.2500  -999.2500    83.1856
   27.5000  -999.2500  -999.2500    83.0683
   28.0000  -999.2500  -999.2500    83.6646
   28.5000  -999.2500  -999.2500    84.7482
   29.0000  -999.2500  -999.2500    85.7355
   29.5000  -999.2500  -999.2500    86.9398
   30.0000  -999.2500  -999.2500    85.7357
   30.5000  -999.2500  -999.2500    83.0366
   31.0000  -999.2500  -999.2500    81.7093
   31.5000  -999.2500  -999.2500    82.0459
   32.0000  -999.2500  -999.2500    83.1557
   32.5000  -999.2500  -999.2500    83.6951
   33.0000  -999.2500  -999.2500    82.6487
   33.5000  -999.2500  -999.2500    81.6552
   34.0000  -999.2500  -999.2500    80.7356
   34.5000  -999.2500  -999.2500    80.4755
   35.0000  -999.2500  -999.2500    80.2215
   35.5000  -999.2500  -999.2500    80.0356
   36.0000  -999.2500  -999.2500    79.9298
   36.5000  -999.2500  -999.2500    81.2920
   37.0000  -999.2500  -999.2500    83.1579
   37.5000  -999.2500  -999.2500    83.4554
   38.0000  -999.2500  -999.2500    82.0692
   38.5000  -999.2500  -999.2500    81.0845
   39.0000  -999.2500  -999.2500    80.9662
   39.5000  -999.2500  -999.2500    82.9652
   40.0000  -999.2500  -999.2500    85.7158
   40.5000  -999.2500  -999.2500    89.5476
   41.0000     3.8750    56.2248    89.5971
   41.5000     1.6553     7.8261    87.2787
   42.0000     1.1656     2.2683    85.2544
   42.5000     1.1970     1.1028    83.9707
   43.0000     1.2842     1.0483    83.9453
   43.5000     1.3778     1.0056    83.9636
   44.0000     1.4782     1.1018    84.3973
   44.5000     1.5021     1.1562    85.8621
   45.0000     1.4455     1.2619    88.5073
   45.5000     1.3763     1.3814    90.9825
   46.0000     1.4635     1.4883    93.5451
   46.5000     1.6128     1.5887    94.9116
   47.0000     1.7773     1.6960    96.3347
   47.5000     1.9587     1.8153    97.1205
   48.0000     2.1585     2.2239    94.0417
   48.5000     2.3481     2.3797    87.3950
   49.0000     2.2331     2.5752    81.1173
   49.5000     2.1356     2.7246    74.6138
   50.0000     2.0424     2.3877    68.1999
   50.5000     1.9665     2.0681    57.1232
   51.0000     1.9121     1.7803    44.0233
   51.5000     1.8587     1.5093    33.4351
   52.0000     1.8064     1.4280    27.0311
   52.5000     1.7821     1.4546    29.0953
   53.0000     1.8153     1.5538    44.8793
   53.5000     1.9696     1.6536    54.7042
   54.0000     2.2239     1.8062    67.3904
   54.5000     2.4592     1.9963    70.7110
   55.0000     2.7508     2.2064    76.3724
   55.5000     3.0771     2.4386    81.5090
   56.0000     3.4634     2.6953    83.8247
   56.5000     3.6567     2.9356    84.6165
   57.0000     3.8777     3.2257    83.2758
   57.5000     4.1119     3.4168    81.0509
   58.0000     4.2938     3.5550    79.8476
   58.5000     4.4647     3.7280    79.8734
   59.0000     4.6421     3.8367    80.4971
   59.5000     4.8262     3.9766    82.6159
   60.0000     5.0100     4.1219    85.4166
   60.5000     5.1331     4.2732    86.1125
   61.0000     5.2544     4.4290    87.1406
   61.5000     5.3784     4.5904    86.6775
   62.0000     5.5052     4.7577    86.1411
   62.5000     5.6349     4.9311    82.5369
   63.0000     5.8089     5.1109    79.1434
   63.5000     5.8057     5.2972    75.6943
   64.0000     5.8090     5.4903    72.7605
   64.5000     5.6254     5.7009    74.4154
   65.0000     5.4942     5.7857    76.9309
   65.5000     5.5557     5.8764    78.4606
   66.0000     5.6374     5.9686    78.9268
   66.5000     5.7203     6.0622    79.1031
   67.0000     5.8044     6.1573    79.0961
   67.5000     5.8897     6.2539    79.1534
   68.0000     5.9763     6.3520    79.1731
   68.5000     6.1143     6.4517    82.1882
   69.0000     6.3216     6.5529    86.0586
   69.5000     6.6080     6.7311    88.3995
   70.0000     6.5490     6.6727    88.8100
   70.5000     6.4622     6.5867    89.1649
   71.0000     6.3685     6.5018    91.6474
   71.5000     6.2794     6.4180    94.9073
   72.0000     6.1824     6.3353    98.1539
   72.5000     6.0869     6.2536    96.4765
   73.0000     5.9929     6.1730    94.4923
   73.5000     5.9152     6.1377    93.4594
   74.0000     5.9996     6.2075    93.7170
   74.5000     6.0731     6.2681    92.3179
   75.0000     6.1475     6.3294    89.6581
   75.5000     6.2229     6.3913    88.7859
   76.0000     6.2992     6.4538    89.4623
   76.5000     6.3764     6.5169    88.0961
   77.0000     6.4546     6.5806    86.6113
   77.5000     6.5338     6.6449    85.2948
   78.0000     6.6082     6.7099    84.3268
   78.5000     6.6636     6.7523    89.2546
   79.0000     6.7157     6.7839    93.3336
   79.5000     6.7531     6.8157    93.1401
   80.0000     6.7847     6.8476    92.6541
   80.5000     6.8165     6.8797    91.9943
   81.0000     6.8484     6.9119    92.2928
   81.5000     6.7738     6.9442    92.6389
   82.0000     6.6646     6.9767    92.6777
   82.5000     6.5573     6.8791    92.3970
   83.0000     6.4516     6.7452    92.2069
   83.5000     6.3477     6.6139    92.0425
   84.0000     6.2454     6.4851    93.2922
   84.5000     6.1448     6.3588    94.5433
   85.0000     6.0458     6.2350    95.8392
   85.5000     5.9484     6.1136    97.2183
   86.0000     5.8894     6.0254    97.0290
   86.5000     5.8502     6.0144    95.9120
   87.0000     5.8071     5.9910    94.8418
   87.5000     5.8290     5.9674    94.3465
   88.0000     5.8538     5.9441    94.4347
   88.5000     5.8787     5.9152    94.5912
   89.0000     5.9037     5.9453    94.7233
   89.5000     5.9528     6.0387    94.9145
   90.0000     6.0226     6.1335    95.0398
   90.5000     6.0934     6.2299    95.0500
