~VERSION INFORMATION
 VERS.                2.0:   CWLS LOG ASCII STANDARD - VERSION 2.0
 WRAP.                 NO:   ONE LINE PER DEPTH STEP
~WELL INFORMATION
#MNEM.UNIT      DATA TYPE    INFORMATION
#----------   ------------   ------------------------------
 STRT.F           30.0000:   START DEPTH
 STOP.F          482.0000:   STOP DEPTH
 STEP.F            0.5000:   STEP LENGTH
 NULL.          -999.2500:   NO VALUE
 COMP. FENIX & SCISSON INC:   COMPANY
 WELL.        S 10 #72-10:   WELL
 FLD .             TEAPOT:   FIELD
 LOC .      S10 T38N R78W:   LOCATION
 CNTY.            NATRONA:   COUNTY
 STAT.            WYOMING:   STATE
 CTRY. UNITED STATES OF AMERICA:   COUNTRY
 SRVC.            Unknown:   SERVICE COMPANY
 DATE.        07-FEB-1978:   LOGDATE
 API .       490251056900:   API NUMBER
~CURVE INFORMATION
#MNEM.UNIT       API CODE    CURVE DESCRIPTION
#----------   ------------   ------------------------------
 DEPT.F                  :   
 CALD.IN     45 280 60 00:   CALIPER FROM DENSITY LOG
 CORR.G/C3   45 356 01 00:   DENSITY CORRECTION
 DPHI.DEC    45 890 12 00:   DENSITY POROSITY SANDSTONE
 GRD .GAPI   45 310 01 00:   GAMMA RAY FROM DENSITY LOG
 RHOB.G/C3   45 350 01 00:   BULK DENSITY
 SN  .OHMM   05 040 16 00:   SHORT NORMAL 16"
 SPR .MV     05 010 01 00:   SPONTANEOUS POTENTIAL FROM RES.
 ILD .OHMM   05 120 46 00:   INDUCTION LOG DEEP
~PARAMETER INFORMATION
#MNEM.UNIT          VALUE    DESCRIPTION
#----------   ------------   ------------------------------
 PD  .                 GL:   PERMANENT DATUM
 EPD .F              5174:   ELEVATION PERMANENT DATUM
 LMF .                 KB:   LOG MEASURED FROM
 DMF .                 KB:   DRILLING MEASURED FROM
 EKB .F              5177:   KELLING BUSHING
 EGL .F              5174:   GROUND LEVEL
 DATE.        07-FEB-1978:   RUN DATE
 RUN .                  1:   RUN NUMBER
 DD  .F               469:   DEPTH DRILLER
 DL  .F               482:   DEPTH LOGGER
 BLI .F               474:   BOTTOM LOG INTERVAL
 TLI .F                44:   TOP LOG INTERVAL
 CS  .IN            8.625:   CASING SIZE
 CBD .F                39:   CASING BOTTOM DRILLER
 CBL .F                42:   CASING BOTTOM LOGGER
 BS  .IN            7.875:   BIT SIZE
 BSD .F               469:   BIT SIZE AT DEPTH
 DFT .    LIGNO/SULF FULL:   DRILLING FLUID TYPE
 DFD .                8.7:   DRILLING FLUID DENSITY
 DFV .                 31:   DRILLING FLUID VISCOSITY
 DFPH.                  9:   DRILLING FLUID PH
 DFL .                4.8:   DRILLING FLUID LOSS
 MSS .           FLOWLINE:   MUD SAMPLE SOURCE
 RMS .OHMM             .9:   RESISTIVITY MUD SAMPLE
 MST .F                50:   MUD SAMPLE TEMPERATURE
 RMF .OHMM            .65:   RESISTIVITY MUD FILTRATE SAMPLE
 MFST.F                58:   MUD FILTRATE SAMPLE TEMPERATURE
 RMC .OHMM            1.2:   RESISTIVITY MUD CAKE
 MCST.F                58:   MUD CAKE SAMPLE TEMPERATURE
 MFSS.               MEAS:   MUD FILTRATE SAMPLE SOURCE
 RMB .OHMM            .55:   RESISTIVITY MUD AT BHT
 BHT .F                82:   BOTTOM HOLE TEMPERATURE
 TCS .HRS               3:   TIME CURCULATED STOPPED
 MRT .F                82:   MAXIMUM RECORDED TEMPERATURE
 LUN .               2958:   LOGGING UNIT NUMBER
 LUL .               CASP:   LOGGING UNIT LOCATION
 ENGI.            POINTER:   RECORDING ENGINEER
 WITN.         HARRINGTON:   WITNESSED BY
 CLNT.            A2DTECH:   CLIENT CODE
 ORIG.           5" PRINT:   ORIGIN OF DATA
 UWI .       490251056900:   UNIQUE WELL ID
 DICO. A2D Technologies, Inc.:   DIGITIZING COMPANY
~OTHER INFORMATION
~A   DEPT     CALD       CORR       DPHI         GRD      RHOB         SN        SPR        ILD   
# ...
  313.5000     8.0857     0.2364     0.1568    68.8413     2.3822    19.6102   -31.3994    23.6495
  314.0000     8.0864     0.2456     0.1498    68.2571     2.4003    19.6210   -31.5398    23.8272
  314.5000     8.0871     0.2262     0.1518    67.8174     2.4011    19.6318   -31.9787    24.0062
  315.0000     8.0879     0.1691     0.1636    67.2333     2.3718    19.3720   -31.9699    23.8534
  315.5000     8.0886     0.1497     0.1878    66.1983     2.3410    19.3828   -32.2595    23.8665
  316.0000     8.0743     0.1378     0.2006    67.3976     2.3252    19.3935   -32.2506    23.8796
  316.5000     8.0901     0.1350     0.2084    64.8790     2.2952    19.2699   -31.9433    23.7272
  317.0000     8.1206     0.1608     0.2132    65.6319     2.2862    19.2809   -31.4866    23.7407
  317.5000     8.0916     0.2468     0.2081    67.1289     2.3216    19.2916   -32.5423    23.7537
  318.0000     8.0179     0.2906     0.1912    68.1795     2.3300    19.1683   -32.8122    23.4394
  318.5000     7.9443     0.3209     0.1840    65.6586     2.3375    19.1815   -32.2063    23.4523
  319.0000     7.9299     0.3891     0.1490    65.2188     2.3888    18.9277   -32.6726    23.1419
  319.5000     8.0350     0.4613     0.1002    65.5276     2.5024    18.6747   -33.3826    23.1550
  320.0000     8.0953     0.3293     0.1110    67.3222     2.4430    18.3027   -32.9237    22.8483
  320.5000     8.0514     0.1931     0.1330    63.7596     2.3799    18.1837   -32.1686    22.6767
  321.0000     7.9182     0.1817     0.1610    62.7269     2.3792    17.9431   -31.7120    22.2476
  321.5000     7.8890     0.1784     0.1595    63.6286     2.3883    17.8289   -31.5539    21.9532
  322.0000     7.8899     0.1694     0.1498    65.4232     2.3981    17.7154   -31.8457    21.3672
  322.5000     7.8756     0.1521     0.1552    65.8763     2.3898    17.4810   -32.1354    21.0816
  323.0000     7.8615     0.1070     0.1594    66.1850     2.3869    17.2521   -31.6765    20.8026
  323.5000     7.8624     0.1012     0.1564    67.9797     2.3907    17.2616   -30.9214    20.3882
  324.0000     7.8929     0.0562     0.1663    68.4350     2.3849    17.0308   -31.2110    20.2557
  324.5000     7.9532     0.0442     0.1684    71.2712     2.3665    16.9224   -31.8014    19.9876
  325.0000     7.9093     0.0505     0.1711    69.6432     2.3638    16.8147   -32.3895    20.0014
  325.5000     7.8504     0.0521     0.1726    67.4200     2.3661    16.8263   -32.6792    19.8713
  326.0000     7.9554     0.0418     0.1747    64.8790     2.3594    16.8355   -32.6681    19.8850
  326.5000     7.9859     0.0404     0.1765    66.6937     2.3549    16.7261   -32.6592    19.8959
  327.0000     8.0015     0.0481     0.1779    68.4883     2.3505    16.7376   -32.6504    19.7666
  327.5000     7.9874     0.0603     0.1758    70.1341     2.3535    16.7468   -32.6415    19.9178
  328.0000     7.9881     0.0801     0.1683    69.1013     2.3769    16.7560   -32.6326    19.9288
  328.5000     7.9888     0.0953     0.1568    64.3483     2.3845    16.6491   -32.6238    20.0785
  329.0000     7.9598     0.0759     0.1634    64.5060     2.3755    16.6585   -32.6149    20.3701
  329.5000     7.9308     0.0595     0.1622    65.5566     2.3711    16.6677   -32.7553    20.5232
  330.0000     8.0208     0.0747     0.1513    64.6726     2.3824    16.6769   -32.8957    20.6774
  330.5000     8.1409     0.0990     0.1284    64.3815     2.4284    16.6861   -32.8866    20.9777
  331.0000     8.1711     0.1157     0.1224    63.4901     2.4382    16.6952   -32.8776    20.9893
  331.5000     8.0528     0.1249     0.1079    62.7648     2.4774    16.5890   -32.8687    21.0008
  332.0000     8.0546     0.1190     0.1073    63.0814     2.4789    16.4834   -33.0095    21.0124
  332.5000     8.0990     0.0906     0.1151    63.2292     2.4677    16.4928   -33.1498    20.7343
  333.0000     8.0818     0.0606     0.1289    63.8779     2.4128    16.2742   -33.4395    20.5903
  333.5000     7.9797     0.0638     0.1632    65.2336     2.3903    16.0589   -33.8784    20.4541
  334.0000     7.9841     0.1393     0.1509    64.5853     2.3700    15.8485   -33.7180    20.1784
  334.5000     8.0275     0.1861     0.1277    64.4550     2.4009    15.6388   -33.4107    19.7979
  335.0000     8.0580     0.2059     0.1231    65.0595     2.4401    15.4319   -32.8048    19.0014
  335.5000     8.0588     0.1835     0.1234    64.9192     2.4341    15.2256   -32.4974    17.8615
  336.0000     7.9704     0.1189     0.1394    64.6305     2.4094    14.9223   -32.1900    16.9067
  336.5000     7.9561     0.1025     0.1454    65.5345     2.4041    14.8253   -32.1812    16.2265
  337.0000     8.0612     0.1086     0.1463    64.2041     2.4065    14.6292   -32.4730    16.0096
  337.5000     8.1512     0.1148     0.1462    63.9131     2.4095    14.4356   -32.4619    15.7978
  338.0000     8.0626     0.1028     0.1468    63.6266     2.4058    14.3437   -32.6045    15.8086
  338.5000     8.0334     0.0909     0.1511    62.8915     2.3968    14.2524   -32.8920    15.8173
  339.0000     8.0193     0.0897     0.1559    66.7694     2.3879    14.2622   -33.3309    16.0471
  339.5000     8.0500     0.1008     0.1570    69.9011     2.3872    14.2700   -33.6209    16.0559
  340.0000     8.0654     0.1159     0.1537    68.1265     2.3947    14.2779   -33.9104    16.1765
  340.5000     8.0513     0.1284     0.1446    66.3497     2.4061    14.1851   -34.2000    16.1854
  341.0000     8.0522     0.1424     0.1384    64.5728     2.4121    14.0948   -34.3403    16.0802
  341.5000     8.0379     0.1493     0.1316    63.6889     2.4272    14.1045   -34.4806    15.6488
  342.0000     8.0388     0.1314     0.1283    63.9932     2.4220    13.9159   -34.4716    15.2311
  342.5000     8.0247     0.1285     0.1307    62.6628     2.4243    13.7337   -34.3035    15.0275
  343.0000     8.0103     0.1272     0.1256    65.6501     2.4364    13.5519   -33.6916    14.8303
  343.5000     7.9517     0.1169     0.1228    67.8911     2.4395    13.4655   -33.3781    14.8388
  344.0000     7.8928     0.1080     0.1213    69.3881     2.4388    13.3799   -33.0925    14.6423
  344.5000     7.8637     0.0991     0.1279    69.8434     2.4335    13.2029   -33.0819    14.5491
  345.0000     7.9391     0.0902     0.1375    69.8523     2.4260    13.1189   -33.0730    14.3567
  345.5000     7.9845     0.0814     0.1339    69.5636     2.4222    13.1262   -33.0641    14.2651
  346.0000     8.0150     0.0936     0.1297    68.9750     2.4156    13.0426   -33.2067    14.0766
  346.5000     8.0455     0.1239     0.1224    70.0278     2.4214    13.0499   -33.1957    13.9870
  347.0000     8.0462     0.1361     0.1182    70.7807     2.4484    13.0572   -33.4875    13.8980
  347.5000     8.0470     0.1197     0.1182    69.4503     2.4550    13.0644   -33.7772    13.9059
  348.0000     8.0477     0.1274     0.1145    69.9057     2.4618    13.0731   -34.0668    13.9136
  348.5000     8.0484     0.1336     0.1109    71.7003     2.4731    13.0803   -34.0557    14.0197
  349.0000     8.0192     0.1187     0.1112    72.3044     2.4679    13.0875   -33.8976    14.1250
  349.5000     7.9902     0.0887     0.1151    70.6764     2.4537    13.0947   -33.7395    14.1328
  350.0000     7.9612     0.0828     0.1310    69.6950     2.4251    13.1436   -33.7306    14.2573
  350.5000     7.9863     0.1131     0.1274    66.9728     2.4332    13.6659   -33.7239    14.4409
  351.0000     7.9914     0.1495     0.1186    68.3195     2.4459    13.6744   -34.1642    14.5454
  351.5000     7.9442     0.1707     0.1024    69.3666     2.4889    13.6830   -34.3134    14.7526
  352.0000     7.9024     0.1768     0.0990    68.5327     2.4938    13.5967   -34.5971    14.7566
  352.5000     7.8728     0.1017     0.1081    69.5320     2.4788    13.6054   -34.7390    14.8634
  353.0000     7.8432     0.0567     0.1201    69.9857     2.4352    13.5194   -34.7313    14.9710
  353.5000     7.8136     0.0689     0.1481    69.3978     2.4014    13.5282   -34.7065    14.9751
