~VERSION INFORMATION
 VERS.                2.0:   CWLS LOG ASCII STANDARD - VERSION 2.0
 WRAP.                 NO:   ONE LINE PER DEPTH STEP
~WELL INFORMATION
#MNEM.UNIT      DATA TYPE    INFORMATION
#----------   ------------   ------------------------------
 STRT.F           30.0000:   START DEPTH
 STOP.F          526.0000:   STOP DEPTH
 STEP.F            0.5000:   STEP LENGTH
 NULL.          -999.2500:   NO VALUE
 COMP. FENIX & SCISSON INC:   COMPANY
 WELL.       NPR #37-SX-3:   WELL
 FLD .             TEAPOT:   FIELD
 LOC .       S3 T38N R78W:   LOCATION
 CNTY.            NATRONA:   COUNTY
 STAT.            WYOMING:   STATE
 CTRY. UNITED STATES OF AMERICA:   COUNTRY
 SRVC.              Welex:   SERVICE COMPANY
 DATE.        10-MAR-1977:   LOGDATE
 API .       490251028600:   API NUMBER
~CURVE INFORMATION
#MNEM.UNIT       API CODE    CURVE DESCRIPTION
#----------   ------------   ------------------------------
 DEPT.F                  :   
 ILD .OHMM   07 120 46 00:   INDUCTION LOG DEEP
 ILM .OHMM   07 120 44 00:   INDUCTION LOG MEDIUM
 SPR .MV     07 010 01 00:   SPONTANEOUS POTENTIAL
 SGRD.OHMM   07 220 05 00:   SHALLOW RESISTIVITY
 GRD .GAPI   45 310 01 00:   GAMMA RAY FROM DENSITY LOG
 CALD.IN     45 280 60 00:   CALIPER
 CORR.G/C3   45 356 01 00:   DENSITY CORRECTION
 RHOB.G/C3   45 350 01 00:   BULK DENSITY
 DPOR.DEC    45 890 12 00:   DENSITY POROSITY SANDSTONE
~PARAMETER INFORMATION
#MNEM.UNIT          VALUE    DESCRIPTION
#----------   ------------   ------------------------------
 PD  .                 GL:   PERMANENT DATUM
 EPD .F              5232:   ELEVATION PERMANENT DATUM
 LMF .                 GL:   LOG MEASURED FROM
 DMF .                 GL:   DRILLING MEASURED FROM
 EGL .F              5232:   GROUND LEVEL
 DATE.            3-10-77:   RUN DATE
 RUN .                  1:   RUN NUMBER
 DD  .F               530:   DEPTH DRILLER
 DL  .F               528:   DEPTH LOGGER
 BLI .F               526:   BOTTOM LOG INTERVAL
 TLI .F                35:   TOP LOG INTERVAL
 CS  .IN            8.625:   CASING SIZE
 CBD .F                40:   CASING BOTTOM DRILLER
 CBL .F                42:   CASING BOTTOM LOGGER
 BS  .IN            7.875:   BIT SIZE
 BSD .F               530:   BIT SIZE AT DEPTH
 DFT .            KCL MUD:   DRILLING FLUID TYPE
 DFD .                8.8:   DRILLING FLUID DENSITY
 DFV .                 32:   DRILLING FLUID VISCOSITY
 DFPH.                  8:   DRILLING FLUID PH
 DFL .                7.7:   DRILLING FLUID LOSS
 MSS .            MUD PIT:   MUD SAMPLE SOURCE
 RMS .OHMM            .48:   RESISTIVITY MUD SAMPLE
 MST .F                47:   MUD SAMPLE TEMPERATURE
 RMF .OHMM            .43:   RESISTIVITY MUD FILTRATE SAMPLE
 MFST.F                47:   MUD FILTRATE SAMPLE TEMPERATURE
 RMC .OHMM            .52:   RESISTIVITY MUD CAKE
 MCST.F                47:   MUD CAKE SAMPLE TEMPERATURE
 MFSS.           FANN KIT:   MUD FILTRATE SAMPLE SOURCE
 MCSS.           FANN KIT:   MUD CAKE SAMPLE SOURCE
 RMB .OHMM            .41:   RESISTIVITY MUD AT BHT
 BHT .F                55:   BOTTOM HOLE TEMPERATURE
 TCS .HRS             1.5:   TIME CURCULATED STOPPED
 MRT .F                55:   MAXIMUM RECORDED TEMPERATURE
 LUN .               8611:   LOGGING UNIT NUMBER
 LUL .           GILLETTE:   LOGGING UNIT LOCATION
 ENGI.               DOAK:   RECORDING ENGINEER
 WITN.              BURKE:   WITNESSED BY
 CLNT.            A2DTECH:   CLIENT CODE
 ORIG.       2", 5" PRINT:   ORIGIN OF DATA
 UWI .       490251028600:   UNIQUE WELL ID
 DICO. A2D Technologies, Inc.:   DIGITIZING COMPANY
~OTHER INFORMATION
~A   DEPT      ILD        ILM        SPR       SGRD         GRD        CALD      CORR        RHOB     DPOR   
# ...
  504.5000    13.0122    17.3075   -41.0499    18.3523   108.8199     8.0020     0.0546     2.5099     1.0390
  505.0000    12.9231    16.9705   -40.7478    17.9909   110.7709     8.0020     0.0553     2.5088     1.0506
  505.5000    12.9862    16.6401   -40.4343    17.6366   107.6069     8.0020     0.0561     2.5156     1.0554
  506.0000    13.0411    16.3161   -40.5406    17.5043   104.1538     8.0020     0.0568     2.5227     1.0729
  506.5000    13.0957    15.9814   -40.7536    18.6577   100.6368     8.0013     0.0576     2.5290     1.0897
  507.0000    13.1642    16.0956   -40.9688    19.6437    92.2588     8.0001     0.0583     2.5246     1.0782
  507.5000    13.0175    16.2395   -41.1837    20.0921    76.5085     7.9990     0.0591     2.5183     1.0627
  508.0000    12.8253    16.3847   -41.3973    19.5157    57.6645     7.9978     0.0600     2.5117     1.0450
  508.5000    12.6359    16.5312   -41.5389    18.5999  -999.2500     7.9966     0.0608     2.5143     1.0574
  509.0000    12.4493    16.7181   -41.3467    17.9868  -999.2500     7.9954     0.0616     2.5187     1.0675
  509.5000    12.2654    16.5497   -41.1616    17.9972  -999.2500     7.9942     0.0612     2.5227     1.0697
  510.0000    12.0843    16.3240   -40.9768    17.9968  -999.2500     7.9931     0.0580     2.5261     1.0755
  510.5000    11.9059    16.1013   -40.7918    17.5367  -999.2500     7.9919     0.0549     2.5250     1.0819
  511.0000    11.7300    15.8817   -40.6029    17.0940  -999.2500     7.9907     0.0518     2.5186     1.0672
  511.5000    11.2998    15.6651   -40.6538    16.6645  -999.2500     7.9895     0.0487     2.5122     1.0494
  512.0000    10.7911    15.4514   -40.7500    16.1640  -999.2500     7.9883     0.0471     2.4972     1.0033
  512.5000    10.3053    15.2407   -40.8468    15.9671  -999.2500     7.9871     0.0443     2.4577     0.9054
  513.0000     9.8414    15.0328   -40.9430    15.9671  -999.2500     7.9860     0.0416     2.4389     0.9014
  513.5000     9.4238    14.7351   -41.0391    15.9671  -999.2500     7.9848     0.0389     2.4410     0.9093
  514.0000     9.1870    14.4056   -41.1356    15.9223  -999.2500     7.9836     0.0362     2.4434     0.9168
  514.5000     8.9562    14.0834   -41.2320    15.6692  -999.2500     7.9823     0.0331     2.4383     0.8963
  515.0000     8.7047    13.7683   -41.3261    15.3907  -999.2500     7.9853     0.0279     2.4254     0.8706
  515.5000     8.8338    13.4599   -41.2281    15.4409  -999.2500     7.9898     0.0174     2.4125     0.8450
  516.0000     9.0307    13.1594   -40.8466    15.4980  -999.2500     7.9944     0.0089     2.4004     0.8107
  516.5000     9.6836    12.9244   -40.4672    15.5328  -999.2500     7.9989     0.0224     2.4281     0.8730
  517.0000    10.4075    13.1581   -40.1227    14.3324  -999.2500     8.0035     0.0599     2.4796     0.9873
  517.5000    11.1856    13.3927   -37.9637    13.9106  -999.2500     8.0080     0.0692     2.4908     1.0146
  518.0000    12.0219    13.6324   -35.7555    15.0324  -999.2500     8.0126     0.0719     2.4966     1.0192
  518.5000    12.9206    13.8760    -4.0818    20.1499  -999.2500     8.0171     0.0749     2.5044     1.0444
  519.0000    13.6966    14.1239  -999.2500    31.9734  -999.2500     8.0217     0.0781     2.5123     1.0711
  519.5000    13.8454    14.3763  -999.2500   113.1162  -999.2500     8.0262     0.0795     2.5161     1.0637
  520.0000    14.0002    14.6993  -999.2500   515.4750  -999.2500     8.0308     0.0808     2.5095     1.0479
  520.5000    14.1564    14.5826  -999.2500    18.6677  -999.2500     8.0353     0.0821     2.5033     1.0325
  521.0000    14.3123    14.3742  -999.2500    51.2817  -999.2500     8.0398     0.0808     2.4969     1.0195
  521.5000    14.4292    14.1680  -999.2500   234.8837  -999.2500     8.0417     0.0825     2.4972     1.0176
  522.0000    13.8790    13.9650  -999.2500   543.5357  -999.2500     8.0219     0.0864     2.5017     1.0289
  522.5000    13.2874    13.7651  -999.2500   319.3786  -999.2500     7.9851     0.0875     2.5043     1.0411
  523.0000    13.3446    13.5322  -999.2500   322.7888  -999.2500     7.9481     0.0863     2.4945     1.0244
  523.5000    13.4551    13.5905  -999.2500   325.5419  -999.2500     7.9110     0.0876     2.4856     1.0019
  524.0000    13.5322    13.6572  -999.2500   325.5419  -999.2500     7.8739     0.0892     2.4909     1.0071
  524.5000  -999.2500  -999.2500  -999.2500  -999.2500  -999.2500     7.8370     0.0957     2.4949     1.0158
  525.0000  -999.2500  -999.2500  -999.2500  -999.2500  -999.2500     7.7999     0.1096     2.4915     1.0171
  525.5000  -999.2500  -999.2500  -999.2500  -999.2500  -999.2500     7.7898     0.1235     2.4965     1.0196
  526.0000  -999.2500  -999.2500  -999.2500  -999.2500  -999.2500     7.8013     0.1368     2.4897     1.0184
