~VERSION INFORMATION
 VERS.                2.0:   CWLS LOG ASCII STANDARD - VERSION 2.0
 WRAP.                 NO:   ONE LINE PER DEPTH STEP
~WELL INFORMATION
#MNEM.UNIT      DATA TYPE    INFORMATION
#----------   ------------   ------------------------------
 STRT.F          834.5000:   START DEPTH
 STOP.F         1644.0000:   STOP DEPTH
 STEP.F            0.5000:   STEP LENGTH
 NULL.          -999.2500:   NO VALUE
 COMP. LAWRENCE/ALLISON INC:   COMPANY
 WELL.      85 STX #15-15:   WELL
 FLD .            WILDCAT:   FIELD
 LOC .      S15 T38N R78W:   LOCATION
 CNTY.            NATRONA:   COUNTY
 STAT.            WYOMING:   STATE
 CTRY. UNITED STATES OF AMERICA:   COUNTRY
 SRVC.            Unknown:   SERVICE COMPANY
 DATE.        06-SEP-1987:   LOGDATE
 API .       490251116000:   API NUMBER
~CURVE INFORMATION
#MNEM.UNIT       API CODE    CURVE DESCRIPTION
#----------   ------------   ------------------------------
 DEPT.F                  :   
 TGAS.UNITS  91 830 01 00:   TOTAL GAS FROM HOTWIRE
 ROP .MIN/FT 91 810 01 00:   RAT OF DRILLING PENETRATION
~PARAMETER INFORMATION
#MNEM.UNIT          VALUE    DESCRIPTION
#----------   ------------   ------------------------------
 DATE.             9-6-87:   RUN DATE
 BLI .F              1644:   BOTTOM LOG INTERVAL
 TLI .F               834:   TOP LOG INTERVAL
 LUN .              T-146:   LOGGING UNIT NUMBER
 ENGI.               HUSK:   RECORDING ENGINEER
 WITN.              TOWER:   WITNESSED BY
 CLNT.            A2DTECH:   CLIENT CODE
 ORIG.           5" PRINT:   ORIGIN OF DATA
 UWI .       490251116000:   UNIQUE WELL ID
 DICO. A2D Technologies, Inc.:   DIGITIZING COMPANY
~OTHER INFORMATION
~A   DEPT       TGAS        ROP 
# ...
 1199.0000    62.1299     0.4189
 1199.5000    62.1792     0.4199
 1200.0000    62.2325     0.4210
 1200.5000    62.2035     0.4198
 1201.0000    62.1720     0.4185
 1201.5000    62.1405     0.4172
 1202.0000    62.1090     0.4159
 1202.5000    62.0774     0.4147
 1203.0000    62.0459     0.4134
 1203.5000    62.0144     0.4121
 1204.0000    61.9829     0.4108
 1204.5000    61.9514     0.4095
 1205.0000    61.9199     0.4082
 1205.5000    61.8884     0.4070
 1206.0000    61.8569     0.4057
 1206.5000    61.8253     0.4044
 1207.0000    61.7938     0.4031
 1207.5000    61.7623     0.4018
 1208.0000    61.7308     0.4005
 1208.5000    61.6993     0.3992
 1209.0000    61.6678     0.3980
 1209.5000    61.6363     0.3967
 1210.0000    61.6047     0.3954
 1210.5000    61.5732     0.3941
 1211.0000    61.5417     0.3928
 1211.5000    61.5102     0.3915
 1212.0000    61.4787     0.3902
 1212.5000    61.4472     0.3890
 1213.0000    61.4157     0.3877
 1213.5000    61.3842     0.3864
 1214.0000    61.3526     0.3851
 1214.5000    61.3211     0.3838
 1215.0000    61.2896     0.3825
 1215.5000    61.2581     0.3812
 1216.0000    61.2266     0.3800
 1216.5000    61.1951     0.3787
 1217.0000    61.1636     0.3774
 1217.5000    61.1320     0.3761
 1218.0000    61.1005     0.3748
 1218.5000    61.0690     0.3735
 1219.0000    61.0375     0.3722
 1219.5000    61.0060     0.3710
 1220.0000    60.9745     0.3390
 1220.5000    60.9850     0.3503
 1221.0000    60.9955     0.3513
 1221.5000    61.0060     0.3523
 1222.0000    61.0165     0.3225
 1222.5000    61.0270     0.2925
 1223.0000    61.0375     0.2832
 1223.5000    61.0480     0.2845
 1224.0000    61.0585     0.2855
 1224.5000    61.0690     0.2865
 1225.0000    61.0795     0.2876
 1225.5000    61.0900     0.2886
 1226.0000    61.1005     0.2896
 1226.5000    61.1110     0.2801
 1227.0000    61.1215     0.2708
 1227.5000    61.1320     0.2721
 1228.0000    61.1425     0.2731
 1228.5000    61.1530     0.2639
 1229.0000    61.1635     0.2752
 1229.5000    61.1740     0.2967
 1230.0000    61.1845     0.2977
 1230.5000    61.1951     0.2988
 1231.0000    61.2056     0.2998
 1231.5000    61.2161     0.2905
 1232.0000    61.2266     0.2916
 1232.5000    61.2371     0.2926
 1233.0000    61.2476     0.2938
 1233.5000    61.2581     0.2949
 1234.0000    61.2686     0.2959
 1234.5000    61.2791     0.2969
 1235.0000    61.2896     0.2979
 1235.5000    61.3001     0.2989
 1236.0000    61.3106     0.2999
 1236.5000    61.3211     0.3010
 1237.0000    61.3316     0.3020
 1237.5000    61.3421     0.3030
 1238.0000    61.3526     0.3040
 1238.5000    61.3631     0.3050
 1239.0000    61.3736     0.3061
 1239.5000    61.3841     0.3071
 1240.0000    61.3955     0.3080
 1240.5000    61.4147     0.3089
 1241.0000    61.4356     0.3099
 1241.5000    61.4566     0.3108
 1242.0000    61.4775     0.3117
 1242.5000    61.4984     0.3126
 1243.0000    61.5193     0.3136
 1243.5000    61.5402     0.3145
 1244.0000    61.5612     0.3154
 1244.5000    61.5821     0.3164
 1245.0000    61.6030     0.3173
 1245.5000    61.6239     0.3182
 1246.0000    61.6449     0.3191
 1246.5000    61.6658     0.3201
 1247.0000    61.6867     0.3210
 1247.5000    61.7076     0.3219
 1248.0000    61.7286     0.3229
 1248.5000    61.7495     0.3238
 1249.0000    61.7704     0.3247
 1249.5000    61.7913     0.3256
 1250.0000    61.8123     0.3266
 1250.5000    61.8332     0.3275
 1251.0000    61.8541     0.3284
 1251.5000    61.8750     0.3294
 1252.0000    61.8960     0.3303
 1252.5000    61.9169     0.3311
 1253.0000    61.9378     0.3317
 1253.5000    61.9587     0.3527
 1254.0000    61.9797     0.3738
 1254.5000    62.0006     0.3948
 1255.0000    62.0215     0.3953
 1255.5000    62.0424     0.3958
 1256.0000    62.0634     0.3963
 1256.5000    62.0843     0.3969
 1257.0000    62.1052     0.3974
 1257.5000    62.1261     0.3979
 1258.0000    62.1470     0.3984
 1258.5000    62.1680     0.3989
 1259.0000    62.1889     0.3994
 1259.5000    62.2098     0.4000
 1260.0000    62.2324     0.4004
 1260.5000    62.2323     0.4004
 1261.0000    62.2322     0.4004
 1261.5000    62.2321     0.4004
 1262.0000    62.2319     0.4003
 1262.5000    62.2318     0.4003
 1263.0000    62.2317     0.4003
 1263.5000    62.2316     0.4003
 1264.0000    62.2314     0.4003
 1264.5000    62.2313     0.4003
 1265.0000    62.2312     0.4003
 1265.5000    62.2310     0.4003
 1266.0000    62.2309     0.4003
 1266.5000    62.2308     0.4003
 1267.0000    62.2307     0.4003
 1267.5000    62.2305     0.4003
 1268.0000    62.2304     0.4003
 1268.5000    62.2303     0.4003
 1269.0000    62.2302     0.4003
 1269.5000    62.2300     0.4003
 1270.0000    62.2299     0.4003
 1270.5000    62.2298     0.4003
 1271.0000    62.2297     0.4003
 1271.5000    62.2295     0.4002
 1272.0000    62.2294     0.4002
 1272.5000    62.2293     0.4002
 1273.0000    62.2291     0.4002
 1273.5000    62.2290     0.4002
 1274.0000    62.2289     0.4002
 1274.5000    62.2288     0.4002
 1275.0000    62.2286     0.4002
 1275.5000    62.2285     0.4002
 1276.0000    62.2284     0.4002
 1276.5000    62.2283     0.4002
 1277.0000    62.2281     0.4002
 1277.5000    62.2280     0.4002
 1278.0000    62.2279     0.4002
 1278.5000    62.2278     0.4002
 1279.0000    62.2276     0.4002
 1279.5000    62.2275     0.4002
 1280.0000    62.2274     0.4003
 1280.5000    62.2169     0.4011
 1281.0000    62.2065     0.4019
 1281.5000    62.1961     0.4027
 1282.0000    62.1856     0.4035
 1282.5000    62.1752     0.4042
 1283.0000    62.1647     0.4050
 1283.5000    62.1543     0.4058
 1284.0000    62.1439     0.4066
 1284.5000    62.1334     0.4073
 1285.0000    62.1230     0.4081
 1285.5000    62.1125     0.4089
 1286.0000    62.1021     0.4098
 1286.5000    62.0916     0.3900
 1287.0000    62.0812     0.3700
 1287.5000    62.0708     0.3401
 1288.0000    62.0603     0.3292
 1288.5000    62.0499     0.3108
 1289.0000    62.0394     0.3117
 1289.5000    62.0290     0.3124
 1290.0000    62.0186     0.3132
 1290.5000    62.0081     0.3139
 1291.0000    61.9977     0.3148
 1291.5000    61.9872     0.3156
 1292.0000    61.9768     0.3163
 1292.5000    61.9664     0.3170
 1293.0000    61.9559     0.3178
 1293.5000    61.9455     0.3185
 1294.0000    61.9350     0.3194
 1294.5000    61.9246     0.3202
 1295.0000    61.9142     0.3209
 1295.5000    61.9037     0.3217
 1296.0000    61.8933     0.3224
 1296.5000    61.8828     0.3232
 1297.0000    61.8724     0.3241
 1297.5000    61.8619     0.3248
 1298.0000    61.8515     0.3255
 1298.5000    61.8411     0.3263
 1299.0000    61.8306     0.3270
 1299.5000    61.8202     0.3278
 1300.0000    61.8097     0.3285
 1300.5000    61.8097     0.3277
 1301.0000    61.8097     0.3269
 1301.5000    61.8097     0.3261
 1302.0000    61.8097     0.3254
 1302.5000    61.8097     0.3246
 1303.0000    61.8097     0.3238
 1303.5000    61.8097     0.3231
 1304.0000    61.8097     0.3223
 1304.5000    61.8097     0.3215
 1305.0000    61.8097     0.3208
 1305.5000    61.8097     0.3200
 1306.0000    61.8097     0.3192
 1306.5000    61.8097     0.3185
 1307.0000    61.8097     0.3177
 1307.5000    61.8097     0.3170
 1308.0000    61.8097     0.3162
 1308.5000    61.8097     0.3154
 1309.0000    61.8097     0.3147
 1309.5000    61.8097     0.3139
 1310.0000    61.8097     0.3131
 1310.5000    61.8097     0.3124
 1311.0000    61.8097     0.3116
 1311.5000    61.8097     0.3108
 1312.0000    61.8097     0.3101
 1312.5000    61.8097     0.3093
 1313.0000    61.8097     0.3085
 1313.5000    61.8097     0.3078
 1314.0000    61.8097     0.3070
 1314.5000    61.8097     0.3063
 1315.0000    61.8097     0.3055
 1315.5000    61.8097     0.3047
 1316.0000    61.8097     0.3040
 1316.5000    61.8097     0.3032
 1317.0000    61.8097     0.3024
 1317.5000    61.8097     0.3017
 1318.0000    61.8097     0.3009
 1318.5000    61.8097     0.3001
 1319.0000    61.8097     0.2994
 1319.5000    61.8097     0.2986
 1320.0000    61.8097     0.2978
