~VERSION INFORMATION
 VERS.                2.0:   CWLS LOG ASCII STANDARD - VERSION 2.0
 WRAP.                 NO:   ONE LINE PER DEPTH STEP
~WELL INFORMATION
#MNEM.UNIT      DATA TYPE    INFORMATION
#----------   ------------   ------------------------------
 STRT.F          131.0000:   START DEPTH
 STOP.F         1085.0000:   STOP DEPTH
 STEP.F            0.5000:   STEP LENGTH
 NULL.          -999.2500:   NO VALUE
 COMP. U S NAVY-INTEX OIL:   COMPANY
 WELL.     UPR #3 #66-S-2:   WELL
 FLD .             TEAPOT:   FIELD
 LOC .       S2 T38N R78W:   LOCATION
 CNTY.            NATRONA:   COUNTY
 STAT.            WYOMING:   STATE
 CTRY. UNITED STATES OF AMERICA:   COUNTRY
 SRVC.       Schlumberger:   SERVICE COMPANY
 DATE.        18-JUL-1964:   LOGDATE
 API .       490250641300:   API NUMBER
~CURVE INFORMATION
#MNEM.UNIT       API CODE    CURVE DESCRIPTION
#----------   ------------   ------------------------------
 DEPT.F                  :   
 ASN .OHMM   05 041 16 00:   AMPLIFIED SHORT NORMAL 16"
 CILD.MMHO   05 110 46 00:   CONDUCTIVITY INDUCTION LOG DEEP
 ILD .OHMM   05 120 46 00:   INDUCTION LOG DEEP
 SPR .MV     05 010 01 00:   SPONTANEOUS POTENTIAL FROM RES.
 GR  .GAPI   30 310 01 00:   GAMMA RAY
 CALS.IN     60 280 50 00:   CALIPER FROM SONIC LOG
 DT  .US/F   60 520 33 00:   INTERVAL TRANSIT TIME
~PARAMETER INFORMATION
#MNEM.UNIT          VALUE    DESCRIPTION
#----------   ------------   ------------------------------
 PD  .                 GL:   PERMANENT DATUM
 EPD .F              5204:   ELEVATION PERMANENT DATUM
 LMF .                 KB:   LOG MEASURED FROM
 DAPD.F                 5:   FEET ABOVE PERMANENT DATUM
 DMF .                 KB:   DRILLING MEASURED FROM
 EKB .F              5209:   KELLING BUSHING
 EGL .F              5204:   GROUND LEVEL
 DATE.          7-18-1964:   RUN DATE
 RUN .                  1:   RUN NUMBER
 DD  .F              1085:   DEPTH DRILLER
 DL  .F              1086:   DEPTH LOGGER
 BLI .F              1085:   BOTTOM LOG INTERVAL
 TLI .F               131:   TOP LOG INTERVAL
 CS  .IN            8.625:   CASING SIZE
 CBD .F                10:   CASING BOTTOM DRILLER
 BS  .IN             6.75:   BIT SIZE
 BSD .F              5204:   BIT SIZE AT DEPTH
 DFT .                GEL:   DRILLING FLUID TYPE
 DFD .                9.5:   DRILLING FLUID DENSITY
 DFV .                 47:   DRILLING FLUID VISCOSITY
 DFL .                 10:   DRILLING FLUID LOSS
 MSS .           FLOWLINE:   MUD SAMPLE SOURCE
 RMS .OHMM           2.58:   RESISTIVITY MUD SAMPLE
 MST .F                93:   MUD SAMPLE TEMPERATURE
 RMF .OHMM           2.27:   RESISTIVITY MUD FILTRATE SAMPLE
 MFST.F                93:   MUD FILTRATE SAMPLE TEMPERATURE
 MFSS.                 FP:   MUD FILTRATE SAMPLE SOURCE
 TCS .HRS             1.5:   TIME CURCULATED STOPPED
 LUN .               3527:   LOGGING UNIT NUMBER
 LUL .              CSPR.:   LOGGING UNIT LOCATION
 ENGI.            WINKLER:   RECORDING ENGINEER
 WITN.          JORGENSEN:   WITNESSED BY
 CLNT.            A2DTECH:   CLIENT CODE
 ORIG.    1" , 2.5" PRINT:   ORIGIN OF DATA
 UWI .       490250641300:   UNIQUE WELL ID
 DICO. A2D Technologies, Inc.:   DIGITIZING COMPANY
~OTHER INFORMATION
~A   DEPT      ASN       CILD        ILD        SPR         GR       CALS         DT   
# ...
  313.0000     6.8225   167.1687     6.5671   -43.9515  -999.2500  -999.2500  -999.2500
  313.5000     6.9452   167.1687     6.6742   -44.0897  -999.2500  -999.2500  -999.2500
  314.0000     6.9905   167.1687     6.7173   -44.2441  -999.2500  -999.2500  -999.2500
  314.5000     6.9909   167.5653     6.7791   -44.2434  -999.2500  -999.2500  -999.2500
  315.0000     6.9679   169.1264     6.8676   -44.2353  -999.2500  -999.2500  -999.2500
  315.5000     6.9431   173.1928     6.8683   -43.9477  -999.2500  -999.2500  -999.2500
  316.0000     6.9609   176.6868     6.8691   -43.9471  -999.2500  -999.2500  -999.2500
  316.5000     7.0697   181.3857     6.8698   -43.9463  -999.2500  -999.2500  -999.2500
  317.0000     7.1820   185.0803     6.7741   -43.8196  -999.2500  -999.2500  -999.2500
  317.5000     6.9467   187.6004     6.6487   -43.6507  -999.2500  -999.2500  -999.2500
  318.0000     6.3125   190.1205     6.4722   -43.6500  -999.2500  -999.2500  -999.2500
  318.5000     6.2914   192.7711     6.2491   -43.6492  -999.2500  -999.2500  -999.2500
  319.0000     6.4521   195.1606     6.1181   -43.3543  -999.2500  -999.2500  -999.2500
  319.5000     6.4434   196.7319     5.8327   -43.5544  -999.2500  -999.2500  -999.2500
  320.0000     6.2229   195.1807     5.6151   -43.6471  -999.2500  -999.2500  -999.2500
  320.5000     6.1330   191.4006     5.3636   -43.6463  -999.2500  -999.2500  -999.2500
  321.0000     6.1071   187.4095     5.2396   -43.6456  -999.2500  -999.2500  -999.2500
  321.5000     6.0594   182.2289     5.2403   -43.6449  -999.2500  -999.2500  -999.2500
  322.0000     6.0485   177.3295     5.2411   -43.6441  -999.2500  -999.2500  -999.2500
  322.5000     6.0639   173.2681     5.2418   -43.4118  -999.2500  -999.2500  -999.2500
  323.0000     6.1315   170.9538     5.4861   -43.3485  -999.2500  -999.2500  -999.2500
  323.5000     6.3179   170.1807     5.5409   -43.3478  -999.2500  -999.2500  -999.2500
  324.0000     6.6757   170.1807     5.6944   -43.3471  -999.2500  -999.2500  -999.2500
  324.5000     6.7601   170.1807     5.8400   -43.3463  -999.2500  -999.2500  -999.2500
  325.0000     6.7160   171.6868     5.9028   -43.3578  -999.2500  -999.2500  -999.2500
  325.5000     6.6838   172.6958     6.1391   -43.6389  -999.2500  -999.2500  -999.2500
  326.0000     6.6590   173.9558     6.1400   -43.6382  -999.2500  -999.2500  -999.2500
  326.5000     6.6516   175.2159     6.1406   -43.8123  -999.2500  -999.2500  -999.2500
  327.0000     6.6855   176.4759     6.0523   -43.9309  -999.2500  -999.2500  -999.2500
  327.5000     6.7618   177.7611     5.9933   -43.9301  -999.2500  -999.2500  -999.2500
  328.0000     6.8214   180.7229     5.9940   -43.9294  -999.2500  -999.2500  -999.2500
  328.5000     6.8216   180.7229     5.9738   -43.9287  -999.2500  -999.2500  -999.2500
  329.0000     6.7901   180.7229     5.8467   -43.9278  -999.2500  -999.2500  -999.2500
  329.5000     6.7402   180.7229     5.8476   -43.9272  -999.2500  -999.2500  -999.2500
  330.0000     6.6903   180.7229     5.8482   -43.7647  -999.2500  -999.2500  -999.2500
  330.5000     6.6380   180.7229     5.8490   -43.5137  -999.2500  -999.2500  -999.2500
  331.0000     6.5568   180.7229     5.7934   -43.3368  -999.2500  -999.2500  -999.2500
  331.5000     6.4321   180.7229     5.7016   -43.3059  -999.2500  -999.2500  -999.2500
  332.0000     6.3329   180.7229     5.7024   -43.0411  -999.2500  -999.2500  -999.2500
  332.5000     6.2914   180.7229     5.7032   -42.8039  -999.2500  -999.2500  -999.2500
  333.0000     6.4692   180.7229     5.5895   -42.7456  -999.2500  -999.2500  -999.2500
  333.5000     6.6175   180.7229     5.5558   -42.7449  -999.2500  -999.2500  -999.2500
  334.0000     6.6787   180.7229     5.5565   -42.7441  -999.2500  -999.2500  -999.2500
  334.5000     6.7385   179.6235     5.6036   -42.8044  -999.2500  -999.2500  -999.2500
  335.0000     6.7663   178.3635     5.7068   -43.0539  -999.2500  -999.2500  -999.2500
  335.5000     6.7666   176.4960     5.7085   -43.3301  -999.2500  -999.2500  -999.2500
  336.0000     6.7669   174.3373     5.8573   -43.3294  -999.2500  -999.2500  -999.2500
  336.5000     6.7672   172.7310     5.8579   -43.3287  -999.2500  -999.2500  -999.2500
  337.0000     6.7215   167.1687     5.9402   -43.3279  -999.2500  -999.2500  -999.2500
  337.5000     6.6901   163.7801     6.0671   -43.2353  -999.2500  -999.2500  -999.2500
  338.0000     6.7633   159.1164     6.2302   -42.9843  -999.2500  -999.2500  -999.2500
  338.5000     6.9523   155.3514     6.4831   -42.7375  -999.2500  -999.2500  -999.2500
  339.0000     7.1935   153.2229     6.7545   -42.7366  -999.2500  -999.2500  -999.2500
  339.5000     7.3973   151.9628     6.9891   -42.7360  -999.2500  -999.2500  -999.2500
  340.0000     7.7752   150.6024     7.4305   -42.9020  -999.2500  -999.2500  -999.2500
  340.5000     7.9447   150.6024     7.7927   -43.1515  -999.2500  -999.2500  -999.2500
  341.0000     7.8791   152.4298     7.9479   -43.3221  -999.2500  -999.2500  -999.2500
  341.5000     7.6908   154.9498     7.9225   -43.3213  -999.2500  -999.2500  -999.2500
  342.0000     7.5385   158.3133     7.7971   -43.3206  -999.2500  -999.2500  -999.2500
  342.5000     7.4416   163.1778     7.6526   -43.3199  -999.2500  -999.2500  -999.2500
  343.0000     7.3627   167.1687     7.4395   -43.1216  -999.2500  -999.2500  -999.2500
  343.5000     7.2916   168.3584     7.1880   -42.8706  -999.2500  -999.2500  -999.2500
  344.0000     7.2166   167.7309     6.9980   -42.7294  -999.2500  -999.2500  -999.2500
  344.5000     7.1564   165.0752     6.8726   -42.7287  -999.2500  -999.2500  -999.2500
  345.0000     7.0962   161.2952     6.7633   -42.7279  -999.2500  -999.2500  -999.2500
  345.5000     7.0212   157.5151     6.7642   -42.7271  -999.2500  -999.2500  -999.2500
  346.0000     6.9503   153.6145     6.7649   -42.9549  -999.2500  -999.2500  -999.2500
  346.5000     7.3352   151.1747     6.9593   -43.2044  -999.2500  -999.2500  -999.2500
  347.0000     7.5114   147.6807     7.2123   -43.3132  -999.2500  -999.2500  -999.2500
  347.5000     7.6600   144.6285     7.4653   -43.4093  -999.2500  -999.2500  -999.2500
  348.0000     7.7728   141.6264     7.7183   -43.6588  -999.2500  -999.2500  -999.2500
  348.5000     7.8735   137.8463     7.9712   -43.8993  -999.2500  -999.2500  -999.2500
  349.0000     7.9822   134.0361     8.2575   -43.8984  -999.2500  -999.2500  -999.2500
  349.5000     8.1358   131.5361     8.3677   -43.8978  -999.2500  -999.2500  -999.2500
  350.0000     8.5504   130.0201     8.4945   -44.0686  -999.2500  -999.2500  -999.2500
  350.5000     8.7321   129.5181     8.5573   -44.1904  -999.2500  -999.2500  -999.2500
  351.0000     8.9269   131.0542     8.5166   -44.1059  -999.2500  -999.2500  -999.2500
  351.5000     8.9574   135.1005     8.3912   -43.8949  -999.2500  -999.2500  -999.2500
  352.0000     8.7937   140.1807     8.2619   -43.8941  -999.2500  -999.2500  -999.2500
  352.5000     8.5865   149.0964     8.1405   -43.8932  -999.2500  -999.2500  -999.2500
  353.0000     8.2858   154.2671     8.0151   -43.4878  -999.2500  -999.2500  -999.2500
  353.5000     8.0806   154.2621     7.8898   -43.1451  -999.2500  -999.2500  -999.2500
  354.0000     7.8367   151.5663     7.7644   -42.8941  -999.2500  -999.2500  -999.2500
  354.5000     7.6137   150.6024     7.6076   -42.5723  -999.2500  -999.2500  -999.2500
  355.0000     7.4413   150.5522     7.3648   -42.1250  -999.2500  -999.2500  -999.2500
  355.5000     7.3259   149.0964     7.2255   -42.1242  -999.2500  -999.2500  -999.2500
  356.0000     7.2521   148.0321     7.1141   -41.8902  -999.2500  -999.2500  -999.2500
  356.5000     7.6962   147.5904     7.1675   -41.8287  -999.2500  -999.2500  -999.2500
  357.0000     7.8225   148.1626     7.2944   -41.8279  -999.2500  -999.2500  -999.2500
  357.5000     7.9569   149.4227     7.4653   -41.9289  -999.2500  -999.2500  -999.2500
  358.0000     8.1187   150.6827     7.6756   -42.1206  -999.2500  -999.2500  -999.2500
