~VERSION INFORMATION
 VERS.                2.0:   CWLS LOG ASCII STANDARD - VERSION 2.0
 WRAP.                 NO:   ONE LINE PER DEPTH STEP
~WELL INFORMATION
#MNEM.UNIT      DATA TYPE    INFORMATION
#----------   ------------   ------------------------------
 STRT.F          160.0000:   START DEPTH
 STOP.F         1181.5000:   STOP DEPTH
 STEP.F            0.5000:   STEP LENGTH
 NULL.          -999.2500:   NO VALUE
 COMP.            US NAVY:   COMPANY
 WELL. RES 3 TEAPOT DOM #71-SX-14:   WELL
 FLD .             TEAPOT:   FIELD
 LOC .      S14 T38N R78W:   LOCATION
 CNTY.            NATRONA:   COUNTY
 STAT.            WYOMING:   STATE
 CTRY. UNITED STATES OF AMERICA:   COUNTRY
 SRVC.       Schlumberger:   SERVICE COMPANY
 DATE.        23-AUG-1959:   LOGDATE
 API .       490250632200:   API NUMBER
~CURVE INFORMATION
#MNEM.UNIT       API CODE    CURVE DESCRIPTION
#----------   ------------   ------------------------------
 DEPT.F                  :   
 SPR .MV     05 010 01 00:   SPONTANEOUS POTENTIAL FROM RES.
 IL  .OHMM   05 120 00 00:   INDUCTION LOG
 ASN .OHMM   05 041 16 00:   AMPLIFIED SHORT NORMAL 16"
 CIL .MMHO   05 110 00 00:   CONDUCTIVITY INDUCTION LOG
~PARAMETER INFORMATION
#MNEM.UNIT          VALUE    DESCRIPTION
#----------   ------------   ------------------------------
 PD  .                 GL:   PERMANENT DATUM
 EPD .F              5259:   ELEVATION PERMANENT DATUM
 LMF .                 KB:   LOG MEASURED FROM
 DAPD.F                 4:   FEET ABOVE PERMANENT DATUM
 DMF .                 KB:   DRILLING MEASURED FROM
 EKB .F              5263:   KELLING BUSHING
 EGL .F              5259:   GROUND LEVEL
 DATE.            8-23-59:   RUN DATE
 RUN .                  1:   RUN NUMBER
 DD  .F              1190:   DEPTH DRILLER
 DL  .F              1186:   DEPTH LOGGER
 BLI .F              1180:   BOTTOM LOG INTERVAL
 TLI .F               150:   TOP LOG INTERVAL
 CBD .F                17:   CASING BOTTOM DRILLER
 BS  .IN             6.75:   BIT SIZE
 BSD .F              1190:   BIT SIZE AT DEPTH
 DFT .                GEL:   DRILLING FLUID TYPE
 DFD .                9.5:   DRILLING FLUID DENSITY
 DFV .                 52:   DRILLING FLUID VISCOSITY
 MSS .           FLOWLINE:   MUD SAMPLE SOURCE
 RMS .OHMM            2.6:   RESISTIVITY MUD SAMPLE
 MST .F                62:   MUD SAMPLE TEMPERATURE
 MFSS.                  M:   MUD FILTRATE SAMPLE SOURCE
 MCSS.                  M:   MUD CAKE SAMPLE SOURCE
 RMB .OHMM            2.2:   RESISTIVITY MUD AT BHT
 BHT .F                80:   BOTTOM HOLE TEMPERATURE
 TCS .HRS               1:   TIME CURCULATED STOPPED
 MRT .F                80:   MAXIMUM RECORDED TEMPERATURE
 LUN .               2523:   LOGGING UNIT NUMBER
 LUL .               CSPR:   LOGGING UNIT LOCATION
 ENGI.             ATWOOD:   RECORDING ENGINEER
 WITN.             MARTIN:   WITNESSED BY
 CLNT.            A2DTECH:   CLIENT CODE
 ORIG.     1", 2.5" PRINT:   ORIGIN OF DATA
 UWI .       490250632200:   UNIQUE WELL ID
 DICO. A2D Technologies, Inc.:   DIGITIZING COMPANY
~OTHER INFORMATION
~A   DEPT      SPR           IL        ASN      CIL   
# ...
  306.0000   -57.8060     7.5134     7.5367   159.4758
  306.5000   -57.6497     7.4387     7.3881   162.2411
  307.0000   -57.4917     7.3654     7.3132   165.0064
  307.5000   -57.3334     7.2925     7.3592   167.7717
  308.0000   -57.1745     7.2125     7.4405   170.5370
  308.5000   -57.0173     7.1992     7.5168   171.6926
  309.0000   -56.8605     7.2526     7.5949   169.8847
  309.5000   -56.6920     7.2989     7.6766   166.8052
  310.0000   -56.5957     7.3456     7.7159   163.7257
  310.5000   -56.6420     7.3937     7.7126   160.6462
  311.0000   -56.7316     7.4407     7.7103   159.4358
  311.5000   -56.8187     7.4881     7.7397   159.4358
  312.0000   -56.9088     7.5355     7.8001   159.4358
  312.5000   -56.9974     7.5828     7.8579   159.4358
  313.0000   -57.0864     7.6301     7.9156   158.3327
  313.5000   -57.1756     7.6773     7.9740   156.5730
  314.0000   -57.2643     7.7249     8.0320   154.8132
  314.5000   -57.3539     7.7719     8.0898   153.0535
  315.0000   -57.4423     7.8189     8.1487   151.2938
  315.5000   -57.5302     7.8685     8.2061   149.5341
  316.0000   -57.6263     7.8920     8.2632   147.7743
  316.5000   -57.6871     7.8905     8.3275   147.1790
  317.0000   -57.6395     7.8828     8.3233   147.1790
  317.5000   -57.5202     7.8661     8.2504   147.1790
  318.0000   -57.4036     7.8498     8.1849   148.0295
  318.5000   -57.2839     7.8338     8.1191   149.2864
  319.0000   -57.1656     7.8175     8.0513   150.5271
  319.5000   -57.0467     7.8014     7.9854   151.7916
  320.0000   -56.9284     7.7853     7.9195   153.0548
  320.5000   -56.8100     7.7691     7.8492   154.3158
  321.0000   -56.6889     7.7530     7.8162   155.5756
  321.5000   -56.6052     7.7371     7.8199   157.1925
  322.0000   -56.6278     7.7201     7.8173   157.6918
  322.5000   -56.6979     7.7121     7.8382   157.6848
  323.0000   -56.7686     7.7130     7.8837   157.0457
  323.5000   -56.8402     7.7127     7.9253   156.1659
  324.0000   -56.9112     7.7129     7.9680   155.2860
  324.5000   -56.9825     7.7128     8.0126   154.4061
  325.0000   -57.0540     7.7125     8.0331   154.1829
  325.5000   -57.1247     7.7146     8.0354   155.0642
  326.0000   -57.1967     7.6941     7.9913   156.2374
  326.5000   -57.2677     7.6511     7.8987   157.4061
  327.0000   -57.3217     7.6105     7.8095   158.5806
  327.5000   -57.3232     7.5698     7.7221   159.7550
  328.0000   -57.2869     7.5286     7.6340   160.9292
  328.5000   -57.1343     7.4878     7.5382   162.1033
  329.0000   -56.9843     7.4469     7.5208   163.2771
  329.5000   -56.8305     7.4060     7.5809   164.4509
  330.0000   -56.6788     7.3645     7.6324   164.6902
  330.5000   -56.5253     7.3250     7.6880   164.6887
  331.0000   -56.3728     7.2822     7.7152   164.6887
  331.5000   -56.2509     7.2411     7.7115   164.6887
  332.0000   -56.2518     7.2083     7.7156   164.6887
  332.5000   -56.2552     7.0904     7.6840   164.6887
  333.0000   -56.3449     6.9951     7.6191   164.6887
  333.5000   -56.4200     7.0034     7.5587   165.0542
  334.0000   -56.5009     7.0203     7.4901   165.4942
  334.5000   -56.5797     7.0558     7.4942   165.9279
  335.0000   -56.6587     7.0926     7.5721   166.4321
  335.5000   -56.7376     7.1272     7.6417   166.4319
  336.0000   -56.8173     7.1631     7.7123   166.4338
  336.5000   -56.8962     7.1984     7.7836   164.9207
  337.0000   -56.9621     7.2340     7.8540   163.1633
  337.5000   -56.9642     7.2696     7.9276   161.4072
  338.0000   -56.9649     7.3041     7.9640   159.6522
  338.5000   -56.9621     7.3419     7.9620   157.8972
  339.0000   -56.9308     7.3604     7.9534   156.1408
  339.5000   -56.9024     7.3535     8.0390   154.3821
  340.0000   -56.8719     7.4045     8.2148   152.4449
  340.5000   -56.8425     7.5112     8.3802   152.4420
  341.0000   -56.8128     7.6111     8.5571   152.4381
  341.5000   -56.7831     7.7127     8.6418   150.5642
  342.0000   -56.7534     7.8144     8.6449   148.5097
  342.5000   -56.7236     7.9140     8.7387   146.4567
  343.0000   -56.6948     8.0210     8.8984   144.4037
  343.5000   -56.6632     8.0724     9.0403   142.3507
  344.0000   -56.6358     8.0628     9.1875   140.2977
  344.5000   -56.6131     8.1079     9.3976   138.2446
  345.0000   -56.6918     8.2017     9.1951   136.1916
  345.5000   -56.7678     8.2893     9.2715   134.1386
  346.0000   -56.8488     8.3771     9.5876   132.0856
  346.5000   -56.9273     8.4678     9.6418   130.0326
  347.0000   -57.0064     8.5551     9.4624   127.9183
  347.5000   -57.0851     8.6419     9.3130   129.6255
  348.0000   -57.1656     8.7421     9.1948   131.3852
  348.5000   -57.2431     8.7159     9.1130   133.1449
  349.0000   -57.3171     8.5614     9.0307   134.9047
  349.5000   -57.3230     8.4221     8.9482   136.6644
  350.0000   -57.3212     8.2824     8.8638   138.4241
  350.5000   -57.3132     8.1319     8.7828   140.1751
  351.0000   -57.1597     8.0616     8.7067   140.1751
  351.5000   -57.0016     8.0685     8.6223   140.1751
  352.0000   -56.8372     8.0672     8.7326   140.1751
  352.5000   -56.6765     8.0666     9.0374   140.1751
  353.0000   -56.5149     8.0677     9.4438   142.5798
  353.5000   -56.3525     8.0670     9.3055   144.9261
  354.0000   -56.1911     8.0680     8.8223   147.1790
  354.5000   -56.0308     8.0675     8.6264   147.1790
  355.0000   -55.8646     8.0665     8.5353   147.1790
  355.5000   -55.7101     8.0730     8.2859   147.1790
  356.0000   -55.5497     8.0090     8.0592   150.5198
  356.5000   -55.6327     7.8744     7.8218   153.6873
  357.0000   -55.7293     7.7474     7.6846   156.8549
  357.5000   -55.8356     7.6199     7.6774   160.0224
  358.0000   -55.9347     7.4910     7.6767   162.9377
  358.5000   -56.0384     7.3633     7.6813   164.4576
  359.0000   -56.1381     7.2351     7.6234   165.8654
  359.5000   -56.2420     7.1070     7.4989   167.2731
  360.0000   -56.2457     6.9789     7.3820   168.6809
  360.5000   -56.1536     6.8509     7.2642   169.9416
  361.0000   -56.0429     6.7228     7.1453   174.0717
  361.5000   -55.9331     6.5946     7.0279   177.8112
  362.0000   -55.8242     6.4661     6.8981   181.5506
  362.5000   -55.7145     6.3390     6.7559   185.2900
  363.0000   -55.6049     6.2088     6.5862   189.0294
  363.5000   -55.4957     6.0825     6.3848   192.7688
  364.0000   -55.3856     5.9566     6.1684   196.5083
  364.5000   -55.2765     5.8127     6.1241   199.7082
  365.0000   -55.1681     5.8404     6.2510   201.4591
  365.5000   -55.0544     6.0037     6.3599   201.4392
  366.0000   -54.9529     6.1161     6.4707   201.4245
  366.5000   -54.8334     6.2342     6.5833   201.4172
  367.0000   -54.9527     6.3542     6.6934   197.3185
  367.5000   -55.1081     6.4702     6.8109   193.8058
  368.0000   -55.2701     6.5949     6.8651   190.2972
  368.5000   -55.4266     6.6542     6.8647   186.7884
  369.0000   -55.5849     6.6481     6.8224   183.2841
  369.5000   -55.7429     6.6491     6.7224   180.4475
  370.0000   -55.9034     6.6496     6.7077   180.4475
  370.5000   -56.0563     6.6488     6.7746   180.4475
  371.0000   -56.2132     6.6492     6.8328   180.6926
  371.5000   -56.1250     6.6490     6.8816   181.8658
  372.0000   -55.9583     6.6489     6.8979   183.0389
  372.5000   -55.7921     6.6489     6.9047   183.9494
  373.0000   -55.6299     6.6489     6.9246   183.9494
  373.5000   -55.4648     6.6489     6.9332   183.7025
  374.0000   -55.3008     6.6489     6.9335   182.6467
  374.5000   -55.1367     6.6490     6.9172   181.5909
  375.0000   -54.9721     6.6491     6.8781   180.5350
  375.5000   -54.8084     6.6488     6.8573   179.4792
  376.0000   -54.6441     6.6495     6.9052   178.6965
  376.5000   -54.4791     6.6491     7.0030   178.7893
  377.0000   -54.3180     6.6483     7.1081   179.1287
  377.5000   -54.1521     6.6533     7.0734   179.4779
  378.0000   -54.1315     6.6040     6.8985   179.8272
  378.5000   -54.1747     6.5005     6.7197   180.1805
