~VERSION INFORMATION
 VERS.                2.0:   CWLS LOG ASCII STANDARD - VERSION 2.0
 WRAP.                 NO:   ONE LINE PER DEPTH STEP
~WELL INFORMATION
#MNEM.UNIT      DATA TYPE    INFORMATION
#----------   ------------   ------------------------------
 STRT.F           44.0000:   START DEPTH
 STOP.F          485.0000:   STOP DEPTH
 STEP.F            0.5000:   STEP LENGTH
 NULL.          -999.2500:   NO VALUE
 COMP. LAWRENCE/ALLISON INC:   COMPANY
 WELL.      NPR 3 #55-51S:   WELL
 FLD .             TEAPOT:   FIELD
 LOC .       S3 T38N R78W:   LOCATION
 CNTY.            NATRONA:   COUNTY
 STAT.            WYOMING:   STATE
 CTRY. UNITED STATES OF AMERICA:   COUNTRY
 SRVC.      Dresser Atlas:   SERVICE COMPANY
 DATE.        12-DEC-1983:   LOGDATE
 API .       490251095400:   API NUMBER
~CURVE INFORMATION
#MNEM.UNIT       API CODE    CURVE DESCRIPTION
#----------   ------------   ------------------------------
 DEPT.F                  :   
 CALR.IN     10 280 01 00:   CALIPER FROM RESISTIVITY
 RATI.CMP    99 420 01 00:   RATIO
 RES .OHMM   10 220 00 00:   RESISTIVITY
 DEC .       99 000 00 00:   DEC
 P6  .G/C3   99 000 00 00:   P6
 PHAS.       99 000 00 00:   PHASE
 PORE.DEC    99 890 00 00:   PORE
~PARAMETER INFORMATION
#MNEM.UNIT          VALUE    DESCRIPTION
#----------   ------------   ------------------------------
 PD  .                 GL:   PERMANENT DATUM
 EPD .F              5161:   ELEVATION PERMANENT DATUM
 LMF .                 KB:   LOG MEASURED FROM
 DAPD.F                10:   FEET ABOVE PERMANENT DATUM
 DMF .                 KB:   DRILLING MEASURED FROM
 EKB .F              5171:   KELLING BUSHING
 EGL .F              5161:   GROUND LEVEL
 DATE.        12-DEC-1983:   RUN DATE
 RUN .                  1:   RUN NUMBER
 DD  .F               490:   DEPTH DRILLER
 DL  .F               489:   DEPTH LOGGER
 BLI .F               487:   BOTTOM LOG INTERVAL
 TLI .F                 0:   TOP LOG INTERVAL
 CS  .IN            10.75:   CASING SIZE
 CBD .F                52:   CASING BOTTOM DRILLER
 CBL .F                46:   CASING BOTTOM LOGGER
 BS  .IN             8.75:   BIT SIZE
 BSD .F               490:   BIT SIZE AT DEPTH
 DFT .           AIR FOAM:   DRILLING FLUID TYPE
 TCS .HRS               3:   TIME CURCULATED STOPPED
 MRT .F                72:   MAXIMUM RECORDED TEMPERATURE
 LUN .               6274:   LOGGING UNIT NUMBER
 LUL .               GLTE:   LOGGING UNIT LOCATION
 ENGI.             RAUTIO:   RECORDING ENGINEER
 WITN.             GROOMS:   WITNESSED BY
 CLNT.            A2DTECH:   CLIENT CODE
 ORIG.           5" PRINT:   ORIGIN OF DATA
 UWI .       490251095400:   UNIQUE WELL ID
 DICO. A2D Technologies, Inc.:   DIGITIZING COMPANY
~OTHER INFORMATION
~A   DEPT      CALR        RATI        RES       DEC          P6      PHAS        PORE 
   44.0000    10.6640     0.1932     3.9755    49.8790     2.1702    89.8647     0.0764
   44.5000    10.6940     0.0806     3.6836    20.0383     2.1700    48.9023     0.0024
   45.0000    10.6934     0.1077     3.4847     0.3840     2.1902    73.9850     0.0033
   45.5000    10.6930     0.1452     3.5817     0.3833     2.2886    72.0000     0.0041
   46.0000    10.6925     0.1513     4.0555     0.3825     2.2703    71.2782     0.0040
   46.5000    10.6921     0.1528     4.2853     0.3055     2.2527    71.4586     0.0040
   47.0000    10.6613     0.1561     4.3144     0.2304     2.2512    72.1845     0.0039
   47.5000    10.5243     0.1619     4.3104     0.2295     2.2505    73.2782     0.0021
   48.0000    10.4176     0.1755     4.4334     0.6053     2.2591    73.6241     0.0011
   48.5000    10.3413     0.2011     4.7219     2.0353     2.2653    73.2632     0.0002
   49.0000    10.3105     0.2161     4.9722     7.8327     2.2738    71.8195     0.0831
   49.5000    10.2796     0.2222     6.0059    14.2326     2.2884    69.8346     0.1868
   50.0000    10.2640     0.2462     6.8953    20.8584     2.3299    68.2105     0.3816
   50.5000    10.2483     0.2748     8.9038    23.0414     2.3522    66.7669     0.3897
   51.0000    10.2479     0.3034     9.4736    24.4714     2.3776    65.3233     0.3888
   51.5000    10.2171     0.3290    10.6531    24.5499     2.3930    62.0752     0.3851
   52.0000    10.2167     0.3546    12.1464    22.8615     2.4115    58.6466     0.3390
   52.5000    10.2010     0.3697    13.8489    20.6639     2.4261    56.6617     0.3092
   53.0000    10.1551     0.3727    13.8603    19.7996     2.4369    56.3008     0.3137
   53.5000    10.0484     0.3712    13.0080    19.4976     2.4424    57.9248     0.3623
   54.0000     9.9266     0.3682    11.8808    22.1324     2.4240    67.5168     0.4868
   54.5000     9.8338     0.3623    10.1607    29.0594     2.4134    72.8241     0.5364
   55.0000     9.7587     0.3428     8.7046    33.5767     2.4206    76.0301     0.5219
   55.5000     9.7431     0.3083     7.0238    35.0820     2.4258    78.1353     0.5137
   56.0000     9.7579     0.2948     6.6444    34.4036     2.4136    79.2180     0.5440
   56.5000     9.7421     0.2949     6.5973    34.0022     2.3891    79.7594     0.5623
   57.0000     9.7417     0.2964     6.6421    36.2093     2.3861    80.1203     0.5758
   57.5000     9.7412     0.2995     6.6868    37.8000     2.3924    80.6617     0.5856
   58.0000     9.7408     0.3040     6.7318    38.7410     2.4177    81.0226     0.5946
   58.5000     9.7403     0.3086     6.8238    39.8967     2.4301    81.3835     0.6000
   59.0000     9.7399     0.3146     7.1115    40.7243     2.4378    81.5639     0.6000
   59.5000     9.7698     0.3207     7.4626    41.4766     2.4448    81.7444     0.6000
   60.0000     9.7845     0.3252     7.7307    42.4549     2.4480    81.2030     0.6000
   60.5000     9.7676     0.3268     8.0021    40.0445     2.4388    79.9398     0.6000
   61.0000     9.7052     0.3268     8.1591    40.4954     2.4297    79.5789     0.6000
   61.5000     9.6617     0.3269     8.1013    41.0218     2.4198    79.7594     0.5969
   62.0000     9.6612     0.3254     7.9884    40.7199     2.4152    79.9398     0.5924
   62.5000     9.6608     0.3194     7.8228    40.2673     2.4199    79.9398     0.5932
   63.0000     9.6603     0.3165     7.5554    39.6642     2.4223    80.4812     0.5978
   63.5000     9.6752     0.3135     7.3478    40.1152     2.4247    81.3835     0.6000
   64.0000     9.6746     0.3121     7.0967    42.9005     2.4278    83.1880     0.6000
   64.5000     9.6742     0.3103     6.9017    42.9752     2.4349    84.4511     0.6000
   65.0000     9.6801     0.3092     6.7586    42.2213     2.4442    83.9098     0.6000
   65.5000     9.6885     0.3107     6.7572    40.6392     2.4515    82.1053     0.5974
   66.0000     9.7032     0.3123     7.0091    39.8855     2.4642    80.6617     0.5901
   66.5000     9.7027     0.3153     7.7559    39.5082     2.4773    79.9398     0.5838
   67.0000     9.6871     0.3169     7.8085    39.1310     2.4842    79.3985     0.5774
   67.5000     9.6866     0.3199     7.8065    38.3773     2.4847    79.0376     0.5674
   68.0000     9.7014     0.3199     7.8052    37.7741     2.4767    78.4962     0.5728
   68.5000     9.7008     0.3230     7.7496    39.2402     2.4699    79.0797     0.5998
   69.0000     9.7004     0.3230     7.6416    40.7092     2.4723    80.8421     0.6000
   69.5000     9.7152     0.3170     7.4832    41.9133     2.4792    81.7444     0.6000
   70.0000     9.7299     0.3094     7.2776    40.6324     2.4885    81.5639     0.5969
   70.5000     9.7446     0.3051     7.0776    38.6739     2.4955    81.0226     0.5759
   71.0000     9.7442     0.3022     6.8357    37.5436     2.4964    79.7594     0.5456
   71.5000     9.7437     0.2932     6.7404    35.8862     2.4956    77.5940     0.5029
   72.0000     9.7432     0.2888     6.6858    31.8945     2.4840    75.0677     0.4767
   72.5000     9.7428     0.2858     6.6448    31.9691     2.4560    75.9699     0.5073
   73.0000     9.7449     0.2949     6.7831    35.8087     2.4514    79.5789     0.5488
   73.5000     9.7723     0.3024     6.7814    38.3170     2.4591    81.2030     0.5902
   74.0000     9.7870     0.3010     6.7333    39.1205     2.4653    81.3835     0.5830
   74.5000     9.7864     0.2995     6.7319    38.9690     2.4623    81.3835     0.5757
   75.0000     9.8013     0.3011     6.7776    38.7423     2.4608    80.8321     0.5775
   75.5000     9.7855     0.3042     6.9179    38.2145     2.4609    80.0742     0.5684
   76.0000     9.7851     0.3089     7.1598    37.6867     2.4595    78.8571     0.5638
   76.5000     9.7846     0.3147     7.7241    37.9871     2.4580    78.3158     0.5926
   77.0000     9.7842     0.3178     7.9391    39.8689     2.4550    78.8571     0.6000
   77.5000     9.7989     0.3223     7.9319    41.1483     2.4490    79.9398     0.6000
   78.0000     9.8137     0.3254     7.7725    41.4729     2.4444    80.6617     0.6000
   78.5000     9.7980     0.3284     7.7174    40.3185     2.4445    80.1203     0.6000
   79.0000     9.8128     0.3284     7.7158    40.0858     2.4507    79.5789     0.5950
   79.5000     9.8275     0.3270     7.7143    39.9405     2.4592    79.2180     0.5968
   80.0000     9.8422     0.3300     7.9840    40.0902     2.4717    79.0376     0.6000
   80.5000     9.8568     0.3346     8.2632    41.7461     2.4690    79.3985     0.6000
   81.0000     9.8867     0.3407     8.4347    43.4773     2.4587    80.4812     0.6000
   81.5000     9.9016     0.3405     8.4919    43.4766     2.4127    81.5639     0.6000
   82.0000     9.9010     0.3152     7.9226    42.7228     2.3307    82.1053     0.5965
   82.5000     9.8854     0.3092     7.1406    40.6890     2.3139    80.8170     0.5956
   83.0000     9.8243     0.3225     7.4470    39.8599     2.3048    80.4812     0.6000
   83.5000     9.6721     0.3334     7.7627    43.9254     2.3233    81.2030     0.6000
   84.0000     9.5047     0.3454     8.0816    44.8283     2.4361    79.5789     0.5891
   84.5000     9.3664     0.3379     8.3642    40.3588     2.4883    75.4286     0.5376
   85.0000     9.3672     0.3380     8.8382    32.4773     2.5037    71.8195     0.4988
   85.5000     9.3667     0.3395     9.0846    33.3048     2.5038    71.4586     0.5210
   86.0000     9.3815     0.3516     8.3591    42.0390     2.4732    78.4962     0.5721
   86.5000     9.3963     0.3486     8.1859    42.3395     2.4664    80.1203     0.6000
   87.0000     9.4110     0.3472     8.3557    42.5647     2.4703    80.4812     0.6000
   87.5000     9.4104     0.3472     8.7079    42.7898     2.4734    80.3008     0.6000
   88.0000     9.4100     0.3458     9.0124    42.2620     2.4743    79.2180     0.6000
   88.5000     9.4095     0.3428     8.9485    40.7552     2.4720    78.3158     0.6000
   89.0000     9.4091     0.3399     8.8181    40.4533     2.4713    78.1353     0.6000
