~VERSION INFORMATION
 VERS.                2.0:   CWLS LOG ASCII STANDARD - VERSION 2.0
 WRAP.                 NO:   ONE LINE PER DEPTH STEP
~WELL INFORMATION
#MNEM.UNIT      DATA TYPE    INFORMATION
#----------   ------------   ------------------------------
 STRT.F            0.0000:   START DEPTH
 STOP.F          825.0000:   STOP DEPTH
 STEP.F            0.5000:   STEP LENGTH
 NULL.          -999.2500:   NO VALUE
 COMP. BROWN JOHN E&C INC:   COMPANY
 WELL. NAVAL PETROLEUM RESERVE 3 SHX- #21-1-2:   WELL
 FLD .             TEAPOT:   FIELD
 LOC .       S2 T38N R78W:   LOCATION
 CNTY.            NATRONA:   COUNTY
 STAT.            WYOMING:   STATE
 CTRY. UNITED STATES OF AMERICA:   COUNTRY
 SRVC.     Atlas Wireline:   SERVICE COMPANY
 DATE.        11-NOV-1991:   LOGDATE
 API .       490252247600:   API NUMBER
~CURVE INFORMATION
#MNEM.UNIT       API CODE    CURVE DESCRIPTION
#----------   ------------   ------------------------------
 DEPT.F                  :   
 GRR .GAPI   07 310 01 00:   GAMMA RAY
 RFOC.OHMM   07 220 04 00:   RESISTIVITY FOCUSED LOG
 RILD.OHMM   07 120 46 00:   INDUCTION LOG DEEP RESISTIVITY
 RILM.OHMM   07 120 44 00:   INDUCTION LOG MEDIUM RESISTIVITY
 SPR .MV     07 010 01 00:   SPONTANEOUS POTENTIAL
~PARAMETER INFORMATION
#MNEM.UNIT          VALUE    DESCRIPTION
#----------   ------------   ------------------------------
 PD  .                 GL:   PERMANENT DATUM
 EPD .F              5110:   ELEVATION PERMANENT DATUM
 LMF .                 KB:   LOG MEASURED FROM
 DAPD.F                10:   FEET ABOVE PERMANENT DATUM
 DMF .                 KB:   DRILLING MEASURED FROM
 EKB .F              5120:   KELLING BUSHING
 EGL .F              5110:   GROUND LEVEL
 DATE.        11-NOV-1991:   RUN DATE
 RUN .                  1:   RUN NUMBER
 DD  .F               830:   DEPTH DRILLER
 DL  .F               527:   DEPTH LOGGER
 BLI .F               525:   BOTTOM LOG INTERVAL
 CS  .IN            9.625:   CASING SIZE
 CBD .F                58:   CASING BOTTOM DRILLER
 CBL .F                58:   CASING BOTTOM LOGGER
 BS  .IN             8.75:   BIT SIZE
 BSD .F               830:   BIT SIZE AT DEPTH
 DFT .          KCL WATER:   DRILLING FLUID TYPE
 RMS .OHMM          0.248:   RESISTIVITY MUD SAMPLE
 MST .F                93:   MUD SAMPLE TEMPERATURE
 BHT .F               104:   BOTTOM HOLE TEMPERATURE
 TCS .HRS               2:   TIME CURCULATED STOPPED
 MRT .F               104:   MAXIMUM RECORDED TEMPERATURE
 LUN .            HL 6274:   LOGGING UNIT NUMBER
 LUL .             CASPER:   LOGGING UNIT LOCATION
 ENGI.       P. RASMUSSEN:   RECORDING ENGINEER
 WITN.        GARY STRONG:   WITNESSED BY
 CLNT.            A2DTECH:   CLIENT CODE
 ORIG.           5" PRINT:   ORIGIN OF DATA
 UWI .       490252247600:   UNIQUE WELL ID
 DICO. A2D Technologies, Inc.:   DIGITIZING COMPANY
~OTHER INFORMATION
~A    DEPT       GRR     RFOC       RILD       RILM        SPR   
# ...
  488.0000   117.6514     7.6938     7.8091     7.0581   -66.3448
  488.5000   116.4422     7.7441     7.8065     7.1043   -66.5222
  489.0000   113.4366     7.7402     7.8038     7.1512   -67.1010
  489.5000   110.1316     7.7915     7.8011     7.1449   -67.7036
  490.0000   103.8325     7.7876     7.7441     7.0474   -68.3062
  490.5000   107.4108     7.8386     7.6881     6.9481   -68.4590
  491.0000   109.1957     7.7808     7.5798     6.8501   -68.3113
  491.5000   104.3936     7.6643     7.4730     6.8005   -68.0151
  492.0000   104.0855     7.4581     7.4031     6.7513   -67.7181
  492.5000   106.4662     7.3526     7.3652     6.6101   -68.1934
  493.0000   107.3528     7.2486     7.3627     6.5170   -68.4743
  493.5000   107.6407     7.1957     7.3603     6.4251   -68.3265
  494.0000   107.6287     7.2428     7.3043     6.3780   -68.6300
  494.5000   108.5128     7.1403     7.1960     6.3759   -69.2326
  495.0000   109.3994     7.0393     7.0043     6.3297   -69.5347
  495.5000   109.6901     6.9880     6.8580     6.2839   -69.0885
  496.0000   106.0827     6.9369     6.7614     6.1953   -69.5412
  496.5000   104.2776     6.9335     6.6201     6.0239   -69.7146
  497.0000   105.7602     6.9307     6.4371     5.8168   -69.8476
  497.5000   108.7575     6.9279     6.2591     5.4974   -69.8505
  498.0000   109.9286     6.9251     5.9198     4.6245   -70.0034
  498.5000   104.5248     6.7801     5.6367     4.7197   -70.3061
  499.0000   103.0162     5.4688     5.4395     4.8845   -70.4589
  499.5000   103.3040     5.1722     5.3669     5.0550   -70.7617
  500.0000   110.7775     5.7356     5.4024     5.3045   -70.9145
  500.5000   110.7659     6.5438     5.4385     5.5279   -70.9175
  501.0000   110.4549     6.9076     5.5508     5.6814   -70.7704
  501.5000   107.7145     6.9053     5.7043     5.8391   -70.6234
  502.0000    99.9497     6.9020     5.9443     5.9317   -70.6271
  502.5000    98.7405     6.8992     6.4127     6.1247   -70.6300
  503.0000   102.0223     6.9028     6.8228     6.2086   -70.7828
  503.5000   105.9249     6.8056     6.9156     6.2926   -70.7857
  504.0000   110.1078     6.7568     6.9127     6.3342   -70.6387
  504.5000   110.3984     6.7084     6.9590     6.1629   -70.3253
  505.0000   108.5911     6.7532     7.0050     6.1612   -69.5958
  505.5000   107.0854     6.7047     7.0020     6.0745   -68.9990
  506.0000   105.5797     6.7026     6.9996     5.9892   -68.5521
  506.5000   104.9722     6.6546     6.7998     5.9876   -68.5550
  507.0000   106.7599     6.6528     6.7970     5.9860   -68.7078
  507.5000   110.3440     6.6051     6.7474     6.0264   -69.2294
  508.0000   108.8383     6.6493     6.6981     6.0663   -69.8363
  508.5000   107.6317     6.6474     6.5578     6.0646   -69.9935
  509.0000   107.0223     6.6456     6.3743     6.0169   -70.1507
  509.5000   107.6145     6.5976     6.1435     5.8141   -70.3079
  510.0000   107.9052     6.5958     5.3948     5.6536   -70.4651
  510.5000   107.5949     6.5486     4.7606     5.2372   -70.7723
  511.0000   107.2868     6.3681     4.4097     3.9408   -70.9295
  511.5000   109.0745     6.0235     4.2875     3.8320   -70.9370
  512.0000   111.7604     5.0303     4.2268     3.8048   -71.0957
  512.5000   111.6769     4.1719     4.2251     3.9926   -71.1030
  513.0000   103.6570     4.0851     4.2527     4.2809   -71.2602
  513.5000   101.8518     4.4682     4.3439     4.6574   -71.2675
  514.0000   101.2443     6.0568     4.5705     5.0490   -71.2747
  514.5000   100.9384     6.7175     4.9120     5.2986   -70.9820
  515.0000   103.0233     6.8570     5.1897     5.5991   -70.3848
  515.5000   110.2002     6.6676     5.6371     5.8353   -70.0975
  516.0000   113.1855     6.6658     6.1231     5.9977   -69.9545
  516.5000   113.7965     6.6180     6.6509     6.0797   -69.8119
  517.0000   117.3575     6.6622     6.7878     6.2058   -69.3712
  517.5000   118.8480     6.7528     6.8797     6.3381   -69.2267
  518.0000   115.5437     6.8450     7.0213     6.4211   -68.7860
  518.5000   108.6487     6.9386     7.0672     6.4636   -68.4934
  519.0000   106.5442     6.9853     7.2127     6.4619   -68.3508
  519.5000   105.9367     7.0482     7.2599     6.5507   -68.6797
  520.0000   105.6286     7.1275     7.2562     6.6404   -69.2667
  520.5000   105.0210     7.2249     7.3544     6.7313   -69.7237
  521.0000   107.4054     7.2751     7.4547     6.8229   -70.0309
  521.5000   112.4865     7.3725     7.5550     6.8685   -70.0381
  522.0000   110.3820     7.4217     7.6304     6.9144   -69.7456
  522.5000   106.4811     7.5226     7.7072     6.9605   -69.3031
  523.0000   104.0771     7.5206     7.8108     7.0067   -69.0105
  523.5000   102.2720     7.5186     7.8619     7.0656   -69.0375
  524.0000   101.6407     7.5167     7.8587     7.1011   -69.7765
  524.5000   104.7145     7.5145     7.9105     7.0987   -70.0836
  525.0000   110.7283     7.5647     7.9069     7.1462   -70.0909
  525.5000   115.1114     7.5563     7.9283     7.0459   -69.7965
  526.0000   112.7053     7.5080     7.9555     6.9953   -69.2059
  526.5000   109.1038     7.4542     7.9522     6.8967   -69.0630
  527.0000   108.4984     7.4008     7.9489     6.8473   -69.0705
  527.5000   110.5834     7.2468     7.8902     6.7886   -69.0604
  528.0000   109.6764     7.1453     7.8326     6.6565   -68.3372
  528.5000   107.8622     6.9966     7.7754     6.5631   -67.8947
  529.0000   110.1879     6.9465     7.6653     6.4710   -67.7502
  529.5000   114.4407     6.9446     7.5568     6.3802   -68.0592
  530.0000   110.8370     6.9423     7.3985     6.2907   -68.6661
  530.5000   110.2295     6.8450     7.1934     6.1120   -69.4230
  531.0000   110.8196     6.7491     6.9928     5.8659   -69.5802
  531.5000   113.2061     6.6087     6.7936     5.6255   -69.5877
  532.0000   114.6946     6.3822     6.5655     5.3207   -69.8965
  532.5000   113.1687     6.1635     6.4279     5.1738   -70.5034
  533.0000   108.3054     5.8705     6.2066     4.8934   -71.4103
  533.5000   108.6780     5.5883     5.7491     4.5330   -72.2401
  534.0000   114.0585     5.3138     4.6687     4.1128   -73.3738
  534.5000   113.1516     5.0024     3.8710     3.6510   -73.5310
  535.0000   110.7477     4.6345     3.0789     3.2553   -73.5383
  535.5000   108.0444     4.3235     2.8295     2.7491   -73.3956
  536.0000   107.4369     3.8962     2.5406     2.0686   -73.5547
  536.5000   111.3222     3.2090     2.2360     1.9430   -73.5619
  537.0000   110.9363     2.7361     2.1147     1.9292   -73.4175
  537.5000   103.5163     2.4657     2.0419     2.0244   -73.2748
  538.0000    91.8310     2.4842     2.0130     2.1244   -72.6842
  538.5000    90.6247     2.8893     2.0122     2.2140   -72.0918
  539.0000    95.7058     3.4104     2.0967     2.3122   -71.6492
  539.5000   102.8827     3.5787     2.2617     2.5771   -71.6681
  540.0000   107.6644     3.7037     2.5670     2.8786   -71.9655
  540.5000   109.1527     4.1077     3.0435     3.3056   -71.8228
  541.0000   113.4032     5.3049     3.5429     3.6923   -71.6784
  541.5000   113.9257     6.1330     3.9564     4.0956   -71.5357
  542.0000   113.9148     6.3034     4.7024     4.6708   -71.2431
  542.5000   114.5049     6.0870     5.7459     5.2899   -70.9524
  543.0000   120.1848     6.0434     6.1982     5.3265   -70.9596
  543.5000   121.0764     5.9587     6.3698     5.4357   -71.1264
  544.0000   115.6763     5.9160     6.4560     5.4720   -71.4258
  544.5000   115.6607     5.9145     6.4982     5.5086   -71.5830
  545.0000   119.0720     5.9129     6.4949     5.4687   -71.5902
  545.5000   123.7318     5.9523     6.4923     5.3920   -71.4458
  546.0000   123.4237     6.0337     6.4004     5.3533   -71.1550
  546.5000   120.4210     6.0806     6.1801     5.2782   -71.0105
  547.0000   115.3225     6.3293     5.8043     5.2041   -70.7196
  547.5000   111.4215     6.5958     4.9136     5.0898   -70.8771
  548.0000   112.6104     6.6864     4.3964     3.1797   -71.2104
  548.5000   118.8891     5.3937     3.8263     3.2457   -71.4930
