~VERSION INFORMATION
 VERS.                2.0:   CWLS LOG ASCII STANDARD - VERSION 2.0
 WRAP.                 NO:   ONE LINE PER DEPTH STEP
~WELL INFORMATION
#MNEM.UNIT      DATA TYPE    INFORMATION
#----------   ------------   ------------------------------
 STRT.F            8.0000:   START DEPTH
 STOP.F          551.0000:   STOP DEPTH
 STEP.F            0.5000:   STEP LENGTH
 NULL.          -999.2500:   NO VALUE
 COMP.   FLUOR DANIEL INC:   COMPANY
 WELL. NAVAL PETROLEUM RESERVE 3 S-10 #31-10:   WELL
 FLD .        TEAPOT DOME:   FIELD
 LOC .      S10 T38N R78W:   LOCATION
 CNTY.            NATRONA:   COUNTY
 STAT.            WYOMING:   STATE
 CTRY. UNITED STATES OF AMERICA:   COUNTRY
 SRVC.       Schlumberger:   SERVICE COMPANY
 DATE.        21-JUN-1970:   LOGDATE
 API .       490251039400:   API NUMBER
~CURVE INFORMATION
#MNEM.UNIT       API CODE    CURVE DESCRIPTION
#----------   ------------   ------------------------------
 DEPT.F                  :   
 SPR .MV     05 010 01 00:   SPONTANEOUS POTENTIAL FROM RES.
 ASN .OHMM   05 041 16 00:   AMPLIFIED SHORT NORMAL 16"
 ILD .OHMM   05 120 46 00:   INDUCTION LOG DEEP
 CILD.MMHO   05 110 46 00:   CONDUCTIVITY INDUCTION LOG DEEP
 CALD.IN     45 280 60 00:   CALIPER FROM DENSITY LOG
 CORR.G/C3   45 356 01 00:   DENSITY CORRECTION
 RHOB.G/C3   45 350 01 00:   BULK DENSITY
 DPHI.DEC    45 890 12 00:   DENSITY POROSITY SANDSTONE
~PARAMETER INFORMATION
#MNEM.UNIT          VALUE    DESCRIPTION
#----------   ------------   ------------------------------
 PD  .                 GL:   PERMANENT DATUM
 EPD .F              5256:   ELEVATION PERMANENT DATUM
 LMF .                 KB:   LOG MEASURED FROM
 DAPD.F                10:   FEET ABOVE PERMANENT DATUM
 DMF .                 KB:   DRILLING MEASURED FROM
 EKB .F              5266:   KELLING BUSHING
 EGL .F              5256:   GROUND LEVEL
 DATE.        27-JUN-1970:   RUN DATE
 RUN .                  1:   RUN NUMBER
 DD  .F               553:   DEPTH DRILLER
 DL  .F               552:   DEPTH LOGGER
 BLI .F               551:   BOTTOM LOG INTERVAL
 TLI .F                44:   TOP LOG INTERVAL
 CS  .IN             9.75:   CASING SIZE
 BS  .IN                9:   BIT SIZE
 BSD .F               553:   BIT SIZE AT DEPTH
 DFT .        FRESHGELMUD:   DRILLING FLUID TYPE
 DFD .                9.2:   DRILLING FLUID DENSITY
 BHT .F               100:   BOTTOM HOLE TEMPERATURE
 TCS .HRS               1:   TIME CURCULATED STOPPED
 MRT .F               100:   MAXIMUM RECORDED TEMPERATURE
 ENGI.             TUSNES:   RECORDING ENGINEER
 WITN.                HAZ:   WITNESSED BY
 CLNT.            A2DTECH:   CLIENT CODE
 ORIG.           5" PRINT:   ORIGIN OF DATA
 UWI .       490251039400:   UNIQUE WELL ID
 DICO. A2D Technologies, Inc.:   DIGITIZING COMPANY
~OTHER INFORMATION
~A    DEPT     SPR        ASN        ILD       CILD         CALD     CORR       RHOB       DPHI   
# ...
   89.0000   -33.0571     8.1979     7.6389   129.5988     9.0292     0.0212     2.4640     0.1108
   89.5000   -33.0494     8.4673     7.7160   130.3634     9.0146     0.0288     2.4723     0.1099
   90.0000   -33.0432     8.5231     7.7160   131.1262     9.0150     0.0290     2.4371     0.1219
   90.5000   -33.0370     8.5383     7.7160   130.3462     8.9704     0.0311     2.4551     0.1189
   91.0000   -33.0308     8.5686     7.6389   129.5682     8.9258     0.0494     2.4708     0.1107
   91.5000   -32.8693     8.5837     7.6389   128.0197     8.8658     0.0561     2.4859     0.1041
   92.0000   -32.8631     8.5987     7.6389   127.2416     8.8350     0.0568     2.4889     0.1035
   92.5000   -32.7016     8.6138     7.6389   126.4636     8.8070     0.0449     2.4814     0.1113
   93.0000   -32.5402     8.6132     7.5617   127.2265     8.8226     0.0315     2.4709     0.1152
   93.5000   -32.3787     8.5663     7.5617   128.7596     8.8230     0.0233     2.4657     0.1110
   94.0000   -32.3540     8.4420     7.4846   130.2927     8.8235     0.0188     2.4807     0.1047
   94.5000   -32.3665     8.3023     7.4846   131.8259     8.8389     0.0286     2.4897     0.1052
   95.0000   -32.5155     8.1470     7.4846   133.3845     8.8394     0.0339     2.4905     0.1118
   95.5000   -32.5092     8.0691     7.4074   135.6627     8.8398     0.0363     2.4888     0.1072
   96.0000   -32.6584     8.0532     7.4074   136.4972     8.8403     0.0341     2.4809     0.1052
   96.5000   -32.6521     8.0527     7.3302   137.9586     8.8407     0.0146     2.4620     0.1157
   97.0000   -32.8013     8.0677     7.3302   138.7214     8.8412     0.0237     2.4725     0.1148
   97.5000   -33.1055     8.0673     7.2531   138.7133     8.8416     0.0297     2.4808     0.1085
   98.0000   -33.2546     8.0513     7.1759   139.4765     8.8420     0.0174     2.4838     0.1061
   98.5000   -33.2484     8.0199     7.1759   139.4670     8.8425     0.0066     2.4816     0.1073
   99.0000   -33.2422     7.9730     7.1759   139.4593     8.8429     0.0209     2.4763     0.1084
   99.5000   -33.3913     7.9416     7.1759   139.4517     8.8435     0.0232     2.4689     0.1163
  100.0000   -33.4379     7.9257     7.1759   138.6755     8.8440     0.0192     2.4484     0.1268
  100.5000   -33.6434     7.9572     7.1242   140.1776     8.8471     0.0152     2.4425     0.1129
  101.0000   -33.6926     8.0041     7.1729   139.3501     8.8501     0.0075     2.4365     0.1208
  101.5000   -33.6910     8.0665     7.3256   139.3044     8.8531     0.0054     2.4308     0.1253
  102.0000   -33.6895     8.1289     7.4074   137.7179     8.8561     0.0101     2.4419     0.1270
  102.5000   -33.6879     8.2222     7.5618   134.5905     8.8591     0.0130     2.4633     0.1187
  103.0000   -33.5311     8.3929     7.6389   131.4632     8.8625     0.0108     2.4671     0.1142
  103.5000   -33.5114     8.6256     7.7825   129.1062     8.8631     0.0026     2.4724     0.1098
  104.0000   -33.2174     8.7654     7.8704   129.0600     8.8637    -0.0018     2.4837     0.1047
  104.5000   -32.8819     8.7968     7.9337   129.7853     8.8643     0.0050     2.4958     0.1002
  105.0000   -32.4379     8.8282     7.9318   128.9677     8.8649     0.0095     2.5034     0.0956
  105.5000   -32.2810     8.9370     7.9303   128.0125     8.8805     0.0111     2.5117     0.0923
  106.0000   -32.2792     8.6898     7.8516   125.7847     8.8962     0.0074     2.5155     0.0938
  106.5000   -32.2776     8.6129     7.8500   126.5208     8.9268     0.0022     2.5066     0.1028
  107.0000   -32.4318     8.5823     7.8485   128.0160     8.9574     0.0067     2.4842     0.1073
  107.5000   -32.5855     8.5983     7.8470   128.7293     8.9729     0.0091     2.4670     0.1148
  108.0000   -32.7392     8.6297     7.9226   128.6836     8.9436     0.0083     2.4551     0.1229
  108.5000   -33.0479     8.6612     7.9210   127.8675     8.9290     0.0062     2.4401     0.1313
  109.0000   -33.2020     8.7081     7.9195   126.2810     8.8996     0.0085     2.4327     0.1268
  109.5000   -33.5106     8.7550     7.9180   124.6944     8.8703     0.0190     2.4395     0.1241
  110.0000   -33.6647     8.8638     7.9940   123.8783     8.8557     0.0243     2.4629     0.1198
  110.5000   -33.9737     9.0036     8.0692   122.2918     8.8415     0.0191     2.4862     0.1147
  111.0000   -33.9718     9.1434     8.0677   121.4757     8.8271     0.0102     2.4690     0.1108
  111.5000   -34.1259     9.2367     8.2205   119.8892     8.8276     0.0012     2.4593     0.1099
  112.0000   -34.1240     9.2681     8.2189   119.0731     8.8282    -0.0040     2.4663     0.1096
  112.5000   -34.1224     9.3150     8.2946   118.2570     8.8288     0.0031     2.4737     0.1150
  113.0000   -34.2766     9.3627     8.3702   116.6704     8.8294     0.0119     2.4675     0.1192
  113.5000   -34.2746     9.4569     8.3687   115.8543     8.8300     0.0032     2.4592     0.1206
  114.0000   -34.1178     9.5821     8.5218   113.4974     8.8306     0.0075     2.4455     0.1080
  114.5000   -33.9610     9.7072     8.6742   112.6655     8.8312     0.0150     2.4801     0.1143
  115.0000   -33.6489     9.8323     8.8274   110.3235     8.8318     0.0038     2.4674     0.1167
  115.5000   -33.4920     9.9884     8.9802   108.7365     8.8174     0.0129     2.4570     0.1089
  116.0000   -33.3352    10.0410     9.2101   106.3791     8.8180     0.0160     2.4833     0.1016
  116.5000   -33.3337    10.0745     9.4397   104.0125     8.8036     0.0153     2.4991     0.0998
  117.0000   -33.1768    10.1079     9.5157   101.6556     8.8023     0.0116     2.4752     0.1103
  117.5000   -33.0200    10.1414     9.6685   100.0690     8.7898     0.0056     2.4707     0.1090
  118.0000   -33.0185    10.2335     9.8209    99.2529     8.7904     0.0169     2.5016     0.0971
  118.5000   -33.0169    10.2340     9.8969    97.6664     8.7760     0.0305     2.5204     0.0876
  119.0000   -33.0154    10.3118    10.0497    96.0799     8.7767     0.0253     2.5257     0.0942
  119.5000   -32.8586    10.3897    10.1253    94.4934     8.7773     0.0126     2.4876     0.1060
  120.0000   -32.7017    10.3902    10.3549    93.6773     8.7779     0.0028     2.5056     0.0919
  120.5000   -32.7002    10.5454    10.4305    92.8611     8.7784     0.0427     2.5275     0.0864
  121.0000   -32.8543    10.5459    10.5062    91.2746     8.7791     0.0382     2.5268     0.0973
  121.5000   -33.0080    10.6237    10.6590    89.6881     8.7797     0.0188     2.4766     0.1093
  122.0000   -33.3167    10.7016    10.7345    88.8720     8.7803     0.0092     2.4609     0.1150
  122.5000   -33.4708    10.8569    10.8101    87.2855     8.7808     0.0219     2.4745     0.1168
  123.0000   -33.6241    10.8573    10.8086    87.2398     8.7664     0.0294     2.4986     0.1050
  123.5000   -33.6226    11.0126    10.8071    87.1941     8.7670     0.0264     2.5093     0.0984
  124.0000   -33.6210    10.8582    10.7284    87.1484     8.7675     0.0181     2.5153     0.0939
  124.5000   -33.6195    10.6266    10.5725    88.6435     8.7682     0.0099     2.5142     0.0914
  125.0000   -33.6179    10.4722    10.4167    90.9091     8.7537     0.0040     2.4917     0.0995
  125.5000   -33.6164    10.2405    10.1836    93.1746     8.7544     0.0027     2.4622     0.1077
  126.0000   -33.6149    10.0861    10.0278    95.5109     8.7400     0.0035     2.4555     0.1164
  126.5000   -33.6133     9.9317     9.8719    97.8121     8.7406     0.0050     2.4466     0.1206
  127.0000   -33.6118     9.7773     9.8642    99.9713     8.7409    -0.0002     2.4339     0.1269
  127.5000   -33.4549     9.6230     9.7917   101.4665     8.7407     0.0112     2.4182     0.1341
  128.0000   -33.2981     9.4687     9.7130   102.1798     8.7406     0.0165     2.4611     0.1175
  128.5000   -32.9860     9.3919     9.7006   102.1341     8.7405     0.0188     2.4889     0.1091
  129.0000   -32.9845     9.3923     9.5555   102.0884     8.7404     0.0001     2.4837     0.1057
