~VERSION INFORMATION
 VERS.                2.0:   CWLS LOG ASCII STANDARD - VERSION 2.0
 WRAP.                 NO:   ONE LINE PER DEPTH STEP
~WELL INFORMATION
#MNEM.UNIT      DATA TYPE    INFORMATION
#----------   ------------   ------------------------------
 STRT.F           12.5000:   START DEPTH
 STOP.F          688.0000:   STOP DEPTH
 STEP.F            0.5000:   STEP LENGTH
 NULL.          -999.2500:   NO VALUE
 COMP. FENIX & SCISSON INC:   COMPANY
 WELL. 26-66 SX 11 WO #26-11:   WELL
 FLD .             TEAPOT:   FIELD
 LOC .      S11 T38N R78W:   LOCATION
 CNTY.            NATRONA:   COUNTY
 STAT.            WYOMING:   STATE
 CTRY. UNITED STATES OF AMERICA:   COUNTRY
 SRVC.      Dresser Atlas:   SERVICE COMPANY
 DATE.        28-AUG-1980:   LOGDATE
 API .       490251084700:   API NUMBER
~CURVE INFORMATION
#MNEM.UNIT       API CODE    CURVE DESCRIPTION
#----------   ------------   ------------------------------
 DEPT.F                  :   
 SFL .OHMM   07 220 01 00:   SHALLOW FOCUSED LOG RESISTIVITY
 ILD .OHMM   07 120 46 00:   INDUCTION LOG DEEP
 ILM .OHMM   07 120 44 00:   INDUCTION LOG MEDIUM
 SPR .MV     07 010 01 00:   SPONTANEOUS POTENTIAL
 CORR.G/C3   45 356 01 00:   DENSITY CORRECTION
 RHOB.G/C3   45 350 01 00:   BULK DENSITY
 DPOR.DEC    45 890 12 00:   DENSITY POROSITY SANDSTONE
 NPOR.DEC    42 890 03 00:   NEUTRON POROSITY SANDSTONE
 GRD .GAPI   45 310 01 00:   GAMMA RAY FROM DENSITY LOG
~PARAMETER INFORMATION
#MNEM.UNIT          VALUE    DESCRIPTION
#----------   ------------   ------------------------------
 PD  .                 GL:   PERMANENT DATUM
 EPD .F              5194:   ELEVATION PERMANENT DATUM
 LMF .                 KB:   LOG MEASURED FROM
 DAPD.F                 5:   FEET ABOVE PERMANENT DATUM
 DMF .                 KB:   DRILLING MEASURED FROM
 EKB .F              5199:   KELLING BUSHING
 EGL .F              5194:   GROUND LEVEL
 DATE.          8-28-1980:   RUN DATE
 RUN .                  1:   RUN NUMBER
 DD  .F               700:   DEPTH DRILLER
 DL  .F               689:   DEPTH LOGGER
 BLI .F               688:   BOTTOM LOG INTERVAL
 TLI .F                14:   TOP LOG INTERVAL
 BS  .IN             8.75:   BIT SIZE
 BSD .F               700:   BIT SIZE AT DEPTH
 DFT .                KCL:   DRILLING FLUID TYPE
 DFD .                8.8:   DRILLING FLUID DENSITY
 DFV .                 55:   DRILLING FLUID VISCOSITY
 DFPH.                 11:   DRILLING FLUID PH
 DFL .                  8:   DRILLING FLUID LOSS
 MSS .           FLOWLINE:   MUD SAMPLE SOURCE
 RMS .OHMM            .72:   RESISTIVITY MUD SAMPLE
 MST .F                66:   MUD SAMPLE TEMPERATURE
 RMF .OHMM            .21:   RESISTIVITY MUD FILTRATE SAMPLE
 MFST.F                66:   MUD FILTRATE SAMPLE TEMPERATURE
 RMC .OHMM           1.24:   RESISTIVITY MUD CAKE
 MCST.F                66:   MUD CAKE SAMPLE TEMPERATURE
 MFSS.               MEAS:   MUD FILTRATE SAMPLE SOURCE
 MCSS.               MEAS:   MUD CAKE SAMPLE SOURCE
 BHT .F               100:   BOTTOM HOLE TEMPERATURE
 TCS .HRS               2:   TIME CURCULATED STOPPED
 MRT .F               100:   MAXIMUM RECORDED TEMPERATURE
 LUN .               6240:   LOGGING UNIT NUMBER
 LUL .               RYTN:   LOGGING UNIT LOCATION
 ENGI.           J. GETTY:   RECORDING ENGINEER
 WITN.              FIVAS:   WITNESSED BY
 CLNT.            A2DTECH:   CLIENT CODE
 ORIG.      1" 2.5" PRINT:   ORIGIN OF DATA
 UWI .       490251084700:   UNIQUE WELL ID
 DICO. A2D Technologies, Inc.:   DIGITIZING COMPANY
~OTHER INFORMATION
~A   DEPT      SFL        ILD        ILM        SPR       CORR       RHOB       DPOR         NPOR      GRD   
# ...
   49.0000     4.9832     3.4258     3.7795   -64.2660     0.0095     2.0263     0.3813     0.4184   100.8940
   49.5000     4.6205     3.6119     3.9360   -62.1704     0.0046     2.0261     0.3904     0.4476    99.0793
   50.0000     4.2956     3.8435     4.1017   -62.8032     0.0078     2.0325     0.3904     0.4710    99.2022
   50.5000     4.4543     4.0604     4.2743   -60.3310     0.0157     2.0394     0.3832     0.4459   100.5114
   51.0000     4.6538     4.3397     4.4542   -58.3434     0.0156     2.0418     0.3784     0.4145   101.9471
   51.5000     4.8623     4.6382     4.6416   -56.6218     0.0127     2.0429     0.3780     0.3831   100.2741
   52.0000     5.0813     4.9573     4.8369   -55.4047     0.0121     2.0458     0.3769     0.3464    97.5719
   52.5000     5.3081     5.2984     5.0405   -54.5627     0.0168     2.0671     0.3692     0.3409    94.3618
   53.0000     5.5451     5.6632     5.2526   -54.2349     0.0460     2.0943     0.3551     0.3342    93.7812
   53.5000     5.7925     6.0535     5.4737   -53.8455     0.0748     2.1210     0.3410     0.3290    93.1305
   54.0000     6.0508     6.4708     5.7041   -52.0380     0.0876     2.1367     0.3270     0.3318    91.5455
   54.5000     6.3206     6.9166     5.8863   -50.6456     0.0507     2.1286     0.3187     0.3472    90.0651
   55.0000     6.6024     7.6252     5.8863   -50.7648     0.0148     2.1127     0.3282     0.3936    88.6511
   55.5000     6.9610     7.6122     6.0196   -51.3941    -0.0182     2.1031     0.3372     0.4370    87.4288
   56.0000     6.9480     7.5711     6.2849   -51.7939    -0.0268     2.1161     0.3426     0.4803    86.6428
   56.5000     6.9611     7.5301     6.5620   -51.2468    -0.0018     2.1551     0.3299     0.5020    88.4280
   57.0000     6.9601     7.4898     6.8270   -50.7360     0.0008     2.1678     0.3036     0.4893    89.5861
   57.5000     6.4481     7.4898     6.9072   -51.0763     0.0036     2.1534     0.3081     0.4594    89.0973
   58.0000     6.0168     7.4898     6.9547   -52.2778     0.0035     2.1333     0.3168     0.4184    88.7553
   58.5000     5.8835     7.4898     7.0096   -53.4358     0.0063     2.1476     0.3243     0.3774    88.7691
   59.0000     6.6335     7.2839     7.0848   -54.6525     0.0171     2.1781     0.2932     0.3456    89.9004
   59.5000     7.4936     6.9764     7.0503   -55.9955     0.0336     2.2169     0.2757     0.3337    94.6278
   60.0000     8.8492     6.6818     6.9247   -57.3097     0.0482     2.2251     0.2706     0.3531    99.9982
   60.5000     8.2439     6.4376     6.8013   -58.5997     0.0638     2.2304     0.2704     0.3788   104.4570
   61.0000     7.2528     6.3430     6.7016   -59.7693     0.0786     2.2816     0.2415     0.4052   105.2556
   61.5000     6.3809     6.2484     6.4920   -60.8183     0.0899     2.3262     0.2089     0.3902   106.1578
   62.0000     6.2144     6.1553     6.3193   -61.8668     0.0678     2.3207     0.2126     0.3645   106.9777
   62.5000     6.2039     6.0638     6.1512   -62.9164     0.0505     2.3116     0.2206     0.3387   110.5011
   63.0000     6.1935     5.9737     5.8863   -63.9613     0.0632     2.3338     0.2130     0.3131   114.1350
   63.5000     6.1831     5.8870     5.8975   -65.0169     0.0762     2.3774     0.1935     0.3218   116.7568
   64.0000     6.1726     5.8761     5.9282   -66.0716     0.0785     2.4065     0.1745     0.3361   116.1985
   64.5000     6.1623     5.8654     5.9590   -67.0884     0.0706     2.4133     0.1634     0.3528   117.3890
   65.0000     6.1519     5.8544     5.9900   -68.1836     0.0633     2.4227     0.1583     0.3502   119.3620
   65.5000     6.1415     5.8439     6.0211   -68.3532     0.0560     2.4239     0.1514     0.3425   119.7240
   66.0000     6.1312     5.8334     6.0524   -68.5322     0.0491     2.4187     0.1538     0.3452   119.0681
   66.5000     6.1209     5.8229     6.0839   -68.6765     0.0456     2.4015     0.1614     0.3497   118.6468
   67.0000     6.1105     5.8124     6.1155   -68.8188     0.0519     2.3993     0.1681     0.3422   118.3551
   67.5000     6.0954     5.8020     6.1473   -68.9653     0.0583     2.4060     0.1682     0.3324   120.9496
   68.0000     6.0789     5.7916     6.1793   -69.2725     0.0655     2.4125     0.1629     0.3529   123.4485
   68.5000     6.0624     5.7812     6.2114   -69.7909     0.0685     2.4202     0.1570     0.3762   125.8403
   69.0000     6.0462     5.7782     6.2437   -70.3010     0.0639     2.4244     0.1522     0.3878   126.3493
   69.5000     6.0309     5.7782     6.2762   -70.8087     0.0581     2.4237     0.1542     0.3684   125.9826
   70.0000     6.0161     5.7782     6.3088   -71.3264     0.0522     2.3981     0.1578     0.3508   125.4531
   70.5000     5.9993     5.7782     6.3416   -71.5702     0.0464     2.3802     0.1833     0.3331   125.8538
   71.0000     6.1126     5.8477     6.3746   -71.6407     0.0406     2.3958     0.1754     0.3179   129.5956
   71.5000     6.2370     5.9672     6.4077   -71.7150     0.0345     2.4249     0.1605     0.3351   131.2023
   72.0000     6.3645     6.0891     6.4410   -71.7944     0.0289     2.4201     0.1538     0.3584   129.3553
   72.5000     6.4946     6.2135     6.5053   -71.8716     0.0249     2.4016     0.1639     0.3734   119.0439
   73.0000     6.6998     6.3404     6.6017   -71.9483     0.0349     2.3959     0.1713     0.3451   116.1036
   73.5000     6.6783     6.4578     6.6995   -72.0264     0.0430     2.4080     0.1684     0.3176   113.5961
   74.0000     6.6215     6.4156     6.7987   -72.1031     0.0518     2.4197     0.1608     0.2980   114.3748
   74.5000     6.5651     6.3773     6.6745   -72.1794     0.0514     2.4280     0.1530     0.2972   116.1775
   75.0000     6.5091     6.3392     6.4678   -72.2598     0.0503     2.4070     0.1616     0.2972   117.5847
   75.5000     6.4537     6.0715     6.2675   -72.3426     0.0488     2.3945     0.1737     0.3014   118.1184
   76.0000     6.3989     5.8863     5.9964   -72.5702     0.0482     2.4003     0.1694     0.3144   118.6640
   76.5000     6.3395     5.9178     6.0018   -72.8056     0.0477     2.4102     0.1626     0.3334   117.1338
   77.0000     6.2920     5.9964     6.0234   -73.0480     0.0469     2.3998     0.1686     0.3480   115.1227
   77.5000     6.2396     5.9842     6.0451   -73.2838     0.0459     2.3810     0.1817     0.3386   113.0891
   78.0000     6.1872     5.9200     6.0669   -73.5172     0.0451     2.3902     0.1779     0.3139   111.6772
   78.5000     6.1346     5.8565     6.0887   -73.7747     0.0448     2.4086     0.1641     0.3054   111.8564
   79.0000     6.0863     5.7937     6.1086   -74.0093     0.0380     2.3873     0.1711     0.2993   112.2006
   79.5000     6.0360     5.0814     5.7254   -74.7591     0.0225     2.3404     0.1894     0.2956   111.4775
   80.0000     5.9862     4.2837     4.8866   -75.4400     0.0086     2.3142     0.2078     0.2964   110.9625
   80.5000     5.9367     3.6112     4.1707   -76.1440     0.0102     2.2548     0.2421     0.3199   110.5778
   81.0000     5.8863     3.0443     3.5597   -76.8424     0.0180     2.1972     0.2987     0.3552   108.6415
   81.5000     4.3425     2.5664     3.0382   -77.5544     0.0244     2.1194     0.3394     0.3905   106.6233
   82.0000     3.1761     2.1635     2.5566   -78.1083     0.0256     2.0562     0.3682     0.4260   107.1280
   82.5000     2.3231     1.9369     2.1795   -77.5174     0.0269     2.0100     0.3878     0.4711   113.8797
   83.0000     1.9718     1.7979     1.9724   -76.4531     0.0282     2.0059     0.4032     0.4615   121.7102
   83.5000     2.0110     1.7856     1.9362   -75.4029     0.0294     2.0128     0.4032     0.4317   122.4135
   84.0000     2.2657     1.7723     1.9738   -75.2941     0.0307     2.0307     0.3370     0.4019   121.4345
   84.5000     2.5098     1.9546     2.3128   -75.3972     0.0324     2.1519     0.2755     0.3765   118.9167
   85.0000     2.7594     2.0563     2.6609   -75.5116     0.0372     2.2953     0.1982     0.3571   117.0403
