~VERSION INFORMATION
 VERS.                2.0:   CWLS LOG ASCII STANDARD - VERSION 2.0
 WRAP.                 NO:   ONE LINE PER DEPTH STEP
~WELL INFORMATION
#MNEM.UNIT      DATA TYPE    INFORMATION
#----------   ------------   ------------------------------
 STRT.F            0.0000:   START DEPTH
 STOP.F          652.0000:   STOP DEPTH
 STEP.F            0.5000:   STEP LENGTH
 NULL.          -999.2500:   NO VALUE
 COMP. US DEPTMNT OF ENRGY:   COMPANY
 WELL. NPR ##3 14-14-SX-11:   WELL
 FLD .   TEAPOT NAVAL RES:   FIELD
 LOC .      S11 T38N R78W:   LOCATION
 CNTY.            NATRONA:   COUNTY
 STAT.            WYOMING:   STATE
 CTRY. UNITED STATES OF AMERICA:   COUNTRY
 SRVC.            Unknown:   SERVICE COMPANY
 DATE.        03-JAN-1985:   LOGDATE
 API .       490251102400:   API NUMBER
~CURVE INFORMATION
#MNEM.UNIT       API CODE    CURVE DESCRIPTION
#----------   ------------   ------------------------------
 DEPT.F                  :   
 CALD.IN     45 280 60 00:   CALIPER
 CORR.G/C3   45 356 01 00:   DENSITY CORRECTION
 PORD.DEC    45 890 12 00:   DENSITY POROSITY SANDSTONE
 CNC .DEC    42 890 03 00:   NEUTRON POROSITY SANDSTONE
 SPR .MV     11 010 01 00:   SPONTANEOUS POTENTIAL FROM RES.
 GRR .GAPI   11 310 01 00:   GAMMA RAY FROM RES.
 RS  .OHMM   11 220 09 00:   RESISTIVITY SHALLOW
 RD  .OHMM   11 220 10 00:   RESISTIVITY DEEP
 DEN .G/C3   45 350 01 00:   COMPENSATED BULK DENSTIY
~PARAMETER INFORMATION
#MNEM.UNIT          VALUE    DESCRIPTION
#----------   ------------   ------------------------------
 PD  .                 GL:   PERMANENT DATUM
 EPD .F            5197.3:   ELEVATION PERMANENT DATUM
 LMF .                 KB:   LOG MEASURED FROM
 DMF .                 KB:   DRILLING MEASURED FROM
 EKB .F            5197.3:   KELLING BUSHING
 EGL .F            5197.3:   GROUND LEVEL
 DATE.         3-JAN-1985:   RUN DATE
 RUN .                  1:   RUN NUMBER
 DD  .F               650:   DEPTH DRILLER
 DL  .F               653:   DEPTH LOGGER
 BLI .F               651:   BOTTOM LOG INTERVAL
 CS  .IN            8.625:   CASING SIZE
 CBD .F                20:   CASING BOTTOM DRILLER
 CBL .F                20:   CASING BOTTOM LOGGER
 BS  .IN             6.25:   BIT SIZE
 BSD .F               650:   BIT SIZE AT DEPTH
 DFT .                KCL:   DRILLING FLUID TYPE
 RMS .OHMM            .12:   RESISTIVITY MUD SAMPLE
 MST .F                70:   MUD SAMPLE TEMPERATURE
 RMF .OHMM            .09:   RESISTIVITY MUD FILTRATE SAMPLE
 MFST.F                70:   MUD FILTRATE SAMPLE TEMPERATURE
 RMC .OHMM            .15:   RESISTIVITY MUD CAKE
 MCST.F                70:   MUD CAKE SAMPLE TEMPERATURE
 MFSS.               CALC:   MUD FILTRATE SAMPLE SOURCE
 MCSS.               CALC:   MUD CAKE SAMPLE SOURCE
 RMB .OHMM             .1:   RESISTIVITY MUD AT BHT
 BHT .F                80:   BOTTOM HOLE TEMPERATURE
 TCS .HRS               3:   TIME CURCULATED STOPPED
 MRT .F                80:   MAXIMUM RECORDED TEMPERATURE
 LUN .               6274:   LOGGING UNIT NUMBER
 LUL .               GLTE:   LOGGING UNIT LOCATION
 ENGI.               MACK:   RECORDING ENGINEER
 WITN.               PAGE:   WITNESSED BY
 CLNT.            A2DTECH:   CLIENT CODE
 ORIG.       2", 5" PRINT:   ORIGIN OF DATA
 UWI .       490251102400:   UNIQUE WELL ID
 DICO. A2D Technologies, Inc.:   DIGITIZING COMPANY
~OTHER INFORMATION
~A    DEPT    CALD       CORR       PORD        CNC        SPR         GRR        RS         RD        DEN   
# ...
   36.5000     6.6561     0.0207     0.1518     0.2926   -47.3843   102.1281    10.0733   809.6520     2.4213
   37.0000     6.6642     0.0308     0.1506     0.3039   -47.3152   105.0441    10.1181   751.6612     2.4242
   37.5000     6.6722     0.0409     0.1481     0.3008   -47.2503   107.9535    10.1630   694.1088     2.4272
   38.0000     6.6810     0.0468     0.1468     0.2968   -47.1847   110.7412    10.2081   624.0051     2.4301
   38.5000     6.6604     0.0327     0.1467     0.2979   -47.1195   109.6119    10.2533   448.6512     2.4321
   39.0000     6.6415     0.0169     0.1465     0.3088   -47.0538   107.6761    10.2988   325.4832     2.4290
   39.5000     6.6417     0.0017     0.1462     0.3105   -46.9779   105.7329    10.3445   251.7352     2.4259
   40.0000     6.6417     0.0034     0.1450     0.3097   -46.8559   103.8025    10.3931   194.6971     2.4237
   40.5000     6.6417     0.0234     0.1430     0.3065   -46.7352   102.3570    10.1554   150.5827     2.4276
   41.0000     6.6417     0.0246     0.1409     0.3046   -46.6119   102.3996     9.9087   130.9441     2.4313
   41.5000     6.6417     0.0249     0.1396     0.3016   -46.7863   102.2540     9.6679   118.4029     2.4319
   42.0000     6.6417     0.0282     0.1393     0.2986   -46.9938    99.6226     9.5655   110.0958     2.4329
   42.5000     6.6417     0.0316     0.1391     0.2903   -47.2021    98.4061     9.6880   108.7841     2.4338
   43.0000     6.6417     0.0349     0.1366     0.2804   -47.4096    99.2155     9.7785   107.1122     2.4348
   43.5000     6.6417     0.0455     0.1261     0.2704   -47.6171   100.1235     9.8702   105.4659     2.4359
   44.0000     6.6417     0.0617     0.1156     0.2649   -47.8246   102.6052     9.9254   104.1710     2.4367
   44.5000     6.6417     0.0663     0.1052     0.2621   -48.0328   105.5583     9.8558   102.0660     2.4411
   45.0000     6.6417     0.0555     0.1215     0.2711   -48.2361   107.9755     9.7987    98.3796     2.4455
   45.5000     6.6417     0.0446     0.1377     0.2982   -48.3982   107.3833     9.7436    94.8264     2.4471
   46.0000     6.6417     0.0338     0.1462     0.3209   -48.6308   106.6616     9.8227    91.4015     2.4471
   46.5000     6.6417     0.0229     0.1455     0.3126   -48.6821   101.7993     9.9494    88.2419     2.4473
   47.0000     6.6417     0.0120     0.1449     0.2987   -48.7314    94.9708    10.0778    92.2282     2.4554
   47.5000     6.6417     0.0136     0.1451     0.2947   -48.7785    87.9030    10.2078   100.5846     2.4746
   48.0000     6.6417     0.0174     0.1482     0.2946   -48.8259    83.8785    10.3395   121.1301     2.4940
   48.5000     6.6427     0.0212     0.1528     0.2990   -48.8733    87.2561    10.4728   138.6344     2.4978
   49.0000     6.6472     0.0250     0.1574     0.3022   -48.9207    95.4197    10.4894   138.6344     2.4748
   49.5000     6.6514     0.0286     0.1608     0.3157   -48.9680   103.4922    10.3698   111.2851     2.4517
   50.0000     6.6557     0.0317     0.1576     0.3224   -49.0154   105.3843    10.2504    92.4137     2.4316
   50.5000     6.6599     0.0344     0.1516     0.3151   -49.0628   103.3163    10.2032    85.8346     2.4341
   51.0000     6.6642     0.0380     0.1453     0.3073   -49.1104   101.0620    10.2032    91.1477     2.4370
   51.5000     6.6684     0.0226     0.1405     0.3006   -49.1585   100.6114    10.2032    97.3907     2.4363
   52.0000     6.6727     0.0030     0.1381     0.3034   -49.2139   100.8915    10.2033   105.1358     2.4332
   52.5000     6.6770     0.0145     0.1381     0.3022   -48.8523   101.2487    10.2034   105.1358     2.4232
   53.0000     6.6820     0.0335     0.1397     0.2982   -48.3306   102.6597    10.2051    97.5120     2.4124
   53.5000     6.6571     0.0525     0.1417     0.2978   -48.4376   106.2724    10.1190    91.2235     2.4107
   54.0000     6.6248     0.0582     0.1467     0.3018   -48.8809   109.8762    10.0058    85.0469     2.4198
   54.5000     6.5923     0.0457     0.1521     0.3175   -49.3282   111.2245     9.8940    85.0469     2.4288
   55.0000     6.5615     0.0335     0.1575     0.3292   -49.7756   110.5529     9.7834    87.9373     2.4378
   55.5000     6.5592     0.0249     0.1591     0.3234   -50.2215   110.9311     9.6740    90.5234     2.4467
   56.0000     6.5581     0.0217     0.1600     0.3142   -50.6737   111.6615     9.5659    93.1855     2.4492
   56.5000     6.5568     0.0211     0.1624     0.3050   -51.0701   110.4028     9.4778    95.9259     2.4472
   57.0000     6.5556     0.0346     0.1651     0.3115   -51.4769   107.3980     9.4525    97.6604     2.4437
   57.5000     6.5543     0.0240     0.1636     0.3222   -51.8842   104.7228     9.4268    96.7642     2.4320
   58.0000     6.5530     0.0034     0.1599     0.3264   -52.2913   105.5675     9.4011    92.4219     2.4205
   58.5000     6.5517    -0.0159     0.1562     0.3173   -52.6982   107.4448     9.3763    88.2337     2.4098
   59.0000     6.5504    -0.0139     0.1525     0.3189   -53.1063   108.7950     9.3522    84.2354     2.4086
   59.5000     6.5491    -0.0069     0.1506     0.2973   -53.5262   107.3887     9.3281    80.4182     2.4073
   60.0000     6.5478     0.0003     0.1485     0.2870   -53.8048   105.9843     9.3046    76.1396     2.4078
   60.5000     6.5465     0.0041     0.1452     0.2840   -54.1501   108.2325     9.3045    76.7349     2.4089
   61.0000     6.5452     0.0062     0.1420     0.2839   -54.4933   111.3333     9.3046    77.4663     2.4134
   61.5000     6.5440     0.0043     0.1411     0.2953   -54.8376   111.5902     9.3046    78.2046     2.4179
   62.0000     6.5427     0.0023     0.1409     0.3065   -55.1819   108.7243     9.3046    78.9499     2.4224
   62.5000     6.5414     0.0003     0.1393     0.3298   -55.5259   106.9320     9.3046    79.7024     2.4269
   63.0000     6.5401    -0.0009     0.1378     0.3387   -55.8702   108.1435     9.3046    80.4620     2.4314
   63.5000     6.5388     0.0170     0.1381     0.3399   -56.2646   109.3627     9.3046    81.2289     2.4359
   64.0000     6.5375     0.0356     0.1353     0.3223   -56.7025   108.8944     9.3046    82.0031     2.4403
   64.5000     6.5362     0.0400     0.1327     0.3058   -57.1391   107.9706     9.3046    82.7269     2.4426
   65.0000     6.5349     0.0415     0.1301     0.3006   -57.5758   107.1372     9.3046    80.8758     2.4443
   65.5000     6.5336     0.0273     0.1279     0.3177   -58.0124   108.7199     9.3046    79.1888     2.4475
   66.0000     6.5324    -0.0001     0.1262     0.3244   -58.4490   110.7631     9.3045    77.5371     2.4507
   66.5000     6.5311     0.0250     0.1272     0.3230   -58.8859   112.6669     9.3044    75.8610     2.4540
   67.0000     6.5298     0.0502     0.1311     0.3215   -59.3225   108.9649     9.3537    74.1143     2.4573
   67.5000     6.5285     0.0632     0.1349     0.3174   -59.7553   104.9020     9.4248    76.7670     2.4606
   68.0000     6.5272     0.0654     0.1364     0.3112   -60.0513   102.0078     9.4962    79.9330     2.4640
   68.5000     6.5259     0.0643     0.1367     0.3089   -60.1364   101.9017     9.5681    83.1994     2.4640
   69.0000     6.5246     0.0452     0.1371     0.3135   -60.2260   102.7856     9.6407    88.2419     2.4588
   69.5000     6.5233     0.0243     0.1389     0.3228   -60.3144   103.6670     9.7137    88.1062     2.4529
   70.0000     6.5220     0.0286     0.1440     0.3228   -60.4030   104.2736     9.7873    87.8512     2.4480
   70.5000     6.5208     0.0395     0.1496     0.3095   -60.4907   103.4444     9.8613    87.5969     2.4481
   71.0000     6.5205     0.0510     0.1505     0.3077   -60.5793   102.6995     9.9256    87.4331     2.4481
   71.5000     6.5210     0.0310     0.1494     0.3101   -60.7068   102.3043     9.9255    87.4315     2.4449
   72.0000     6.5216     0.0048     0.1491     0.3092   -61.1350   101.9053     9.9248    87.4314     2.4370
   72.5000     6.5222    -0.0151     0.1496     0.3065   -61.5588   101.7121     9.9249    87.4320     2.4290
