~VERSION INFORMATION
 VERS.                2.0:   CWLS LOG ASCII STANDARD - VERSION 2.0
 WRAP.                 NO:   ONE LINE PER DEPTH STEP
~WELL INFORMATION
#MNEM.UNIT      DATA TYPE    INFORMATION
#----------   ------------   ------------------------------
 STRT.F            2.0000:   START DEPTH
 STOP.F          595.0000:   STOP DEPTH
 STEP.F            0.5000:   STEP LENGTH
 NULL.          -999.2500:   NO VALUE
 COMP.       F D SERV INC:   COMPANY
 WELL.    73-5 SX-3 #73-3:   WELL
 FLD .             TEAPOT:   FIELD
 LOC .       S3 T38N R78W:   LOCATION
 CNTY.            NATRONA:   COUNTY
 STAT.            WYOMING:   STATE
 CTRY. UNITED STATES OF AMERICA:   COUNTRY
 SRVC.     Atlas Wireline:   SERVICE COMPANY
 DATE.        01-MAY-1992:   LOGDATE
 API .       490252252200:   API NUMBER
~CURVE INFORMATION
#MNEM.UNIT       API CODE    CURVE DESCRIPTION
#----------   ------------   ------------------------------
 DEPT.F                  :   
 CALD.IN     45 280 60 00:   CALIPER FROM DENSITY
 CORR.G/C3   45 356 01 00:   DENSITY CORRECTION
 DEN .G/C3   45 350 01 00:   COMPENSATED BULK DENSTIY
 GRD .GAPI   45 310 01 00:   GAMMA RAY FROM DENSITY LOG
 RILD.OHMM   07 120 46 00:   INDUCTION LOG DEEP RESISTIVITY
 RILM.OHMM   07 120 44 00:   INDUCTION LOG MEDIUM RESISTIVITY
 PORD.DEC    45 890 12 00:   POROSITY DENSITY SANDSTONE
~PARAMETER INFORMATION
#MNEM.UNIT          VALUE    DESCRIPTION
#----------   ------------   ------------------------------
 PD  .                 GL:   PERMANENT DATUM
 EPD .F              5147:   ELEVATION PERMANENT DATUM
 LMF .                 KB:   LOG MEASURED FROM
 DAPD.F                 5:   FEET ABOVE PERMANENT DATUM
 DMF .                 KB:   DRILLING MEASURED FROM
 EKB .F              5152:   KELLING BUSHING
 EGL .F              5147:   GROUND LEVEL
 DATE.        01-MAY-1992:   RUN DATE
 RUN .                  1:   RUN NUMBER
 DD  .F               600:   DEPTH DRILLER
 DL  .F               603:   DEPTH LOGGER
 BLI .F               601:   BOTTOM LOG INTERVAL
 TLI .F                 2:   TOP LOG INTERVAL
 CS  .IN            8.625:   CASING SIZE
 CBD .F                46:   CASING BOTTOM DRILLER
 CBL .F                53:   CASING BOTTOM LOGGER
 BS  .IN            7.875:   BIT SIZE
 BSD .F               600:   BIT SIZE AT DEPTH
 DFT .                AIR:   DRILLING FLUID TYPE
 TCS .HRS               1:   TIME CURCULATED STOPPED
 LUN .            HL-6274:   LOGGING UNIT NUMBER
 LUL .             CASPER:   LOGGING UNIT LOCATION
 ENGI.             ZIEGER:   RECORDING ENGINEER
 WITN.             STRONG:   WITNESSED BY
 CLNT.            A2DTECH:   CLIENT CODE
 ORIG.           5" PRINT:   ORIGIN OF DATA
 UWI .       490252252200:   UNIQUE WELL ID
 DICO. A2D Technologies, Inc.:   DIGITIZING COMPANY
~OTHER INFORMATION
~A    DEPT    CALD       CORR        DEN         GRD      RILD       RILM       PORD   
# ...
   47.5000  -999.2500  -999.2500  -999.2500    90.1669  -999.2500  -999.2500  -999.2500
   48.0000  -999.2500  -999.2500  -999.2500    90.1788  -999.2500  -999.2500  -999.2500
   48.5000  -999.2500  -999.2500  -999.2500    90.4915  -999.2500  -999.2500  -999.2500
   49.0000  -999.2500  -999.2500  -999.2500    91.1049  -999.2500  -999.2500  -999.2500
   49.5000  -999.2500  -999.2500  -999.2500    96.2297  -999.2500  -999.2500  -999.2500
   50.0000  -999.2500  -999.2500  -999.2500    99.1931  -999.2500  -999.2500  -999.2500
   50.5000  -999.2500  -999.2500  -999.2500   101.3588  -999.2500  -999.2500  -999.2500
   51.0000  -999.2500  -999.2500  -999.2500    95.9526  -999.2500  -999.2500  -999.2500
   51.5000  -999.2500  -999.2500  -999.2500    91.1465  -999.2500  -999.2500  -999.2500
   52.0000  -999.2500  -999.2500  -999.2500    86.9418  -999.2500  -999.2500  -999.2500
   52.5000  -999.2500  -999.2500  -999.2500    86.9477  -999.2500  -999.2500  -999.2500
   53.0000     8.2636    -0.4408     2.3614    92.9686  -999.2500  -999.2500     0.1595
   53.5000     8.2493    -0.2411     2.3955   106.5084  -999.2500  -999.2500     0.1223
   54.0000     8.2349    -0.1109     2.4099   118.6092 10023.7451 10099.4824     0.1220
   54.5000     8.2189    -0.0444     2.4099   131.7559   260.7243   344.8810     0.1427
   55.0000     8.2063    -0.0231     2.4070   140.8132    15.9978    62.4133     0.1471
   55.5000     8.1920    -0.0231     2.4040   146.2326     3.4708     3.5717     0.1425
   56.0000     8.1776    -0.0291     2.4010   148.3438     2.1899     3.1724     0.1419
   56.5000     8.1786    -0.0352     2.3981   146.2444     2.0566     3.3815     0.1486
   57.0000     8.1793    -0.0351     2.3936   143.8443     2.9549     4.3376     0.1549
   57.5000     8.1800    -0.0290     2.3937   146.5569     5.8573     5.3550     0.1579
   58.0000     8.1808    -0.0139     2.4013   148.3659     8.7181     6.4656     0.1537
   58.5000     8.1815     0.0104     2.4137   144.4634     9.2832     7.3827     0.1467
   59.0000     8.1822     0.0316     2.4258   142.3641     7.7972     7.8071     0.1371
   59.5000     8.1830     0.0286     2.4377   148.3850     6.6876     7.9173     0.1275
   60.0000     8.1687     0.0044     2.4468   154.1657     6.2806     7.9733     0.1180
   60.5000     8.1543    -0.0137     2.4575   156.6097     6.1935     8.1425     0.1156
   61.0000     8.1553    -0.0199     2.4651   162.2387     6.3700     8.4322     0.1135
   61.5000     8.1560    -0.0127     2.4636   167.0566     6.7458     8.3716     0.1138
   62.0000     8.1415     0.0015     2.4531   173.9798     7.1709     8.0150     0.1156
   62.5000     8.1424    -0.0045     2.4366   186.9180     7.5299     7.5431     0.1243
   63.0000     8.1431    -0.0166     2.4170   197.4502     7.7430     7.2343     0.1449
   63.5000     8.1439    -0.0166     2.3868   200.0000     7.3739     6.9382     0.1832
   64.0000     8.1446    -0.0135     2.3518   189.0410     6.8291     6.7008     0.1820
   64.5000     8.1604    -0.0105     2.3532   176.4153     6.5950     6.5168     0.1722
   65.0000     8.1461    -0.0104     2.3704   167.6993     6.5036     6.5172     0.1675
   65.5000     8.1468    -0.0104     2.3720   159.5613     6.4134     6.5177     0.1714
   66.0000     8.1476    -0.0104     2.3645   160.3534     6.4583     6.4728     0.1705
   66.5000     8.1485    -0.0073     2.3615   164.1095     6.5491     6.5185     0.1720
   67.0000     8.1643    -0.0012     2.3601   161.4086     6.5950     6.5647     0.1744
   67.5000     8.1951     0.0018     2.3647   154.7979     6.6876     6.5652     0.1750
   68.0000     8.2109     0.0018     2.3708   143.9767     6.7345     6.5656     0.1705
   68.5000     8.2267     0.0019     2.3799   138.2684     6.7816     6.5661     0.1653
   69.0000     8.2122    -0.0012     2.3935   134.3645     6.7816     6.5665     0.1575
   69.5000     8.2132    -0.0075     2.4153   134.9719     6.7816     6.5670     0.1484
   70.0000     8.2290    -0.0101     2.4395   135.8785     6.7816     6.5674     0.1337
   70.5000     8.1996    -0.0131     2.4496   132.8784     6.7816     6.5679     0.1253
   71.0000     8.1551    -0.0101     2.4527   129.8767     6.7816     6.5226     0.1206
   71.5000     8.1257    -0.0070     2.4588   125.9728     6.7816     6.4777     0.1167
   72.0000     8.0942    -0.0040     2.4634   133.0723     6.8291     6.5693     0.1139
   72.5000     8.0670    -0.0009     2.4680   138.9184     6.8291     6.6158     0.1100
   73.0000     8.0527    -0.0039     2.4711   141.6311     6.8291     6.7092     0.1070
   73.5000     8.0383    -0.0103     2.4741   138.3287     6.8291     6.7566     0.1036
   74.0000     8.0392    -0.0159     2.4772   131.4173     6.8291     6.7571     0.1009
   74.5000     8.0400    -0.0129     2.4637   126.9119     6.8291     6.8049     0.0985
   75.0000     8.0407    -0.0068     2.4547   125.4126     6.8769     6.8053     0.0970
   75.5000     8.0415    -0.0007     2.4566   131.4350     6.8718     6.8058     0.0986
   76.0000     8.0422    -0.0067     2.4609   136.8544     6.7816     6.8063     0.1060
   76.5000     8.0580    -0.0188     2.4594   139.8678     6.7345     6.7594     0.1145
   77.0000     8.0889    -0.0248     2.4549   140.1744     6.6411     6.6662     0.1196
   77.5000     8.1197    -0.0278     2.4535   135.8199     6.5036     6.4832     0.1217
   78.0000     8.1959    -0.0248     2.4551   130.5636     6.3688     6.3052     0.1193
   78.5000     8.1063    -0.0247     2.4551   131.1710     6.1935     6.2182     0.1175
   79.0000     8.0016    -0.0217     2.4567   136.5904     6.1505     6.1755     0.1145
   79.5000     8.0475    -0.0217     2.4703   140.8068     6.1077     6.1328     0.1099
   80.0000     8.1537    -0.0216     2.4840   143.5195     6.1077     6.0907     0.1024
   80.5000     8.1846    -0.0186     2.4962   145.0291     6.0652     6.0911     0.0966
   81.0000     8.2154    -0.0185     2.5038   145.6365     6.0652     6.0915     0.0932
   81.5000     8.2162    -0.0246     2.5068   145.6424     6.0231     6.0496     0.0896
   82.0000     8.2169    -0.0276     2.5054   145.6483     6.0231     6.0501     0.0890
   82.5000     8.2026    -0.0306     2.5024   145.3533     6.0231     6.0505     0.0896
   83.0000     8.1882    -0.0305     2.4980   143.8237     6.0231     6.0933     0.0909
   83.5000     8.1739    -0.0275     2.4950   140.4273     5.9812     6.0937     0.0929
   84.0000     8.1596    -0.0244     2.4905   136.6508     6.0231     6.0941     0.0951
   84.5000     8.1605    -0.0214     2.4845   135.4536     6.0231     6.0945     0.0993
   85.0000     8.1613    -0.0183     2.4770   136.0610     6.0652     6.0949     0.1065
   85.5000     8.1620    -0.0153     2.4665   139.3752     6.1077     6.1380     0.1107
   86.0000     8.1778    -0.0152     2.4621   141.4863     6.1935     6.2294     0.1092
   86.5000     8.1785    -0.0152     2.4727   142.0923     6.2806     6.4014     0.1038
   87.0000     8.1943    -0.0182     2.4864   138.7914     6.3688     6.4918     0.0941
   87.5000     8.1800    -0.0182     2.4985   135.1882     6.5036     6.6296     0.0911
   88.0000     8.1958    -0.0212     2.5016   136.0964     6.6411     6.7232     0.0920
   88.5000     8.2116    -0.0241     2.5001   137.6060     6.7345     6.7708     0.0938
   89.0000     8.2123    -0.0241     2.5017   136.6257     6.8291     6.8664     0.0929
   89.5000     8.2281    -0.0241     2.5078   134.5565     6.9251     6.9634     0.0902
   90.0000     8.2291    -0.0240     2.5124   136.1214     6.9736     7.0617     0.0880
   90.5000     8.2448    -0.0210     2.5185   136.4265     6.9736     7.1116     0.0868
   91.0000     8.2456    -0.0210     2.5246   133.1256     6.9736     6.9648     0.0862
   91.5000     8.2463    -0.0209     2.5151   130.7255     6.9736     6.9168     0.0898
   92.0000     8.2318    -0.0209     2.4990   129.5284     6.8291     6.8692     0.0925
   92.5000     8.2327    -0.0239     2.4961   130.1358     6.7345     6.8219     0.0928
