~VERSION INFORMATION
 VERS.                2.0:   CWLS LOG ASCII STANDARD - VERSION 2.0
 WRAP.                 NO:   ONE LINE PER DEPTH STEP
~WELL INFORMATION
#MNEM.UNIT      DATA TYPE    INFORMATION
#----------   ------------   ------------------------------
 STRT.F           20.0000:   START DEPTH
 STOP.F          678.0000:   STOP DEPTH
 STEP.F            0.5000:   STEP LENGTH
 NULL.          -999.2500:   NO VALUE
 COMP. FENIX & SCISSON INC:   COMPANY
 WELL. 27-42 SX 11 WO #27-11:   WELL
 FLD .        TEAPOT DOME:   FIELD
 LOC .      S11 T38N R78W:   LOCATION
 CNTY.            NATRONA:   COUNTY
 STAT.            WYOMING:   STATE
 CTRY. UNITED STATES OF AMERICA:   COUNTRY
 SRVC.      Dresser Atlas:   SERVICE COMPANY
 DATE.        13-AUG-1985:   LOGDATE
 API .       490251083800:   API NUMBER
~CURVE INFORMATION
#MNEM.UNIT       API CODE    CURVE DESCRIPTION
#----------   ------------   ------------------------------
 DEPT.F                  :   
 RHOB.G/C3   45 350 01 00:   BULK DENSITY
 CORR.G/C3   45 356 01 00:   DENSITY CORRECTION
 CALD.IN     45 280 60 00:   CALIPER
 GRD .GAPI   45 310 01 00:   GAMMA RAY FROM DENSITY LOG
 DPOR.DEC    45 890 12 00:   DENSITY POROSITY SANDSTONE
 NPOR.DEC    42 890 03 00:   NEUTRON POROSITY SANDSTONE
 SPR .MV     07 010 01 00:   SPONTANEOUS POTENTIAL
 SFL .OHMM   07 220 01 00:   SHALLOW FOCUSED LOG RESISTIVITY
 ILD .OHMM   07 120 46 00:   INDUCTION LOG DEEP
 ILM .OHMM   07 120 44 00:   INDUCTION LOG MEDIUM
~PARAMETER INFORMATION
#MNEM.UNIT          VALUE    DESCRIPTION
#----------   ------------   ------------------------------
 PD  .                 GL:   PERMANENT DATUM
 EPD .F              5188:   ELEVATION PERMANENT DATUM
 LMF .                 KB:   LOG MEASURED FROM
 DAPD.F                 5:   FEET ABOVE PERMANENT DATUM
 DMF .                 KB:   DRILLING MEASURED FROM
 EKB .F              5193:   KELLING BUSHING
 EGL .F              5188:   GROUND LEVEL
 DATE.          8-13-1985:   RUN DATE
 RUN .                  8:   RUN NUMBER
 DD  .F               632:   DEPTH DRILLER
 BLI .F               598:   BOTTOM LOG INTERVAL
 TLI .F               303:   TOP LOG INTERVAL
 CBL .F               303:   CASING BOTTOM LOGGER
 BS  .IN              .75:   BIT SIZE
 BSD .F               632:   BIT SIZE AT DEPTH
 DFT .          KCL WATER:   DRILLING FLUID TYPE
 LUN .            HL-6274:   LOGGING UNIT NUMBER
 LUL .           GILLETTE:   LOGGING UNIT LOCATION
 ENGI.             RAUTIO:   RECORDING ENGINEER
 WITN.            SCHULTE:   WITNESSED BY
 CLNT.            A2DTECH:   CLIENT CODE
 ORIG.           2" PRINT:   ORIGIN OF DATA
 UWI .       490251083800:   UNIQUE WELL ID
 DICO. A2D Technologies, Inc.:   DIGITIZING COMPANY
~OTHER INFORMATION
~A   DEPT     RHOB       CORR       CALD        GRD       DPOR       NPOR        SPR        SFL        ILD          ILM 
# ...
   53.5000     2.0683    -0.0247    10.1850    75.9783  -999.2500     0.3635   -11.8573    18.4151     2.1493     2.1132
   54.0000     2.1013     0.0176     9.9073    75.7754  -999.2500     0.3629   -11.5266    19.4314     2.2072     2.1449
   54.5000     2.1264     0.0484     9.6694    77.3108  -999.2500     0.3602   -11.1994    22.8460     2.2651     2.2140
   55.0000     2.1215     0.0628     9.4171    77.9474  -999.2500     0.3529   -10.8869    20.2153     2.3162     2.2741
   55.5000     2.1585     0.0872     9.5639    76.6446  -999.2500     0.3459   -10.5728    15.8411     2.4896     2.3846
   56.0000     2.2536     0.1247     9.6574    77.1039     0.1814     0.3477   -10.5598    12.4150     2.6502     2.5361
   56.5000     2.3751     0.1157     9.4264    79.8425     0.1881     0.3494   -10.5563     9.6702     2.8212     2.6978
   57.0000     2.3710     0.0820     9.1944    82.2613     0.1942     0.3363   -10.5551     9.9774     3.0032     2.8692
   57.5000     2.3596     0.0558     9.0112    86.3429     0.1711     0.3140   -10.5414    11.1324     3.1970     3.0511
   58.0000     2.3807     0.0331     9.0123    91.8391     0.1660     0.3055   -10.3173    10.9942     3.4033     3.2443
   58.5000     2.3978     0.0364     9.0610    93.5981     0.1604     0.2852   -10.1198    10.6201     3.6642     3.4499
   59.0000     2.4080     0.0429     9.1133    91.3491     0.1583     0.2830    -9.9047    10.6201     3.6642     3.6588
   59.5000     2.4155     0.0451     9.1043    89.9509     0.1604     0.2804    -9.7611    10.6201     3.4009     3.2529
   60.0000     2.4112     0.0380     9.0140    93.0091     0.1830     0.2868    -9.7683    10.6201     3.1669     2.9118
   60.5000     2.3904     0.0306     9.0136    96.0776     0.1864     0.2933    -9.8436     8.5755     2.9490     2.6024
   61.0000     2.3723     0.0230     9.0913    98.3298     0.1910     0.3180    -9.9159     6.3973     2.7826     2.2741
   61.5000     2.3462     0.0154     9.1274    98.3017     0.2126     0.3223    -9.9923     4.7723     2.7826     2.3588
   62.0000     2.3049     0.0077     9.0746   100.0661     0.2501     0.3319   -10.0626     3.5601     2.7826     2.5773
   62.5000     2.2507     0.0037     9.0295   103.9540     0.2788     0.3433   -10.1397     2.7320     2.7826     2.8159
   63.0000     2.2189     0.0080     8.9896   107.8489     0.2692     0.3547   -10.0238     3.3455     3.0802     3.0766
   63.5000     2.2349     0.0229     8.9066   111.6195     0.2449     0.3675    -9.8195     4.4492     3.3793     3.3615
   64.0000     2.2916     0.0437     8.7955   114.9692     0.1743     0.3675    -9.6183     6.5911     3.7074     3.6728
   64.5000     2.3574     0.0590     8.7959   111.2628     0.1835     0.3401    -9.4200     6.4693     4.0674     4.0129
   65.0000     2.3828     0.0216     8.8867   105.9438     0.1902     0.3108    -9.2192     5.9767     4.4623     4.3845
   65.5000     2.3600     0.0080     8.9852   100.5176     0.1867     0.3017    -9.0191     5.4863     4.8955     4.8250
   66.0000     2.3665     0.0235     8.9494    96.5075     0.1743     0.2892    -8.8186     5.4863     5.3708     5.0604
   66.5000     2.3819     0.0280     8.8289    95.6377     0.1769     0.2828    -8.6187     5.7151     5.7473     5.3297
   67.0000     2.3844     0.0235     8.7624    94.6749     0.1823     0.2868    -8.4187     5.9225     5.8995     5.6133
   67.5000     2.3684     0.0189     8.7751    94.3253     0.1846     0.2908    -8.2167     6.1374     6.0557     5.9119
   68.0000     2.3760     0.0174     8.8202    94.6925     0.1679     0.2920    -8.0209     6.3601     6.2161     6.1176
   68.5000     2.3909     0.0226     8.8456    95.0714     0.1696     0.2900    -7.8207     6.5908     6.3807     6.2762
   69.0000     2.4019     0.0277     8.7952    96.0640     0.1719     0.2875    -7.7555     6.8375     6.5496     6.4388
   69.5000     2.3997     0.0333     8.7354    97.0611     0.1663     0.2902    -7.8581     6.9280     6.7231     6.6057
   70.0000     2.3981     0.0351     8.6739    98.2424     0.1700     0.2956    -8.0423     7.0227     6.9011     6.7769
   70.5000     2.3919     0.0319     8.6136    98.3178     0.1765     0.3116    -8.2104     7.1187     7.0001     6.9040
   71.0000     2.3812     0.0299     8.5600    98.3377     0.1830     0.3141    -8.3889     7.2160     7.0558     7.0073
   71.5000     2.3716     0.0247     8.5265    98.3258     0.1862     0.3192    -8.5581     7.3147     7.1526     7.1122
   72.0000     2.3680     0.0279     8.4914    97.5876     0.1807     0.3242    -8.7152     7.4146     7.3328     7.2186
   72.5000     2.3819     0.0317     8.4896    96.5251     0.1767     0.3283    -8.9472     7.5160     7.5177     7.3266
   73.0000     2.3846     0.0300     8.4891    95.5283     0.1783     0.3259    -8.6431     7.6331     7.7071     7.4362
   73.5000     2.3799     0.0261     8.4895    94.8268     0.1772     0.3403    -8.5758     7.7701     7.9014     7.5672
   74.0000     2.3822     0.0233     8.4887    95.4680     0.1675     0.3283    -8.5054     7.9317     8.1005     7.7229
   74.5000     2.3990     0.0274     8.4915    95.9843     0.1560     0.3197    -8.3635     8.0975     8.3047     7.8818
   75.0000     2.4156     0.0348     8.4926    96.6666     0.1618     0.3095    -8.1982     8.2666     8.5140     8.0440
   75.5000     2.4176     0.0375     8.6354    96.9908     0.1723     0.2980    -8.0389     8.4391     8.7184     8.2094
   76.0000     2.3982     0.0267     8.8165    97.6902     0.1838     0.2852    -7.8814     8.6151     8.8928     8.3784
   76.5000     2.3807     0.0267     8.9982    98.3603     0.1797     0.2883    -7.7216     8.7945     9.0706     8.5507
   77.0000     2.3703     0.0375     9.0463    99.0098     0.1711     0.2946    -7.5632     8.9778     9.2520     8.7267
   77.5000     2.3943     0.0475     8.9487    99.6618     0.1799     0.3092    -7.4043     9.1688     9.4370     8.8399
   78.0000     2.3794     0.0552     8.8471   100.4120     0.1892     0.3092    -7.2453     9.1703     9.5131     8.8900
   78.5000     2.3650     0.0411     8.8032    99.1713     0.1984     0.3106    -7.0865     9.1703     9.5131     8.9749
   79.0000     2.3505     0.0244     8.8416    97.1621     0.2030     0.3120    -6.9276     9.1703     9.5131     9.1016
   79.5000     2.3422     0.0261     8.9133    95.2363     0.2006     0.3124    -6.7683     9.1703     9.6447     9.2510
   80.0000     2.3442     0.0287     8.9668    95.2873     0.2014     0.3108    -6.6103     9.2861     9.7945     9.4030
   80.5000     2.3406     0.0445     8.9394    96.6870     0.1908     0.3130    -6.4506     9.4464     9.9466     9.5575
   81.0000     2.3497     0.0616     8.9050    96.9511     0.1777     0.3158    -6.2899     9.6093    10.1011     9.7144
   81.5000     2.3764     0.0794     8.8876    94.8674     0.1662     0.3185    -6.1749     9.7752    10.2580     9.8740
   82.0000     2.3992     0.0875     8.9014    92.8354     0.1614     0.3204    -6.1766     9.9438    10.4173    10.0362
   82.5000     2.4069     0.0715     8.9122    91.6892     0.1615     0.3204    -6.1740    10.1154    10.5791    10.2011
   83.0000     2.4087     0.0579     8.9232    93.1836     0.1720     0.3146    -6.1742    10.2899    10.7434    10.3686
   83.5000     2.3922     0.0433     8.9345    96.1540     0.1778     0.3092    -6.1787    10.4675    10.9103    10.5389
   84.0000     2.3855     0.0291     8.9456    95.3240     0.1820     0.2864    -6.1387    10.6481    11.0797    10.7120
   84.5000     2.3771     0.0165     8.9569    92.9322     0.1877     0.2795    -6.0703    10.8168    11.2518    10.8880
   85.0000     2.3693     0.0159     8.9681    93.0013     0.1835     0.2825    -6.0051    11.3870    11.4266    11.0668
   85.5000     2.3665     0.0182     8.9793    96.2843     0.1757     0.2855    -5.9422    11.9411    11.6051    11.2211
   86.0000     2.3824     0.0239     8.9906    96.2007     0.1671     0.2889    -5.8773    12.5223    11.7854    11.2211
   86.5000     2.4001     0.0235     9.0017    95.0915     0.1744     0.2889    -5.8093    13.4808    11.8571    11.2211
