~VERSION INFORMATION
 VERS.                2.0:   CWLS LOG ASCII STANDARD - VERSION 2.0
 WRAP.                 NO:   ONE LINE PER DEPTH STEP
~WELL INFORMATION
#MNEM.UNIT      DATA TYPE    INFORMATION
#----------   ------------   ------------------------------
 STRT.F           48.0000:   START DEPTH
 STOP.F          524.0000:   STOP DEPTH
 STEP.F            0.5000:   STEP LENGTH
 NULL.          -999.2500:   NO VALUE
 COMP. LAWRENCE/ALLISON INC:   COMPANY
 WELL.      41-66 SX #3-3:   WELL
 FLD .             TEAPOT:   FIELD
 LOC .       S3 T38N R78W:   LOCATION
 CNTY.            NATRONA:   COUNTY
 STAT.            WYOMING:   STATE
 CTRY. UNITED STATES OF AMERICA:   COUNTRY
 SRVC.              Welex:   SERVICE COMPANY
 DATE.        22-AUG-1987:   LOGDATE
 API .       490251116200:   API NUMBER
~CURVE INFORMATION
#MNEM.UNIT       API CODE    CURVE DESCRIPTION
#----------   ------------   ------------------------------
 DEPT.F                  :   
 GRR .GAPI   07 310 01 00:   GAMMA RAY
 ILD .OHMM   07 120 46 00:   INDUCTION LOG DEEP
 ILM .OHMM   07 120 44 00:   INDUCTION LOG MEDIUM
~PARAMETER INFORMATION
#MNEM.UNIT          VALUE    DESCRIPTION
#----------   ------------   ------------------------------
 PD  .                 GL:   PERMANENT DATUM
 EPD .F              5123:   ELEVATION PERMANENT DATUM
 LMF .                 KB:   LOG MEASURED FROM
 DAPD.F                 8:   FEET ABOVE PERMANENT DATUM
 DMF .                 KB:   DRILLING MEASURED FROM
 EKB .F              5131:   KELLING BUSHING
 EDF .F              5130:   DRILLING FLOOR
 EGL .F              5123:   GROUND LEVEL
 DATE.        22-AUG-1987:   RUN DATE
 RUN .                  1:   RUN NUMBER
 DD  .F               542:   DEPTH DRILLER
 DL  .F               542:   DEPTH LOGGER
 BLI .F               524:   BOTTOM LOG INTERVAL
 TLI .F                47:   TOP LOG INTERVAL
 CBL .F                48:   CASING BOTTOM LOGGER
 BS  .IN            7.875:   BIT SIZE
 BSD .F               542:   BIT SIZE AT DEPTH
 DFT .                AIR:   DRILLING FLUID TYPE
 TLAB.HRS            0500:   TIME LOGGER AT BOTTOM
 MRT .F                85:   MAXIMUM RECORDED TEMPERATURE
 LUN .              51169:   LOGGING UNIT NUMBER
 LUL .           GILLETTE:   LOGGING UNIT LOCATION
 ENGI.             K.BUNL:   RECORDING ENGINEER
 WITN.             STRONG:   WITNESSED BY
 CLNT.            A2DTECH:   CLIENT CODE
 ORIG.           5" PRINT:   ORIGIN OF DATA
 UWI .       490251116200:   UNIQUE WELL ID
 DICO. A2D Technologies, Inc.:   DIGITIZING COMPANY
~OTHER INFORMATION
~A   DEPT      GRR          ILD       ILM  
# ...
  230.0000   114.4761     7.7993     7.8100
  230.5000   117.5286     7.7982     7.8640
  231.0000   115.3373     7.7970     7.9731
  231.5000   112.4386     7.8498     8.0282
  232.0000   115.7617     7.9033     8.0282
  232.5000   116.3772     7.9020     8.1396
  233.0000   114.3000     7.9009     8.1396
  233.5000   117.0275     8.0646     8.1396
  234.0000   115.8462     8.2320     8.1959
  234.5000   109.8600     8.4028     8.2525
  235.0000   105.9760     8.5182     8.2525
  235.5000   106.9017     8.6353     8.2533
  236.0000   106.6213     8.6338     8.6008
  236.5000   108.4429     8.6327     8.6602
  237.0000   113.5679     8.6316     8.6602
  237.5000   116.2954     8.6304     8.7201
  238.0000   123.2222     8.6290     8.7201
  238.5000   124.4433     8.6279     8.7201
  239.0000   125.3640     8.6867     8.7201
  239.5000   124.4234     8.6256     8.7201
  240.0000   118.5018     8.3325     8.5417
  240.5000   114.9131     8.1047     8.3054
  241.0000   117.3403     8.1599     8.1959
  241.5000   121.5644     8.2718     8.1959
  242.0000   120.0828     8.3857     8.1959
  242.5000   122.2047     8.3268     8.1959
  243.0000   118.9263     8.3254     8.1959
  243.5000   119.5467     8.3243     8.1959
  244.0000   120.1672     8.3232     8.2525
  244.5000   116.2881     8.3221     8.2525
  245.0000   114.5062     8.3210     8.3096
  245.5000   116.9284     8.3197     8.3096
  246.0000   117.8899     8.3186     8.3096
  246.5000   119.0752     8.3175     8.3670
  247.0000   119.9960     8.3164     8.4249
  247.5000   120.6164     8.3153     8.4831
  248.0000   118.7948     8.3139     8.4249
  248.5000   115.8563     8.3128     8.3670
  249.0000   117.3777     8.2547     8.3096
  249.5000   118.8991     8.1407     8.2525
  250.0000   117.4174     8.0837     8.1959
  250.5000   116.5365     8.0824     8.1396
  251.0000   123.7687     7.9708     8.0282
  251.5000   120.4854     7.6999     7.9731
  252.0000   118.6986     7.3871     7.7032
  252.5000   116.9119     7.1850     7.4390
  253.0000   114.2440     6.8934     7.1410
  253.5000   114.8646     6.7051     6.9469
  254.0000   116.9867     6.3886     6.6199
  254.5000   118.5082     6.2142     6.4400
  255.0000   118.8288     6.2134     6.4400
  255.5000   118.2529     6.3861     6.4845
  256.0000   117.6673     6.5635     6.7117
  256.5000   119.1938     6.8395     6.8048
  257.0000   120.7468     7.0783     7.0920
  257.5000   117.7027     7.3773     7.3456
  258.0000   118.6581     7.5288     7.5978
  258.5000   119.5740     7.5801     7.7564
  259.0000   118.3978     7.5789     7.8640
  259.5000   117.2166     7.6305     7.9184
  260.0000   122.3423     7.6292     7.8640
  260.5000   120.8602     7.5756     7.8640
  261.0000   120.2795     7.2679     7.5978
  261.5000   120.3045     7.0209     7.3913
  262.0000   117.0212     6.9240     7.2401
  262.5000   119.1483     6.9250     7.2401
  263.0000   124.2734     7.0182     7.1904
  263.5000   123.9931     7.0170     7.1904
  264.0000   122.5116     7.0648     7.1904
  264.5000   121.9310     7.0637     7.1904
  265.0000   116.5505     7.0627     7.2901
  265.5000   113.2672     7.2090     7.3405
  266.0000   113.8861     7.2582     7.3913
  266.5000   120.2132     7.2072     7.4938
  267.0000   120.5377     7.2062     7.5978
  267.5000   121.1583     7.1558     7.5978
  268.0000   123.2804     7.2681     7.5978
  268.5000   129.0061     7.4763     7.5978
  269.0000   133.2353     7.5188     7.5978
  269.5000   133.2553     7.5163     7.6503
  270.0000   130.8729     7.6186     7.7564
  270.5000   133.2953     7.7223     7.8100
  271.0000   133.3152     7.8269     7.9184
  271.5000   129.1310     7.8248     7.9731
  272.0000   132.7596     7.8228     8.0282
  272.5000   133.9808     7.8208     8.0282
  273.0000   134.2961     7.8728     8.0282
  273.5000   133.0780     7.8702     8.0282
  274.0000   129.5413     7.8681     8.0282
  274.5000   130.1619     7.8121     8.0837
  275.0000   129.2809     7.8100     8.0837
  275.5000   126.2979     7.7539     8.0837
  276.0000   122.3663     7.7519     8.0837
  276.5000   121.2378     7.7498     8.0837
  277.0000   122.1587     7.7478     8.0837
  277.5000   124.8814     7.6398     7.9731
  278.0000   126.4029     7.5328     7.8100
  278.5000   128.2252     7.5308     7.7564
  279.0000   127.6490     7.3749     7.8640
  279.5000   121.0624     7.3223     7.7564
  280.0000   118.9803     7.2198     7.4833
  280.5000   117.7991     6.9256     7.4310
  281.0000   116.2303     6.6894     7.3283
  281.5000   114.2405     6.5509     7.2271
  282.0000   113.6549     6.3642     6.9813
  282.5000   113.9801     6.1112     6.6518
  283.0000   116.4025     6.0260     6.3378
  283.5000   119.1302     5.7408     6.0386
  284.0000   118.2493     5.1759     5.7089
  284.5000   117.0681     4.8631     5.4068
  285.0000   115.2863     4.3246     5.0116
  285.5000   113.8048     3.9804     4.5502
  286.0000   117.7337     3.7145     3.8036
  286.5000   122.2581     3.4818     3.3622
  287.0000   125.2811     2.9169     2.8276
  287.5000   124.4002     2.7789     2.6390
  288.0000   118.6786     2.6841     2.4972
  288.5000   115.7365     2.6467     2.4290
  289.0000   114.2550     2.6458     2.4455
  289.5000   114.5753     2.6634     2.4961
  290.0000   116.9977     2.7751     2.5655
  290.5000   119.1861     2.9114     2.7105
  291.0000   122.7483     3.3014     3.1452
  291.5000   122.4680     3.8329     3.7458
  292.0000   126.3919     4.1335     4.0962
  292.5000   129.4149     4.3666     4.5415
  293.0000   130.3358     4.7091     4.9663
  293.5000   129.7552     5.1639     5.3934
  294.0000   125.2757     5.5908     5.6982
  294.5000   124.6901     5.9468     5.8567
  295.0000   125.6160     6.0282     6.0611
  295.5000   129.1080     6.0679     6.1465
  296.0000   135.5708     6.1504     6.2288
  296.5000   138.5938     6.2768     6.1851
  297.0000   139.2144     6.3626     6.1418
  297.5000   138.0332     6.2735     6.0988
  298.0000   133.8540     5.9668     6.0146
  298.5000   130.8660     5.6934     5.8502
  299.0000   135.6958     5.4992     5.6904
  299.5000   142.3223     5.2389     5.4218
  300.0000   148.3483     4.9567     5.1304
  300.5000   149.5680     4.7874     4.8212
  301.0000   144.8610     4.7532     4.6896
  301.5000   134.5913     4.7194     4.5302
  302.0000   123.7975     4.7181     4.4985
  302.5000   118.4049     4.7495     4.5316
  303.0000   119.6677     4.8138     4.6870
  303.5000   124.4534     5.0157     4.8506
  304.0000   130.4765     5.2260     5.0896
  304.5000   132.8959     5.4827     5.3036
  305.0000   134.1141     5.9944     5.6810
  305.5000   132.6339     6.2889     6.0020
  306.0000   134.1524     6.6435     6.2545
  306.5000   133.5688     6.8273     6.5626
  307.0000   131.4838     6.9240     6.7466
  307.5000   133.0065     6.9662     6.8848
  308.0000   132.4230     7.0610     6.9794
  308.5000   122.5301     7.0587     7.0753
  309.0000   121.8659     7.1057     7.0744
  309.5000   120.1321     7.1033     7.0735
  310.0000   116.8797     7.1015     7.0723
  310.5000   113.8937     7.0996     7.0714
  311.0000   116.6135     7.0978     7.0219
  311.5000   118.7528     7.0959     6.9249
  312.0000   126.8620     7.0936     6.8291
  312.5000   132.2844     6.9947     6.6885
  313.0000   133.7987     6.8499     6.4612
  313.5000   129.6158     6.5257     6.3282
  314.0000   127.2346     6.2594     6.1104
  314.5000   121.8420     5.9632     5.8244
  315.0000   127.2687     5.7598     5.6265
  315.5000   135.6941     5.6018     5.2876
  316.0000   140.5565     5.4481     5.0034
  316.5000   143.8405     5.4089     4.8333
  317.0000   140.2540     5.4449     5.0019
  317.5000   134.2650     5.5571     5.2483
  318.0000   131.5596     5.8302     5.5833
  318.5000   130.3951     5.9152     5.8195
  319.0000   136.1221     6.2423     6.1046
  319.5000   136.4394     6.6398     6.4053
  320.0000   143.3634     6.9660     6.7209
  320.5000   141.2825     6.9642     7.0036
