~VERSION INFORMATION
 VERS.                2.0:   CWLS LOG ASCII STANDARD - VERSION 2.0
 WRAP.                 NO:   ONE LINE PER DEPTH STEP
~WELL INFORMATION
#MNEM.UNIT      DATA TYPE    INFORMATION
#----------   ------------   ------------------------------
 STRT.F           14.0000:   START DEPTH
 STOP.F          608.0000:   STOP DEPTH
 STEP.F            0.1000:   STEP LENGTH
 NULL.          -999.2500:   NO VALUE
 COMP. FENIX & SCISSON INC:   COMPANY
 WELL. NAVAL PETROLEUM RESERVE 3 S-15 #72-15:   WELL
 FLD .             TEAPOT:   FIELD
 LOC .      S15 T38N R78W:   LOCATION
 CNTY.            NATRONA:   COUNTY
 STAT.            WYOMING:   STATE
 CTRY. UNITED STATES OF AMERICA:   COUNTRY
 SRVC.           BIRDWELL:   SERVICE COMPANY
 DATE.        21-JUL-1978:   LOGDATE
 API .       490251067300:   API NUMBER
~CURVE INFORMATION
#MNEM.UNIT       API CODE    CURVE DESCRIPTION
#----------   ------------   ------------------------------
 DEPT.F                  :   
 ILD .OHMM   05 120 46 00:   INDUCTION LOG DEEP
 SN  .OHMM   05 040 16 00:   SHORT NORMAL 16"
 SPR .MV     05 010 01 00:   SPONTANEOUS POTENTIAL FROM RES.
 CALD.IN     45 280 60 00:   CALIPER FROM DENSITY LOG
 DPHI.DEC    45 890 12 00:   DENSITY POROSITY SANDSTONE
 DRHO.G/C3   45 356 01 00:   DENSITY CORRECTION
 GRD .GAPI   45 310 01 00:   GAMMA RAY FROM DENSITY LOG
 RHOB.G/C3   45 350 01 00:   BULK DENSITY
~PARAMETER INFORMATION
#MNEM.UNIT          VALUE    DESCRIPTION
#----------   ------------   ------------------------------
 PD  .                 GL:   PERMANENT DATUM
 EPD .F              5238:   ELEVATION PERMANENT DATUM
 LMF .                 KB:   LOG MEASURED FROM
 DAPD.F                 4:   FEET ABOVE PERMANENT DATUM
 DMF .                 KB:   DRILLING MEASURED FROM
 EKB .F              5242:   KELLING BUSHING
 EGL .F              5238:   GROUND LEVEL
 DATE.        21-JUL-1978:   RUN DATE
 RUN .                  1:   RUN NUMBER
 DD  .F               597:   DEPTH DRILLER
 DL  .F               615:   DEPTH LOGGER
 BLI .F               608:   BOTTOM LOG INTERVAL
 TLI .F                35:   TOP LOG INTERVAL
 CS  .IN            8.625:   CASING SIZE
 CBD .F                40:   CASING BOTTOM DRILLER
 CBL .F                35:   CASING BOTTOM LOGGER
 BS  .IN            7.875:   BIT SIZE
 BSD .F               597:   BIT SIZE AT DEPTH
 DFT .                KCL:   DRILLING FLUID TYPE
 DFD .                8.6:   DRILLING FLUID DENSITY
 DFV .                 33:   DRILLING FLUID VISCOSITY
 DFPH.                9.0:   DRILLING FLUID PH
 MSS .            MUD PIT:   MUD SAMPLE SOURCE
 MFSS.               MEAS:   MUD FILTRATE SAMPLE SOURCE
 MCSS.               MEAS:   MUD CAKE SAMPLE SOURCE
 BHT .F                74:   BOTTOM HOLE TEMPERATURE
 TCS .HRS               2:   TIME CURCULATED STOPPED
 MRT .F                74:   MAXIMUM RECORDED TEMPERATURE
 LUN .               2958:   LOGGING UNIT NUMBER
 LUL .             CASPER:   LOGGING UNIT LOCATION
 ENGI.             MILLER:   RECORDING ENGINEER
 WITN.           MCGINLEY:   WITNESSED BY
 CLNT.            A2DTECH:   CLIENT CODE
 ORIG.           5" PRINT:   ORIGIN OF DATA
 UWI .       490251067300:   UNIQUE WELL ID
 DICO. A2D Technologies, Inc.:   DIGITIZING COMPANY
~OTHER INFORMATION
~A   DEPT      ILD         SN        SPR       CALD       DPHI       DRHO         GRD      RHOB   
# ...
  265.1000     8.0520     8.5255   -18.3715     7.8322     0.1261     0.0139    83.3170     2.4799
  265.2000     8.0403     8.5148   -18.4600     7.8320     0.1261     0.0139    83.0704     2.4786
  265.3000     8.0287     8.4661   -18.4621     7.8319     0.1261     0.0139    82.9169     2.4774
  265.4000     8.0171     8.4657   -18.4644     7.8317     0.1261     0.0139    82.8609     2.4761
  265.5000     8.0051     8.4468   -18.5742     7.8316     0.1262     0.0139    82.9452     2.4738
  265.6000     8.0049     8.4226   -18.6183     7.8295     0.1265     0.0139    83.1923     2.4722
  265.7000     8.0047     8.3984   -18.6204     7.8232     0.1273     0.0139    83.4605     2.4706
  265.8000     8.0045     8.3742   -18.6225     7.8160     0.1282     0.0138    83.6867     2.4688
  265.9000     8.0043     8.3478   -18.6246     7.8159     0.1299     0.0138    83.8469     2.4669
  266.0000     8.0040     8.3475   -18.6267     7.8157     0.1319     0.0138    84.0302     2.4640
  266.1000     8.0038     8.3471   -18.6288     7.8156     0.1338     0.0138    84.2436     2.4615
  266.2000     8.0036     8.3468   -18.6309     7.8154     0.1355     0.0138    84.3736     2.4592
  266.3000     7.9734     8.3343   -18.6330     7.8153     0.1378     0.0141    84.6598     2.4573
  266.4000     7.9481     8.2877   -18.6351     7.8028     0.1388     0.0145    84.8680     2.4557
  266.5000     7.9479     8.2639   -18.6372     7.7998     0.1401     0.0149    85.1151     2.4550
  266.6000     7.9476     8.2402   -18.6393     7.7997     0.1413     0.0153    85.3623     2.4538
  266.7000     7.9474     8.2024   -18.5502     7.7995     0.1424     0.0152    85.5848     2.4535
  266.8000     7.9472     8.1735   -18.4936     7.7994     0.1429     0.0152    85.7098     2.4532
  266.9000     7.9212     8.1706   -18.4957     7.7992     0.1426     0.0152    85.8307     2.4526
  267.0000     7.8921     8.1548   -18.4978     7.7991     0.1417     0.0152    85.8582     2.4520
  267.1000     7.8857     8.1391   -18.4998     7.7989     0.1403     0.0152    85.7193     2.4520
  267.2000     7.8373     8.1233   -18.5019     7.8044     0.1390     0.0152    85.3007     2.4520
  267.3000     7.7963     8.0919   -18.5040     7.8137     0.1380     0.0152    84.4765     2.4520
  267.4000     7.7520     8.0457   -18.5061     7.8136     0.1372     0.0152    82.9875     2.4520
  267.5000     7.7080     8.0035   -18.5086     7.8134     0.1361     0.0151    82.1946     2.4521
  267.6000     7.6641     8.0031   -18.5103     7.8133     0.1349     0.0151    81.4970     2.4527
  267.7000     7.6184     7.9638   -18.5124     7.8131     0.1337     0.0151    80.9946     2.4539
  267.8000     7.5180     7.9184   -18.5145     7.8130     0.1325     0.0157    80.6208     2.4552
  267.9000     7.4824     7.8924   -18.5166     7.8128     0.1315     0.0163    80.2470     2.4567
  268.0000     7.4399     7.8920   -18.5187     7.8127     0.1298     0.0168    79.8128     2.4586
  268.1000     7.3810     7.8917   -18.5208     7.8012     0.1283     0.0172    79.6036     2.4604
  268.2000     7.3125     7.8470   -18.5229     7.7973     0.1275     0.0176    79.4315     2.4624
  268.3000     7.3123     7.8023   -18.5250     7.7971     0.1276     0.0180    79.3569     2.4635
  268.4000     7.2722     7.7824   -18.6195     7.7970     0.1286     0.0180    79.3557     2.4648
  268.5000     7.2309     7.7671   -18.6792     7.7968     0.1294     0.0180    79.3544     2.4660
  268.6000     7.1898     7.7282   -18.6813     7.7966     0.1303     0.0183    79.4749     2.4671
  268.7000     7.1490     7.7279   -18.6834     7.7965     0.1311     0.0189    79.6929     2.4677
  268.8000     7.1121     7.6880   -18.6855     7.7964     0.1317     0.0195    79.9401     2.4683
  268.9000     7.1119     7.6740   -18.6876     7.7962     0.1323     0.0198    80.1872     2.4689
  269.0000     7.0765     7.6737   -18.6897     7.7961     0.1333     0.0201    80.4344     2.4685
  269.1000     7.0363     7.6734   -18.6918     7.7959     0.1341     0.0204    80.7046     2.4674
  269.2000     7.0138     7.6715   -18.6939     7.7958     0.1348     0.0207    80.9287     2.4666
  269.3000     7.0136     7.6199   -18.6960     7.7956     0.1354     0.0209    81.1759     2.4639
  269.4000     7.0132     7.6551   -18.6981     7.7955     0.1361     0.0209    81.3637     2.4622
  269.5000     6.9733     7.6721   -18.7002     7.7953     0.1370     0.0209    81.5520     2.4599
  269.6000     6.9648     7.6718   -18.7022     7.7952     0.1378     0.0217    81.9113     2.4575
  269.7000     6.9646     7.6715   -18.7043     7.7950     0.1385     0.0224    82.0547     2.4549
  269.8000     6.9644     7.6712   -18.7064     7.7949     0.1394     0.0226    82.3643     2.4518
  269.9000     6.9642     7.6709   -18.7085     7.7947     0.1403     0.0238    82.5819     2.4496
  270.0000     6.9640     7.6705   -18.7106     7.7946     0.1411     0.0238    82.8055     2.4491
  270.1000     7.0002     7.6814   -18.7127     7.7944     0.1421     0.0238    83.1532     2.4485
  270.2000     7.0119     7.7029   -18.7148     7.7943     0.1426     0.0238    83.4063     2.4479
  270.3000     7.0310     7.7245   -18.7169     7.7941     0.1426     0.0242    83.6475     2.4474
  270.4000     7.0601     7.7461   -18.7190     7.7940     0.1425     0.0253    84.0837     2.4474
  270.5000     7.0618     7.7678   -18.7211     7.7938     0.1421     0.0253    84.5113     2.4474
  270.6000     7.1085     7.7896   -18.7232     7.7937     0.1413     0.0253    84.9239     2.4478
  270.7000     7.1252     7.8114   -18.7253     7.7935     0.1406     0.0253    85.4048     2.4484
  270.8000     7.1452     7.8286   -18.7274     7.7933     0.1396     0.0252    85.8122     2.4490
  270.9000     7.1734     7.8283   -18.7295     7.7932     0.1387     0.0252    86.1475     2.4497
  271.0000     7.2067     7.8500   -18.7316     7.7931     0.1377     0.0252    86.5188     2.4511
  271.1000     7.2064     7.8720   -18.7341     7.7929     0.1367     0.0252    86.8902     2.4521
  271.2000     7.2456     7.8923   -18.7358     7.7927     0.1357     0.0252    87.2293     2.4533
  271.3000     7.2866     7.9112   -18.7379     7.7926     0.1346     0.0252    87.4766     2.4546
  271.4000     7.3060     7.9301   -18.7400     7.7924     0.1338     0.0252    87.7657     2.4559
  271.5000     7.3058     7.9514   -18.7421     7.7923     0.1326     0.0252    87.9709     2.4578
  271.6000     7.3094     7.9736   -18.7442     7.7921     0.1316     0.0251    88.2180     2.4584
  271.7000     7.3560     7.9991   -18.7463     7.7934     0.1308     0.0251    88.3158     2.4595
  271.8000     7.3924     8.0329   -18.7484     7.7973     0.1295     0.0249    88.1210     2.4607
  271.9000     7.4342     8.0593   -18.7505     7.8013     0.1283     0.0244    87.6090     2.4619
  272.0000     7.4577     8.0819   -18.7526     7.8053     0.1271     0.0240    87.1252     2.4631
  272.1000     7.4669     8.0994   -18.7547     7.8065     0.1261     0.0236    86.4392     2.4638
  272.2000     7.5089     8.0991   -18.7570     7.8063     0.1253     0.0236    85.7603     2.4654
  272.3000     7.5087     8.0987   -18.7589     7.8062     0.1243     0.0236    85.1382     2.4668
  272.4000     7.5085     8.0984   -18.7610     7.8060     0.1232     0.0236    84.5302     2.4683
  272.5000     7.5326     8.1006   -18.7631     7.8185     0.1226     0.0235    83.9818     2.4700
  272.6000     7.5752     8.1156   -18.7652     7.8208     0.1218     0.0235    83.7574     2.4712
  272.7000     7.6181     8.1306   -18.7673     7.8207     0.1210     0.0231    83.6778     2.4731
  272.8000     7.6648     8.1457   -18.7697     7.8205     0.1201     0.0227    83.7933     2.4749
  272.9000     7.6646     8.1647   -18.7715     7.8204     0.1196     0.0222    84.0088     2.4771
  273.0000     7.6948     8.1876   -18.7736     7.8202     0.1191     0.0217    84.1368     2.4791
  273.1000     7.7173     8.2087   -18.7757     7.8201     0.1190     0.0211    84.4269     2.4802
