~VERSION INFORMATION
 VERS.                2.0:   CWLS LOG ASCII STANDARD - VERSION 2.0
 WRAP.                 NO:   ONE LINE PER DEPTH STEP
~WELL INFORMATION
#MNEM.UNIT      DATA TYPE    INFORMATION
#----------   ------------   ------------------------------
 STRT.F           80.0000:   START DEPTH
 STOP.F          814.0000:   STOP DEPTH
 STEP.F            0.5000:   STEP LENGTH
 NULL.          -999.2500:   NO VALUE
 COMP.          U.S. NAVY:   COMPANY
 WELL. RES 3 TEAPOT DOM #17-S-35:   WELL
 FLD .             TEAPOT:   FIELD
 LOC .      S35 T39N R78W:   LOCATION
 CNTY.            NATRONA:   COUNTY
 STAT.            WYOMING:   STATE
 CTRY. UNITED STATES OF AMERICA:   COUNTRY
 SRVC. Schlumberger Well Surveying Corp:   SERVICE COMPANY
 DATE.        20-JUL-1952:   LOGDATE
 API .       490250650200:   API NUMBER
~CURVE INFORMATION
#MNEM.UNIT       API CODE    CURVE DESCRIPTION
#----------   ------------   ------------------------------
 DEPT.F                  :   
 SPR .MV     05 010 01 00:   SPONTANEOUS POTENTIAL FROM RES.
 ILD .OHMM   05 120 46 00:   INDUCTION LOG DEEP
 ASN .OHMM   05 041 16 00:   AMPLIFIED SHORT NORMAL 16"
 CILD.MMHO   05 110 46 00:   CONDUCTIVITY INDUCTION LOG DEEP
 GR  .GAPI   30 310 01 00:   GAMMA RAY
~PARAMETER INFORMATION
#MNEM.UNIT          VALUE    DESCRIPTION
#----------   ------------   ------------------------------
 PD  .                 KB:   PERMANENT DATUM
 LMF .                 KB:   LOG MEASURED FROM
 DMF .                 KB:   DRILLING MEASURED FROM
 EKB .F              5101:   KELLING BUSHING
 EGL .F              5096:   GROUND LEVEL
 DATE.        20-JUL-1962:   RUN DATE
 RUN .                  1:   RUN NUMBER
 DD  .F               815:   DEPTH DRILLER
 DL  .F               815:   DEPTH LOGGER
 BLI .F               814:   BOTTOM LOG INTERVAL
 TLI .F                80:   TOP LOG INTERVAL
 BS  .IN             6.75:   BIT SIZE
 BSD .F               815:   BIT SIZE AT DEPTH
 DFT .       OIL EMULSION:   DRILLING FLUID TYPE
 DFD .               10.0:   DRILLING FLUID DENSITY
 DFV .                 45:   DRILLING FLUID VISCOSITY
 DFL .                2.7:   DRILLING FLUID LOSS
 RMS .OHMM           3.64:   RESISTIVITY MUD SAMPLE
 MST .F                89:   MUD SAMPLE TEMPERATURE
 RMF .OHMM           3.01:   RESISTIVITY MUD FILTRATE SAMPLE
 MFST.F                89:   MUD FILTRATE SAMPLE TEMPERATURE
 RMC .OHMM           3.41:   RESISTIVITY MUD CAKE
 MCST.F                89:   MUD CAKE SAMPLE TEMPERATURE
 RMB .OHMM           3.41:   RESISTIVITY MUD AT BHT
 BHT .F                89:   BOTTOM HOLE TEMPERATURE
 TCS .HRS              .5:   TIME CURCULATED STOPPED
 LUN .               2503:   LOGGING UNIT NUMBER
 LUL .               CSPR:   LOGGING UNIT LOCATION
 ENGI.             DANNER:   RECORDING ENGINEER
 WITN.          JORGENSEN:   WITNESSED BY
 CLNT.            A2DTECH:   CLIENT CODE
 ORIG.           5" PRINT:   ORIGIN OF DATA
 UWI .       490250650200:   UNIQUE WELL ID
 DICO. A2D Technologies, Inc.:   DIGITIZING COMPANY
~OTHER INFORMATION
~A   DEPT      SPR          ILD        ASN      CILD        GR   
# ...
  751.0000   -46.1822    11.5447    11.5435    79.5590    72.2167
  751.5000   -46.5093    11.6198    11.6939    78.0013    75.1463
  752.0000   -46.8364    11.6925    11.6885    78.0182    76.5332
  752.5000   -47.1634    11.6854    11.6817    78.8191    73.1356
  753.0000   -47.6475    11.6020    11.5963    80.4109    79.3059
  753.5000   -48.2511    11.5174    11.4337    82.7900    72.2046
  754.0000   -47.7870    11.3543    11.3483    83.5909    73.7453
  754.5000   -46.8535    11.1923    11.1855    84.3952    66.0261
  755.0000   -46.0754    11.1077    11.0216    85.9870    74.2025
  755.5000   -45.2989    11.0241    10.8576    86.0005    80.8358
  756.0000   -44.8364    10.8612    10.7735    86.8048    80.5246
  756.5000   -44.8432    10.7767    10.7668    86.8217    87.1579
  757.0000   -44.8517    10.7719    10.7600    86.8346    87.3302
  757.5000   -45.1741    10.7660    10.7546    86.8504    84.2207
  758.0000   -45.4948    10.7600    10.8278    86.8691    69.4033
  758.5000   -46.1313    10.7553    10.8996    86.8827    72.9913
  759.0000   -46.4521    10.9078    11.0514    86.8996    80.0772
  759.5000   -46.3018    11.1365    11.5150    86.9165    84.3579
  760.0000   -46.3120    11.6035    12.0752    83.7804    91.9234
  760.5000   -46.3187    12.2265    12.7606    79.0729    82.8159
  761.0000   -46.3272    13.4816    13.6186    74.3309    78.6467
  761.5000   -46.8066    14.6529    14.4780    68.0798    82.6565
  762.0000   -47.5983    15.9834    16.2007    61.0101    86.2040
  762.5000   -50.1186    16.9221    17.5304    55.5118    75.8613
  763.0000   -53.1098    18.3312    18.3898    48.4421    68.6056
  763.5000   -57.5122    21.7058    21.5277    42.1598    63.0475
  764.0000   -61.9162    23.5092    24.5869    38.2364    61.6561
  764.5000   -61.9231    25.5473    25.6821    33.5255    58.5678
  765.0000   -62.0885    25.7784    25.3609    34.3332    70.9103
  765.5000   -62.0969    24.6719    24.7995    35.9215    63.9633
  766.0000   -62.2607    23.8011    24.2480    39.0881    70.2879
  766.5000   -62.2692    23.2445    22.9048    40.6798    66.5817
  767.0000   -61.1787    22.1395    22.6499    42.2681    62.2581
  767.5000   -59.9296    20.8757    23.0512    43.0724    49.7556
  768.0000   -59.7794    19.9276    21.4707    44.6642    51.7592
  768.5000   -60.8885    19.6072    21.1522    44.6777    47.7443
  769.0000   -59.7964    19.5226    21.6171    45.4820    47.1245
  769.5000   -59.1752    19.5179    21.2945    47.0738    53.9529
  770.0000   -59.6546    19.0402    20.9746    46.2965    53.4984
  770.5000   -60.6050    18.6412    20.6533    47.1042    53.8280
  771.0000   -61.8694    18.4792    20.4107    48.6959    56.9909
  771.5000   -62.5041    18.3161    20.1694    49.4969    59.4568
  772.0000   -62.6696    18.1541    20.0054    49.5138    56.0592
  772.5000   -60.9512    17.9123    20.0000    49.5275    52.3536
  773.0000   -60.3300    17.6705    19.8360    50.3317    55.4368
  773.5000   -59.7105    17.3513    19.6719    50.3486    54.3541
  774.0000   -59.2464    16.9523    19.0376    51.1710    48.3330
  774.5000   -60.8247    16.7105    17.8516    52.7412    58.6700
  775.0000   -61.1471    16.7058    17.8448    53.5456    55.8896
  775.5000   -60.8399    16.6212    18.1538    54.3465    48.6340
  776.0000   -60.0618    16.3008    18.3842    55.1508    34.4339
  776.5000   -60.0719    15.9816    17.0396    56.7425    41.2215
  777.0000   -59.2938    15.5040    16.7197    58.3309    52.7930
  777.5000   -57.2614    15.1049    16.7929    59.1352    58.5004
  778.0000   -56.1693    14.7071    16.5503    60.7269    59.1151
  778.5000   -56.4918    14.4654    15.8360    62.3153    61.2731
  779.0000   -54.6164    14.3820    15.7506    63.1196    62.2102
  779.5000   -54.4662    14.2974    15.7451    63.9205    58.1816
  780.0000   -53.5327    14.3713    15.8183    61.5753    58.0247
  780.5000   -51.1864    14.5226    15.8102    60.8014    64.8671
  781.0000   -50.4082    14.7525    15.8048    60.0309    65.8900
  781.5000   -50.4167    15.1397    16.3483    59.2604    61.0314
  782.0000   -49.6403    15.5280    16.1057    59.2773    55.6344
  782.5000   -49.6471    15.3648    15.7858    58.5035    53.0731
  783.0000   -50.4405    15.2815    15.5431    58.5204    59.3977
  783.5000   -52.1758    15.1969    15.5377    58.5373  -999.2500
  784.0000   -52.8105    15.2696    15.5309    58.5543  -999.2500
  784.5000   -52.1910    15.4221    15.6827    58.5678  -999.2500
  785.0000   -51.0989    15.5746    15.8346    58.5847  -999.2500
  785.5000   -49.6945    15.6473    16.0623    58.5984  -999.2500
  786.0000   -48.9163    15.3269    15.6624    59.4026  -999.2500
  786.5000   -48.6091    14.6920    15.4211    60.9943  -999.2500
  787.0000   -48.6193    14.2930    15.0999    61.8064  -999.2500
  787.5000   -48.3121    14.2882    14.7000    62.5996  -999.2500
  788.0000   -48.0049    14.3621    14.3801    62.6165  -999.2500
  788.5000   -47.5424    14.4348    14.0589    62.6300  -999.2500
  789.0000   -47.5824    14.2716    13.7390    65.0091  -999.2500
  789.5000   -48.8153    14.0298    13.5750    66.6009  -999.2500
  790.0000   -49.2930    13.7442    13.3323    66.6144  -999.2500
  790.5000   -48.3596    13.5144    13.0911    69.7809  -999.2500
  791.0000   -47.5814    13.2845    12.7698    72.1600  -999.2500
  791.5000   -46.8066    12.9864    12.5272    74.5358  -999.2500
  792.0000   -47.2844    12.8233    12.3645    76.1275  -999.2500
  792.5000   -48.0778    12.6601    12.2005    78.5066  -999.2500
  793.0000   -47.6153    12.4981    12.1151    80.8824  -999.2500
  793.5000   -46.8371    12.3350    12.1097    82.4741  -999.2500
  794.0000   -46.0607    12.1708    12.1029    84.0658  -999.2500
  794.5000   -45.5965    11.9312    12.0975    84.0794  -999.2500
  795.0000   -45.6050    11.9253    12.0121    84.0963  -999.2500
  795.5000   -45.4548    11.9205    12.0053    84.1132  -999.2500
  796.0000   -45.1493    11.9944    11.9213    84.1267  -999.2500
  796.5000   -45.1577    11.9087    11.9145    84.1437  -999.2500
  797.0000   -45.0075    11.9039    11.9077    83.3698  -999.2500
  797.5000   -44.8573    11.8980    11.9023    83.3867  -999.2500
  798.0000   -44.7088    11.8134    11.8955    83.4036  -999.2500
  798.5000   -44.5603    11.8087    11.8887    83.4173  -999.2500
  799.0000   -44.7257    11.8814    11.8833    83.4341  -999.2500
  799.5000   -44.8912    11.8766    11.8765    83.4510  -999.2500
  800.0000   -44.6541    11.9505    11.9497    83.4646  -999.2500
  800.5000   -44.1824    11.9504    11.9429    83.4815  -999.2500
  801.0000   -43.5535    11.9504    11.9361    83.4984  -999.2500
  801.5000   -43.3962    11.9503    11.9307    83.5119  -999.2500
  802.0000   -43.5535    11.9502    12.0039    83.5289  -999.2500
  802.5000   -43.5535    11.9502    11.9957    83.5458  -999.2500
  803.0000   -43.2390    11.9501    11.9903    83.5593  -999.2500
  803.5000   -42.9245    11.9500    12.0622    82.7888  -999.2500
  804.0000   -42.7673    11.9500    12.0554    82.8058  -999.2500
  804.5000   -42.6101    11.9499    12.0495    82.8193  -999.2500
  805.0000   -42.4528    11.9498    12.0432    81.2580  -999.2500
  805.5000   -42.2956    11.9498    12.0377    81.2783  -999.2500
  806.0000   -42.2956    11.9497    12.0310    81.2919  -999.2500
  806.5000   -42.4528    11.9497    12.0251    81.3088  -999.2500
  807.0000   -42.4528    11.9497    12.0188    81.3257  -999.2500
  807.5000   -42.4528    11.9497    12.0120  -999.2500  -999.2500
  808.0000   -42.2956    11.9497    12.0061  -999.2500  -999.2500
  808.5000   -42.1384    11.9497    11.9998  -999.2500  -999.2500
  809.0000   -41.8239    11.9497    11.9930  -999.2500  -999.2500
  809.5000   -41.1950    11.9497    12.0661  -999.2500  -999.2500
  810.0000   -40.5660    11.9497    12.0589  -999.2500  -999.2500
  810.5000   -40.2516    11.9497    12.0531  -999.2500  -999.2500
  811.0000   -40.8805    11.9497    12.0472  -999.2500  -999.2500
  811.5000   -41.6667    11.9497    12.1204  -999.2500  -999.2500
