~VERSION INFORMATION
 VERS.                2.0:   CWLS LOG ASCII STANDARD - VERSION 2.0
 WRAP.                 NO:   ONE LINE PER DEPTH STEP
~WELL INFORMATION
#MNEM.UNIT      DATA TYPE    INFORMATION
#----------   ------------   ------------------------------
 STRT.F          779.5000:   START DEPTH
 STOP.F         2194.0000:   STOP DEPTH
 STEP.F            0.5000:   STEP LENGTH
 NULL.          -999.2500:   NO VALUE
 COMP. LAWRENCE/ALLISON INC:   COMPANY
 WELL.        27 X #10-10:   WELL
 FLD .             TEAPOT:   FIELD
 LOC .      S10 T38N R78W:   LOCATION
 CNTY.            NATRONA:   COUNTY
 STAT.            WYOMING:   STATE
 CTRY. UNITED STATES OF AMERICA:   COUNTRY
 SRVC.            Unknown:   SERVICE COMPANY
 DATE.        21-AUG-1987:   LOGDATE
 API .       490251118900:   API NUMBER
~CURVE INFORMATION
#MNEM.UNIT       API CODE    CURVE DESCRIPTION
#----------   ------------   ------------------------------
 DEPT.F                  :   
 ROP .MIN/FT 91 810 01 00:   RATE OF DRILLING PENETRATION
 TGAS.UNITS  91 830 01 00:   TOTAL GAS FROM HOTWIRE
~PARAMETER INFORMATION
#MNEM.UNIT          VALUE    DESCRIPTION
#----------   ------------   ------------------------------
 EKB .F              5237:   KELLING BUSHING
 EGL .F              5236:   GROUND LEVEL
 DATE.        21-AUG-1987:   RUN DATE
 BLI .F              2180:   BOTTOM LOG INTERVAL
 TLI .F               780:   TOP LOG INTERVAL
 LUN .              T-148:   LOGGING UNIT NUMBER
 ENGI.            R. HUSK:   RECORDING ENGINEER
 WITN.           C. TOWER:   WITNESSED BY
 CLNT.            A2DTECH:   CLIENT CODE
 ORIG.           5" PRINT:   ORIGIN OF DATA
 UWI .       490251118900:   UNIQUE WELL ID
 DICO. A2D Technologies, Inc.:   DIGITIZING COMPANY
~OTHER INFORMATION
~A   DEPT      ROP         TGAS 
# ...
 1994.5000     0.6328    77.7189
 1995.0000     0.5844    77.7403
 1995.5000     0.5569    77.7618
 1996.0000     0.5408    78.2211
 1996.5000     0.5289    78.2425
 1997.0000     0.5244    78.2639
 1997.5000     0.5312    78.2853
 1998.0000     0.5335    78.3067
 1998.5000     0.5327    77.8902
 1999.0000     0.5319    77.9124
 1999.5000     0.5310    77.9384
 2000.0000     0.5195    77.5165
 2000.5000     0.5215    77.2256
 2001.0000     0.5325    77.5412
 2001.5000     0.5466    77.9897
 2002.0000     0.5725    78.8762
 2002.5000     0.6020    78.8869
 2003.0000     0.6243    77.5861
 2003.5000     0.6366    75.8422
 2004.0000     0.6201    74.1010
 2004.5000     0.5802    73.2383
 2005.0000     0.5348    72.8082
 2005.5000     0.5097    72.8215
 2006.0000     0.4982    73.2701
 2006.5000     0.4867    72.8426
 2007.0000     0.4913    72.8558
 2007.5000     0.4852    72.4258
 2008.0000     0.4826    72.4390
 2008.5000     0.4824    72.4496
 2009.0000     0.4821    72.4602
 2009.5000     0.4819    72.4708
 2010.0000     0.4816    72.0434
 2010.5000     0.4813    72.0566
 2011.0000     0.4811    72.0671
 2011.5000     0.4849    72.0777
 2012.0000     0.5148    72.0883
 2012.5000     0.5303    72.0989
 2013.0000     0.5557    72.1095
 2013.5000     0.5555    72.1204
 2014.0000     0.5552    72.1314
 2014.5000     0.5468    72.1438
 2015.0000     0.5330    72.1544
 2015.5000     0.5327    72.1650
 2016.0000     0.5271    72.1755
 2016.5000     0.5214    72.1861
 2017.0000     0.5148    72.1971
 2017.5000     0.5100    72.2099
 2018.0000     0.5097    72.2205
 2018.5000     0.5095    72.6690
 2019.0000     0.5092    72.6796
 2019.5000     0.5089    73.5661
 2020.0000     0.5197    74.0146
 2020.5000     0.5078    73.9734
 2021.0000     0.5173    73.9321
 2021.5000     0.5193    73.8909
 2022.0000     0.5328    73.8497
 2022.5000     0.5619    73.8085
 2023.0000     0.6099    73.7672
 2023.5000     0.6557    73.7260
 2024.0000     0.6681    73.6848
 2024.5000     0.6449    73.6435
 2025.0000     0.6043    73.6023
 2025.5000     0.5645    73.5611
 2026.0000     0.5431    73.5199
 2026.5000     0.5379    73.4786
 2027.0000     0.5368    73.4374
 2027.5000     0.5357    73.3962
 2028.0000     0.5346    73.3549
 2028.5000     0.5333    73.3248
 2029.0000     0.5323    72.8977
 2029.5000     0.5204    72.9109
 2030.0000     0.5086    72.4809
 2030.5000     0.4967    72.4941
 2031.0000     0.4848    72.5046
 2031.5000     0.4835    72.5152
 2032.0000     0.4711    72.5257
 2032.5000     0.4601    72.5365
 2033.0000     0.4698    72.5495
 2033.5000     0.4686    72.5600
 2034.0000     0.4675    72.5706
 2034.5000     0.4692    73.0191
 2035.0000     0.4762    73.4676
 2035.5000     0.4751    73.9161
 2036.0000     0.4740    74.3650
 2036.5000     0.4686    74.3778
 2037.0000     0.4610    73.0745
 2037.5000     0.4600    71.3332
 2038.0000     0.4589    68.2781
 2038.5000     0.4578    66.5368
 2039.0000     0.4567    65.6569
 2039.5000     0.4556    64.3681
 2040.0000     0.4545    63.0675
 2040.5000     0.4545    63.0784
 2041.0000     0.4559    63.0892
 2041.5000     0.4669    63.1001
 2042.0000     0.4780    63.1109
 2042.5000     0.4931    63.1218
 2043.0000     0.5308    63.1327
 2043.5000     0.5885    63.1435
 2044.0000     0.6548    63.1544
 2044.5000     0.7123    63.1652
 2045.0000     0.7296    63.1761
 2045.5000     0.6974    63.1869
 2046.0000     0.6493    63.1978
 2046.5000     0.6239    63.2087
 2047.0000     0.6169    63.2195
 2047.5000     0.6169    63.2304
 2048.0000     0.6169    63.2412
 2048.5000     0.6121    63.2521
 2049.0000     0.6061    63.2630
 2049.5000     0.6061    62.8359
 2050.0000     0.6061    62.8467
 2050.5000     0.6004    62.8577
 2051.0000     0.5777    62.4305
 2051.5000     0.5445    62.4416
 2052.0000     0.5240    62.4526
 2052.5000     0.5195    62.4635
 2053.0000     0.5195    62.0387
 2053.5000     0.5195    62.0495
 2054.0000     0.5195    62.0604
 2054.5000     0.5195    62.0712
 2055.0000     0.5195    62.0821
 2055.5000     0.5195    62.0930
 2056.0000     0.5195    62.5418
 2056.5000     0.5111    63.8665
 2057.0000     0.5087    65.1912
 2057.5000     0.5087    66.9539
 2058.0000     0.5087    68.7166
 2058.5000     0.4978    70.9172
 2059.0000     0.4978    72.2420
 2059.5000     0.4978    72.6908
 2060.0000     0.5159    73.1396
 2060.5000     0.5002    71.8347
 2061.0000     0.4848    72.2861
 2061.5000     0.4838    72.2969
 2062.0000     0.4827    71.8670
 2062.5000     0.4777    71.8805
 2063.0000     0.4697    72.3292
 2063.5000     0.4645    72.7779
 2064.0000     0.4567    73.2266
 2064.5000     0.4556    73.6754
 2065.0000     0.4545    74.1241
 2065.5000     0.4535    73.6969
 2066.0000     0.4524    72.7739
 2066.5000     0.4513    70.2175
 2067.0000     0.4502    68.9144
 2067.5000     0.4491    68.4845
 2068.0000     0.4621    68.0573
 2068.5000     0.4985    68.0708
 2069.0000     0.5458    68.0815
 2069.5000     0.5942    68.0923
 2070.0000     0.6417    68.1031
 2070.5000     0.6599    68.1139
 2071.0000     0.6319    67.6840
 2071.5000     0.5878    67.6974
 2072.0000     0.5427    67.7082
 2072.5000     0.5143    68.1569
 2073.0000     0.4968    69.0438
 2073.5000     0.4903    69.4927
 2074.0000     0.4892    69.9438
 2074.5000     0.4881    70.3925
 2075.0000     0.4927    70.4033
 2075.5000     0.4968    70.8520
 2076.0000     0.4957    70.8627
 2076.5000     0.4946    70.8735
 2077.0000     0.4935    70.8843
 2077.5000     0.4924    71.3330
 2078.0000     0.4913    71.3438
 2078.5000     0.4903    71.3546
 2079.0000     0.4892    71.3653
 2079.5000     0.4881    71.3761
 2080.0000     0.4113    71.3869
 2080.5000     0.4675    71.4238
 2081.0000     0.5214    71.0175
 2081.5000     0.5548    71.0492
 2082.0000     0.5835    71.5188
 2082.5000     0.5912    71.5511
 2083.0000     0.5868    72.4659
 2083.5000     0.5705    73.3735
 2084.0000     0.5422    73.8431
 2084.5000     0.5072    74.7507
 2085.0000     0.4721    75.2203
 2085.5000     0.4564    75.6899
 2086.0000     0.4486    76.1606
 2086.5000     0.4440    76.6371
 2087.0000     0.4432    77.1067
 2087.5000     0.4422    76.6925
 2088.0000     0.4415    76.7320
 2088.5000     0.4407    75.8878
 2089.0000     0.4507    75.4815
 2089.5000     0.4499    74.1993
 2090.0000     0.4491    73.3550
 2090.5000     0.4468    72.5108
 2091.0000     0.4305    72.1045
 2091.5000     0.3954    71.2681
 2092.0000     0.3799    70.8613
 2092.5000     0.4171    70.4555
 2093.0000     0.4620    70.4951
 2093.5000     0.5018    70.5268
 2094.0000     0.5016    70.5584
 2094.5000     0.4789    70.5901
 2095.0000     0.4600    70.6218
 2095.5000     0.4437    70.6534
 2096.0000     0.4394    70.6861
 2096.5000     0.4386    70.7246
 2097.0000     0.4376    70.7563
 2097.5000     0.4369    70.7880
 2098.0000     0.4361    70.8196
 2098.5000     0.3920    70.8513
 2099.0000     0.3696    70.8832
 2099.5000     0.3689    70.9225
 2100.0000     0.3789    71.3842
 2100.5000     0.3472    74.0040
 2101.0000     0.3480    73.1149
 2101.5000     0.3596    72.2284
 2102.0000     0.3820    71.3419
 2102.5000     0.3828    70.8934
 2103.0000     0.3837    70.8828
 2103.5000     0.3857    72.6241
 2104.0000     0.3961    74.9197
 2104.5000     0.3969    78.2937
 2105.0000     0.3977    80.0350
 2105.5000     0.3985    80.0244
 2106.0000     0.3994    79.5759
 2106.5000     0.4039    79.1273
 2107.0000     0.4118    78.2408
 2107.5000     0.4126    77.7920
 2108.0000     0.4134    76.4652
 2108.5000     0.4142    76.4546
 2109.0000     0.4150    76.4441
 2109.5000     0.4159    76.4335
 2110.0000     0.4167    76.4229
 2110.5000     0.4175    77.7262
 2111.0000     0.4183    78.2559
 2111.5000     0.4191    80.3301
 2112.0000     0.4284    81.1981
 2112.5000     0.4209    81.6255
 2113.0000     0.4216    81.6123
 2113.5000     0.4332    82.0423
 2114.0000     0.4340    82.0291
 2114.5000     0.4348    82.0183
 2115.0000     0.4464    82.0053
 2115.5000     0.4472    81.5568
