~VERSION INFORMATION
 VERS.                2.0:   CWLS LOG ASCII STANDARD - VERSION 2.0
 WRAP.                 NO:   ONE LINE PER DEPTH STEP
~WELL INFORMATION
#MNEM.UNIT      DATA TYPE    INFORMATION
#----------   ------------   ------------------------------
 STRT.F           86.0000:   START DEPTH
 STOP.F          770.0000:   STOP DEPTH
 STEP.F            0.5000:   STEP LENGTH
 NULL.          -999.2500:   NO VALUE
 COMP.           U S NAVY:   COMPANY
 WELL. NPR 3 TEAPOT DOM #85-S-34:   WELL
 FLD .        TEAPOT DOME:   FIELD
 LOC .      S34 T39N R78W:   LOCATION
 CNTY.            NATRONA:   COUNTY
 STAT.            WYOMING:   STATE
 CTRY. UNITED STATES OF AMERICA:   COUNTRY
 SRVC. Schlumberger Well Surveying Corp:   SERVICE COMPANY
 DATE.        31-JUL-1963:   LOGDATE
 API .       490250652800:   API NUMBER
~CURVE INFORMATION
#MNEM.UNIT       API CODE    CURVE DESCRIPTION
#----------   ------------   ------------------------------
 DEPT.F                  :   
 ASN .OHMM   05 041 16 00:   AMPLIFIED SHORT NORMAL 16"
 CILD.MMHO   05 110 46 00:   CONDUCTIVITY INDUCTION LOG DEEP
 ILD .OHMM   05 120 46 00:   INDUCTION LOG DEEP
 SPR .MV     05 010 01 00:   SPONTANEOUS POTENTIAL FROM RES.
 GR  .GAPI   30 310 01 00:   GAMMA RAY
~PARAMETER INFORMATION
#MNEM.UNIT          VALUE    DESCRIPTION
#----------   ------------   ------------------------------
 PD  .                 GL:   PERMANENT DATUM
 EPD .F              5071:   ELEVATION PERMANENT DATUM
 LMF .                 KB:   LOG MEASURED FROM
 DAPD.F                 5:   FEET ABOVE PERMANENT DATUM
 DMF .                 KB:   DRILLING MEASURED FROM
 EKB .F              5076:   KELLING BUSHING
 EGL .F              5071:   GROUND LEVEL
 DATE.        31-JUL-1963:   RUN DATE
 RUN .                  1:   RUN NUMBER
 DD  .F               770:   DEPTH DRILLER
 DL  .F               771:   DEPTH LOGGER
 BLI .F               770:   BOTTOM LOG INTERVAL
 TLI .F                86:   TOP LOG INTERVAL
 CS  .IN            8.625:   CASING SIZE
 CBD .F                10:   CASING BOTTOM DRILLER
 BS  .IN             6.75:   BIT SIZE
 BSD .F               770:   BIT SIZE AT DEPTH
 DFT .          GEL & OIL:   DRILLING FLUID TYPE
 DFD .                9.6:   DRILLING FLUID DENSITY
 DFV .                 39:   DRILLING FLUID VISCOSITY
 DFPH.                9.0:   DRILLING FLUID PH
 DFL .                8.8:   DRILLING FLUID LOSS
 MSS .           FLOWLINE:   MUD SAMPLE SOURCE
 RMS .OHMM           3.06:   RESISTIVITY MUD SAMPLE
 MST .F                94:   MUD SAMPLE TEMPERATURE
 RMF .OHMM           2.64:   RESISTIVITY MUD FILTRATE SAMPLE
 MFST.F                94:   MUD FILTRATE SAMPLE TEMPERATURE
 MFSS.               MEAS:   MUD FILTRATE SAMPLE SOURCE
 TCS .HRS               1:   TIME CURCULATED STOPPED
 MRT .F           LESS 80:   MAXIMUM RECORDED TEMPERATURE
 LUN .               4507:   LOGGING UNIT NUMBER
 LUL .               CSPR:   LOGGING UNIT LOCATION
 ENGI.            WINKLER:   RECORDING ENGINEER
 WITN.          JORGENSON:   WITNESSED BY
 CLNT.            A2DTECH:   CLIENT CODE
 ORIG.           5" PRINT:   ORIGIN OF DATA
 UWI .       490250652800:   UNIQUE WELL ID
 DICO. A2D Technologies, Inc.:   DIGITIZING COMPANY
~OTHER INFORMATION
~A   DEPT        ASN      CILD         ILD      SPR         GR   
# ...
  452.0000     9.8336   124.7319     8.2161   -30.3227  -999.2500
  452.5000     9.7261   125.5521     8.2130   -30.6445  -999.2500
  453.0000     9.6462   126.3722     8.1315   -31.2787  -999.2500
  453.5000     9.5851   126.4038     7.9716   -31.1263  -999.2500
  454.0000     9.5370   126.4415     7.9685   -30.6632  -999.2500
  454.5000     9.5047   126.4728     7.8870   -31.1404  -999.2500
  455.0000     9.4881   126.5042     7.8839   -31.4606  -999.2500
  455.5000     9.4871   126.5355     7.9592   -31.7808  -999.2500
  456.0000     9.5021   126.5668     7.9560   -33.1999  -999.2500
  456.5000     9.5169   126.5982     7.9529   -34.9330  -999.2500
  457.0000     9.5157   126.6295     8.1065   -36.5091  -999.2500
  457.5000     9.5307   125.8644     8.1818   -37.4572  -999.2500
  458.0000     9.6865   124.3263     8.2571   -37.1495  -999.2500
  458.5000     9.9054   121.9917     8.4107   -36.8402  -999.2500
  459.0000     9.9776   120.4379     8.5643   -36.5338  -999.2500
  459.5000    10.0291   117.3225     8.7179   -36.3830  -999.2500
  460.0000    10.1852   114.1992     8.8715   -36.5465  -999.2500
  460.5000    10.2627   111.8646     9.0251   -36.8667  -999.2500
  461.0000    10.3405   109.5301     9.1029   -37.6579  -999.2500
  461.5000    10.4178   107.9763     9.2578   -38.9200  -999.2500
  462.0000    10.5739   104.8609     9.4859   -39.4055  -999.2500
  462.5000    10.6517   103.3149     9.6396   -38.4615  -999.2500
  463.0000    10.8862   101.7611     9.7932   -37.6787  -999.2500
  463.5000    11.0420    98.6457     9.9559   -37.3668  -999.2500
  464.0000    11.2766    96.3111    10.1891   -37.0674  -999.2500
  464.5000    11.4327    93.9765    10.4342   -36.5861  -999.2500
  465.0000    11.5887    91.6419    10.7341   -36.1172  -999.2500
  465.5000    11.9017    89.3074    11.0315   -35.8053  -999.2500
  466.0000    12.2147    87.7614    11.1067   -35.3365  -999.2500
  466.5000    12.5278    87.0032    11.1820   -34.5884  -999.2500
  467.0000    12.4468    87.0354    11.3348   -34.1221  -999.2500
  467.5000    12.2119    87.0668    11.3317   -33.9713  -999.2500
  468.0000    12.8452    86.3092    11.3286   -33.8206  -999.2500
  468.5000    12.9950    86.3408    11.3255   -33.6714  -999.2500
  469.0000    12.5121    86.3722    11.3223   -33.5191  -999.2500
  469.5000    12.2082    86.4038    11.1625   -33.3683  -999.2500
  470.0000    12.0500    89.5899    10.8459   -33.2176  -999.2500
  470.5000    12.0491    92.0608    10.6076   -33.5394  -999.2500
  471.0000    12.0482    93.6908    10.3694   -34.1735  -999.2500
  471.5000    11.8903    94.4164    10.2879   -34.4937  -999.2500
  472.0000    11.8108    95.2366    10.2064   -34.5000  -999.2500
  472.5000    11.7314    95.2744    10.2033   -33.2503  -999.2500
  473.0000    11.5735    95.3057    10.2793   -32.1577  -999.2500
  473.5000    11.4941    95.3371    10.3538   -32.0054  -999.2500
  474.0000    11.5716    95.3684    10.3507   -32.4841  -999.2500
  474.5000    11.5707    95.3997    10.4267   -32.4904  -999.2500
  475.0000    11.7270    95.4311    10.5020   -32.1826  -999.2500
  475.5000    11.8045    95.4624    10.4981   -31.7163  -999.2500
  476.0000    11.4894    95.4938    10.4949   -31.7241  -999.2500
  476.5000    11.6454    96.3137    10.4918   -32.0443  -999.2500
  477.0000    11.8800    96.3451    10.4887   -32.6785  -999.2500
  477.5000    11.7221    97.9537    10.4072   -32.8418  -999.2500
  478.0000    11.4071    99.5623    10.1690   -33.0050  -999.2500
  478.5000    11.2492   101.1710     9.8524   -33.0110  -999.2500
  479.0000    11.0913   102.7796     9.6925   -33.0185  -999.2500
  479.5000    10.9334   104.3882     9.6110   -32.5538  -999.2500
  480.0000    10.8540   105.9968     9.5295   -31.6181  -999.2500
  480.5000    10.7745   106.0282     9.3697   -31.4658  -999.2500
  481.0000    10.7736   106.8481     9.3665   -31.3166  -999.2500
  481.5000    10.7727   107.6681     9.3634   -31.1643  -999.2500
  482.0000    10.7717   107.6995     9.2819   -30.8566  -999.2500
  482.5000    10.7708   107.7308     9.2004   -30.2364  -999.2500
  483.0000    10.7699   108.5508     9.1189   -29.9271  -999.2500
  483.5000    10.6897   109.3708     9.1158   -29.7764  -999.2500
  484.0000    10.5325   110.1907     9.0343   -30.4121  -999.2500
  484.5000    10.4476   111.7994     9.0312   -30.8893  -999.2500
  485.0000    10.2951   112.6193     9.0281   -31.3665  -999.2500
  485.5000    10.2792   112.6507     8.9466   -31.5297  -999.2500
  486.0000    10.2588   113.4707     8.8651   -31.6930  -999.2500
  486.5000    10.2385   114.2906     8.7836   -31.5422  -999.2500
  487.0000    10.2182   114.3220     8.7021   -31.5484  -999.2500
  487.5000    10.1979   115.1420     8.6990   -31.0837  -999.2500
  488.0000    10.1776   115.9621     8.6959   -30.6190  -999.2500
  488.5000    10.1573   115.9937     8.6928   -30.4683  -999.2500
  489.0000    10.1370   116.0252     8.6896   -30.6315  -999.2500
  489.5000    10.1297   115.1840     8.6865   -30.6377  -999.2500
  490.0000    10.1287   112.9327     8.6834   -30.6440  -999.2500
  490.5000    10.1278   111.3868     8.6803   -30.4932  -999.2500
  491.0000    10.1268   111.4196     8.7555   -30.4994  -999.2500
  491.5000    10.1259   111.4573     8.8308   -30.6627  -999.2500
  492.0000    10.1248   113.0659     8.7492   -30.9829  -999.2500
  492.5000     9.8885   113.8859     8.6677   -30.9891  -999.2500
  493.0000     9.9661   116.2831     8.4216   -30.8384  -999.2500
  493.5000     9.9651   121.0463     8.1821   -30.6876  -999.2500
  494.0000     9.9642   127.3868     7.8746   -30.3799  -999.2500
  494.5000     9.4134   133.7273     7.7030   -30.2229  -999.2500
  495.0000     9.0183   136.9132     7.4634   -30.0784  -999.2500
  495.5000     8.7643   138.5218     7.3806   -30.0994  -999.2500
  496.0000     8.5775   140.1305     7.2345   -30.4239  -999.2500
  496.5000     8.5133   140.9505     7.2314   -30.4111  -999.2500
  497.0000     8.4515   140.9818     7.2282   -30.1033  -999.2500
  497.5000     8.5694   139.4358     7.3819   -29.9526  -999.2500
  498.0000     8.8576   137.8899     7.3787   -30.1174  -999.2500
  498.5000     8.8880   133.9780     7.5331   -30.1236  -999.2500
  499.0000     8.9185   134.0093     7.6868   -30.2868  -999.2500
  499.5000     8.9804   133.2520     7.6829   -30.4501  -999.2500
  500.0000     9.0109   133.2834     7.7589   -30.6133  -999.2500
  500.5000     9.0106   131.7035     7.6794   -30.3055  -999.2500
  501.0000     8.9632   130.9148     7.6787   -29.8407  -999.2500
  501.5000     8.9472   130.9148     7.7563   -29.5313  -999.2500
  502.0000     8.9627   129.3375     7.7555   -30.4809  -999.2500
  502.5000     8.9781   129.3375     7.7547   -30.9580  -999.2500
  503.0000     9.0562   127.7603     7.8323   -31.1212  -999.2500
  503.5000     9.2286   126.9454     7.9097   -31.1274  -999.2500
  504.0000     9.4480   124.6057     7.9875   -30.9765  -999.2500
  504.5000     9.5105   123.0284     8.0651   -30.9827  -999.2500
  505.0000     9.5259   122.2397     8.1427   -30.9733  -999.2500
  505.5000     9.5569   121.4511     8.1418   -30.6536  -999.2500
  506.0000     9.5724   121.4511     8.2196   -30.5302  -999.2500
  506.5000     9.5563   123.0284     8.2186   -30.5379  -999.2500
  507.0000     9.4932   123.8170     8.1395   -30.6995  -999.2500
  507.5000     9.3987   124.6057     8.1387   -30.3917  -999.2500
  508.0000     9.3984   125.3943     8.1379   -30.2409  -999.2500
  508.5000     9.3824   126.1830     8.1371   -30.5626  -999.2500
  509.0000     9.3036   126.1830     7.9795   -30.7257  -999.2500
  509.5000     9.1777   126.1830     7.9787   -30.7319  -999.2500
  510.0000     9.1606   126.1830     7.8996   -30.5808  -999.2500
  510.5000     9.2558   126.1830     7.8988   -30.5872  -999.2500
  511.0000     9.3038   126.1830     7.8197   -30.9105  -999.2500
  511.5000     9.4201   126.1830     7.8189   -31.0705  -999.2500
  512.0000     9.5686   126.1830     7.8181   -30.7627  -999.2500
  512.5000     9.4583   126.1830     7.8174   -31.2413  -999.2500
