~VERSION INFORMATION
 VERS.                2.0:   CWLS LOG ASCII STANDARD - VERSION 2.0
 WRAP.                 NO:   ONE LINE PER DEPTH STEP
~WELL INFORMATION
#MNEM.UNIT      DATA TYPE    INFORMATION
#----------   ------------   ------------------------------
 STRT.F          550.0000:   START DEPTH
 STOP.F         2078.5000:   STOP DEPTH
 STEP.F            0.5000:   STEP LENGTH
 NULL.          -999.2500:   NO VALUE
 COMP. BROWN JOHN E&C INC:   COMPANY
 WELL. 58-61 STX-10 #58-10:   WELL
 FLD .             TEAPOT:   FIELD
 LOC .      S10 T38N R78W:   LOCATION
 CNTY.            NATRONA:   COUNTY
 STAT.            WYOMING:   STATE
 CTRY. UNITED STATES OF AMERICA:   COUNTRY
 SRVC.            Unknown:   SERVICE COMPANY
 DATE.        07-SEP-1991:   LOGDATE
 API .       490251108000:   API NUMBER
~CURVE INFORMATION
#MNEM.UNIT       API CODE    CURVE DESCRIPTION
#----------   ------------   ------------------------------
 DEPT.F                  :   
 ROP .MIN/FT 91 810 01 00:   RAT OF DRILLING PENETRATION
 TGAS.UNITS  91 830 01 00:   TOTAL GAS FROM HOTWIRE
~PARAMETER INFORMATION
#MNEM.UNIT          VALUE    DESCRIPTION
#----------   ------------   ------------------------------
 EKB .F              5216:   KELLING BUSHING
 EGL .F              5206:   GROUND LEVEL
 DATE.             9-7-91:   RUN DATE
 DD  .F              2079:   DEPTH DRILLER
 TCS .HRS            1815:   TIME CURCULATED STOPPED
 TLAB.HRS            1930:   TIME LOGGER AT BOTTOM
 ENGI.         HUSK/TOWER:   RECORDING ENGINEER
 WITN.             HENDRY:   WITNESSED BY
 CLNT.            A2DTECH:   CLIENT CODE
 ORIG.           5" PRINT:   ORIGIN OF DATA
 UWI .       490251108000:   UNIQUE WELL ID
 DICO. A2D Technologies, Inc.:   DIGITIZING COMPANY
~OTHER INFORMATION
~A   DEPT        ROP       TGAS 
# ...
 1400.5000     0.7712     9.2500
 1401.0000     0.8246     9.2500
 1401.5000     0.8792     9.2500
 1402.0000     0.8750     9.2500
 1402.5000     0.8185     9.2500
 1403.0000     0.7616     9.2500
 1403.5000     0.7057     9.2500
 1404.0000     0.6664     9.2500
 1404.5000     0.6687     9.2500
 1405.0000     0.6732     9.2500
 1405.5000     0.6791     9.2500
 1406.0000     0.7043     9.2500
 1406.5000     0.7376     9.2500
 1407.0000     0.7782     9.2500
 1407.5000     0.8194     9.2500
 1408.0000     0.8607     9.2500
 1408.5000     0.9018     9.2500
 1409.0000     0.9429     9.2500
 1409.5000     0.9693     9.2500
 1410.0000     0.9687     9.2500
 1410.5000     0.9569     9.2500
 1411.0000     0.8885     9.2500
 1411.5000     0.8215     9.2500
 1412.0000     0.7439     9.2498
 1412.5000     0.6657     9.2507
 1413.0000     0.5872     9.2679
 1413.5000     0.5081     9.2844
 1414.0000     0.4316     9.3009
 1414.5000     0.4436     9.3173
 1415.0000     0.4601     9.3337
 1415.5000     0.4770     9.3501
 1416.0000     0.4936     9.3665
 1416.5000     0.5101     9.3829
 1417.0000     0.5266     9.3993
 1417.5000     0.5431     9.4157
 1418.0000     0.5596     9.4321
 1418.5000     0.5761     9.4485
 1419.0000     0.5926     9.4649
 1419.5000     0.6091     9.4813
 1420.0000     0.6257     9.4977
 1420.5000     0.6422     9.5141
 1421.0000     0.6588     9.5305
 1421.5000     0.6756     9.5469
 1422.0000     0.6896     9.5633
 1422.5000     0.6675     9.5798
 1423.0000     0.6463     9.5962
 1423.5000     0.6259     9.6126
 1424.0000     0.6206     9.6290
 1424.5000     0.6493     9.6454
 1425.0000     0.6778     9.6618
 1425.5000     0.7066     9.6782
 1426.0000     0.7363     9.6946
 1426.5000     0.7404     9.7110
 1427.0000     0.7361     9.7274
 1427.5000     0.7305     9.7438
 1428.0000     0.7695     9.7602
 1428.5000     0.8221     9.7766
 1429.0000     0.8755     9.7930
 1429.5000     0.9300     9.8094
 1430.0000     0.9059     9.8258
 1430.5000     0.8707     9.8422
 1431.0000     0.8360     9.8586
 1431.5000     0.8051     9.8750
 1432.0000     0.8065     9.8915
 1432.5000     0.8089     9.9079
 1433.0000     0.8111     9.9243
 1433.5000     0.8133     9.9407
 1434.0000     0.8155     9.9571
 1434.5000     0.8178     9.9735
 1435.0000     0.8188     9.9899
 1435.5000     0.8270    10.0063
 1436.0000     0.8408    10.0227
 1436.5000     0.8547    10.0391
 1437.0000     0.8687    10.0555
 1437.5000     0.8827    10.0719
 1438.0000     0.8966    10.0883
 1438.5000     0.9103    10.1047
 1439.0000     0.9144    10.1211
 1439.5000     0.8923    10.1375
 1440.0000     0.8705    10.1539
 1440.5000     0.8486    10.1704
 1441.0000     0.8265    10.1868
 1441.5000     0.8194    10.2032
 1442.0000     0.8380    10.2196
 1442.5000     0.8570    10.2360
 1443.0000     0.8759    10.2524
 1443.5000     0.8935    10.2688
 1444.0000     0.8954    10.2852
 1444.5000     0.8968    10.3016
 1445.0000     0.8983    10.3180
 1445.5000     0.8998    10.3344
 1446.0000     0.9013    10.3508
 1446.5000     0.9028    10.3672
 1447.0000     0.9042    10.3836
 1447.5000     0.9059    10.4000
 1448.0000     0.9064    10.4164
 1448.5000     0.9216    10.4328
 1449.0000     0.9529    10.4492
 1449.5000     0.9843    10.4656
 1450.0000     1.0154    10.4820
 1450.5000     1.0450    10.4985
 1451.0000     1.0545    10.5149
 1451.5000     1.0759    10.5313
 1452.0000     1.0975    10.5477
 1452.5000     1.1191    10.5641
 1453.0000     1.1405    10.5805
 1453.5000     1.1566    10.5969
 1454.0000     1.1563    10.6133
 1454.5000     1.1652    10.6297
 1455.0000     1.1756    10.6461
 1455.5000     1.1860    10.6625
 1456.0000     1.1964    10.6789
 1456.5000     1.2070    10.6953
 1457.0000     1.2173    10.7117
 1457.5000     1.2328    10.7282
 1458.0000     1.2305    10.7451
 1458.5000     1.2019    10.7458
 1459.0000     1.1732    10.7286
 1459.5000     1.1446    10.7117
 1460.0000     1.1161    10.6947
 1460.5000     1.0876    10.6778
 1461.0000     1.0590    10.6609
 1461.5000     1.0305    10.6440
 1462.0000     1.0020    10.6271
 1462.5000     0.9734    10.6102
 1463.0000     0.9449    10.5933
 1463.5000     0.9164    10.5763
 1464.0000     0.8878    10.5594
 1464.5000     0.8593    10.5425
 1465.0000     0.8307    10.5256
 1465.5000     0.8188    10.5087
 1466.0000     0.8184    10.4918
 1466.5000     0.8312    10.4748
 1467.0000     0.8473    10.4579
 1467.5000     0.8635    10.4410
 1468.0000     0.8796    10.4241
 1468.5000     0.8957    10.4072
 1469.0000     0.9119    10.3903
 1469.5000     0.9280    10.3734
 1470.0000     0.9442    10.3564
 1470.5000     0.9603    10.3395
 1471.0000     0.9766    10.3226
 1471.5000     0.9932    10.3057
 1472.0000     1.0016    10.2888
 1472.5000     1.0099    10.2719
 1473.0000     1.0183    10.2549
 1473.5000     1.0157    10.2380
 1474.0000     1.0039    10.2211
 1474.5000     0.9925    10.2042
 1475.0000     0.9811    10.1873
 1475.5000     0.9701    10.1704
 1476.0000     0.9878    10.1535
 1476.5000     1.0092    10.1365
 1477.0000     1.0307    10.1196
 1477.5000     1.0521    10.1027
 1478.0000     1.0734    10.0858
 1478.5000     1.0948    10.0689
 1479.0000     1.1322    10.0520
 1479.5000     1.1852    10.0351
 1480.0000     1.4397    10.0181
 1480.5000     1.7898    10.0012
 1481.0000     2.1409     9.9843
 1481.5000     2.4924     9.9674
 1482.0000     2.8438     9.9505
 1482.5000     3.1959     9.9336
 1483.0000     3.5480     9.9166
 1483.5000     3.8985     9.8997
 1484.0000     3.9469     9.8828
 1484.5000     3.4849     9.8659
 1485.0000     3.1000     9.8490
 1485.5000     2.7144     9.8321
 1486.0000     2.3294     9.8152
 1486.5000     1.9448     9.7983
 1487.0000     1.6306     9.7815
 1487.5000     1.3600     9.7655
 1488.0000     1.0887     9.7468
 1488.5000     0.8251     9.5686
 1489.0000     0.7850     9.3773
 1489.5000     0.7543     9.2480
 1490.0000     0.7223     9.2924
 1490.5000     0.6899     9.3690
 1491.0000     0.6581     9.4459
 1491.5000     0.6377     9.5232
 1492.0000     0.6850     9.6004
 1492.5000     0.7313     9.6776
 1493.0000     0.7773     9.7547
 1493.5000     0.8236     9.8319
 1494.0000     0.8708     9.9091
 1494.5000     0.8807     9.9862
 1495.0000     0.8638    10.0634
 1495.5000     0.8029    10.1406
 1496.0000     0.7439    10.2177
 1496.5000     0.6837    10.2949
 1497.0000     0.6859    10.3721
 1497.5000     0.6928    10.4492
 1498.0000     0.6712    10.5270
 1498.5000     0.6403    10.6061
 1499.0000     0.6090    10.6843
 1499.5000     0.5829    10.6280
 1500.0000     0.5956     9.5137
 1500.5000     0.6089     8.3813
 1501.0000     0.6220     7.2541
 1501.5000     0.6313     6.2559
 1502.0000     0.6316     6.2739
 1502.5000     0.6665     6.3344
 1503.0000     0.7055     6.3911
 1503.5000     0.7444     6.4478
 1504.0000     0.7834     6.5043
 1504.5000     0.8224     6.5607
 1505.0000     0.8615     6.6171
 1505.5000     0.9004     6.6735
 1506.0000     0.9319     6.7299
 1506.5000     0.8892     6.7864
 1507.0000     0.8432     6.8428
 1507.5000     0.7975     6.8992
 1508.0000     0.7518     6.9556
 1508.5000     0.7045     7.0121
 1509.0000     0.6812     7.0685
 1509.5000     0.6694     7.1249
 1510.0000     0.7145     7.1813
 1510.5000     0.7640     7.2377
 1511.0000     0.8133     7.2941
 1511.5000     0.8625     7.3506
 1512.0000     0.9117     7.4070
 1512.5000     0.9610     7.4634
 1513.0000     1.0105     7.5198
 1513.5000     1.0595     7.5762
 1514.0000     1.1096     7.6327
 1514.5000     1.0760     7.6891
 1515.0000     1.0360     7.7455
 1515.5000     0.9960     7.8019
 1516.0000     0.9559     7.8583
 1516.5000     0.9159     7.9148
 1517.0000     0.8759     7.9712
 1517.5000     0.8356     8.0276
 1518.0000     0.8194     8.0840
 1518.5000     0.8437     8.1404
 1519.0000     0.8697     8.1968
 1519.5000     0.8955     8.2533
 1520.0000     0.9200     8.3097
 1520.5000     0.9187     8.3661
 1521.0000     0.9184     8.4225
 1521.5000     0.9195     8.4789
