~VERSION INFORMATION
 VERS.                2.0:   CWLS LOG ASCII STANDARD - VERSION 2.0
 WRAP.                 NO:   ONE LINE PER DEPTH STEP
~WELL INFORMATION
#MNEM.UNIT      DATA TYPE    INFORMATION
#----------   ------------   ------------------------------
 STRT.F           30.0000:   START DEPTH
 STOP.F         1358.0000:   STOP DEPTH
 STEP.F            0.5000:   STEP LENGTH
 NULL.          -999.2500:   NO VALUE
 COMP. FENIX & SCISSON INC:   COMPANY
 WELL.      3 SX14 #85-14:   WELL
 FLD .             TEAPOT:   FIELD
 LOC .      S14 T38N R78W:   LOCATION
 CNTY.            NATRONA:   COUNTY
 STAT.            WYOMING:   STATE
 CTRY. UNITED STATES OF AMERICA:   COUNTRY
 SRVC.              Welex:   SERVICE COMPANY
 DATE.        10-FEB-1977:   LOGDATE
 API .       490251027500:   API NUMBER
~CURVE INFORMATION
#MNEM.UNIT       API CODE    CURVE DESCRIPTION
#----------   ------------   ------------------------------
 DEPT.F                  :   
 ILM .OHMM   07 120 44 00:   INDUCTION LOG MEDIUM
 ILD .OHMM   07 120 46 00:   INDUCTION LOG DEEP
 CALD.IN     45 280 60 00:   CALIPER
 GRD .GAPI   45 310 01 00:   GAMMA RAY FROM DENSITY LOG
 RHOB.G/C3   45 350 01 00:   BULK DENSITY
 DPHI.DEC    45 890 12 00:   DENSITY POROSITY SANDSTONE
 CORR.G/C3   45 356 01 00:   DENSITY CORRECTION
~PARAMETER INFORMATION
#MNEM.UNIT          VALUE    DESCRIPTION
#----------   ------------   ------------------------------
 PD  .                 GL:   PERMANENT DATUM
 EPD .F              5345:   ELEVATION PERMANENT DATUM
 LMF .                 GL:   LOG MEASURED FROM
 DMF .                 GL:   DRILLING MEASURED FROM
 EGL .F              5345:   GROUND LEVEL
 DATE.          2-10-1977:   RUN DATE
 RUN .                  1:   RUN NUMBER
 DD  .F              1362:   DEPTH DRILLER
 DL  .F              1361:   DEPTH LOGGER
 BLI .F              1359:   BOTTOM LOG INTERVAL
 TLI .F                43:   TOP LOG INTERVAL
 CS  .IN            8.625:   CASING SIZE
 CBD .F                43:   CASING BOTTOM DRILLER
 CBL .F                43:   CASING BOTTOM LOGGER
 BS  .IN            7.875:   BIT SIZE
 BSD .F              1362:   BIT SIZE AT DEPTH
 DFT .           AIR MIST:   DRILLING FLUID TYPE
 TCS .HRS               4:   TIME CURCULATED STOPPED
 MRT .F               104:   MAXIMUM RECORDED TEMPERATURE
 LUN .               8611:   LOGGING UNIT NUMBER
 LUL .           GILLETTE:   LOGGING UNIT LOCATION
 ENGI.               DOAK:   RECORDING ENGINEER
 WITN. PETTINGILL/STUEBINGER:   WITNESSED BY
 CLNT.            A2DTECH:   CLIENT CODE
 ORIG.       2", 5" PRINT:   ORIGIN OF DATA
 UWI .       490251027500:   UNIQUE WELL ID
 DICO. A2D Technologies, Inc.:   DIGITIZING COMPANY
~OTHER INFORMATION
~A   DEPT      ILM        ILD         CALD      GRD         RHOB     DPHI        CORR  
# ...
  621.5000     6.0259     5.5433     8.3125   122.5853     2.4331     0.1412     0.0093
  622.0000     5.9607     5.4665     8.3199   119.8849     2.4306     0.1414     0.0070
  622.5000     5.8962     5.3907     8.3273   117.1629     2.4280     0.1435     0.0073
  623.0000     5.8825     5.3162     8.3347   116.1278     2.4286     0.1446     0.0087
  623.5000     5.8825     5.2676     8.3420   117.5236     2.4330     0.1446     0.0144
  624.0000     5.9262     5.3144     8.3449   118.9999     2.4388     0.1414     0.0199
  624.5000     5.9695     5.3531     8.3319   119.5070     2.4445     0.1338     0.0239
  625.0000     6.0130     5.3921     8.3106   119.1236     2.4460     0.1356     0.0193
  625.5000     6.0567     5.4313     8.2891   119.1671     2.4352     0.1390     0.0203
  626.0000     6.1030     5.4650     8.2674   120.2115     2.4273     0.1425     0.0210
  626.5000     6.1030     5.4272     8.2457   121.2488     2.4239     0.1463     0.0215
  627.0000     6.0575     5.3875     8.2417   122.2247     2.4237     0.1460     0.0220
  627.5000     5.9994     5.3482     8.2417   122.4703     2.4246     0.1456     0.0230
  628.0000     5.9419     5.3092     8.2417   122.1013     2.4326     0.1429     0.0239
  628.5000     5.8849     5.2704     8.2417   121.7338     2.4421     0.1382     0.0248
  629.0000     5.8285     5.2319     8.2417   121.4158     2.4467     0.1334     0.0258
  629.5000     5.7725     5.1937     8.2417   121.9638     2.4500     0.1334     0.0267
  630.0000     5.7170     5.1558     8.2417   122.5966     2.4485     0.1350     0.0276
  630.5000     5.6624     5.1241     8.2417   123.2340     2.4443     0.1366     0.0275
  631.0000     5.6180     5.1241     8.2419   123.8682     2.4417     0.1384     0.0266
  631.5000     5.6922     5.2193     8.2360   124.5319     2.4404     0.1391     0.0256
  632.0000     5.7556     5.2193     8.2292   123.2637     2.4391     0.1398     0.0247
  632.5000     5.8198     5.2193     8.2220   120.9363     2.4381     0.1405     0.0237
  633.0000     5.8286     5.1407     8.2345   118.5816     2.4361     0.1412     0.0227
  633.5000     5.7072     5.0676     8.2413   117.1274     2.4329     0.1419     0.0218
  634.0000     5.6257     4.9953     8.2311   116.1565     2.4260     0.1448     0.0219
  634.5000     5.5455     4.9245     8.2207   115.1918     2.4189     0.1483     0.0221
  635.0000     5.4652     4.8590     8.2103   114.2277     2.4233     0.1483     0.0222
  635.5000     5.3815     4.7984     8.2006   113.2615     2.4283     0.1459     0.0223
  636.0000     5.2977     4.7385     8.2005   112.2947     2.4332     0.1435     0.0225
  636.5000     5.2151     4.6793     8.2002   112.2711     2.4378     0.1410     0.0226
  637.0000     5.1338     4.6209     8.1983   113.6721     2.4399     0.1386     0.0227
  637.5000     5.0542     4.5632     8.2210   115.0517     2.4403     0.1367     0.0229
  638.0000     4.9802     4.5062     8.2207   116.4293     2.4404     0.1391     0.0230
  638.5000     4.9391     4.4500     8.2211   117.8158     2.4389     0.1407     0.0232
  639.0000     4.9517     4.3822     8.2216   119.1891     2.4365     0.1396     0.0233
  639.5000     4.9754     4.4227     8.2235   118.1576     2.4340     0.1389     0.0234
  640.0000     4.9989     4.4514     8.2255   116.7290     2.4340     0.1416     0.0236
  640.5000     5.0225     4.4994     8.2274   115.4880     2.4354     0.1412     0.0237
  641.0000     5.0462     4.5478     8.2294   114.7115     2.4388     0.1391     0.0237
  641.5000     5.0700     4.5967     8.2313   113.6025     2.4451     0.1361     0.0276
  642.0000     5.0940     4.6462     8.2333   112.7128     2.4513     0.1296     0.0320
  642.5000     5.1180     4.6962     8.2353   113.2161     2.4577     0.1257     0.0362
  643.0000     5.1422     4.7468     8.2372   114.1608     2.4620     0.1251     0.0367
  643.5000     5.1665     4.7981     8.2392   115.3806     2.4581     0.1258     0.0371
  644.0000     5.1909     4.8493     8.2413   116.5830     2.4513     0.1310     0.0375
  644.5000     5.2154     4.8488     8.2380   117.7934     2.4444     0.1367     0.0379
  645.0000     5.2400     4.8490     8.2327   119.0875     2.4395     0.1382     0.0382
  645.5000     5.2648     4.8489     8.2270   118.9789     2.4415     0.1396     0.0401
  646.0000     5.3162     4.8490     8.2196   118.4557     2.4463     0.1354     0.0427
  646.5000     5.2088     4.8489     8.2390   117.1616     2.4514     0.1317     0.0453
  647.0000     5.1135     4.8495     8.2332   115.9094     2.4521     0.1313     0.0467
  647.5000     5.0200     4.7445     8.2282   114.6611     2.4512     0.1309     0.0467
  648.0000     4.9281     4.6378     8.2226   113.9087     2.4468     0.1351     0.0467
  648.5000     4.8380     4.5335     8.2213   113.4515     2.4386     0.1399     0.0467
  649.0000     4.7495     4.4316     8.2384   113.0107     2.4286     0.1447     0.0467
  649.5000     4.6625     4.3320     8.2729   112.7651     2.4177     0.1495     0.0467
  650.0000     4.5772     4.2246     8.3033   113.5220     2.4068     0.1564     0.0467
  650.5000     4.4846     4.0967     8.2937   114.6598     2.3962     0.1635     0.0467
  651.0000     4.3392     3.9726     8.2547   116.2395     2.3811     0.1706     0.0467
  651.5000     4.1986     3.7223     8.2202   118.8112     2.3666     0.1770     0.0436
  652.0000     4.0712     3.4091     8.2046   121.5916     2.3464     0.1931     0.0401
  652.5000     3.7306     3.1223     8.2317   124.3805     2.3206     0.2077     0.0366
  653.0000     3.3754     2.8596     8.2581   127.1503     2.2964     0.2224     0.0332
  653.5000     3.0539     2.6190     8.2366   129.0483     2.2760     0.2303     0.0297
  654.0000     2.7643     2.3986     8.2237   128.7602     2.2687     0.2334     0.0263
  654.5000     2.5041     2.2176     8.2120   128.5619     2.2833     0.2213     0.0245
  655.0000     2.2153     2.0418     8.2001   126.6118     2.3260     0.2041     0.0274
  655.5000     2.2164     2.0683     8.1883   124.0661     2.3511     0.1886     0.0302
  656.0000     2.1984     2.0979     8.1768   121.4868     2.3697     0.1796     0.0329
  656.5000     2.4560     2.1920     8.1642   118.8534     2.3878     0.1715     0.0357
  657.0000     2.6349     2.3117     8.1858   117.9597     2.4058     0.1567     0.0384
  657.5000     2.9074     2.4381     8.1997   117.0894     2.4240     0.1409     0.0411
  658.0000     3.2470     2.6386     8.2004   117.6719     2.4358     0.1402     0.0421
  658.5000     3.6263     2.9910     8.2005   118.7090     2.4365     0.1396     0.0413
  659.0000     4.0498     3.3905     8.2004   119.7275     2.4355     0.1407     0.0405
  659.5000     4.4444     3.7469     8.2004   118.1903     2.4336     0.1417     0.0381
  660.0000     4.6693     4.1236     8.2004   116.1995     2.4313     0.1426     0.0355
  660.5000     4.9055     4.5067     8.2004   114.1560     2.4291     0.1429     0.0329
  661.0000     5.1536     4.6553     8.2004   113.0724     2.4314     0.1425     0.0302
  661.5000     5.4143     4.8134     8.2004   114.1733     2.4341     0.1406     0.0308
  662.0000     5.6882     4.9769     8.2004   115.2054     2.4369     0.1384     0.0317
  662.5000     6.0492     5.1460     8.2004   116.2352     2.4407     0.1362     0.0327
  663.0000     6.0461     5.3208     8.2004   117.2714     2.4456     0.1342     0.0337
  663.5000     6.2027     5.5016     8.2003   118.3434     2.4505     0.1316     0.0347
  664.0000     6.3179     5.6180     8.2033   117.9355     2.4550     0.1292     0.0358
  664.5000     6.4354     5.8434     8.2070   117.1290     2.4589     0.1268     0.0368
  665.0000     6.5564     6.0616     8.2108   116.3004     2.4627     0.1244     0.0379
  665.5000     6.7547     6.2879     8.2146   115.5152     2.4664     0.1220     0.0389
  666.0000     6.7525     6.3318     8.2183   116.4550     2.4702     0.1196     0.0399
  666.5000     6.8155     6.2986     8.2221   117.4967     2.4651     0.1222     0.0410
