~VERSION INFORMATION
 VERS.                2.0:   CWLS LOG ASCII STANDARD - VERSION 2.0
 WRAP.                 NO:   ONE LINE PER DEPTH STEP
~WELL INFORMATION
#MNEM.UNIT      DATA TYPE    INFORMATION
#----------   ------------   ------------------------------
 STRT.F          142.0000:   START DEPTH
 STOP.F          940.5000:   STOP DEPTH
 STEP.F            0.5000:   STEP LENGTH
 NULL.          -999.2500:   NO VALUE
 COMP. U S NAVY-INTEX OIL:   COMPANY
 WELL.     RESERVE #44S-2:   WELL
 FLD .             TEAPOT:   FIELD
 LOC .       S2 T38N R78W:   LOCATION
 CNTY.            NATRONA:   COUNTY
 STAT.            WYOMING:   STATE
 CTRY. UNITED STATES OF AMERICA:   COUNTRY
 SRVC. Schlumberger Well Surveying Corp:   SERVICE COMPANY
 DATE.        06-AUG-1959:   LOGDATE
 API .       490250644200:   API NUMBER
~CURVE INFORMATION
#MNEM.UNIT       API CODE    CURVE DESCRIPTION
#----------   ------------   ------------------------------
 DEPT.F                  :   
 ASN .OHMM   05 041 16 00:   AMPLIFIER SHORT NORMAL 16"
 CILD.MMHO   05 110 46 00:   CONDUCTIVITY INDUCTION LOG DEEP
 ILD .OHMM   05 110 46 00:   INDUCTION LOG DEEP
 SPR .MV     05 010 01 00:   SPONTANEOUS POTENTIAL FROM RES.
~PARAMETER INFORMATION
#MNEM.UNIT          VALUE    DESCRIPTION
#----------   ------------   ------------------------------
 LMF .                 KB:   LOG MEASURED FROM
 DMF .                 KB:   DRILLING MEASURED FROM
 EDF .F              5146:   DRILLING FLOOR
 EGL .F              5142:   GROUND LEVEL
 DATE.        06-AUG-1959:   RUN DATE
 RUN .                  1:   RUN NUMBER
 DD  .F               948:   DEPTH DRILLER
 DL  .F               946:   DEPTH LOGGER
 BLI .F               940:   BOTTOM LOG INTERVAL
 TLI .F               143:   TOP LOG INTERVAL
 CBD .F                17:   CASING BOTTOM DRILLER
 BS  .IN             6.75:   BIT SIZE
 BSD .F               948:   BIT SIZE AT DEPTH
 DFT .                GEL:   DRILLING FLUID TYPE
 RMS .OHMM             75:   RESISTIVITY MUD SAMPLE
 MST .F                75:   MUD SAMPLE TEMPERATURE
 TCS .HRS               1:   TIME CURCULATED STOPPED
 LUN .               2754:   LOGGING UNIT NUMBER
 LUL .                 NC:   LOGGING UNIT LOCATION
 ENGI.             QUINBY:   RECORDING ENGINEER
 WITN.             MARTIN:   WITNESSED BY
 CLNT.            A2DTECH:   CLIENT CODE
 ORIG.        2" 5" PRINT:   ORIGIN OF DATA
 UWI .       490250644200:   UNIQUE WELL ID
 DICO. A2D Technologies, Inc.:   DIGITIZING COMPANY
~OTHER INFORMATION
~A   DEPT      ASN       CILD        ILD        SPR   
# ...
  288.0000     4.0087   258.1273     3.5993   -71.2128
  288.5000     3.9557   273.5168     3.4755   -71.3486
  289.0000     3.8904   290.2097     3.3747   -71.4193
  289.5000     3.8452   309.0633     3.2542   -71.4867
  290.0000     3.7547   323.6429     3.0664   -71.4897
  290.5000     3.6814   337.8068     2.9700   -71.4331
  291.0000     3.5528   354.5694     2.8616   -71.2172
  291.5000     3.4022   366.2227     2.7930   -70.9659
  292.0000     3.2797   381.4111     2.7924   -70.7021
  292.5000     3.1486   400.0755     2.7917   -70.4344
  293.0000     3.0362   407.7580     2.8589   -70.1755
  293.5000     3.0034   409.5963     2.9452   -70.1782
  294.0000     3.2308   404.8099     3.0610   -70.3139
  294.5000     3.3747   395.9881     3.2446   -70.6064
  295.0000     3.3790   381.7993     3.5640   -70.7181
  295.5000     3.4152   350.5329     3.8731   -70.8539
  296.0000     3.5386   281.3674     4.1104   -71.0585
  296.5000     3.9810   248.8424     4.3673   -71.1467
  297.0000     4.7158   213.5405     4.6173   -71.2610
  297.5000     4.9181   199.9504     4.9101   -71.4561
  298.0000     5.0342   197.7330     5.1705   -71.5443
  298.5000     5.1628   194.4445     5.4293   -71.6680
  299.0000     5.2952   191.8366     5.6156   -71.7207
  299.5000     5.4917   188.8405     5.7702   -71.8059
  300.0000     5.6911   184.3891     5.9475   -71.8085
  300.5000     5.8863   177.2704     6.1263   -71.8112
  301.0000     6.1652   171.0246     6.2401   -71.8139
  301.5000     6.3781   164.0581     6.4160   -71.8165
  302.0000     6.6028   160.1855     6.4591   -71.7872
  302.5000     6.8831   157.3813     6.5773   -71.6888
  303.0000     6.9302   153.9081     6.6131   -71.6215
  303.5000     6.9523   153.2387     6.6439   -71.5609
  304.0000     6.9642   154.8054     6.6431   -71.4312
  304.5000     6.9777   156.6227     6.6425   -71.3005
  305.0000     6.9496   157.6358     6.6384   -71.1636
  305.5000     6.8698   158.7387     6.6374   -71.1656
  306.0000     6.8033   160.0374     6.5684   -71.1676
  306.5000     6.7606   160.7217     6.5349   -71.1695
  307.0000     6.7817   161.4075     6.4914   -71.0383
  307.5000     6.8173   162.0928     6.3618   -71.0408
  308.0000     6.8417   162.0995     6.3365   -71.0425
  308.5000     6.8354   162.7859     6.2242   -71.1908
  309.0000     6.8132   162.7919     6.2232   -71.5788
  309.5000     6.7738   162.7986     6.2222   -71.7622
  310.0000     6.7502   162.8054     6.2889   -71.8484
  310.5000     6.6923   162.6437     6.3558   -71.9834
  311.0000     6.6565   161.4621     6.4308   -71.9499
  311.5000     6.6343   160.1404     6.4895   -71.8544
  312.0000     6.6244   158.6968     6.6495   -71.6525
  312.5000     6.8061   156.7320     6.7588   -71.5703
  313.0000     6.9686   154.9412     6.8682   -71.3287
  313.5000     7.1391   151.9935     6.9775   -71.1975
  314.0000     7.2431   148.0862     7.0271   -71.1906
  314.5000     7.3748   143.4049     7.0940   -71.0685
  315.0000     7.4776   139.7973     7.0929   -71.0705
  315.5000     7.5373   138.5837     7.0918   -71.0725
  316.0000     7.5995   136.4162     7.1588   -71.0745
  316.5000     7.6349   135.5702     7.0899   -71.1075
  317.0000     7.6605   134.2285     7.0455   -71.2116
  317.5000     7.6806   134.4011     6.9341   -71.3464
  318.0000     7.6320   134.4072     6.7476   -71.3661
  318.5000     7.5431   134.4740     6.4725   -71.6166
  319.0000     7.3416   136.4583     6.2508   -71.7513
  319.5000     7.1534   143.5616     5.9303   -71.8863
  320.0000     6.9359   173.1225     5.7395   -71.8883
  320.5000     6.5555   196.5556     5.4481   -71.7569
  321.0000     6.3064   225.2330     5.1160   -71.6264
  321.5000     5.9185   257.3064     4.6292   -71.2870
  322.0000     5.3128   278.8972     4.1614   -71.0452
  322.5000     4.6137   306.3584     3.7805   -70.7017
  323.0000     3.9942   336.7109     3.3697   -70.4464
  323.5000     3.7146   368.9719     2.9371   -70.1602
  324.0000     3.5310   399.8739     2.8403   -69.9099
  324.5000     3.4113   441.8329     2.7317   -69.6811
  325.0000     3.3537   444.0042     2.9342   -69.5146
  325.5000     3.3163   412.7909     3.8106   -70.1062
  326.0000     3.6957   378.4075     5.0352   -71.0878
  326.5000     4.2198   325.2469     5.7624   -71.5154
  327.0000     5.0234   276.8759     6.6995   -71.7921
  327.5000     6.1838   180.8838     7.8136   -72.0734
  328.0000     7.4747   110.1096     8.4713   -72.3194
  328.5000     9.1154    99.5988     9.0510   -72.5117
  329.0000     9.6070    91.7942     9.7101   -72.5980
  329.5000    10.2103    91.1244     9.5790   -72.6310
  330.0000    10.0856    97.3076     9.1655   -72.4158
  330.5000     9.9433   110.8219     8.6652   -72.1962
  331.0000     9.7831   122.4317     8.0274   -71.8524
  331.5000     9.4922   131.2088     7.4663   -71.6062
  332.0000     8.6704   148.8520     6.9091   -71.1385
  332.5000     7.3520   159.9321     6.3473   -70.8078
  333.0000     6.5944   171.9415     5.6314   -70.4597
  333.5000     6.3024   179.5700     5.5628   -70.3464
  334.0000     6.4144   188.5025     5.9688   -70.2154
  334.5000     6.5400   192.6380     7.0451   -70.7715
  335.0000     6.7019   180.3392     8.0835   -71.6822
  335.5000     7.0012   164.5090     8.7472   -72.1629
  336.0000     8.5859   144.0819     9.1407   -72.4841
  336.5000     9.2354   121.5321     9.5756   -72.6190
  337.0000     9.7929   101.4079    10.0331   -72.6210
  337.5000    10.1795    96.7760    10.3036   -72.6232
  338.0000    10.4607    93.1765    10.5739   -72.8200
  338.5000    10.8140    90.5692    10.8561   -73.0392
  339.0000    11.0569    89.0113    11.0902   -73.2942
  339.5000    11.3100    87.8669    11.3849   -73.6594
  340.0000    11.6260    86.1538    11.5513   -73.9628
  340.5000    11.9173    84.9638    11.7348   -74.3149
  341.0000    12.2398    83.8145    11.9924   -74.6317
  341.5000    12.3702    82.4638    12.0829   -74.7667
  342.0000    12.4607    81.7919    12.2619   -74.9016
  342.5000    12.5728    80.7070    12.3287   -74.9036
  343.0000    12.6402    80.2964    12.3957   -74.9058
  343.5000    12.7243    79.7760    12.3944   -74.7746
  344.0000    12.9105    79.1041    12.4939   -74.6435
  344.5000    12.9800    78.3858    12.5354   -74.5130
  345.0000    13.1233    77.7602    12.5950   -74.3816
  345.5000    13.2483    77.0870    12.6862   -74.2507
  346.0000    13.3726    76.4167    12.7965   -74.1197
  346.5000    13.5224    76.0645    12.8371   -74.1217
  347.0000    13.7215    74.9751    12.9464   -74.2568
  347.5000    13.8110    74.4005    13.0647   -74.4581
  348.0000    13.9919    73.7285    13.2329   -74.6773
  348.5000    14.0996    73.0566    13.3423   -74.9278
  349.0000    14.2778    71.9751    13.4686   -75.1157
  349.5000    14.3973    71.5645    13.5609   -75.4679
  350.0000    14.5325    70.3627    13.7381   -75.6870
  350.5000    14.6860    69.3858    13.8475   -75.7733
  351.0000    14.8705    69.0178    14.0418   -75.9925
  351.5000    15.0606    67.6688    14.2099   -76.2117
  352.0000    15.3496    66.7964    14.4478   -76.5904
  352.5000    15.6148    65.6452    14.7688   -76.9384
  353.0000    15.8130    64.6177    15.0209   -77.1973
  353.5000    16.0884    63.5283    15.3285   -77.4874
  354.0000    16.3699    62.2725    15.7001   -77.7423
  354.5000    16.6734    61.3495    16.0302   -77.7440
  355.0000    17.1036    60.9276    16.3783   -77.7460
  355.5000    17.5386    59.1708    16.8476   -77.7480
  356.0000    18.0081    58.0815    17.2239   -77.6167
  356.5000    18.4576    56.8763    17.5440   -77.4862
  357.0000    18.7398    55.2240    17.8621   -77.3551
  357.5000    19.0024    54.1346    18.0784   -77.0468
  358.0000    19.2236    53.0452    18.3369   -76.6944
  358.5000    19.4448    52.8291    18.4463   -77.1926
  359.0000    19.6077    52.8375    18.5556   -78.2052
  359.5000    19.7812    52.8439    18.5356   -79.4930
  360.0000    19.8103    52.9412    18.2904   -80.2925
  360.5000    19.5389    54.2160    18.0370   -80.8265
