~VERSION INFORMATION
 VERS.                2.0:   CWLS LOG ASCII STANDARD - VERSION 2.0
 WRAP.                 NO:   ONE LINE PER DEPTH STEP
~WELL INFORMATION
#MNEM.UNIT      DATA TYPE    INFORMATION
#----------   ------------   ------------------------------
 STRT.F           25.0000:   START DEPTH
 STOP.F          867.0000:   STOP DEPTH
 STEP.F            0.5000:   STEP LENGTH
 NULL.          -999.2500:   NO VALUE
 COMP. LAWRENCE/ALLISON INC:   COMPANY
 WELL.    38-11 SX #35-35:   WELL
 FLD .             TEAPOT:   FIELD
 LOC .      S35 T39N R78W:   LOCATION
 CNTY.            NATRONA:   COUNTY
 STAT.            WYOMING:   STATE
 CTRY. UNITED STATES OF AMERICA:   COUNTRY
 SRVC.      Dresser Atlas:   SERVICE COMPANY
 DATE.        07-AUG-1985:   LOGDATE
 API .       490251104100:   API NUMBER
~CURVE INFORMATION
#MNEM.UNIT       API CODE    CURVE DESCRIPTION
#----------   ------------   ------------------------------
 DEPT.F                  :   
 SPR .MV     07 010 01 00:   SPONTANEOUS POTENTIAL
 RILD.OHMM   07 120 46 00:   INDUCTION LOG DEEP RESISTIVITY
 RILM.OHMM   07 120 44 00:   INDUCTION LOG MEDIUM RESISTIVITY
 RFOC.OHMM   07 220 04 00:   RESISTIVITY FOCUSED LOG
 PORD.DEC    45 890 12 00:   POROSITY DENSITY SANDSTONE
 CNC .DEC    42 890 03 00:   NEUTRON POROSITY SANDSTONE
 GRD .GAPI   45 310 01 00:   GAMMA RAY FROM DENSITY LOG
 CALD.IN     45 280 60 00:   CALIPER FROM DENSITY LOG
 CORR.G/C3   45 356 01 00:   DENSITY CORRECTION
 DEN .G/C3   45 350 01 00:   COMPENSATED BULK DENSTIY
~PARAMETER INFORMATION
#MNEM.UNIT          VALUE    DESCRIPTION
#----------   ------------   ------------------------------
 PD  .                 GL:   PERMANENT DATUM
 EPD .F              5110:   ELEVATION PERMANENT DATUM
 LMF .                 GL:   LOG MEASURED FROM
 DMF .                 GL:   DRILLING MEASURED FROM
 EGL .F              5110:   GROUND LEVEL
 DATE.             8-7-85:   RUN DATE
 RUN .                  1:   RUN NUMBER
 DD  .F               900:   DEPTH DRILLER
 DL  .F               869:   DEPTH LOGGER
 BLI .F               867:   BOTTOM LOG INTERVAL
 TLI .F                40:   TOP LOG INTERVAL
 CS  .IN            8.625:   CASING SIZE
 CBD .F                40:   CASING BOTTOM DRILLER
 CBL .F                40:   CASING BOTTOM LOGGER
 BS  .IN            7.875:   BIT SIZE
 BSD .F               900:   BIT SIZE AT DEPTH
 DFT .             4% KCL:   DRILLING FLUID TYPE
 MSS .           FLOWLINE:   MUD SAMPLE SOURCE
 RMS .OHMM           .222:   RESISTIVITY MUD SAMPLE
 MST .F                71:   MUD SAMPLE TEMPERATURE
 TCS .HRS               2:   TIME CURCULATED STOPPED
 MRT .F               100:   MAXIMUM RECORDED TEMPERATURE
 LUN .               6264:   LOGGING UNIT NUMBER
 LUL .               GLTE:   LOGGING UNIT LOCATION
 ENGI.           FAHLSING:   RECORDING ENGINEER
 WITN.              FIVAS:   WITNESSED BY
 CLNT.            A2DTECH:   CLIENT CODE
 ORIG.       2", 5" PRINT:   ORIGIN OF DATA
 UWI .       490251104100:   UNIQUE WELL ID
 DICO. A2D Technologies, Inc.:   DIGITIZING COMPANY
~OTHER INFORMATION
~A   DEPT      SPR       RILD       RILM       RFOC       PORD          CNC      GRD       CALD       CORR        DEN   
# ...
  628.0000   -47.7535     2.0515     2.3786     2.7825     0.2085     0.4412    96.1507     8.1610     0.0498     2.3222
  628.5000   -47.6042     2.1088     2.5481     3.3274     0.2034     0.3913    99.9312     8.1774     0.0468     2.3432
  629.0000   -47.3052     2.3386     2.7110     3.5312     0.1878     0.3678    99.5577     8.1788     0.0469     2.3657
  629.5000   -46.7053     2.7030     2.9650     3.3566     0.1606     0.3481   100.0033     8.2103     0.0559     2.3964
  630.0000   -45.9549     3.0026     3.2801     3.6040     0.1348     0.3214   102.1285     8.2117     0.0710     2.4540
  630.5000   -44.9038     3.3449     3.6739     4.4024     0.1279     0.3110   103.6558     8.1976     0.0740     2.4660
  631.0000   -43.8496     3.7118     4.3070     5.4148     0.1279     0.3107   103.3813     8.1838     0.0681     2.4653
  631.5000   -43.0927     4.2352     4.9441     5.9635     0.1266     0.3223   104.9167     8.1700     0.0651     2.4676
  632.0000   -42.5022     4.7928     5.2609     5.9627     0.1230     0.3490   108.8356     8.1717     0.0727     2.4736
  632.5000   -42.1803     5.3901     5.5180     5.9619     0.1200     0.3526   113.6514     8.1881     0.0862     2.4781
  633.0000   -41.9037     5.5783     5.6656     5.9201     0.1191     0.3373   118.4672     8.2197     0.0983     2.4804
  633.5000   -41.7548     5.6521     5.7042     5.8785     0.1209     0.3289   118.7906     8.2361     0.0864     2.4774
  634.0000   -41.6059     5.6908     5.7825     5.8373     0.1208     0.3266   117.0375     8.1922     0.0640     2.4760
  634.5000   -41.4570     5.7298     5.7817     5.8365     0.1205     0.3185   114.9774     8.1628     0.0622     2.4760
  635.0000   -41.3081     5.7293     5.7809     5.8357     0.1217     0.3050   110.5256     8.1495     0.0701     2.4753
  635.5000   -41.3100     5.6504     5.7801     5.9160     0.1232     0.3221   105.1770     8.1660     0.0671     2.4754
  636.0000   -41.3115     5.5343     5.7396     6.0390     0.1219     0.3496   103.7066     8.1827     0.0608     2.4761
  636.5000   -41.4633     5.3463     5.6601     6.2503     0.1213     0.3945   108.8295     8.1841     0.0433     2.4739
  637.0000   -41.6152     5.0588     5.3555     6.4244     0.1282     0.4092   112.4495     8.1854     0.0254     2.4598
  637.5000   -41.7671     4.7869     4.9293     6.5131     0.1515     0.3987   116.0694     8.1868     0.0419     2.4299
  638.0000   -41.9189     4.5295     4.6319     6.5119     0.1703     0.3685   116.9988     8.1881     0.0570     2.3918
  638.5000   -41.9204     4.2860     4.3826     5.8705     0.1757     0.3634   114.9325     8.1743     0.0645     2.3813
  639.0000   -41.9219     4.0837     4.1754     4.8714     0.1648     0.3625   108.3385     8.1757     0.0601     2.4053
  639.5000   -41.9234     3.9178     4.0333     4.0704     0.1543     0.3589   104.1065     8.1619     0.0556     2.4196
  640.0000   -41.6241     3.7847     3.9229     4.1550     0.1520     0.3529    99.2925     8.1632     0.0841     2.4241
  640.5000   -41.3248     3.6561     3.8687     4.6077     0.1493     0.3616   101.2312     8.1797     0.0992     2.4279
  641.0000   -41.0256     3.6058     3.8415     4.4503     0.1441     0.3556   106.7388     8.1810     0.0858     2.4376
  641.5000   -40.7263     3.7064     3.8676     4.2683     0.1384     0.3434   110.9567     8.1975     0.0589     2.4489
  642.0000   -40.4271     3.8895     3.9479     4.4058     0.1324     0.3347   113.0819     8.1988     0.0454     2.4601
  642.5000   -40.1278     4.0817     4.1437     4.9726     0.1231     0.3350   112.5165     8.2001     0.0635     2.4766
  643.0000   -39.8195     4.3130     4.3226     5.0719     0.1150     0.3329   110.4564     8.2015     0.0695     2.4894
  643.5000   -39.5293     4.5890     4.5649     5.1841     0.1087     0.3254   106.9014     8.2029     0.0621     2.4985
  644.0000   -39.3584     4.8460     4.8083     5.5083     0.1045     0.3170   103.9444     8.2045     0.0457     2.5045
  644.5000   -39.0811     5.1316     5.0849     5.9421     0.1021     0.3072   107.2655     8.1904     0.0562     2.5074
  645.0000   -38.9322     5.4895     5.4555     6.1500     0.1011     0.3075   110.2875     8.2072     0.0653     2.5060
  645.5000   -38.6334     5.8407     5.8444     6.4537     0.1041     0.3137   111.2088     8.2085     0.0698     2.5015
  646.0000   -38.3341     6.1717     6.1752     6.6335     0.1086     0.3314   106.7652     8.2098     0.0549     2.4911
  646.5000   -38.3356     6.4766     6.4366     6.7714     0.1133     0.3197   103.5011     8.2112     0.0729     2.4889
  647.0000   -38.1863     6.6116     6.5238     6.8646     0.1118     0.3018   104.7375     8.2276     0.0895     2.4927
  647.5000   -38.0374     6.6112     6.5229     6.8636     0.1076     0.3006   104.7701     8.2290     0.0955     2.4972
  648.0000   -38.0393     6.6107     6.4772     6.8627     0.1070     0.3111   104.8026     8.2303     0.0791     2.4995
  648.5000   -38.0408     6.5648     6.3873     6.7677     0.1102     0.3275   106.3299     8.2316     0.0747     2.4920
  649.0000   -38.0423     6.5193     6.2126     6.6280     0.1144     0.3416   109.9499     8.2178     0.0612     2.4883
  649.5000   -38.1941     6.3414     6.0427     6.4913     0.1153     0.3470   113.2709     8.1739     0.0673     2.4876
  650.0000   -38.2153     6.1436     5.9049     6.3814     0.1152     0.3503   115.9940     8.1752     0.0778     2.4875
  650.5000   -38.3371     5.8705     5.7427     6.2593     0.1153     0.3428   115.7217     8.2214     0.0764     2.4862
  651.0000   -38.4588     5.6004     5.5611     6.1417     0.1158     0.3530   114.5014     8.2221     0.0719     2.4855
  651.5000   -38.5203     5.2633     5.1900     6.0574     0.1164     0.3637   111.2135     8.2378     0.0720     2.4841
  652.0000   -38.6781     4.9464     4.7445     5.9744     0.1176     0.3769   109.8225     8.2212     0.0810     2.4782
  652.5000   -38.6854     4.5534     4.4585     5.9333     0.1233     0.3685   114.3400     8.2243     0.1125     2.4670
  653.0000   -38.9936     4.3073     4.2480     5.8116     0.1329     0.3619   116.1604     8.2100     0.1365     2.4551
  653.5000   -39.0010     4.1292     4.1037     5.4615     0.1382     0.3535   116.4793     8.1805     0.1304     2.4461
  654.0000   -38.8562     4.0454     4.0194     4.6596     0.1346     0.3301   112.6262     8.1813     0.1211     2.4544
  654.5000   -38.4124     4.0216     3.9915     4.0307     0.1232     0.3041   112.9517     8.1820     0.1082     2.4732
  655.0000   -38.1191     4.0775     3.9949     3.8671     0.1175     0.2972   114.4731     8.1828     0.1007     2.4844
  655.5000   -37.9761     4.1916     4.4786     4.3487     0.1190     0.3032   115.6956     8.1835     0.1068     2.4770
  656.0000   -37.8331     4.3990     5.1868     5.3495     0.1211     0.3203   118.1138     8.1843     0.1008     2.4733
  656.5000   -37.6920     4.5849     5.5569     6.0994     0.1198     0.3371   120.2331     8.1852     0.0874     2.4796
  657.0000   -37.5489     5.0151     5.7120     6.4491     0.1139     0.3342   113.3838     8.1859     0.0845     2.4887
  657.5000   -37.4060     5.4857     5.8310     6.5354     0.1091     0.3162   108.6271     8.1867     0.0965     2.4980
  658.0000   -37.2531     5.7970     5.9938     6.3574     0.1019     0.3111   102.6747     8.1723     0.1010     2.5087
  658.5000   -36.7995     5.9182     6.2037     6.2702     0.0998     0.3180   106.2887     8.1580     0.0547     2.5102
  659.0000   -36.2270     6.0004     6.3769     6.4014     0.1031     0.3294   108.4080     8.1587     0.0367     2.4998
  659.5000   -35.9337     6.1259     6.4651     6.6263     0.1082     0.3267   107.2388     8.1595     0.0518     2.4946
  660.0000   -35.6403     6.2110     6.5545     6.7650     0.1078     0.3231   106.9258     8.1602     0.0773     2.4947
  660.5000   -35.4955     6.2973     6.5993     6.8590     0.1006     0.3278   108.1889     8.1761     0.1072     2.5090
  661.0000   -35.2021     6.2973     6.5989     6.8590     0.0949     0.3392   109.7103     8.1768     0.1178     2.5180
