~VERSION INFORMATION
 VERS.                2.0:   CWLS LOG ASCII STANDARD - VERSION 2.0
 WRAP.                 NO:   ONE LINE PER DEPTH STEP
~WELL INFORMATION
#MNEM.UNIT      DATA TYPE    INFORMATION
#----------   ------------   ------------------------------
 STRT.F           16.0000:   START DEPTH
 STOP.F         1254.0000:   STOP DEPTH
 STEP.F            0.5000:   STEP LENGTH
 NULL.          -999.2500:   NO VALUE
 COMP. FENIX & SCISSON INC:   COMPANY
 WELL. NAVAL PET RESERVE 3   75-S-14 #75-14:   WELL
 FLD .             TEAPOT:   FIELD
 LOC .      S14 T38N R78W:   LOCATION
 CNTY.            NATRONA:   COUNTY
 STAT.            WYOMING:   STATE
 CTRY. UNITED STATES OF AMERICA:   COUNTRY
 SRVC.              Welex:   SERVICE COMPANY
 DATE.        17-FEB-1977:   LOGDATE
 API .       490251027400:   API NUMBER
~CURVE INFORMATION
#MNEM.UNIT       API CODE    CURVE DESCRIPTION
#----------   ------------   ------------------------------
 DEPT.F                  :   
 SGRD.OHMM   07 220 05 00:   SHALLOW RESISTIVITY
 ILM .OHMM   07 120 44 00:   INDUCTION LOG MEDIUM
 SPR .MV     07 010 01 00:   SPONTANEOUS POTENTIAL
 ILD .OHMM   07 120 46 00:   INDUCTION LOG DEEP
 CALD.IN     45 280 60 00:   CALIPER
 GRD .GAPI   45 310 01 00:   GAMMA RAY FROM DENSITY LOG
 DPHI.DEC    45 890 12 00:   DENSITY POROSITY SANDSTONE
 RHOB.G/C3   45 350 01 00:   BULK DENSITY
 CORR.G/C3   45 356 01 00:   DENSITY CORRECTION
~PARAMETER INFORMATION
#MNEM.UNIT          VALUE    DESCRIPTION
#----------   ------------   ------------------------------
 PD  .                 GL:   PERMANENT DATUM
 EPD .F              5336:   ELEVATION PERMANENT DATUM
 LMF .                 GL:   LOG MEASURED FROM
 DMF .                 GL:   DRILLING MEASURED FROM
 EKB .F              5341:   KELLING BUSHING
 EGL .F              5336:   GROUND LEVEL
 DATE.          2-17-1977:   RUN DATE
 RUN .                  1:   RUN NUMBER
 DD  .F              1260:   DEPTH DRILLER
 DL  .F              1258:   DEPTH LOGGER
 BLI .F              1256:   BOTTOM LOG INTERVAL
 TLI .F                30:   TOP LOG INTERVAL
 CS  .IN            8.625:   CASING SIZE
 CBD .F                42:   CASING BOTTOM DRILLER
 CBL .F                42:   CASING BOTTOM LOGGER
 BS  .IN            7.875:   BIT SIZE
 BSD .F              1260:   BIT SIZE AT DEPTH
 DFT .          KCL WATER:   DRILLING FLUID TYPE
 DFD .                9.5:   DRILLING FLUID DENSITY
 DFV .                 34:   DRILLING FLUID VISCOSITY
 MSS .          FLOW LINE:   MUD SAMPLE SOURCE
 RMS .OHMM            .30:   RESISTIVITY MUD SAMPLE
 MST .F                43:   MUD SAMPLE TEMPERATURE
 RMF .OHMM            .28:   RESISTIVITY MUD FILTRATE SAMPLE
 MFST.F                43:   MUD FILTRATE SAMPLE TEMPERATURE
 RMC .OHMM            .40:   RESISTIVITY MUD CAKE
 MCST.F                43:   MUD CAKE SAMPLE TEMPERATURE
 MFSS.           MEASURED:   MUD FILTRATE SAMPLE SOURCE
 MCSS.           MEASURED:   MUD CAKE SAMPLE SOURCE
 RMB .OHMM            .13:   RESISTIVITY MUD AT BHT
 BHT .F               101:   BOTTOM HOLE TEMPERATURE
 TCS .HRS               5:   TIME CURCULATED STOPPED
 MRT .F               101:   MAXIMUM RECORDED TEMPERATURE
 LUN .               8611:   LOGGING UNIT NUMBER
 LUL .           GILLETTE:   LOGGING UNIT LOCATION
 ENGI.             LAWSON:   RECORDING ENGINEER
 WITN.         STUEBINGER:   WITNESSED BY
 CLNT.            A2DTECH:   CLIENT CODE
 ORIG.       2", 5" PRINT:   ORIGIN OF DATA
 UWI .       490251027400:   UNIQUE WELL ID
 DICO. A2D Technologies, Inc.:   DIGITIZING COMPANY
~OTHER INFORMATION
~A   DEPT     SGRD        ILM        SPR        ILD       CALD         GRD      DPHI       RHOB       CORR   
# ...
  381.0000     7.9747     6.3927   -43.9766     4.7742     8.2211   113.7078     0.1014     2.4776     0.0749
  381.5000     7.8965     6.3802   -44.0049     4.7481     8.2211   112.8288     0.0982     2.4798     0.0755
  382.0000     8.0795     6.3678   -43.9425     4.7169     8.2211   112.3364     0.1032     2.4661     0.0745
  382.5000     8.2208     6.3553   -43.8811     4.7891     8.2211   112.9660     0.1095     2.4528     0.0697
  383.0000     8.3649     6.3429   -43.8222     4.8369     8.2211   113.5852     0.1158     2.4395     0.0635
  383.5000     8.5772     6.3318   -43.7321     4.8851     8.2211   114.2335     0.1221     2.4261     0.0574
  384.0000     8.4270     6.4228   -43.6403     4.9338     8.2211   113.3597     0.1244     2.4266     0.0541
  384.5000     8.1479     6.5060   -43.5484     4.9830     8.2211   112.1407     0.1222     2.4317     0.0541
  385.0000     8.0431     6.5902   -43.4566     5.0326     8.2211   110.9141     0.1199     2.4367     0.0541
  385.5000     8.4246     6.6755   -43.3649     5.0828     8.2211   109.6959     0.1182     2.4417     0.0541
  386.0000     8.7480     6.7619   -43.2731     5.1335     8.2211   108.8095     0.1190     2.4424     0.0541
  386.5000     9.0557     6.8494   -43.1813     5.1846     8.2212   109.8529     0.1199     2.4421     0.0541
  387.0000     9.3497     6.9381   -43.0896     5.2363     8.2156   110.8846     0.1203     2.4402     0.0548
  387.5000     9.5796     7.0062   -42.9978     5.2885     8.2068   107.6651     0.1185     2.4408     0.0561
  388.0000     9.3637     6.9509   -42.9061     5.3162     8.1979   107.5921     0.1167     2.4455     0.0573
  388.5000     9.1176     6.9067   -42.8143     5.3162     8.1891   110.3212     0.1154     2.4502     0.0586
  389.0000     8.8780     6.8787   -42.7223     5.3276     8.1802   113.0154     0.1168     2.4482     0.0599
  389.5000     8.7375     6.9116   -42.6294     5.3398     8.1714   114.9820     0.1186     2.4444     0.0611
  390.0000     9.0360     6.9363   -42.6145     5.3520     8.1625   113.6565     0.1205     2.4405     0.0624
  390.5000     9.2552     6.9611   -42.6139     5.3653     8.1537   111.4037     0.1223     2.4367     0.0637
  391.0000     9.4050     6.9858   -42.6445     5.3749     8.1448   109.8049     0.1217     2.4327     0.0649
  391.5000     9.4050     7.0107   -42.6860     5.4458     8.1360   110.8499     0.1191     2.4353     0.0661
  392.0000     9.3833     7.0356   -42.7276     5.5175     8.1272   111.8372     0.1162     2.4416     0.0656
  392.5000     9.3474     7.0607   -42.7693     5.5907     8.1214   112.6409     0.1170     2.4482     0.0652
  393.0000     9.3112     7.0859   -42.8109     5.6696     8.1278   111.4220     0.1184     2.4450     0.0647
  393.5000     9.2761     7.1111   -42.8525     5.6113     8.1382   109.8512     0.1194     2.4393     0.0641
  394.0000     9.2335     7.1375   -42.8941     5.5479     8.1486   108.2188     0.1184     2.4398     0.0668
  394.5000     9.6790     7.0090   -42.9358     5.4853     8.1591   108.9486     0.1163     2.4452     0.0699
  395.0000    10.2170     6.8541   -42.9779     5.4234     8.1695   110.9164     0.1146     2.4488     0.0730
  395.5000     9.3603     6.7024   -43.0144     5.3622     8.1800   112.9010     0.1163     2.4447     0.0721
  396.0000     8.4859     6.5542   -42.9404     5.3016     8.1904   114.6882     0.1183     2.4406     0.0690
  396.5000     7.6778     6.4092   -42.8601     5.2168     8.2008   113.9203     0.1203     2.4366     0.0658
  397.0000     7.2761     6.2738   -42.7915     5.1674     8.2113   111.7384     0.1223     2.4327     0.0626
  397.5000     8.8244     6.2738   -42.7386     5.1754     8.2210   109.5863     0.1234     2.4327     0.0607
  398.0000     9.0539     6.4651   -42.6856     5.1219     8.2212   107.8793     0.1211     2.4384     0.0640
  398.5000     9.2705     6.5692   -42.6326     5.1486     8.2211   107.6431     0.1189     2.4440     0.0661
  399.0000     9.4050     6.6299   -42.5796     5.1750     8.2211   108.2965     0.1166     2.4496     0.0657
  399.5000     8.8776     6.5756   -42.5266     5.2014     8.2211   109.3849     0.1144     2.4551     0.0654
  400.0000     8.3447     6.5309   -42.4736     5.2280     8.2211   110.4820     0.1122     2.4609     0.0650
  400.5000     8.7057     6.5090   -42.4206     5.2548     8.2211   111.6058     0.1094     2.4634     0.0647
  401.0000     9.1489     6.5079   -42.3676     5.3162     8.2211   110.9465     0.1112     2.4621     0.0643
  401.5000     9.0356     6.5073   -42.3146     5.4449     8.2211   109.4729     0.1137     2.4577     0.0630
  402.0000     8.9821     6.7714   -42.2616     5.5863     8.2211   106.0509     0.1158     2.4533     0.0600
  402.5000     9.3681     7.1368   -42.2086     5.7313     8.2211   102.4250     0.1130     2.4502     0.0601
  403.0000     9.7859     7.5231   -42.1557     5.8801     8.2212    98.7761     0.1101     2.4579     0.0601
  403.5000    10.2170     7.9312   -42.1027     6.0328     8.2211    98.1194     0.1072     2.4675     0.0601
  404.0000    15.6005     8.3509   -42.0497     6.1895     8.2205    99.8887     0.1092     2.4656     0.0601
  404.5000    13.4649     8.0878   -41.9967     6.3930     8.1991   102.0972     0.1135     2.4536     0.0592
  405.0000    14.0877     7.6984   -41.9436     6.3892     8.1822   104.3139     0.1179     2.4415     0.0578
  405.5000    14.4934     7.3278   -41.8907     6.3908     8.1641   106.5289     0.1202     2.4411     0.0563
  406.0000     9.8478     7.0062   -41.8379     6.3904     8.1456   108.8496     0.1150     2.4466     0.0579
  406.5000     9.7623     7.2490   -41.8142     6.2720     8.1269   111.1755     0.1154     2.4379     0.0619
  407.0000     9.4855     7.3361   -41.8013     6.1540     8.1216   113.5235     0.1203     2.4280     0.0562
  407.5000     9.1489     7.3466   -42.0083     6.0383     8.1440   115.9448     0.1253     2.4182     0.0493
  408.0000     9.3142     7.4233   -42.0152     5.9247     8.1694   114.9728     0.1282     2.4133     0.0424
  408.5000     9.6240     7.4724   -42.0165     5.8133     8.1955   113.4441     0.1244     2.4255     0.0471
  409.0000     9.7576     7.2530   -42.0160     5.7039     8.2012   111.9196     0.1206     2.4355     0.0527
  409.5000     9.5113     7.0965   -42.0160     5.6180     8.2013   110.3207     0.1168     2.4455     0.0583
  410.0000     9.3083     7.0062   -42.0159     5.5665     8.2023   112.2994     0.1130     2.4555     0.0639
  410.5000     9.2335     7.2039   -42.0158     5.5156     8.2054   114.2602     0.1102     2.4654     0.0668
  411.0000     9.3780     7.0462   -42.0159     5.5323     8.2085   113.0320     0.1094     2.4698     0.0680
  411.5000     9.4743     6.8775   -42.0296     5.5484     8.2115   111.0000     0.1098     2.4601     0.0652
  412.0000     9.5853     6.9781   -42.0955     5.5647     8.2146   111.4338     0.1145     2.4507     0.0616
  412.5000     9.4050     7.0943   -42.1594     5.5810     8.2177   113.2791     0.1187     2.4413     0.0580
  413.0000     9.2335     7.2684   -42.2233     5.5973     8.2208   115.1023     0.1229     2.4318     0.0544
  413.5000     9.3270     7.2067   -42.2873     5.6182     8.2206   116.2557     0.1272     2.4224     0.0508
  414.0000     9.5083     7.0893   -42.3520     5.6179     8.2091   115.3144     0.1327     2.4130     0.0471
  414.5000     9.6930     6.9738   -42.4111     5.6104     8.1978   114.4488     0.1299     2.4128     0.0491
  415.0000     9.8478     6.8602   -42.3313     5.5970     8.1866   114.0133     0.1259     2.4208     0.0550
  415.5000     9.6295     6.7485   -42.2453     5.5835     8.1754   116.8187     0.1220     2.4289     0.0605
  416.0000     9.4478     6.6385   -42.1600     5.5701     8.1638   118.2555     0.1180     2.4370     0.0620
  416.5000     9.2696     6.5304   -42.0748     5.5567     8.1613   114.0538     0.1150     2.4450     0.0636
  417.0000     9.0948     6.4494   -41.9896     5.5433     8.1613   111.7333     0.1131     2.4531     0.0652
