~VERSION INFORMATION
 VERS.                2.0:   CWLS LOG ASCII STANDARD - VERSION 2.0
 WRAP.                 NO:   ONE LINE PER DEPTH STEP
~WELL INFORMATION
#MNEM.UNIT      DATA TYPE    INFORMATION
#----------   ------------   ------------------------------
 STRT.F            8.0000:   START DEPTH
 STOP.F         2320.0000:   STOP DEPTH
 STEP.F            0.5000:   STEP LENGTH
 NULL.          -999.2500:   NO VALUE
 COMP.    FENIX & SCISSON:   COMPANY
 WELL. N.P.R #3 #77-SHX-10:   WELL
 FLD .             TEAPOT:   FIELD
 LOC .      S10 T38N R78W:   LOCATION
 CNTY.            NATRONA:   COUNTY
 STAT.            WYOMING:   STATE
 CTRY. UNITED STATES OF AMERICA:   COUNTRY
 SRVC.              Welex:   SERVICE COMPANY
 DATE.        05-JUN-1980:   LOGDATE
 API .       490251064900:   API NUMBER
~CURVE INFORMATION
#MNEM.UNIT       API CODE    CURVE DESCRIPTION
#----------   ------------   ------------------------------
 DEPT.F                  :   
 GRD .GAPI   45 310 01 00:   GAMMA RAY FROM DENSITY LOG
 CALD.IN     45 280 60 00:   CALIPER FROM DENSITY LOG
 RHOB.G/C3   45 350 01 00:   BULK DENSITY
 DPHI.DEC    45 890 12 00:   DENSITY POROSITY SANDSTONE
 ILD .OHMM   05 120 46 00:   INDUCTION LOG DEEP
 CORR.G/C3   45 356 01 00:   DENSITY CORRECTION
~PARAMETER INFORMATION
#MNEM.UNIT          VALUE    DESCRIPTION
#----------   ------------   ------------------------------
 PD  .                 GL:   PERMANENT DATUM
 EPD .F              5210:   ELEVATION PERMANENT DATUM
 LMF .                 KB:   LOG MEASURED FROM
 DAPD.F                10:   FEET ABOVE PERMANENT DATUM
 DMF .                 KB:   DRILLING MEASURED FROM
 EKB .F              5220:   KELLING BUSHING
 EGL .F              5210:   GROUND LEVEL
 DATE.        05-JUN-1980:   RUN DATE
 RUN .                  1:   RUN NUMBER
 DD  .F              2358:   DEPTH DRILLER
 DL  .F              2322:   DEPTH LOGGER
 BLI .F              2320:   BOTTOM LOG INTERVAL
 TLI .F               900:   TOP LOG INTERVAL
 CS  .IN                7:   CASING SIZE
 BS  .IN             6.25:   BIT SIZE
 BSD .F              2358:   BIT SIZE AT DEPTH
 DFT .        AIR DRILLED:   DRILLING FLUID TYPE
 MRT .F               107:   MAXIMUM RECORDED TEMPERATURE
 ENGI.               REIN:   RECORDING ENGINEER
 WITN.              AMEND:   WITNESSED BY
 CLNT.            A2DTECH:   CLIENT CODE
 ORIG.           5" PRINT:   ORIGIN OF DATA
 UWI .       490251064900:   UNIQUE WELL ID
 DICO. A2D Technologies, Inc.:   DIGITIZING COMPANY
~OTHER INFORMATION
~A    DEPT      GRD      CALD       RHOB       DPHI        ILD       CORR   
# ...
 1776.0000   102.9721     7.0783     2.4231     0.0801  -999.2500     0.1011
 1776.5000   105.2052     7.0624     2.4253     0.0777  -999.2500     0.1237
 1777.0000   106.9905     7.0018     2.4319     0.0738  -999.2500     0.1327
 1777.5000   107.7310     6.9541     2.4371     0.0780  -999.2500     0.1417
 1778.0000   106.3820     6.8952     2.4393     0.0721  -999.2500     0.1462
 1778.5000   104.8837     6.8644     2.4258     0.0817  -999.2500     0.1431
 1779.0000   105.7720     6.8187     2.4107     0.0898  -999.2500     0.1309
 1779.5000   106.8111     6.7879     2.4032     0.0973  -999.2500     0.1203
 1780.0000   107.7008     6.7422     2.3956     0.0980  -999.2500     0.1172
 1780.5000   108.2921     6.6801     2.3866     0.1034  -999.2500     0.1111
 1781.0000   108.1371     6.8293     2.4000     0.0947  -999.2500     0.1216
 1781.5000   107.2331     6.8882     2.4255     0.0854  -999.2500     0.1412
 1782.0000   108.4677     6.9319     2.4344     0.0764  -999.2500     0.1517
 1782.5000   109.3124     6.9604     2.4374     0.0716  -999.2500     0.1592
 1783.0000   109.1574     7.0042     2.4403     0.0726  -999.2500     0.1637
 1783.5000   107.9576     7.0337     2.4388     0.0708  -999.2500     0.1651
 1784.0000   106.4594     7.0468     2.4237     0.0765  -999.2500     0.1575
 1784.5000   106.3044     7.0307     2.4117     0.0924  -999.2500     0.1061
 1785.0000   106.4577     7.0297     2.4161     0.0862  -999.2500     0.1211
 1785.5000   106.8899     7.0087     2.4314     0.0769  -999.2500     0.1362
 1786.0000   107.4797     6.9979     2.3935     0.0973  -999.2500     0.0878
 1786.5000   107.9217     6.9671     2.4070     0.1008  -999.2500     0.1013
 1787.0000   108.3637     6.9360     2.4294     0.0919  -999.2500     0.1164
 1787.5000   108.6567     6.8754     2.4466     0.0693  -999.2500     0.1435
 1788.0000   108.0537     6.8374     2.4698     0.0496  -999.2500     0.1570
 1788.5000   107.8776     6.7840     2.4666     0.0572  -999.2500     0.1645
 1789.0000   108.0408     6.7234     2.4599     0.0554  -999.2500     0.1705
 1789.5000   108.6320     6.6925     2.4546     0.0575  -999.2500     0.1659
 1790.0000   109.0755     6.7104     2.4111     0.0668  -999.2500     0.1296
 1790.5000   109.0683     6.8095     2.3908     0.0981  -999.2500     0.0993
 1791.0000   108.7640     6.8681     2.3937     0.1050  -999.2500     0.0872
 1791.5000   108.4597     6.9565     2.4185     0.0870  -999.2500     0.1128
 1792.0000   108.3048     7.0151     2.4390     0.0663  -999.2500     0.1475
 1792.5000   108.8946     7.0738     2.4543     0.0609  -999.2500     0.1565
 1793.0000   109.6351     7.1026     2.4453     0.0688  -999.2500     0.1474
 1793.5000   110.0786     7.1013     2.4347     0.0697  -999.2500     0.1413
 1794.0000   110.2221     7.1004     2.4556     0.0625  -999.2500     0.1427
 1794.5000   109.7671     7.0844     2.4631     0.0529  -999.2500     0.1593
 1795.0000   109.7612     7.0387     2.4522     0.0620  -999.2500     0.1502
 1795.5000   109.9035     7.0079     2.4420     0.0653  -999.2500     0.1380
 1796.0000   110.3455     6.9763     2.4292     0.0719  -999.2500     0.1364
 1796.5000   110.6397     6.8864     2.4134     0.0851  -999.2500     0.1077
 1797.0000   110.9324     6.7960     2.4186     0.0873  -999.2500     0.1167
 1797.5000   110.9252     6.8695     2.4210     0.0891  -999.2500     0.1181
 1798.0000   110.1651     6.9281     2.3998     0.0996  -999.2500     0.1135
 1798.5000   109.7183     6.9718     2.4177     0.0888  -999.2500     0.1291
 1799.0000   110.1603     6.9708     2.4266     0.0777  -999.2500     0.1421
 1799.5000   110.3052     6.9546     2.4206     0.0967  -999.2500     0.1511
 1800.0000   109.9995     6.9387     2.4040     0.1066  -999.2500     0.1269
 1800.5000   109.6953     6.9079     2.3755     0.1128  -999.2500     0.1193
 1801.0000   109.0925     6.8473     2.3500     0.1232  -999.2500     0.1132
 1801.5000   108.4895     6.9059     2.3421     0.1340  -999.2500     0.1010
 1802.0000   107.5870     6.9645     2.3154     0.1496  -999.2500     0.0874
 1802.5000   106.8350     6.9635     2.3174     0.1545  -999.2500     0.0918
 1803.0000   107.1278     6.9176     2.3421     0.1410  -999.2500     0.1099
 1803.5000   108.1668     6.8569     2.3641     0.1281  -999.2500     0.1340
 1804.0000   108.7581     6.7814     2.3728     0.1207  -999.2500     0.1460
 1804.5000   108.2906     6.7506     2.3668     0.1203  -999.2500     0.1550
 1805.0000   107.2526     6.7794     2.3795     0.1152  -999.2500     0.1520
 1805.5000   106.2020     6.7784     2.3937     0.0984  -999.2500     0.1474
 1806.0000   105.4500     6.7921     2.4073     0.0891  -999.2500     0.1367
 1806.5000   104.6999     6.8211     2.4222     0.0877  -999.2500     0.1427
 1807.0000   103.9460     6.7158     2.4274     0.0818  -999.2500     0.1457
 1807.5000   103.0447     6.7744     2.4026     0.0913  -999.2500     0.1361
 1808.0000   102.5732     6.8626     2.3830     0.1093  -999.2500     0.1093
 1808.5000   101.9870     6.9369     2.3770     0.1127  -999.2500     0.1031
 1809.0000   101.5335     6.9947     2.3890     0.1082  -999.2500     0.1139
 1809.5000   101.3785     6.9934     2.3964     0.1039  -999.2500     0.1272
 1810.0000   100.1787     6.9924     2.3949     0.0998  -999.2500     0.1362
 1810.5000    99.9561     6.9914     2.3888     0.0977  -999.2500     0.1392
 1811.0000   101.8090     6.9308     2.3776     0.1095  -999.2500     0.1437
 1811.5000   101.3541     6.8698     2.3527     0.1167  -999.2500     0.1451
 1812.0000    99.4080     6.8093     2.3377     0.1336  -999.2500     0.1405
 1812.5000    98.5067     6.8083     2.3349     0.1414  -999.2500     0.1511
 1813.0000    98.6502     6.9006     2.3474     0.1327  -999.2500     0.1691
 1813.5000    99.0923     6.9593     2.3601     0.1240  -999.2500     0.1917
 1814.0000   100.8776     7.0265     2.3871     0.1123  -999.2500     0.1992
 1814.5000   102.1158     7.0771     2.4088     0.1005  -999.2500     0.1750
 1815.0000   104.0593     7.0909     2.4185     0.0874  -999.2500     0.1538
 1815.5000   105.6925     7.0751     2.3937     0.0979  -999.2500     0.1386
 1816.0000   106.8759     7.0741     2.4117     0.0863  -999.2500     0.1537
 1816.5000   107.6136     7.0547     2.4281     0.0803  -999.2500     0.1596
 1817.0000   108.1821     7.0128     2.4432     0.0746  -999.2500     0.1565
 1817.5000   108.9398     6.9821     2.4394     0.0695  -999.2500     0.1535
 1818.0000   109.8268     6.9365     2.4213     0.0809  -999.2500     0.1443
 1818.5000   110.4605     6.8907     2.4340     0.0813  -999.2500     0.1352
 1819.0000   111.5986     6.8899     2.4503     0.0675  -999.2500     0.1609
 1819.5000   112.4856     6.8890     2.4647     0.0597  -999.2500     0.1865
 1820.0000   113.3726     6.8286     2.4677     0.0549  -999.2500     0.1879
 1820.5000   114.2596     6.7234     2.4647     0.0534  -999.2500     0.1863
 1821.0000   115.0150     6.6180     2.4586     0.0597  -999.2500     0.1772
 1821.5000   116.1806     6.5873     2.4415     0.0673  -999.2500     0.1651
 1822.0000   116.9184     6.7653     2.4225     0.0787  -999.2500     0.1484
 1822.5000   118.1038     6.9731     2.4120     0.0904  -999.2500     0.1438
 1823.0000   119.2893     7.0170     2.4029     0.0971  -999.2500     0.1377
 1823.5000   120.5006     7.0495     2.3894     0.1058  -999.2500     0.1331
 1824.0000   122.1059     6.9852     2.4003     0.1007  -999.2500     0.1618
 1824.5000   123.4407     6.8652     2.4118     0.0944  -999.2500     0.1742
 1825.0000   125.2232     6.7600     2.3998     0.0969  -999.2500     0.1783
 1825.5000   127.3042     6.6995     2.3855     0.1107  -999.2500     0.1676
 1826.0000   129.8726     6.6948     2.3757     0.1209  -999.2500     0.1555
 1826.5000   135.0461     6.6827     2.3525     0.1314  -999.2500     0.1463
 1827.0000   138.7690     6.6669     2.3336     0.1363  -999.2500     0.1402
 1827.5000   140.7007     6.6363     2.3440     0.1390  -999.2500     0.1583
