~VERSION INFORMATION
 VERS.                2.0:   CWLS LOG ASCII STANDARD - VERSION 2.0
 WRAP.                 NO:   ONE LINE PER DEPTH STEP
~WELL INFORMATION
#MNEM.UNIT      DATA TYPE    INFORMATION
#----------   ------------   ------------------------------
 STRT.F            6.0000:   START DEPTH
 STOP.F         2600.0000:   STOP DEPTH
 STEP.F            0.5000:   STEP LENGTH
 NULL.          -999.2500:   NO VALUE
 COMP. FENIX & SCISSON INC:   COMPANY
 WELL.   NPR 3 SH #17 -34:   WELL
 FLD .             TEAPOT:   FIELD
 LOC .      S34 T39N R78W:   LOCATION
 CNTY.            NATRONA:   COUNTY
 STAT.            WYOMING:   STATE
 CTRY. UNITED STATES OF AMERICA:   COUNTRY
 SRVC.            Unknown:   SERVICE COMPANY
 DATE.        21-MAR-1978:   LOGDATE
 API .       490251060600:   API NUMBER
~CURVE INFORMATION
#MNEM.UNIT       API CODE    CURVE DESCRIPTION
#----------   ------------   ------------------------------
 DEPT.F                  :   
 NPHI.DEC    42 890 03 00:   NEUTRON POROSITY SANDSTONE
 CALD.IN     45 280 60 00:   CALIPER FROM DENSITY LOG
 GRD .GAPI   45 310 01 00:   GAMMA RAY FROM DENSITY LOG
 CORR.G/C3   45 356 01 00:   DENSITY CORRECTION
 RHOB.G/C3   45 350 01 00:   BULK DENSITY
 DPHI.DEC    45 890 12 00:   DENSITY POROSITY SANDSTONE
~PARAMETER INFORMATION
#MNEM.UNIT          VALUE    DESCRIPTION
#----------   ------------   ------------------------------
 PD  .                 GL:   PERMANENT DATUM
 EPD .F              5150:   ELEVATION PERMANENT DATUM
 LMF .                 KB:   LOG MEASURED FROM
 DMF .                 KB:   DRILLING MEASURED FROM
 EKB .F              5160:   KELLING BUSHING
 EGL .F              5150:   GROUND LEVEL
 DATE.          3-21-1978:   RUN DATE
 RUN .                  1:   RUN NUMBER
 DD  .F              2612:   DEPTH DRILLER
 DL  .F              2592:   DEPTH LOGGER
 BLI .F              2590:   BOTTOM LOG INTERVAL
 TLI .F                20:   TOP LOG INTERVAL
 CS  .IN            9.625:   CASING SIZE
 CBD .F               710:   CASING BOTTOM DRILLER
 CBL .F               710:   CASING BOTTOM LOGGER
 BS  .IN            8.625:   BIT SIZE
 BSD .F              2612:   BIT SIZE AT DEPTH
 DFT .           AIR MIST:   DRILLING FLUID TYPE
 BHT .F               110:   BOTTOM HOLE TEMPERATURE
 TCS .HRS               2:   TIME CURCULATED STOPPED
 MRT .F               110:   MAXIMUM RECORDED TEMPERATURE
 LUN .               2958:   LOGGING UNIT NUMBER
 LUL .               CASP:   LOGGING UNIT LOCATION
 ENGI.            POINTER:   RECORDING ENGINEER
 WITN.           MCGINLEY:   WITNESSED BY
 CLNT.            A2DTECH:   CLIENT CODE
 ORIG.      2" , 5" PRINT:   ORIGIN OF DATA
 UWI .       490251060600:   UNIQUE WELL ID
 DICO. A2D Technologies, Inc.:   DIGITIZING COMPANY
~OTHER INFORMATION
~A    DEPT      NPHI     CALD        GRD       CORR       RHOB       DPHI   
# ...
 2554.0000  -999.2500     8.7247    85.5122     0.0051     2.5334     0.0720
 2554.5000  -999.2500     8.7255    82.1734     0.0055     2.5302     0.0710
 2555.0000  -999.2500     8.7263    82.8651     0.0060     2.5312     0.0734
 2555.5000  -999.2500     8.7270    82.6672     0.0064     2.5303     0.0753
 2556.0000  -999.2500     8.7250    83.4008     0.0068     2.5224     0.0697
 2556.5000  -999.2500     8.7157    83.6973     0.0072     2.5279     0.0701
 2557.0000  -999.2500     8.7068    83.8308     0.0071     2.5329     0.0710
 2557.5000  -999.2500     8.6979    83.9861     0.0051     2.5316     0.0712
 2558.0000  -999.2500     8.6890    84.8405     0.0032     2.5288     0.0768
 2558.5000  -999.2500     8.6879    88.1212     0.0015     2.5232     0.0744
 2559.0000  -999.2500     8.6879    91.3146     0.0019     2.5235     0.0729
 2559.5000  -999.2500     8.6879    91.5510     0.0023     2.5271     0.0734
 2560.0000  -999.2500     8.6879    91.1865     0.0027     2.5275     0.0736
 2560.5000  -999.2500     8.6879    92.9707     0.0031     2.5275     0.0744
 2561.0000  -999.2500     8.6879    95.8376     0.0035     2.5279     0.0725
 2561.5000  -999.2500     8.6879    98.6608     0.0038     2.5263     0.0700
 2562.0000  -999.2500     8.6879    98.6151     0.0042     2.5315     0.0708
 2562.5000  -999.2500     8.6879    95.1771     0.0046     2.5315     0.0728
 2563.0000  -999.2500     8.6878    90.2138     0.0050     2.5279     0.0719
 2563.5000  -999.2500     8.6852    84.9829     0.0053     2.5290     0.0733
 2564.0000  -999.2500     8.6824    80.7201     0.0075     2.5298     0.0789
 2564.5000  -999.2500     8.6795    80.2459     0.0104     2.5219     0.0808
 2565.0000  -999.2500     8.6767    81.6157     0.0133     2.5147     0.0826
 2565.5000  -999.2500     8.6739    82.9720     0.0161     2.5143     0.0855
 2566.0000  -999.2500     8.6710    87.3352     0.0187     2.5074     0.0846
 2566.5000  -999.2500     8.6682    88.4110     0.0279     2.5046     0.0786
 2567.0000  -999.2500     8.6653    88.4122     0.0376     2.5121     0.0748
 2567.5000  -999.2500     8.6625    88.3608     0.0443     2.5228     0.0745
 2568.0000  -999.2500     8.6596    90.0166     0.0464     2.5267     0.0773
 2568.5000  -999.2500     8.6568    91.9137     0.0485     2.5202     0.0810
 2569.0000  -999.2500     8.6540    91.6996     0.0506     2.5140     0.0834
 2569.5000  -999.2500     8.6511    91.4152     0.0527     2.5112     0.0878
 2570.0000  -999.2500     8.6481    91.8074     0.0593     2.5064     0.0936
 2570.5000  -999.2500     8.6398    93.8872     0.0694     2.4918     0.0993
 2571.0000  -999.2500     8.6309    94.0215     0.0815     2.4773     0.1050
 2571.5000  -999.2500     8.6217    90.2521     0.0982     2.4611     0.1107
 2572.0000  -999.2500     8.6123    87.7229     0.1223     2.4571     0.1190
 2572.5000  -999.2500     8.5620    88.1454     0.1523     2.4571     0.1133
 2573.0000  -999.2500     8.4928    88.5973     0.1517     2.4573     0.1244
 2573.5000  -999.2500     8.5187    88.5789     0.1375     2.4451     0.1443
 2574.0000  -999.2500     8.6398    89.3057     0.1224     2.4216     0.1695
 2574.5000  -999.2500     8.8032    89.5989     0.1318     2.3728     0.1856
 2575.0000  -999.2500     8.8128    89.6029     0.1505     2.3413     0.1940
 2575.5000  -999.2500     8.8168    89.5849     0.1769     2.3261     0.2034
 2576.0000  -999.2500     8.8218    88.1809     0.2027     2.3110     0.2120
 2576.5000  -999.2500     8.8267    84.3313     0.2254     2.2957     0.2205
 2577.0000  -999.2500     8.7656    83.4526     0.2218     2.2802     0.2363
 2577.5000  -999.2500     8.5887    81.8609     0.2173     2.2545     0.2586
 2578.0000  -999.2500     8.6680    78.9436     0.2511     2.2143     0.2428
 2578.5000  -999.2500     9.1533    73.0225     0.2785     2.2319     0.2316
 2579.0000  -999.2500     8.9065    67.0666     0.2620     2.2593     0.2319
 2579.5000  -999.2500     8.8628    61.8645     0.2477     2.2564     0.2336
 2580.0000  -999.2500     8.8537    58.6622     0.2532     2.2519     0.2259
 2580.5000  -999.2500     8.8405    57.8604     0.2429     2.2662     0.2427
 2581.0000  -999.2500     9.0292    56.5287     0.2228     2.2571     0.2386
 2581.5000  -999.2500     9.1060    56.1363     0.2317     2.2403     0.2287
 2582.0000  -999.2500     9.2206    55.6935     0.2420     2.2625     0.2023
 2582.5000  -999.2500     9.4598    55.8571     0.1809     2.3014     0.2046
 2583.0000  -999.2500     9.4434    58.2971     0.1612     2.2960     0.2087
 2583.5000  -999.2500  -999.2500    61.7741     0.1612     2.2915     0.2041
 2584.0000  -999.2500  -999.2500    65.5765     0.1620     2.3025     0.1991
 2584.5000  -999.2500  -999.2500    68.3144     0.1377     2.3104     0.2064
 2585.0000  -999.2500  -999.2500    68.7730     0.1065     2.3042     0.2095
 2585.5000  -999.2500  -999.2500    67.0705     0.1093     2.2967     0.1999
 2586.0000  -999.2500  -999.2500    64.1277     0.1152     2.3108     0.2165
 2586.5000  -999.2500  -999.2500    67.7640     0.1343     2.2793     0.2283
 2587.0000  -999.2500  -999.2500    69.6754     0.1321     2.2691     0.2535
 2587.5000  -999.2500  -999.2500    69.5842     0.1054     2.2406     0.2782
 2588.0000  -999.2500  -999.2500    69.7348     0.1009     2.1814     0.3006
 2588.5000  -999.2500  -999.2500    70.4247     0.1226     2.1225     0.3203
 2589.0000  -999.2500  -999.2500    69.8519     0.0918     2.1112     0.3394
 2589.5000  -999.2500  -999.2500    68.9207     0.0497     2.0645     0.3494
 2590.0000  -999.2500  -999.2500    67.9643     0.0474     1.9906     0.3581
 2590.5000  -999.2500  -999.2500  -999.2500     0.0570     1.9627     0.3669
 2591.0000  -999.2500  -999.2500  -999.2500     0.0777     1.9435     0.3805
 2591.5000  -999.2500  -999.2500  -999.2500     0.0988     1.9676     0.3694
 2592.0000  -999.2500  -999.2500  -999.2500     0.1156     2.0298     0.3358
 2592.5000  -999.2500  -999.2500  -999.2500     0.1054     2.0834     0.3409
 2593.0000  -999.2500  -999.2500  -999.2500     0.0998  -999.2500     0.3510
 2593.5000  -999.2500  -999.2500  -999.2500     0.0873  -999.2500  -999.2500
 2594.0000  -999.2500  -999.2500  -999.2500     0.0708  -999.2500  -999.2500
 2594.5000  -999.2500  -999.2500  -999.2500     0.0542  -999.2500  -999.2500
 2595.0000  -999.2500  -999.2500  -999.2500     0.0380  -999.2500  -999.2500
 2595.5000  -999.2500  -999.2500  -999.2500     0.0377  -999.2500  -999.2500
 2596.0000  -999.2500  -999.2500  -999.2500     0.0390  -999.2500  -999.2500
 2596.5000  -999.2500  -999.2500  -999.2500     0.0395  -999.2500  -999.2500
 2597.0000  -999.2500  -999.2500  -999.2500     0.0395  -999.2500  -999.2500
 2597.5000  -999.2500  -999.2500  -999.2500     0.0395  -999.2500  -999.2500
 2598.0000  -999.2500  -999.2500  -999.2500     0.0395  -999.2500  -999.2500
 2598.5000  -999.2500  -999.2500  -999.2500     0.0395  -999.2500  -999.2500
 2599.0000  -999.2500  -999.2500  -999.2500     0.0395  -999.2500  -999.2500
 2599.5000  -999.2500  -999.2500  -999.2500     0.0395  -999.2500  -999.2500
 2600.0000  -999.2500  -999.2500  -999.2500     0.0395  -999.2500  -999.2500
