~VERSION INFORMATION
 VERS.                2.0:   CWLS LOG ASCII STANDARD - VERSION 2.0
 WRAP.                 NO:   ONE LINE PER DEPTH STEP
~WELL INFORMATION
#MNEM.UNIT      DATA TYPE    INFORMATION
#----------   ------------   ------------------------------
 STRT.F           34.5000:   START DEPTH
 STOP.F          756.0000:   STOP DEPTH
 STEP.F            0.5000:   STEP LENGTH
 NULL.          -999.2500:   NO VALUE
 COMP. FENIX & SCISSON INC:   COMPANY
 WELL.    36 SX 11 #36-11:   WELL
 FLD .        TEAPOT DOME:   FIELD
 LOC .      S11 T38N R78W:   LOCATION
 CNTY.            NATRONA:   COUNTY
 STAT.            WYOMING:   STATE
 CTRY. UNITED STATES OF AMERICA:   COUNTRY
 SRVC.           BIRDWELL:   SERVICE COMPANY
 DATE.        21-FEB-1978:   LOGDATE
 API .       490251059700:   API NUMBER
~CURVE INFORMATION
#MNEM.UNIT       API CODE    CURVE DESCRIPTION
#----------   ------------   ------------------------------
 DEPT.F                  :   
 SPR .MV     05 010 01 00:   SPONTANEOUS POTENTIAL FROM RES.
 SN  .OHMM   05 040 16 00:   SHORT NORMAL 16"
 ILD .OHMM   05 120 46 00:   INDUCTION LOG DEEP
 RHOB.G/C3   45 350 01 00:   BULK DENSITY
 DPHI.DEC    45 890 12 00:   DENSITY POROSITY SANDSTONE
 GRD .GAPI   45 310 01 00:   GAMMA RAY FROM DENSITY LOG
 CALD.IN     45 280 60 00:   CALIPER
 CORR.G/C3   45 356 01 00:   DENSITY CORRECTION
~PARAMETER INFORMATION
#MNEM.UNIT          VALUE    DESCRIPTION
#----------   ------------   ------------------------------
 PD  .                 GL:   PERMANENT DATUM
 EPD .F              5175:   ELEVATION PERMANENT DATUM
 LMF .                 KB:   LOG MEASURED FROM
 DAPD.F                 4:   FEET ABOVE PERMANENT DATUM
 DMF .                 KB:   DRILLING MEASURED FROM
 EKB .F              5179:   KELLING BUSHING
 EGL .F              5175:   GROUND LEVEL
 DATE.          2-21-1978:   RUN DATE
 RUN .                  1:   RUN NUMBER
 DD  .F               765:   DEPTH DRILLER
 DL  .F               760:   DEPTH LOGGER
 BLI .F               754:   BOTTOM LOG INTERVAL
 TLI .F                40:   TOP LOG INTERVAL
 CS  .IN            8.625:   CASING SIZE
 CBD .F                39:   CASING BOTTOM DRILLER
 CBL .F                40:   CASING BOTTOM LOGGER
 BS  .IN            7.875:   BIT SIZE
 BSD .F               765:   BIT SIZE AT DEPTH
 DFT .         LIGNO/SULF:   DRILLING FLUID TYPE
 DFD .                8.6:   DRILLING FLUID DENSITY
 DFV .                 33:   DRILLING FLUID VISCOSITY
 DFPH.               10.5:   DRILLING FLUID PH
 DFL .                 84:   DRILLING FLUID LOSS
 MSS .          FLOW LINE:   MUD SAMPLE SOURCE
 RMS .OHMM            1.8:   RESISTIVITY MUD SAMPLE
 MST .F                56:   MUD SAMPLE TEMPERATURE
 RMF .OHMM            1.8:   RESISTIVITY MUD FILTRATE SAMPLE
 MFST.F                58:   MUD FILTRATE SAMPLE TEMPERATURE
 RMC .OHMM              4:   RESISTIVITY MUD CAKE
 MCST.F                62:   MUD CAKE SAMPLE TEMPERATURE
 MFSS.               MEAS:   MUD FILTRATE SAMPLE SOURCE
 RMB .OHMM           1.48:   RESISTIVITY MUD AT BHT
 BHT .F                68:   BOTTOM HOLE TEMPERATURE
 TCS .HRS               5:   TIME CURCULATED STOPPED
 MRT .F                68:   MAXIMUM RECORDED TEMPERATURE
 LUN .               2958:   LOGGING UNIT NUMBER
 LUL .               CASP:   LOGGING UNIT LOCATION
 ENGI.            POINTER:   RECORDING ENGINEER
 WITN.           MCGINLEY:   WITNESSED BY
 CLNT.            A2DTECH:   CLIENT CODE
 ORIG.       2", 5" PRINT:   ORIGIN OF DATA
 UWI .       490251059700:   UNIQUE WELL ID
 DICO. A2D Technologies, Inc.:   DIGITIZING COMPANY
~OTHER INFORMATION
~A   DEPT      SPR         SN        ILD       RHOB       DPHI         GRD      CALD       CORR   
# ...
  601.5000   -32.4512    13.8114    12.2150     2.4495     0.1371    63.4340     7.9301     0.0426
  602.0000   -33.1028    14.9371    13.4059     2.4379     0.1411    63.7275     7.9218     0.0471
  602.5000   -34.1659    16.1558    14.7128     2.4294     0.1452    59.8852     7.9136     0.0513
  603.0000   -35.2239    17.6438    16.1471     2.4151     0.1714    54.1401     7.9120     0.0484
  603.5000   -36.2815    19.5679    17.7231     2.3928     0.2054    48.2108     7.9098     0.0388
  604.0000   -37.3310    21.8163    19.4618     2.3405     0.2406    46.7460     7.9076     0.0207
  604.5000   -38.1993    24.1746    21.4203     2.2788     0.2425    48.3034     7.9054     0.0025
  605.0000   -38.3790    24.0408    21.6603     2.2583     0.2450    48.8692     7.9032    -0.0096
  605.5000   -38.2373    23.8024    20.7772     2.2567     0.2517    50.4074     7.9010    -0.0227
  606.0000   -38.0915    23.5689    20.1630     2.2467     0.2542    51.7362     7.8988    -0.0218
  606.5000   -37.9460    22.9956    19.5686     2.2444     0.2131    53.0454     7.8965    -0.0034
  607.0000   -37.8009    22.3427    18.9922     2.2973     0.1997    54.4177     7.8941     0.0114
  607.5000   -37.6527    21.7085    18.4327     2.3330     0.2005    57.2175     7.8789     0.0090
  608.0000   -37.5054    21.0923    18.2854     2.3278     0.1989    60.4509     7.8485     0.0064
  608.5000   -37.2735    20.8165    18.2306     2.3279     0.1961    52.9440     7.8184     0.0039
  609.0000   -37.0445    20.6511    18.1760     2.3354     0.1962    41.0222     7.7881     0.0015
  609.5000   -36.8149    20.4871    18.1216     2.3425     0.2028    38.1582     7.7579    -0.0011
  610.0000   -36.5851    20.3244    18.0676     2.3345     0.2057    59.2641     7.7288     0.0008
  610.5000   -36.3566    20.1630    18.0144     2.3225     0.2078    75.5288     7.7122     0.0022
  611.0000   -36.1859    20.0028    17.8820     2.3154     0.2029    75.8503     7.6963     0.0153
  611.5000   -36.1894    19.8440    17.6538     2.3223     0.1973    74.6668     7.6681     0.0294
  612.0000   -36.1881    19.6412    17.4267     2.3389     0.1922    73.0723     7.6641     0.0291
  612.5000   -36.2613    19.3012    17.2029     2.3445     0.1946    72.1251     7.6587     0.0270
  613.0000   -36.3620    18.9679    16.9821     2.3346     0.1934    73.2201     7.6530     0.0249
  613.5000   -36.4597    18.6399    16.7640     2.3472     0.1830    74.3296     7.6654     0.0250
  614.0000   -36.5561    18.3176    16.5488     2.3604     0.1901    72.3908     7.6879     0.0250
  614.5000   -36.5858    18.0008    16.3940     2.3427     0.2000    70.0547     7.7107     0.0250
  615.0000   -36.2104    17.6896    16.3940     2.3349     0.2074    67.8411     7.7315     0.0249
  615.5000   -35.8355    17.6086    16.3942     2.3205     0.2155    67.7252     7.7288     0.0230
  616.0000   -35.6026    17.5441    16.3938     2.2976     0.2203    69.1016     7.7142     0.0329
  616.5000   -35.6712    17.4798    16.3939     2.3151     0.2127    70.0984     7.7003     0.0520
  617.0000   -35.7339    17.4157    16.3940     2.3384     0.2071    70.0819     7.6862     0.0955
  617.5000   -35.7981    17.3519    16.1934     2.3619     0.2016    70.0802     7.6722     0.1270
  618.0000   -35.8611    17.2883    15.9389     2.3691     0.1973    70.0760     7.6837     0.1236
  618.5000   -35.9246    17.2249    15.8825     2.3654     0.1951    70.0922     7.6972     0.1323
  619.0000   -35.9882    17.1427    15.8264     2.3615     0.1929    70.8584     7.7124     0.1396
  619.5000   -36.0518    16.9314    15.7012     2.3641     0.1907    71.6647     7.7765     0.1419
  620.0000   -36.1150    16.7227    15.4124     2.3720     0.1885    74.3900     7.8449     0.1177
  620.5000   -36.1824    16.5463    15.1281     2.3646     0.1863    77.6267     7.9130     0.0722
  621.0000   -35.9941    16.2602    14.8479     2.3568     0.1846    78.7179     7.9726     0.0296
  621.5000   -35.6953    15.9633    14.5840     2.3544     0.1877    77.1174     7.9537     0.0242
  622.0000   -35.2206    15.6718    14.3351     2.3488     0.1890    74.6216     7.9362     0.0238
  622.5000   -34.6670    15.3856    14.0915     2.3442     0.1830    72.1463     7.9382     0.0363
  623.0000   -34.1945    15.1046    13.8521     2.3590     0.1702    69.9912     7.9489     0.0450
  623.5000   -34.3670    14.8288    13.6168     2.3798     0.1777    73.5247     7.9596     0.0509
  624.0000   -34.5356    14.5580    13.3854     2.3826     0.1838    78.4166     7.9703     0.0414
  624.5000   -34.2417    14.2921    13.1580     2.3598     0.1829    80.1301     7.9811     0.0211
  625.0000   -33.7698    14.0312    12.9344     2.3539     0.1820    79.7612     7.9918     0.0010
  625.5000   -33.2991    13.7749    12.8106     2.3616     0.1802    78.1783     8.0027    -0.0145
  626.0000   -33.0639    13.4931    12.7718     2.3563     0.1681    76.9485     8.0136    -0.0157
  626.5000   -33.4286    13.4583    12.7718     2.3705     0.1594    76.5774     8.0142    -0.0047
  627.0000   -33.7810    13.4235    12.7718     2.3935     0.1599    75.2655     8.0141     0.0031
  627.5000   -34.1354    13.3889    12.7718     2.3958     0.1603    72.7451     8.0141     0.0026
  628.0000   -34.5000    13.3543    12.7719     2.3864     0.1610    72.4011     8.0141     0.0012
  628.5000   -34.5610    13.3198    12.7718     2.3921     0.1629    72.2944     8.0141     0.0032
  629.0000   -34.5350    13.2853    12.7709     2.3955     0.1642    71.9556     8.0154     0.0062
  629.5000   -34.5067    13.2530    12.7746     2.3895     0.1570    70.4574     8.0174     0.0091
  630.0000   -34.4791    13.1752    12.6029     2.3953     0.1538    68.4315     8.0195     0.0110
  630.5000   -34.4516    13.0575    12.4878     2.4029     0.1559    66.3783     8.0216     0.0110
  631.0000   -34.4241    12.9408    12.3738     2.4073     0.1602    66.4902     8.0237     0.0110
  631.5000   -34.3967    12.8251    12.2608     2.3975     0.1646    67.4366     8.0258     0.0110
  632.0000   -34.3692    12.7105    12.1489     2.3878     0.1658    68.3992     8.0278     0.0111
  632.5000   -34.3418    12.5969    12.0380     2.3865     0.1650    69.3344     8.0299     0.0081
  633.0000   -34.3143    12.4844    11.9281     2.3878     0.1641    70.4456     8.0321     0.0040
  633.5000   -34.2868    12.3728    11.8192     2.3911     0.1642    71.5498     8.0341    -0.0002
  634.0000   -34.2594    12.2622    11.7113     2.3882     0.1657    72.7195     8.0176    -0.0043
  634.5000   -34.2321    12.1527    11.6044     2.3832     0.1674    74.0226     7.9985    -0.0084
  635.0000   -34.2037    12.0441    11.4984     2.3809     0.1585    74.2968     7.9858    -0.0083
  635.5000   -34.1816    11.9359    11.3934     2.3929     0.1506    73.6841     7.9736    -0.0072
  636.0000   -33.8965    11.8245    11.2894     2.4081     0.1549    72.1063     7.9396    -0.0062
  636.5000   -33.4950    11.7152    11.2117     2.4006     0.1597    70.2438     7.9035    -0.0051
  637.0000   -33.0879    11.6067    11.1450     2.3933     0.1615    69.4906     7.8672    -0.0050
  637.5000   -32.6623    11.4992    11.0788     2.3920     0.1593    69.5228     7.8593    -0.0050
  638.0000   -32.6109    11.3927    11.0129     2.3973     0.1603    69.5713     7.8952    -0.0050
  638.5000   -32.6784    11.2872    10.9474     2.3935     0.1616    69.6163     7.9308    -0.0050
  639.0000   -32.7496    11.2018    10.8823     2.3884     0.1565    69.6692     7.9663    -0.0045
  639.5000   -32.8200    11.1498    10.8176     2.3936     0.1513    70.2719     8.0021    -0.0038
  640.0000   -32.8904    11.1176    10.7533     2.4031     0.1458    72.2382     8.0140    -0.0034
  640.5000   -32.9612    11.1278    10.7148     2.4108     0.1450    76.0326     8.0142    -0.0016
  641.0000   -32.9876    11.1352    10.7250     2.4248     0.1502    77.4319     8.0141    -0.0037
  641.5000   -33.0121    11.1426    10.7333     2.4125     0.1507    78.1277     8.0141    -0.0049
