~VERSION INFORMATION
 VERS.                2.0:   CWLS LOG ASCII STANDARD - VERSION 2.0
 WRAP.                 NO:   ONE LINE PER DEPTH STEP
~WELL INFORMATION
#MNEM.UNIT      DATA TYPE    INFORMATION
#----------   ------------   ------------------------------
 STRT.F         1782.0000:   START DEPTH
 STOP.F         2281.0000:   STOP DEPTH
 STEP.F            0.5000:   STEP LENGTH
 NULL.          -999.2500:   NO VALUE
 COMP. BROWN JOHN E&C INC:   COMPANY
 WELL. NAVAL PETROLEUM RESERVE 3 STX- #64-3:   WELL
 FLD .            NATRONA:   FIELD
 LOC .       S3 T38N R78W:   LOCATION
 CNTY.            NATRONA:   COUNTY
 STAT.            WYOMING:   STATE
 CTRY. UNITED STATES OF AMERICA:   COUNTRY
 SRVC.            Unknown:   SERVICE COMPANY
 DATE.        12-JUN-1983:   LOGDATE
 API .       490251092800:   API NUMBER
~CURVE INFORMATION
#MNEM.UNIT       API CODE    CURVE DESCRIPTION
#----------   ------------   ------------------------------
 DEPT.F                  :   
 ROP .MIN/FT 91 810 01 00:   RATE OF DRILLING PENETRATION
 TGAS.UNITS  91 830 01 00:   TOTAL GAS FROM HOTWIRE
~PARAMETER INFORMATION
#MNEM.UNIT          VALUE    DESCRIPTION
#----------   ------------   ------------------------------
 EKB .F              5165:   KELLING BUSHING
 EGL .F              5155:   GROUND LEVEL
 DATE.            6-12-84:   RUN DATE
 DD  .F              2281:   DEPTH DRILLER
 BLI .F              2281:   BOTTOM LOG INTERVAL
 TLI .F              1780:   TOP LOG INTERVAL
 CS  .IN            9.625:   CASING SIZE
 TLAB.HRS            0202:   TIME LOGGER AT BOTTOM
 ENGI.              TOWER:   RECORDING ENGINEER
 WITN.               HUSK:   WITNESSED BY
 CLNT.            A2DTECH:   CLIENT CODE
 ORIG.     2.5", 5" PRINT:   ORIGIN OF DATA
 UWI .       490251092800:   UNIQUE WELL ID
 DICO. A2D Technologies, Inc.:   DIGITIZING COMPANY
~OTHER INFORMATION
~A  DEPT         ROP      TGAS  
# ...
 2025.0000     0.5048   139.4337
 2025.5000     0.5023   139.3601
 2026.0000     0.4999   139.2874
 2026.5000     0.4973   139.2156
 2027.0000     0.4944   139.1425
 2027.5000     0.4929   139.0691
 2028.0000     0.4916   138.9999
 2028.5000     0.5259   138.9180
 2029.0000     0.5600   138.8996
 2029.5000     0.5959   138.8794
 2030.0000     0.6308   138.8629
 2030.5000     0.6657   138.8453
 2031.0000     0.7022   138.8272
 2031.5000     0.7354   138.8097
 2032.0000     0.7620   138.7920
 2032.5000     0.7047   138.7742
 2033.0000     0.6561   138.7565
 2033.5000     0.6028   138.7388
 2034.0000     0.5896   138.7211
 2034.5000     0.5904   138.7033
 2035.0000     0.5906   138.6857
 2035.5000     0.5898   138.6679
 2036.0000     0.5911   138.6499
 2036.5000     0.5905   138.6329
 2037.0000     0.5864   138.6131
 2037.5000     0.6324   138.6075
 2038.0000     0.6681   138.6013
 2038.5000     0.6659   138.5959
 2039.0000     0.6656   138.5903
 2039.5000     0.6683   138.5846
 2040.0000     0.6987   138.5790
 2040.5000     0.7263   138.5733
 2041.0000     0.7556   138.5677
 2041.5000     0.7769   138.5620
 2042.0000     0.8328   138.5564
 2042.5000     0.8092   138.5507
 2043.0000     0.7800   138.5450
 2043.5000     0.7424   138.5394
 2044.0000     0.7333   138.5338
 2044.5000     0.7239   138.5281
 2045.0000     0.7151   138.5224
 2045.5000     0.7061   138.5168
 2046.0000     0.6969   138.5111
 2046.5000     0.6909   138.5055
 2047.0000     0.6910   138.4998
 2047.5000     0.6909   138.4942
 2048.0000     0.6909   138.4885
 2048.5000     0.6910   138.4829
 2049.0000     0.6909   138.4772
 2049.5000     0.6909   138.4716
 2050.0000     0.6916   138.4659
 2050.5000     0.6815   138.4603
 2051.0000     0.6559   138.4546
 2051.5000     0.6299   138.4489
 2052.0000     0.6154   138.4433
 2052.5000     0.6201   138.4376
 2053.0000     0.6234   138.4320
 2053.5000     0.6263   138.4263
 2054.0000     0.6298   138.4207
 2054.5000     0.6331   138.4150
 2055.0000     0.6363   138.4094
 2055.5000     0.6394   138.4037
 2056.0000     0.6428   138.3981
 2056.5000     0.6464   138.3924
 2057.0000     0.6499   138.3868
 2057.5000     0.6533   138.3811
 2058.0000     0.6567   138.3754
 2058.5000     0.6602   138.3698
 2059.0000     0.6638   138.3642
 2059.5000     0.6660   138.3585
 2060.0000     0.6658   138.3528
 2060.5000     0.6658   138.3472
 2061.0000     0.6658   138.3415
 2061.5000     0.6657   138.3359
 2062.0000     0.6658   138.3302
 2062.5000     0.6656   138.3246
 2063.0000     0.6656   138.3189
 2063.5000     0.6666   138.3131
 2064.0000     0.6654   138.3109
 2064.5000     0.7126   138.3110
 2065.0000     0.7813   138.3111
 2065.5000     0.8312   138.3110
 2066.0000     0.8558   138.3110
 2066.5000     0.8842   138.3110
 2067.0000     0.8757   138.3110
 2067.5000     0.8510   138.3110
 2068.0000     0.8270   138.3110
 2068.5000     0.8036   138.3110
 2069.0000     0.7774   138.3110
 2069.5000     0.7499   138.3110
 2070.0000     0.7220   138.3110
 2070.5000     0.7316   138.3110
 2071.0000     0.7513   138.3110
 2071.5000     0.7710   138.3110
 2072.0000     0.7916   138.3110
 2072.5000     0.8245   138.3110
 2073.0000     0.8432   138.3110
 2073.5000     0.8416   138.3110
 2074.0000     0.8416   138.3110
 2074.5000     0.8419   138.3110
 2075.0000     0.8417   138.3110
 2075.5000     0.8416   138.3110
 2076.0000     0.8418   138.3110
 2076.5000     0.8417   138.3110
 2077.0000     0.8412   138.3094
 2077.5000     0.8423   138.3107
 2078.0000     0.8436   138.3105
 2078.5000     0.8811   138.3005
 2079.0000     0.9179   138.3171
 2079.5000     0.9549   138.3148
 2080.0000     0.9921   138.2392
 2080.5000     1.0328   139.0576
 2081.0000     1.0149   140.3952
 2081.5000     0.9622   141.7043
 2082.0000     0.9111   142.9437
 2082.5000     0.8651   144.1140
 2083.0000     0.8215   145.8786
 2083.5000     0.8576   148.0003
 2084.0000     0.8870   150.0436
 2084.5000     0.8393   152.0140
 2085.0000     0.7958   154.0388
 2085.5000     0.7490   156.1245
 2086.0000     0.7166   157.0446
 2086.5000     0.7470   156.9754
 2087.0000     0.7804   156.9673
 2087.5000     0.8151   156.9846
 2088.0000     0.8498   156.9756
 2088.5000     0.8839   156.9739
 2089.0000     0.9183   156.9751
 2089.5000     0.9538   156.9732
 2090.0000     0.9687   156.9732
 2090.5000     0.9671   156.9732
 2091.0000     0.9666   156.9732
 2091.5000     0.9437   156.9732
 2092.0000     0.9169   156.9732
 2092.5000     0.8895   156.9732
 2093.0000     0.8631   156.9732
 2093.5000     0.8359   156.9732
 2094.0000     0.8073   156.9732
 2094.5000     0.7899   156.9732
 2095.0000     0.7915   156.9732
 2095.5000     0.7915   156.9732
 2096.0000     0.7912   156.9732
 2096.5000     0.7913   156.9732
 2097.0000     0.7935   156.9732
 2097.5000     0.8004   156.9732
 2098.0000     0.8069   156.9732
 2098.5000     0.8117   156.9732
 2099.0000     0.8527   156.9732
 2099.5000     0.9372   156.9732
 2100.0000     0.9164   156.9732
 2100.5000     0.8927   156.9732
 2101.0000     0.8658   156.9732
 2101.5000     0.8401   156.9732
 2102.0000     0.8170   156.9732
 2102.5000     0.8085   156.9732
 2103.0000     0.8011   156.9732
 2103.5000     0.7933   156.9732
 2104.0000     0.8091   156.9732
 2104.5000     0.8352   156.9732
 2105.0000     0.8601   156.9732
 2105.5000     0.8996   156.9732
 2106.0000     0.9471   156.9732
 2106.5000     0.9631   156.9732
 2107.0000     0.9472   156.9732
 2107.5000     0.9332   156.9732
 2108.0000     0.9204   156.9732
 2108.5000     0.8864   156.9732
 2109.0000     0.8455   156.9732
 2109.5000     0.8055   156.9732
 2110.0000     0.7674   156.9732
 2110.5000     0.7555   156.9732
 2111.0000     0.7441   156.9732
 2111.5000     0.7335   156.9732
 2112.0000     0.7228   156.9732
 2112.5000     0.7120   156.9732
 2113.0000     0.7012   156.9732
 2113.5000     0.6904   156.9732
 2114.0000     0.6799   156.9732
 2114.5000     0.6690   156.9732
 2115.0000     0.6892   156.9732
 2115.5000     0.7156   156.9732
 2116.0000     0.7159   156.9732
 2116.5000     0.7161   156.9732
 2117.0000     0.7158   156.9732
 2117.5000     0.7164   156.9732
 2118.0000     0.7172   156.9732
 2118.5000     0.7422   156.9732
 2119.0000     0.7673   156.9732
 2119.5000     0.7936   156.9732
 2120.0000     0.8197   156.9732
 2120.5000     0.8412   156.9732
 2121.0000     0.8404   156.9732
 2121.5000     0.8528   156.9732
 2122.0000     0.8719   156.9732
 2122.5000     0.8905   156.9732
 2123.0000     0.9096   156.9732
 2123.5000     0.9140   156.9732
 2124.0000     0.9056   156.9732
 2124.5000     0.8980   156.9732
 2125.0000     0.8908   156.9729
 2125.5000     0.8832   156.9733
 2126.0000     0.8756   156.9733
 2126.5000     0.8669   156.9715
 2127.0000     0.8389   156.9749
 2127.5000     0.8057   156.9809
 2128.0000     0.7714   157.0903
 2128.5000     0.7354   157.1777
 2129.0000     0.7189   157.2783
 2129.5000     0.7352   157.3821
 2130.0000     0.7492   157.4512
 2130.5000     0.7627   157.5471
 2131.0000     0.7771   156.5251
 2131.5000     0.7910   155.2927
 2132.0000     0.8055   154.0395
 2132.5000     0.8191   152.7967
 2133.0000     0.8323   151.5509
 2133.5000     0.8648   150.4495
 2134.0000     0.9193   149.7303
 2134.5000     0.9626   148.9959
 2135.0000     0.9013   148.2427
 2135.5000     0.8490   147.9205
 2136.0000     0.7946   147.9511
 2136.5000     0.7437   147.9607
 2137.0000     0.7628   147.9612
 2137.5000     0.7815   147.9706
 2138.0000     0.7836   147.9774
 2138.5000     0.7611   147.9833
 2139.0000     0.7397   147.9901
 2139.5000     0.7193   147.9963
 2140.0000     0.6980   148.0026
 2140.5000     0.6760   148.0088
 2141.0000     0.6648   148.0150
 2141.5000     0.6657   148.0212
 2142.0000     0.6663   148.0274
 2142.5000     0.6659   148.0337
 2143.0000     0.7088   148.0399
 2143.5000     0.7674   148.0461
 2144.0000     0.8271   148.0523
 2144.5000     0.8257   148.0585
 2145.0000     0.8028   148.0648
 2145.5000     0.7797   148.0710
 2146.0000     0.7573   148.0772
