~VERSION INFORMATION
 VERS.                2.0:   CWLS LOG ASCII STANDARD - VERSION 2.0
 WRAP.                 NO:   ONE LINE PER DEPTH STEP
~WELL INFORMATION
#MNEM.UNIT      DATA TYPE    INFORMATION
#----------   ------------   ------------------------------
 STRT.F           30.0000:   START DEPTH
 STOP.F          562.0000:   STOP DEPTH
 STEP.F            0.5000:   STEP LENGTH
 NULL.          -999.2500:   NO VALUE
 COMP. LAWRENCE/ALLISON INC:   COMPANY
 WELL. 81-16 SHX-SX-10 #10-10:   WELL
 FLD .             TEAPOT:   FIELD
 LOC .      S10 T38N R78W:   LOCATION
 CNTY.            NATRONA:   COUNTY
 STAT.            WYOMING:   STATE
 CTRY. UNITED STATES OF AMERICA:   COUNTRY
 SRVC.           Gearhart:   SERVICE COMPANY
 DATE.        03-JUN-1987:   LOGDATE
 API .       490251113300:   API NUMBER
~CURVE INFORMATION
#MNEM.UNIT       API CODE    CURVE DESCRIPTION
#----------   ------------   ------------------------------
 DEPT.F                  :   
 GRR .GAPI   07 310 01 00:   GAMMA RAY FROM RES. LOG.
 RILD.OHMM   07 120 46 00:   INDUCTION LOG DEEP RESISTIVITY
 RILM.OHMM   07 120 44 00:   INDUCTION LOG MEDIUM RESISTIVITY
~PARAMETER INFORMATION
#MNEM.UNIT          VALUE    DESCRIPTION
#----------   ------------   ------------------------------
 PD  .                 GL:   PERMANENT DATUM
 EPD .F              5169:   ELEVATION PERMANENT DATUM
 LMF .                 KB:   LOG MEASURED FROM
 DAPD.F                 8:   FEET ABOVE PERMANENT DATUM
 DMF .                 KB:   DRILLING MEASURED FROM
 EKB .F              5177:   KELLING BUSHING
 EDF .F              5175:   DRILLING FLOOR
 EGL .F              5169:   GROUND LEVEL
 DATE.             6-3-87:   RUN DATE
 RUN .                  1:   RUN NUMBER
 DD  .F               570:   DEPTH DRILLER
 DL  .F               570:   DEPTH LOGGER
 BLI .F               562:   BOTTOM LOG INTERVAL
 TLI .F                30:   TOP LOG INTERVAL
 CS  .IN            8.625:   CASING SIZE
 CBD .F                50:   CASING BOTTOM DRILLER
 CBL .F                49:   CASING BOTTOM LOGGER
 BS  .IN            7.875:   BIT SIZE
 BSD .F               570:   BIT SIZE AT DEPTH
 DFT .               FOAM:   DRILLING FLUID TYPE
 TCS .HRS            0930:   TIME CURCULATED STOPPED
 TLAB.HRS            1101:   TIME LOGGER AT BOTTOM
 MRT .F                80:   MAXIMUM RECORDED TEMPERATURE
 LUN .               7597:   LOGGING UNIT NUMBER
 LUL .           GILLETTE:   LOGGING UNIT LOCATION
 ENGI. WEATHERMON/JOHNSTON:   RECORDING ENGINEER
 WITN.             STRONG:   WITNESSED BY
 CLNT.            A2DTECH:   CLIENT CODE
 ORIG.       2", 5" PRINT:   ORIGIN OF DATA
 UWI .       490251113300:   UNIQUE WELL ID
 DICO. A2D Technologies, Inc.:   DIGITIZING COMPANY
~OTHER INFORMATION
~A   DEPT       GRR      RILD       RILM   
# ...
  212.0000   112.5181     6.2299     6.0555
  212.5000   108.3519     6.2712     5.7425
  213.0000   108.3560     6.3088     5.6163
  213.5000   109.0192     6.3469     5.6521
  214.0000   110.6733     6.3469     5.7467
  214.5000   112.3229     6.4864     6.0752
  215.0000   114.0141     6.7837     6.4224
  215.5000   114.7750     7.1040     6.9248
  216.0000   114.3637     7.3426     7.5953
  216.5000   113.6595     7.5973     7.9746
  217.0000   112.9516     7.8618     8.0682
  217.5000   112.4451     8.1356     8.1630
  218.0000   113.0813     8.4189     8.2588
  218.5000   115.2274     8.5889     8.3558
  219.0000   116.1072     8.7169     8.4539
  219.5000   116.1249     8.8469     8.5532
  220.0000   116.1192     8.9789     8.6536
  220.5000   116.1286     9.0969     8.7552
  221.0000   116.8335     9.1763     8.8580
  221.5000   119.1620     9.2563     8.9620
  222.0000   120.8884     9.3371     9.0673
  222.5000   119.7690     9.4185     9.1738
  223.0000   118.6980     9.5007     9.2811
  223.5000   118.2735     9.5433     9.3916
  224.0000   117.8375     9.5801     9.4501
  224.5000   118.6346     9.6169     9.5055
  225.0000   118.1644     9.6539     9.5607
  225.5000   116.1268     9.6910     9.6162
  226.0000   115.3343     9.7286     9.6721
  226.5000   115.8591     9.7656     9.7283
  227.0000   115.3498     9.7846     9.7850
  227.5000   113.8761     9.6893     9.8415
  228.0000   113.2638     9.6065     9.8763
  228.5000   114.3589     9.5244     9.6519
  229.0000   116.1041     9.4430     9.4683
  229.5000   117.8655     9.3622     9.2883
  230.0000   119.7479     9.2825     9.1116
  230.5000   122.1233     9.1971     8.9384
  231.0000   124.5436     9.1080     8.7681
  231.5000   126.2402     9.0199     8.6025
  232.0000   125.8166     8.7736     8.4318
  232.5000   123.4725     8.4532     8.2653
  233.0000   121.2361     8.1446     8.1016
  233.5000   119.7983     7.7390     7.8263
  234.0000   120.6278     7.1786     7.4749
  234.5000   121.3925     6.6239     7.1393
  235.0000   120.9289     6.0054     6.8430
  235.5000   120.4339     5.4549     6.2792
  236.0000   120.5175     4.9310     5.6971
  236.5000   121.0725     4.4243     5.1420
  237.0000   120.8924     3.9711     4.5835
  237.5000   119.5264     3.5642     4.0209
  238.0000   118.1600     3.3081     3.5274
  238.5000   117.6483     3.0878     3.2667
  239.0000   116.5150     2.9902     3.0461
  239.5000   113.2852     2.9902     2.8404
  240.0000   109.8748     3.0775     2.7996
  240.5000   107.9458     3.1686     2.8528
  241.0000   108.7693     3.2544     3.0096
  241.5000   112.2928     3.7325     3.4086
  242.0000   115.6862     4.2410     3.8606
  242.5000   119.0797     4.8154     4.3725
  243.0000   122.4800     5.3900     4.9523
  243.5000   125.8701     5.9770     5.5417
  244.0000   126.7841     6.6278     6.1079
  244.5000   126.9547     7.0519     6.7790
  245.0000   126.2786     7.2095     6.9483
  245.5000   125.6189     7.3088     7.0389
  246.0000   124.7458     7.3088     7.0070
  246.5000   122.9482     7.2282     6.9548
  247.0000   121.1996     7.1505     6.9077
  247.5000   120.9643     7.0736     6.8430
  248.0000   123.2277     6.8728     6.6244
  248.5000   126.2117     6.5783     6.3396
  249.0000   128.9121     6.2964     6.0670
  249.5000   131.2032     6.0266     5.8061
  250.0000   133.5661     5.7684     5.5564
  250.5000   133.6780     5.5212     5.3175
  251.0000   132.4694     5.4600     5.2583
  251.5000   131.1687     5.5658     5.3210
  252.0000   129.8845     5.8437     5.4652
  252.5000   129.4226     6.1125     5.7204
  253.0000   130.0159     6.3773     5.9894
  253.5000   131.0261     6.6334     6.2707
  254.0000   132.9095     6.8997     6.5650
  254.5000   134.7878     7.1760     6.8731
  255.0000   136.5072     7.4491     7.1957
  255.5000   136.0232     7.7237     7.4437
  256.0000   133.6122     7.9940     7.6837
  256.5000   131.2737     8.2738     7.9327
  257.0000   128.9445     8.4970     8.1893
  257.5000   126.7557     8.7065     8.4544
  258.0000   126.8323     8.8220     8.4962
  258.5000   129.3141     8.7137     8.4309
  259.0000   131.7197     8.6292     8.3797
  259.5000   132.8220     8.5455     8.2997
  260.0000   131.5276     8.4626     8.0883
  260.5000   130.8488     8.3050     7.8823
  261.0000   131.0046     8.0569     7.6815
  261.5000   131.1588     7.8163     7.5919
  262.0000   130.1687     7.5829     7.3233
  262.5000   128.2649     7.3564     7.0940
  263.0000   127.1351     7.1367     6.8719
  263.5000   127.6656     6.9235     6.6569
  264.0000   130.7871     6.7170     6.4487
  264.5000   134.8405     6.5146     6.2469
  265.0000   138.8576     6.3798     6.0513
  265.5000   137.8416     6.2877     5.8620
  266.0000   135.8985     6.3187     5.7229
  266.5000   134.4639     6.3419     5.7229
  267.0000   134.5013     6.5156     5.9772
  267.5000   134.4442     6.7155     6.2757
  268.0000   132.2751     6.9889     6.5891
  268.5000   129.9615     7.2852     6.9077
  269.0000   130.7822     7.5939     7.2208
  269.5000   133.4385     7.9158     7.5381
  270.0000   135.7820     8.2514     7.8693
  270.5000   134.9752     8.4104     8.0559
  271.0000   133.7070     8.5429     8.2412
  271.5000   134.1364     8.6770     8.4307
  272.0000   134.3476     8.8130     8.5819
  272.5000   131.2742     8.9888     8.6018
  273.0000   128.1670     8.9644     8.6218
  273.5000   127.8955     8.9341     8.6419
  274.0000   128.4916     8.9895     8.6575
  274.5000   129.1131     8.9596     8.5644
  275.0000   128.7025     8.9305     8.4962
  275.5000   128.0023     8.9016     8.4960
  276.0000   127.2880     8.8727     8.4961
  276.5000   126.7923     8.8439     8.4962
  277.0000   127.8021     8.8172     8.4962
  277.5000   131.0598     8.7967     8.4960
  278.0000   134.2361     8.7763     8.4981
  278.5000   137.3916     8.7560     8.5028
  279.0000   139.9764     8.7357     8.4100
  279.5000   141.4045     8.7154     8.4170
  280.0000   140.8686     8.6952     8.4168
  280.5000   137.3983     8.6751     8.4167
  281.0000   135.7275     8.6575     8.3976
  281.5000   135.9337     8.5135     8.2452
  282.0000   136.2236     8.3620     8.0958
  282.5000   136.7324     8.2132     7.9491
  283.0000   139.2227     8.0671     7.8051
  283.5000   142.6559     7.9235     7.6638
  284.0000   143.9974     7.7825     7.5181
  284.5000   142.1568     7.6441     7.2938
  285.0000   140.8529     7.4575     7.0286
  285.5000   140.4569     7.2426     6.7730
  286.0000   140.0536     6.9667     6.5268
  286.5000   139.6433     6.6691     6.2936
  287.0000   138.2885     6.3837     6.1078
  287.5000   136.6488     6.1131     5.6974
  288.0000   136.1257     6.1125     5.3080
  288.5000   135.9677     6.1125     5.2091
  289.0000   135.8078     6.1271     5.3709
  289.5000   134.8048     6.1571     5.7166
  290.0000   131.9422     6.3554     6.0845
  290.5000   129.2529     6.6999     6.4761
  291.0000   129.1803     7.0633     6.8930
  291.5000   129.1226     7.4485     7.1817
  292.0000   127.4600     7.8846     7.5181
  292.5000   125.9490     7.8515     7.5181
  293.0000   126.9989     7.8077     7.5181
  293.5000   128.4022     7.7647     7.3779
  294.0000   128.5540     7.6364     7.0253
  294.5000   125.6707     7.1406     6.6071
  295.0000   125.4348     6.5903     6.2139
  295.5000   129.1083     6.2946     5.8440
  296.0000   133.1672     6.1125     5.4962
  296.5000   133.6769     6.1125     5.3080
  297.0000   134.0199     6.1125     5.3059
  297.5000   135.0130     6.2286     5.5360
  298.0000   135.4539     6.6211     5.9123
  298.5000   133.5430     7.0743     6.3136
  299.0000   131.6502     7.5586     6.7415
  299.5000   129.7317     8.0761     7.1984
  300.0000   127.5399     8.6289     7.6894
  300.5000   124.9570     8.9944     8.1604
  301.0000   123.6036     9.1669     8.5782
  301.5000   122.8026     9.3343     9.0109
  302.0000   122.2272     9.5514     9.1598
  302.5000   121.2139     9.6922     9.2289
