~VERSION INFORMATION
 VERS.                2.0:   CWLS LOG ASCII STANDARD - VERSION 2.0
 WRAP.                 NO:   ONE LINE PER DEPTH STEP
~WELL INFORMATION
#MNEM.UNIT      DATA TYPE    INFORMATION
#----------   ------------   ------------------------------
 STRT.F           10.0000:   START DEPTH
 STOP.F          570.0000:   STOP DEPTH
 STEP.F            0.5000:   STEP LENGTH
 NULL.          -999.2500:   NO VALUE
 COMP. BROWN JOHN E&C INC:   COMPANY
 WELL.   STX 10 #85-14-10:   WELL
 FLD .             TEAPOT:   FIELD
 LOC .      S10 T38N R78W:   LOCATION
 CNTY.            NATRONA:   COUNTY
 STAT.            WYOMING:   STATE
 CTRY. UNITED STATES OF AMERICA:   COUNTRY
 SRVC.           Gearhart:   SERVICE COMPANY
 DATE.        29-JUN-1986:   LOGDATE
 API .       490251108400:   API NUMBER
~CURVE INFORMATION
#MNEM.UNIT       API CODE    CURVE DESCRIPTION
#----------   ------------   ------------------------------
 DEPT.F                  :   
 LL  .OHMM   07 220 00 00:   LATEROLOG RES.
 RILD.OHMM   07 120 46 00:   INDUCTION LOG DEEP RESISTIVITY
 RILM.OHMM   07 120 44 00:   INDUCTION LOG MEDIUM RESISTIVITY
 SPR .MV     07 010 01 00:   SPONTANEOUS POTENTIAL
 GRR .GAPI   07 310 01 00:   GAMMA RAY FROM RES. LOG.
~PARAMETER INFORMATION
#MNEM.UNIT          VALUE    DESCRIPTION
#----------   ------------   ------------------------------
 PD  .                 GL:   PERMANENT DATUM
 EPD .F              5191:   ELEVATION PERMANENT DATUM
 LMF .                 KB:   LOG MEASURED FROM
 DAPD.F                 5:   FEET ABOVE PERMANENT DATUM
 DMF .                 KB:   DRILLING MEASURED FROM
 EKB .F              5196:   KELLING BUSHING
 EGL .F              5191:   GROUND LEVEL
 DATE.          6-29-1986:   RUN DATE
 RUN .                  1:   RUN NUMBER
 DD  .F               579:   DEPTH DRILLER
 DL  .F               572:   DEPTH LOGGER
 BLI .F               570:   BOTTOM LOG INTERVAL
 CS  .IN            8.625:   CASING SIZE
 CBD .F                47:   CASING BOTTOM DRILLER
 CBL .F                46:   CASING BOTTOM LOGGER
 BS  .IN            7.875:   BIT SIZE
 BSD .F               579:   BIT SIZE AT DEPTH
 DFT .                MUD:   DRILLING FLUID TYPE
 DFD .                8.9:   DRILLING FLUID DENSITY
 DFV .                 32:   DRILLING FLUID VISCOSITY
 DFPH.                  9:   DRILLING FLUID PH
 MSS .           FLOWLINE:   MUD SAMPLE SOURCE
 RMS .OHMM            1.3:   RESISTIVITY MUD SAMPLE
 MST .F                62:   MUD SAMPLE TEMPERATURE
 RMF .OHMM             .9:   RESISTIVITY MUD FILTRATE SAMPLE
 MFST.F                63:   MUD FILTRATE SAMPLE TEMPERATURE
 RMC .OHMM            1.5:   RESISTIVITY MUD CAKE
 MCST.F                63:   MUD CAKE SAMPLE TEMPERATURE
 MFSS.               MEAS:   MUD FILTRATE SAMPLE SOURCE
 MCSS.               MEAS:   MUD CAKE SAMPLE SOURCE
 RMB .OHMM            1.3:   RESISTIVITY MUD AT BHT
 BHT .F                64:   BOTTOM HOLE TEMPERATURE
 TCS .HRS            1300:   TIME CURCULATED STOPPED
 TLAB.HRS            1600:   TIME LOGGER AT BOTTOM
 MRT .F                64:   MAXIMUM RECORDED TEMPERATURE
 LUN .               7609:   LOGGING UNIT NUMBER
 LUL .           GILLETTE:   LOGGING UNIT LOCATION
 ENGI.             WAGNER:   RECORDING ENGINEER
 WITN.            JENNING:   WITNESSED BY
 CLNT.            A2DTECH:   CLIENT CODE
 ORIG.      2" & 5" PRINT:   ORIGIN OF DATA
 UWI .       490251108400:   UNIQUE WELL ID
 DICO. A2D Technologies, Inc.:   DIGITIZING COMPANY
~OTHER INFORMATION
~A   DEPT       LL       RILD       RILM        SPR         GRR  
# ...
  193.0000     7.8219     8.9131     8.5112   -34.0943    86.0271
  193.5000     7.5409     8.7197     8.3329   -34.1183    84.8049
  194.0000     7.3662     8.5306     8.1583   -36.7933    84.2799
  194.5000     7.2001     8.3455     7.9874   -40.1313    89.3645
  195.0000     7.0782     8.1910     7.8201   -38.0576    95.0872
  195.5000     7.3706     8.1147     7.7424   -36.4048    97.1557
  196.0000     7.5477     8.0592     7.7095   -36.4009    96.6313
  196.5000     7.1406     8.0592     7.6922   -33.4198    93.3427
  197.0000     7.4131     7.9844     7.7453   -31.7196    92.3350
  197.5000     7.5501     8.0696     7.7816   -33.2997    91.5729
  198.0000     7.4471     8.1279     7.8181   -34.4289    88.9184
  198.5000     7.4106     8.1868     7.8547   -35.1959    86.3458
  199.0000     7.5393     8.2469     7.8916   -35.6766    85.3959
  199.5000     7.6208     8.2913     7.9286   -34.4473    84.6865
  200.0000     7.5504     8.3698     7.9658   -34.8243    83.9615
  200.5000     7.3419     8.4595     7.9975   -35.5054    83.2483
  201.0000     7.4968     8.5461     8.0414   -34.0782    85.0956
  201.5000     7.6727     8.6335     8.0855   -34.9274    89.4905
  202.0000     7.8527     8.7218     8.1299   -34.9028    92.7261
  202.5000     7.9869     8.8110     8.2917   -34.0889    93.3132
  203.0000     8.2590     8.9011     8.4099   -36.0426    91.8336
  203.5000     8.4438     8.9402     8.5298   -30.9499    90.8116
  204.0000     8.5341     8.9556     8.6514   -32.1794    90.1375
  204.5000     8.6180     8.9710     8.7646   -31.2563    90.5543
  205.0000     8.7029     8.9864     8.7646   -33.0468    92.0705
  205.5000     8.7646     9.0021     8.7646   -33.5588    93.5641
  206.0000     8.6027     9.0116     8.7543   -36.2110    94.6865
  206.5000     8.2796     8.9539     8.7329   -37.9189    96.6145
  207.0000     7.9902     8.9077     8.7116   -36.3094    97.8510
  207.5000     7.7110     8.8618     8.6903   -32.7879    98.1074
  208.0000     7.6188     8.8161     8.6271   -29.2853    97.7280
  208.5000     7.7294     8.7706     8.5439   -27.5364    97.1207
  209.0000     7.8162     8.7254     8.4615   -30.0615    94.5120
  209.5000     7.9040     8.6805     8.3798   -32.5541    91.6984
  210.0000     7.9928     8.6357     8.2988   -33.8363    90.7224
  210.5000     8.0592     8.6027     8.2872   -33.7470    89.9927
  211.0000     8.0592     8.6659     8.3544   -34.2283    87.9584
  211.5000     7.9104     8.7161     8.4321   -34.0032    86.4212
  212.0000     7.6810     8.7650     8.5112   -32.6212    87.3443
  212.5000     7.4801     8.8429     8.5906   -31.7644    89.3729
  213.0000     7.5412     8.9180     8.6832   -31.5303    91.0824
  213.5000     7.5999     8.9295     8.5981   -31.5667    90.8466
  214.0000     7.6922     8.7456     8.4986   -32.9247    90.1916
  214.5000     7.6007     8.7061     8.4004   -32.3379    90.0283
  215.0000     7.4605     8.6654     8.3033   -31.4931    91.7786
  215.5000     7.3230     8.6252     8.2109   -31.4466    94.4203
  216.0000     7.2063     8.5639     8.1877   -31.8333    97.1826
  216.5000     7.3230     8.4758     8.1516   -32.4718    99.2433
  217.0000     7.4374     8.3887     8.1155   -32.1023    99.6276
  217.5000     7.5536     8.3024     8.0796   -33.4654    97.3070
  218.0000     7.6922     8.2170     7.9844   -34.8948    92.2246
  218.5000     7.6922     8.1325     7.8395   -35.0467    88.3635
  219.0000     7.4866     8.0489     7.7011   -32.7225    87.4398
  219.5000     7.2767     7.9398     7.5651   -30.9594    87.7170
  220.0000     7.0728     7.7422     7.4315   -31.5306    90.4671
  220.5000     6.8781     7.5496     7.3003   -32.0673    93.2685
  221.0000     6.8781     7.3618     7.1714   -32.7297    91.9872
  221.5000     6.7230     7.1786     7.0448   -33.8911    88.7434
  222.0000     6.3634     7.0505     6.9204   -33.9075    85.5120
  222.5000     6.0931     6.9961     6.7982   -32.4319    82.7730
  223.0000     6.2673     6.9425     6.7510   -32.6843    81.5592
  223.5000     6.4447     7.0202     6.8368   -33.1972    82.5712
  224.0000     6.6271     7.0981     6.9230   -33.9738    85.6385
  224.5000     6.8143     7.1769     7.0102   -34.4813    88.6985
  225.0000     6.9106     7.2565     7.0985   -33.8240    91.6001
  225.5000     7.0076     7.3371     7.1885   -33.7019    90.7233
  226.0000     7.1061     7.4185     7.2260   -33.9028    86.9405
  226.5000     7.2063     7.5009     7.2511   -34.2463    81.9853
  227.0000     7.0732     7.5841     7.2761   -34.8360    80.4365
  227.5000     7.1182     7.6683     7.3012   -36.1418    81.3004
  228.0000     7.1947     7.7535     7.3264   -34.5901    84.4515
  228.5000     7.2740     7.8391     7.4379   -34.6684    88.1337
  229.0000     7.4148     7.9110     7.5692   -35.5890    90.3223
  229.5000     7.6199     7.9123     7.7059   -35.6862    92.1613
  230.0000     7.5003     7.9844     7.7642   -34.7246    92.9582
  230.5000     7.2920     7.9844     7.6922   -34.6097    91.6797
  231.0000     7.0911     7.8840     7.5707   -34.5266    89.3540
  231.5000     6.8959     7.7567     7.4174   -33.6263    89.0146
  232.0000     6.7961     7.6314     7.2671   -32.7212    88.9658
  232.5000     6.7510     7.5082     7.1199   -34.5174    89.2650
  233.0000     6.8154     7.2819     6.9756   -33.3257    89.5413
  233.5000     6.7507     7.0322     6.7633   -31.7381    90.3045
  234.0000     6.7534     6.7911     6.4650   -33.4008    91.7741
  234.5000     6.4172     6.5434     6.1800   -34.2622    94.8316
  235.0000     6.1482     6.2953     5.9073   -33.7475    95.6736
  235.5000     5.8925     6.0557     5.6466   -31.3588    92.2116
  236.0000     5.6474     5.8255     5.3977   -31.5983    88.5020
  236.5000     5.4482     5.6040     5.1596   -35.3430    88.0869
  237.0000     5.3976     5.4992     5.0097   -33.2571    91.5653
  237.5000     5.5314     5.4992     4.9633   -29.9894    92.2982
  238.0000     5.9340     5.6014     5.0097   -30.7593    90.7525
  238.5000     6.3840     5.7110     5.2763   -33.9387    88.3103
  239.0000     6.7165     6.0006     5.6063   -34.3462    87.1232
  239.5000     6.9146     6.4608     5.9570   -34.7212    86.7265
  240.0000     7.1062     6.7736     6.3297   -34.1788    85.9203
  240.5000     7.3439     6.9239     6.7510   -32.5306    85.0044
  241.0000     7.3221     7.0812     6.9876   -30.8497    83.4889
  241.5000     7.2870     7.2420     7.2490   -31.9558    83.4220
  242.0000     7.2512     7.4061     7.5202   -32.5901    84.9966
  242.5000     7.2063     7.5760     7.7642   -32.6792    89.2200
  243.0000     7.3047     7.7106     7.9104   -31.7235    92.3860
  243.5000     7.3601     7.8371     7.9546   -32.0134    92.8872
  244.0000     7.5064     7.9649     8.0391   -32.7499    90.4312
  244.5000     7.6556     8.0948     8.1245   -30.8251    87.7413
  245.0000     7.8079     8.2878     8.2109   -29.6965    87.3017
  245.5000     7.9641     8.3697     8.2878   -29.0750    90.4212
  246.0000     8.1367     8.3831     8.2878   -28.4614    95.4100
  246.5000     8.1118     8.3966     8.2372   -28.4822   100.5781
  247.0000     8.0675     8.4101     8.1990   -27.3046   101.4633
  247.5000     8.0235     8.4235     8.1609   -28.6553    98.3336
  248.0000     7.9846     8.4368     8.1347   -29.4657    94.6032
  248.5000     8.0844     8.4711     8.2878   -27.6546    91.1986
  249.0000     8.1758     8.5607     8.4330   -27.4202    92.9463
  249.5000     8.2684     8.6512     8.6098   -28.8014    95.8304
  250.0000     8.3619     8.7428     8.5975   -27.6940    95.4400
  250.5000     8.4584     8.8352     8.6832   -26.2827    93.0265
  251.0000     8.5229     8.9287     8.7646   -26.8071    91.1702
  251.5000     8.6027     9.0131     8.7645   -27.4156    91.2781
  252.0000     8.5157     8.9736     8.7646   -25.4316    92.8801
  252.5000     8.4445     8.9179     8.7647   -25.1152    94.4699
  253.0000     8.3341     8.8625     8.7646   -26.8137    93.9468
  253.5000     8.2142     8.7733     8.6537   -24.2206    93.2481
