~VERSION INFORMATION
 VERS.                2.0:   CWLS LOG ASCII STANDARD - VERSION 2.0
 WRAP.                 NO:   ONE LINE PER DEPTH STEP
~WELL INFORMATION
#MNEM.UNIT      DATA TYPE    INFORMATION
#----------   ------------   ------------------------------
 STRT.F            0.0000:   START DEPTH
 STOP.F          789.0000:   STOP DEPTH
 STEP.F            0.5000:   STEP LENGTH
 NULL.          -999.2500:   NO VALUE
 COMP. U S NAVY-INTEX OIL:   COMPANY
 WELL.        NPR #35-S-2:   WELL
 FLD .             TEAPOT:   FIELD
 LOC .       S2 T38N R78W:   LOCATION
 CNTY.            NATRONA:   COUNTY
 STAT.            WYOMING:   STATE
 CTRY. UNITED STATES OF AMERICA:   COUNTRY
 SRVC.      NL McCullough:   SERVICE COMPANY
 DATE.        14-AUG-1961:   LOGDATE
 API .       490250644100:   API NUMBER
~CURVE INFORMATION
#MNEM.UNIT       API CODE    CURVE DESCRIPTION
#----------   ------------   ------------------------------
 DEPT.F                  :   
 GR  .GAPI   42 310 01 00:   GAMMA RAY
 NPHI.DEC    42 890 00 00:   NEUTRON POROSITY
~PARAMETER INFORMATION
#MNEM.UNIT          VALUE    DESCRIPTION
#----------   ------------   ------------------------------
 PD  .                 GL:   PERMANENT DATUM
 EPD .F              5133:   ELEVATION PERMANENT DATUM
 LMF .                 KB:   LOG MEASURED FROM
 DAPD.F                 6:   FEET ABOVE PERMANENT DATUM
 DMF .                 KB:   DRILLING MEASURED FROM
 EKB .F              5139:   KELLING BUSHING
 EGL .F              5133:   GROUND LEVEL
 DATE.        14-AUG-1961:   RUN DATE
 RUN .                  1:   RUN NUMBER
 DD  .F               790:   DEPTH DRILLER
 DL  .F               791:   DEPTH LOGGER
 BLI .F             789.5:   BOTTOM LOG INTERVAL
 BS  .IN            7.875:   BIT SIZE
 BSD .F               790:   BIT SIZE AT DEPTH
 DFT .        OIL EMULSON:   DRILLING FLUID TYPE
 DFD .                9.5:   DRILLING FLUID DENSITY
 TCS .HRS             1.5:   TIME CURCULATED STOPPED
 LUN .               1206:   LOGGING UNIT NUMBER
 ENGI.            JACKSON:   RECORDING ENGINEER
 WITN.          JORGENDEN:   WITNESSED BY
 CLNT.            A2DTECH:   CLIENT CODE
 ORIG.           2" PRINT:   ORIGIN OF DATA
 UWI .       490250644100:   UNIQUE WELL ID
 DICO. A2D Technologies, Inc.:   DIGITIZING COMPANY
~OTHER INFORMATION
~A    DEPT        GR     NPHI   
# ...
  243.0000     5.3605     0.2040
  243.5000     5.1723     0.2031
  244.0000     5.1188     0.1987
  244.5000     5.1960     0.1958
  245.0000     5.4225     0.1966
  245.5000     5.4837     0.2063
  246.0000     5.5560     0.2121
  246.5000     5.7029     0.2132
  247.0000     5.7939     0.2086
  247.5000     5.7941     0.1985
  248.0000     5.7006     0.1920
  248.5000     5.6079     0.1935
  249.0000     5.5570     0.2000
  249.5000     5.6949     0.2029
  250.0000     5.7647     0.2060
  250.5000     5.3187     0.2048
  251.0000     5.3122     0.1951
  251.5000     5.1558     0.1885
  252.0000     5.0621     0.1824
  252.5000     5.0141     0.1749
  253.0000     4.9868     0.1716
  253.5000     5.1127     0.1821
  254.0000     5.2499     0.1847
  254.5000     5.2445     0.1886
  255.0000     5.1307     0.1921
  255.5000     5.0709     0.1952
  256.0000     5.1695     0.1975
  256.5000     5.1772     0.1884
  257.0000     5.1778     0.1824
  257.5000     5.2079     0.1860
  258.0000     5.3061     0.1868
  258.5000     5.3295     0.1886
  259.0000     5.2025     0.1942
  259.5000     5.1166     0.1954
  260.0000     5.1861     0.1938
  260.5000     5.2620     0.1833
  261.0000     5.3161     0.1750
  261.5000     5.2699     0.1712
  262.0000     5.2050     0.1730
  262.5000     5.2583     0.1779
  263.0000     5.3991     0.1829
  263.5000     5.2858     0.1849
  264.0000     5.1044     0.1802
  264.5000     5.1297     0.1705
  265.0000     5.1761     0.1758
  265.5000     5.2109     0.1841
  266.0000     5.1108     0.1907
  266.5000     4.9692     0.1892
  267.0000     5.1661     0.1871
  267.5000     5.2386     0.1877
  268.0000     5.2950     0.1891
  268.5000     5.0921     0.1913
  269.0000     4.9530     0.1927
  269.5000     4.8569     0.1934
  270.0000     4.9322     0.1871
  270.5000     5.0283     0.1885
  271.0000     5.1146     0.1902
  271.5000     5.3137     0.1843
  272.0000     5.3989     0.1822
  272.5000     5.4480     0.1816
  273.0000     5.4614     0.1807
  273.5000     5.6230     0.1736
  274.0000     5.5679     0.1740
  274.5000     5.4478     0.1753
  275.0000     5.3809     0.1764
  275.5000     5.1914     0.1749
  276.0000     5.1226     0.1755
  276.5000     5.1243     0.1808
  277.0000     5.2141     0.1840
  277.5000     5.3612     0.1818
  278.0000     5.3518     0.1767
  278.5000     5.2929     0.1768
  279.0000     5.2311     0.1807
  279.5000     5.2038     0.1897
  280.0000     5.3439     0.1904
  280.5000     5.7612     0.1906
  281.0000     5.7684     0.1878
  281.5000     5.5246     0.1814
  282.0000     5.0658     0.1773
  282.5000     4.8361     0.1830
  283.0000     4.6938     0.1866
  283.5000     4.6730     0.1890
  284.0000     4.6916     0.1836
  284.5000     4.7793     0.1848
  285.0000     5.0120     0.1863
  285.5000     5.2809     0.1885
  286.0000     5.3699     0.1927
  286.5000     5.3813     0.1932
  287.0000     5.3703     0.1951
  287.5000     5.4839     0.2001
  288.0000     5.5273     0.2038
  288.5000     5.6105     0.2037
  289.0000     5.7190     0.2038
  289.5000     5.7746     0.2039
  290.0000     5.6664     0.2025
  290.5000     5.4941     0.1959
  291.0000     5.4741     0.1943
  291.5000     5.4627     0.1913
  292.0000     5.4477     0.1832
  292.5000     5.3564     0.1816
  293.0000     4.8052     0.1787
  293.5000     4.7872     0.1767
  294.0000     4.7674     0.1802
  294.5000     4.7453     0.1865
  295.0000     4.7303     0.1876
  295.5000     4.9650     0.1795
  296.0000     4.8809     0.1738
  296.5000     4.7939     0.1722
  297.0000     5.0110     0.1645
  297.5000     5.1432     0.1680
  298.0000     5.1853     0.1710
  298.5000     5.1175     0.1719
  299.0000     5.0512     0.1740
  299.5000     4.9651     0.1762
  300.0000     5.0676     0.1758
  300.5000     5.3164     0.1728
  301.0000     5.3604     0.1640
  301.5000     5.3293     0.1586
  302.0000     5.1154     0.1569
  302.5000     4.7332     0.1533
  303.0000     4.6357     0.1480
  303.5000     4.6451     0.1465
  304.0000     4.7942     0.1495
  304.5000     5.2332     0.1634
  305.0000     5.5410     0.1696
  305.5000     5.6723     0.1761
  306.0000     5.7042     0.1785
  306.5000     5.6207     0.1762
  307.0000     5.5518     0.1751
  307.5000     5.4083     0.1769
  308.0000     5.2758     0.1832
  308.5000     5.1439     0.1907
  309.0000     4.9731     0.1993
  309.5000     5.0185     0.2038
  310.0000     5.1394     0.2059
  310.5000     5.1825     0.2005
  311.0000     5.0314     0.2022
  311.5000     5.0154     0.2053
  312.0000     4.9970     0.2075
  312.5000     4.9639     0.2086
  313.0000     4.9631     0.2038
  313.5000     5.0195     0.2066
  314.0000     5.0477     0.2086
  314.5000     5.0499     0.2086
  315.0000     5.0026     0.2084
  315.5000     4.8992     0.2055
  316.0000     4.8668     0.1953
  316.5000     5.0713     0.1933
  317.0000     5.2454     0.1950
  317.5000     4.8296     0.1954
  318.0000     4.7859     0.1956
  318.5000     4.7543     0.1955
  319.0000     4.7546     0.1954
  319.5000     4.7865     0.1917
  320.0000     5.0726     0.1771
  320.5000     5.2670     0.1717
  321.0000     5.5193     0.1713
  321.5000     5.2852     0.1744
  322.0000     5.2095     0.1795
  322.5000     5.1921     0.1864
  323.0000     5.3864     0.1872
  323.5000     5.7010     0.1873
  324.0000     5.8608     0.1873
  324.5000     5.8055     0.1833
  325.0000     5.4603     0.1807
  325.5000     5.2915     0.1882
  326.0000     5.1092     0.1908
  326.5000     4.9314     0.1891
  327.0000     4.9240     0.1909
  327.5000     5.1902     0.1972
  328.0000     5.1740     0.2012
  328.5000     5.1515     0.1951
  329.0000     5.1688     0.1939
  329.5000     5.1972     0.1939
  330.0000     5.2050     0.1918
  330.5000     5.4246     0.1909
  331.0000     5.5397     0.1996
  331.5000     5.5248     0.2064
  332.0000     5.5013     0.2118
  332.5000     5.5842     0.2126
  333.0000     5.4184     0.2091
  333.5000     5.3652     0.2068
  334.0000     5.5923     0.2114
  334.5000     5.6550     0.2224
  335.0000     5.7288     0.2280
  335.5000     5.7290     0.2284
  336.0000     5.7292     0.2286
  336.5000     5.7380     0.2258
  337.0000     5.7750     0.2165
  337.5000     5.8584     0.2048
  338.0000     5.8888     0.2001
  338.5000     5.8277     0.1993
  339.0000     5.8211     0.1986
  339.5000     5.8289     0.1913
  340.0000     5.8366     0.1911
  340.5000     5.8368     0.2000
  341.0000     5.5662     0.2025
  341.5000     5.5346     0.2046
  342.0000     5.4551     0.2065
  342.5000     5.1114     0.2073
  343.0000     5.0965     0.2064
  343.5000     5.0414     0.2002
  344.0000     5.0212     0.1904
  344.5000     5.3391     0.1879
  345.0000     5.3393     0.1834
  345.5000     5.2986     0.1802
  346.0000     5.0598     0.1779
  346.5000     4.8840     0.1617
  347.0000     4.8634     0.1602
  347.5000     5.1814     0.1598
  348.0000     5.3122     0.1647
  348.5000     5.4230     0.1694
  349.0000     5.5375     0.1730
  349.5000     5.2832     0.1770
  350.0000     5.1193     0.1803
  350.5000     5.0917     0.1831
  351.0000     5.1751     0.1819
  351.5000     5.2918     0.1807
  352.0000     5.3192     0.1791
  352.5000     5.1001     0.1784
  353.0000     4.9691     0.1777
  353.5000     4.9642     0.1719
  354.0000     5.0540     0.1675
  354.5000     5.0559     0.1661
  355.0000     4.9573     0.1673
  355.5000     5.0089     0.1759
  356.0000     5.1125     0.1776
  356.5000     5.2604     0.1789
  357.0000     5.2581     0.1812
  357.5000     5.0881     0.1788
  358.0000     4.9660     0.1762
  358.5000     5.0012     0.1756
  359.0000     5.2775     0.1786
  359.5000     5.4809     0.1827
  360.0000     5.4660     0.1869
  360.5000     5.0902     0.1921
  361.0000     4.8123     0.1905
  361.5000     4.6647     0.1849
  362.0000     4.5645     0.1824
  362.5000     4.4798     0.1796
  363.0000     4.4671     0.1686
  363.5000     4.5936     0.1655
  364.0000     4.9228     0.1624
