~VERSION INFORMATION
 VERS.                2.0:   CWLS LOG ASCII STANDARD - VERSION 2.0
 WRAP.                 NO:   ONE LINE PER DEPTH STEP
~WELL INFORMATION
#MNEM.UNIT      DATA TYPE    INFORMATION
#----------   ------------   ------------------------------
 STRT.F           70.0000:   START DEPTH
 STOP.F          853.0000:   STOP DEPTH
 STEP.F            0.5000:   STEP LENGTH
 NULL.          -999.2500:   NO VALUE
 COMP. U S NAVY/INTEX OIL CO:   COMPANY
 WELL.     31S-2 NPR #3-2:   WELL
 FLD .             TEAPOT:   FIELD
 LOC .       S2 T38N R78W:   LOCATION
 CNTY.            NATRONA:   COUNTY
 STAT.            WYOMING:   STATE
 CTRY. UNITED STATES OF AMERICA:   COUNTRY
 SRVC.         Lane Wells:   SERVICE COMPANY
 DATE.        17-MAR-1960:   LOGDATE
 API .       490250648000:   API NUMBER
~CURVE INFORMATION
#MNEM.UNIT       API CODE    CURVE DESCRIPTION
#----------   ------------   ------------------------------
 DEPT.F                  :   
 ASN .OHMM   05 041 16 00:   AMPLIFIED SHORT NORMAL 16"
 CILD.MMHO   05 110 46 00:   CONDUCTIVITY INDUCTION LOG DEEP
 ILD .OHMM   05 120 46 00:   INDUCTION LOG DEEP
 SPR .MV     05 010 01 00:   SPONTANEOUS POTENTIAL FROM RES.
~PARAMETER INFORMATION
#MNEM.UNIT          VALUE    DESCRIPTION
#----------   ------------   ------------------------------
 PD  .                 GL:   PERMANENT DATUM
 EPD .F              5118:   ELEVATION PERMANENT DATUM
 LMF .                 KB:   LOG MEASURED FROM
 DAPD.F                 5:   FEET ABOVE PERMANENT DATUM
 DMF .                 KB:   DRILLING MEASURED FROM
 EKB .F              5123:   KELLING BUSHING
 EGL .F              5118:   GROUND LEVEL
 DATE.        17-MAR-1960:   RUN DATE
 RUN .                  1:   RUN NUMBER
 DD  .F               860:   DEPTH DRILLER
 DL  .F               855:   DEPTH LOGGER
 BLI .F               853:   BOTTOM LOG INTERVAL
 TLI .F                70:   TOP LOG INTERVAL
 CS  .IN            8.625:   CASING SIZE
 CBD .F                12:   CASING BOTTOM DRILLER
 BS  .IN            7.875:   BIT SIZE
 BSD .F               860:   BIT SIZE AT DEPTH
 DFT .  GEL- OIL EMULSION:   DRILLING FLUID TYPE
 DFD .                9.7:   DRILLING FLUID DENSITY
 DFV .                 40:   DRILLING FLUID VISCOSITY
 MSS .    CIRC.- FLOWLINE:   MUD SAMPLE SOURCE
 RMS .OHMM           1.75:   RESISTIVITY MUD SAMPLE
 MST .F                60:   MUD SAMPLE TEMPERATURE
 RMF .OHMM            1.2:   RESISTIVITY MUD FILTRATE SAMPLE
 MFST.F                60:   MUD FILTRATE SAMPLE TEMPERATURE
 RMC .OHMM            2.4:   RESISTIVITY MUD CAKE
 MCST.F                60:   MUD CAKE SAMPLE TEMPERATURE
 MFSS.                MUD:   MUD FILTRATE SAMPLE SOURCE
 MCSS.              PRESS:   MUD CAKE SAMPLE SOURCE
 RMB .OHMM            1.5:   RESISTIVITY MUD AT BHT
 BHT .F                70:   BOTTOM HOLE TEMPERATURE
 MRT .F                70:   MAXIMUM RECORDED TEMPERATURE
 LUN .            HL 4474:   LOGGING UNIT NUMBER
 LUL .             CASPER:   LOGGING UNIT LOCATION
 ENGI.             NELSON:   RECORDING ENGINEER
 WITN.   JORGENSEN-HUDSON:   WITNESSED BY
 CLNT.            A2DTECH:   CLIENT CODE
 ORIG.        2" 5" PRINT:   ORIGIN OF DATA
 UWI .       490250648000:   UNIQUE WELL ID
 DICO. A2D Technologies, Inc.:   DIGITIZING COMPANY
~OTHER INFORMATION
~A   DEPT        ASN      CILD         ILD      SPR   
# ...
  143.0000     4.6617   238.6899     4.9980   -39.0592
  143.5000     4.6957   237.3419     5.0094   -39.1958
  144.0000     4.7338   237.3555     5.0652   -39.2577
  144.5000     4.7565   234.6460     5.0649   -39.3323
  145.0000     4.7899   232.8441     5.0736   -39.3323
  145.5000     4.8107   230.5885     5.1321   -39.4689
  146.0000     4.8106   228.3329     5.1318   -39.4689
  146.5000     4.8105   226.5310     5.1315   -39.6055
  147.0000     4.8104   225.1831     5.1311   -39.6055
  147.5000     4.8104   222.9274     5.1987   -39.6055
  148.0000     4.8156   221.1256     5.2663   -39.6055
  148.5000     4.8667   219.7776     5.2660   -39.6055
  149.0000     4.9594   217.5220     5.2901   -39.6055
  149.5000     5.0142   215.7201     5.3341   -39.6055
  150.0000     5.0814   213.0106     5.4008   -39.6055
  150.5000     5.1351   212.1165     5.4005   -39.6055
  151.0000     5.2065   210.3147     5.4681   -39.6055
  151.5000     5.2847   207.6051     5.5357   -39.5640
  152.0000     5.3722   205.3495     5.5353   -39.3323
  152.5000     5.4800   204.9092     5.4670   -39.1958
  153.0000     5.6509   203.5613     5.3988   -39.0592
  153.5000     5.6915   202.2133     5.3142   -39.0592
  154.0000     5.6779   202.6808     5.1263   -39.0592
  154.5000     5.6778   203.6021     5.1260   -39.0924
  155.0000     5.6705   206.7927     5.0442   -39.3323
  155.5000     5.6480   208.6218     4.9215   -39.4083
  156.0000     5.6098   210.4508     4.8533   -39.6055
  156.5000     5.4206   215.0030     4.7741   -39.6055
  157.0000     5.2449   218.1937     4.6487   -39.8140
  157.5000     5.0804   222.7458     4.5488   -40.0402
  158.0000     4.9103   228.2057     4.4280   -40.2883
  158.5000     4.6723   235.0273     4.3080   -40.4927
  159.0000     4.4018   243.2103     4.2108   -40.6980
  159.5000     4.1014   254.1163     4.0982   -40.6980
  160.0000     3.9312   268.1999     4.0353   -40.6980
  160.5000     3.6688   277.2905     3.9408   -40.6980
  161.0000     3.5943   274.1271     3.9694   -40.6980
  161.5000     3.5330   269.6021     4.0343   -40.6980
  162.0000     3.6008   265.0771     4.1255   -40.6853
  162.5000     3.7319   256.0137     4.3054   -40.4249
  163.0000     4.1299   249.6731     4.4617   -40.2328
  163.5000     4.5797   241.9713     4.6181   -40.1431
  164.0000     4.9476   236.0848     4.8478   -39.8786
  164.5000     5.2423   230.6519     5.0250   -39.6906
  165.0000     5.3833   222.9501     5.1551   -39.6055
  165.5000     5.4730   216.1559     5.3903   -39.6055
  166.0000     5.5677   208.9076     5.4678   -39.4689
  166.5000     5.6447   201.2057     5.6614   -39.4693
  167.0000     5.7313   195.3193     5.7289   -39.6055
  167.5000     5.8796   189.4326     5.8328   -39.6487
  168.0000     6.0239   183.5461     5.9321   -39.8786
  168.5000     6.1490   181.7444     5.9996   -39.9646
  169.0000     6.2729   180.3963     6.0673   -40.0543
  169.5000     6.4139   176.7791     6.0669   -40.1517
  170.0000     6.4971   173.1619     6.0665   -40.1517
  170.5000     6.5440   172.7216     6.0046   -40.1517
  171.0000     6.5575   172.7353     5.9300   -40.1517
  171.5000     6.5092   173.6566     5.8617   -40.2883
  172.0000     6.3539   177.3011     5.7373   -40.2883
  172.5000     6.1801   180.9455     5.6527   -40.2883
  173.0000     6.0252   184.5900     5.5210   -40.2146
  173.5000     5.8652   190.0500     5.4274   -40.1517
  174.0000     5.7175   194.6021     5.3827   -40.0152
  174.5000     5.5108   200.5158     5.2482   -39.8090
  175.0000     5.3042   206.8836     5.1121   -39.7193
  175.5000     5.0845   215.0666     5.0438   -39.6055
  176.0000     4.8608   219.1648     4.8886   -39.5399
  176.5000     4.5959   225.9865     4.7995   -39.3323
  177.0000     4.3304   235.5310     4.6352   -39.6055
  177.5000     4.1007   247.3448     4.5262   -39.8035
  178.0000     3.8798   253.7127     4.3456   -39.8786
  178.5000     3.7956   260.0802     4.2945   -40.0152
  179.0000     3.7749   265.0862     4.2262   -39.8786
  179.5000     3.8588   265.0998     4.2939   -39.7316
  180.0000     3.9539   262.8442     4.4293   -39.4689
  180.5000     4.1139   258.3193     4.5649   -39.2791
  181.0000     4.2296   254.2481     4.7122   -39.0592
  181.5000     4.3461   250.6309     4.8359   -39.3323
  182.0000     4.5072   246.5598     4.9361   -39.5181
  182.5000     4.5931   241.5809     5.0481   -39.8832
  183.0000     4.7035   237.0560     5.1067   -40.2883
  183.5000     4.8055   232.0772     5.1063   -40.6065
  184.0000     4.8248   227.5522     5.1060   -40.6980
  184.5000     4.8325   227.5658     5.1056   -40.3857
  185.0000     4.8188   227.5794     5.0102   -40.0698
  185.5000     4.8135   227.5930     4.8975   -39.6055
  186.0000     4.7900   227.6067     4.7649   -39.3851
  186.5000     4.6965   229.8895     4.6478   -39.1589
  187.0000     4.6234   230.8109     4.5596   -39.0592
  187.5000     4.5336   233.0938     4.4016   -39.0592
  188.0000     4.3540   239.4613     4.2663   -39.0592
  188.5000     4.0587   245.8291     4.1518   -39.0592
  189.0000     3.7464   259.0045     3.9305   -39.0592
  189.5000     3.4806   278.5339     3.7245   -39.0592
  190.0000     3.0678   297.1560     3.5394   -39.0592
  190.5000     2.8371   327.1241     3.3633   -39.0592
  191.0000     2.8041   331.2224     3.2670   -39.0592
  191.5000     2.8567   333.9590     3.2666   -39.0592
  192.0000     2.9319   321.7186     3.4085   -39.0592
  192.5000     3.0711   302.6704     3.6328   -39.0592
  193.0000     3.3200   287.7064     3.8770   -39.0592
  193.5000     3.6644   274.1044     4.0126   -39.0592
  194.0000     3.9550   264.5871     4.1590   -39.0592
  194.5000     4.0617   253.2541     4.2836   -39.0592
  195.0000     4.1119   249.6369     4.4826   -39.0592
  195.5000     4.1452   248.2890     4.6389   -39.0592
  196.0000     4.1797   247.8487     4.8260   -39.0592
  196.5000     4.1931   246.9546     4.8257   -39.0592
  197.0000     4.2066   246.0605     4.8200   -38.9226
  197.5000     4.2066   246.9818     4.6891   -38.9226
  198.0000     4.2065   249.7186     4.5267   -38.8716
  198.5000     4.2149   254.2708     4.4113   -38.7860
  199.0000     4.1642   258.8230     4.2805   -38.7860
  199.5000     4.0435   264.7368     4.1887   -38.7860
  200.0000     3.8851   270.1966     4.0082   -38.9226
  200.5000     3.6634   279.8562     4.0750   -38.9226
  201.0000     3.4902   290.2254     3.8166   -38.9226
  201.5000     3.2805   300.5947     3.5140   -38.9455
  202.0000     3.1112   310.5265     3.3926   -38.9846
  202.5000     2.9419   320.6444     3.3237   -39.0238
  203.0000     2.8901   318.1695     3.2548   -39.0629
  203.5000     2.9851   309.2965     3.3895   -39.1020
  204.0000     3.0828   296.1778     3.6033   -39.1412
  204.5000     3.2619   289.3065     3.8656   -39.1803
  205.0000     3.5459   281.2256     4.0421   -39.2194
  205.5000     3.7612   273.2806     4.2199   -39.2585
  206.0000     4.2334   264.2604     4.4035   -39.2977
  206.5000     4.4460   249.9511     4.5384   -39.3413
  207.0000     4.6513   237.6278     4.7532   -39.2818
  207.5000     4.7354   229.3608     5.0118   -39.2060
  208.0000     4.7680   226.8461     5.2745   -39.0702
  208.5000     4.8182   225.4962     5.3544   -39.0708
  209.0000     4.8440   228.3827     5.3687   -38.9349
  209.5000     4.8575   235.0613     5.3020   -38.8573
  210.0000     4.8575   243.5099     5.0068   -38.7996
  210.5000     4.6902   254.1443     4.7886   -38.8005
  211.0000     4.3012   265.5674     4.4980   -38.8011
  211.5000     4.0027   282.9955     4.2564   -38.8017
  212.0000     3.3623   299.1180     3.9846   -38.8026
  212.5000     3.1027   304.5764     3.7704   -38.8031
  213.0000     3.0122   304.3448     3.6418   -38.8038
  213.5000     3.0511   299.1597     3.6673   -38.8846
  214.0000     3.1235   295.4857     3.9144   -39.0783
  214.5000     3.2157   289.6537     4.1351   -39.2156
  215.0000     3.3107   285.7868     4.2878   -39.3528
  215.5000     3.4600   279.1354     4.5200   -39.3662
