~VERSION INFORMATION
 VERS.                2.0:   CWLS LOG ASCII STANDARD - VERSION 2.0
 WRAP.                 NO:   ONE LINE PER DEPTH STEP
~WELL INFORMATION
#MNEM.UNIT      DATA TYPE    INFORMATION
#----------   ------------   ------------------------------
 STRT.F           32.0000:   START DEPTH
 STOP.F          697.0000:   STOP DEPTH
 STEP.F            0.5000:   STEP LENGTH
 NULL.          -999.2500:   NO VALUE
 COMP.    FENIX & SCISSON:   COMPANY
 WELL.      NPR-3 #81S3-3:   WELL
 FLD .        TEAPOT DOME:   FIELD
 LOC .       S3 T38N R78W:   LOCATION
 CNTY.            NATRONA:   COUNTY
 STAT.            WYOMING:   STATE
 CTRY. UNITED STATES OF AMERICA:   COUNTRY
 SRVC.           BIRDWELL:   SERVICE COMPANY
 DATE.        11-JAN-1978:   LOGDATE
 API .       490251055400:   API NUMBER
~CURVE INFORMATION
#MNEM.UNIT       API CODE    CURVE DESCRIPTION
#----------   ------------   ------------------------------
 DEPT.F                  :   
 ILD .OHMM   05 120 46 00:   INDUCTION LOG DEEP
 SN  .OHMM   05 040 16 00:   SHORT NORMAL 16"
 SPR .MV     05 010 01 00:   SPONTANEOUS POTENTIAL FROM RES.
 CALD.IN     45 280 60 00:   CALIPER FROM DENSITY LOG
 DPHI.DEC    45 890 12 00:   DENSITY POROSITY SANDSTONE
 DRHO.G/C3   45 356 01 00:   DENSITY CORRECTION
 GRD .GAPI   45 310 01 00:   GAMMA RAY FROM DENSITY LOG
 RHOB.G/C3   45 350 01 00:   BULK DENSITY
~PARAMETER INFORMATION
#MNEM.UNIT          VALUE    DESCRIPTION
#----------   ------------   ------------------------------
 PD  .                 GL:   PERMANENT DATUM
 EPD .F              5119:   ELEVATION PERMANENT DATUM
 LMF .                 KB:   LOG MEASURED FROM
 DAPD.F                 4:   FEET ABOVE PERMANENT DATUM
 DMF .                 KB:   DRILLING MEASURED FROM
 EKB .F              5123:   KELLING BUSHING
 EGL .F              5119:   GROUND LEVEL
 DATE.        11-JAN-1978:   RUN DATE
 RUN .                  1:   RUN NUMBER
 DD  .F               695:   DEPTH DRILLER
 DL  .F               704:   DEPTH LOGGER
 BLI .F               697:   BOTTOM LOG INTERVAL
 TLI .F                40:   TOP LOG INTERVAL
 CS  .IN            8.625:   CASING SIZE
 CBD .F                40:   CASING BOTTOM DRILLER
 CBL .F                40:   CASING BOTTOM LOGGER
 BS  .IN            7.875:   BIT SIZE
 BSD .F               695:   BIT SIZE AT DEPTH
 DFT .                KCL:   DRILLING FLUID TYPE
 DFD .                8.6:   DRILLING FLUID DENSITY
 DFV .                 31:   DRILLING FLUID VISCOSITY
 DFPH.                9.5:   DRILLING FLUID PH
 DFL .                7.6:   DRILLING FLUID LOSS
 MSS .           FLOWLINE:   MUD SAMPLE SOURCE
 RMS .OHMM           0.32:   RESISTIVITY MUD SAMPLE
 MST .F                62:   MUD SAMPLE TEMPERATURE
 RMF .OHMM           0.32:   RESISTIVITY MUD FILTRATE SAMPLE
 MFST.F                62:   MUD FILTRATE SAMPLE TEMPERATURE
 RMC .OHMM            0.8:   RESISTIVITY MUD CAKE
 MCST.F                63:   MUD CAKE SAMPLE TEMPERATURE
 MFSS.               MEAS:   MUD FILTRATE SAMPLE SOURCE
 MCSS.               MEAS:   MUD CAKE SAMPLE SOURCE
 TCS .HRS               2:   TIME CURCULATED STOPPED
 LUN .               2958:   LOGGING UNIT NUMBER
 LUL .             CASPER:   LOGGING UNIT LOCATION
 ENGI.           REYNOLDS:   RECORDING ENGINEER
 WITN.         HARRINGTON:   WITNESSED BY
 CLNT.            A2DTECH:   CLIENT CODE
 ORIG.           5" PRINT:   ORIGIN OF DATA
 UWI .       490251055400:   UNIQUE WELL ID
 DICO. A2D Technologies, Inc.:   DIGITIZING COMPANY
~OTHER INFORMATION
~A   DEPT      ILD         SN        SPR       CALD       DPHI       DRHO         GRD      RHOB   
# ...
  234.5000    15.8814    14.6214   -37.6483     8.7644     0.0755     0.0560    91.1432     2.5187
  235.0000    15.6680    14.6254   -38.0887     8.7619     0.0740     0.0546    87.5708     2.5145
  235.5000    15.5630    14.6294   -38.0827     8.7625     0.0764     0.0547    85.6309     2.5130
  236.0000    15.5684    14.6335   -38.0768     8.7632     0.0818     0.0547    87.8241     2.5048
  236.5000    15.3582    14.6375   -38.0708     8.7637     0.0866     0.0548    91.0934     2.5011
  237.0000    15.1497    14.4402   -38.0649     8.7643     0.0863     0.0548    93.1037     2.5011
  237.5000    15.0492    14.0495   -38.0590     8.7649     0.0848     0.0549    94.7475     2.5034
  238.0000    14.8470    13.8591   -38.0530     8.7655     0.0811     0.0549    98.1796     2.5094
  238.5000    14.7475    13.8639   -38.0471     8.7661     0.0784     0.0580    99.9724     2.5147
  239.0000    14.7526    13.9641   -38.3396     8.7667     0.0793     0.0582   100.1258     2.5155
  239.5000    14.7567    14.1628   -38.7830     8.7673     0.0814     0.0599    97.4477     2.5110
  240.0000    14.7607    14.2651   -38.7755     8.7679     0.0784     0.0612    95.2166     2.5110
  240.5000    14.7648    13.9757   -38.6203     8.7685     0.0799     0.0628    94.9230     2.5133
  241.0000    14.7689    13.7863   -38.3159     8.7690     0.0798     0.0628    94.4803     2.5165
  241.5000    14.7730    13.6949   -38.0114     8.7696     0.0772     0.0629    93.2924     2.5241
  242.0000    14.6750    13.6996   -37.8577     8.7702     0.0702     0.0630    90.6143     2.5292
  242.5000    14.6790    13.7034   -38.4468     8.7708     0.0681     0.0630    91.5129     2.5307
  243.0000    14.6831    13.7072   -38.4409     8.7714     0.0651     0.0601    94.3489     2.5330
  243.5000    14.5855    13.7110   -37.8379     8.7720     0.0600     0.0571    96.2907     2.5383
  244.0000    14.4887    13.7147   -37.3842     8.7726     0.0569     0.0543    97.3383     2.5443
  244.5000    14.3926    13.7185   -37.3783     8.7732     0.0677     0.0546    97.7898     2.5369
  245.0000    14.2971    13.7223   -37.3723     8.7738     0.0806     0.0549    95.5291     2.5159
  245.5000    14.2022    13.7261   -37.9634     8.7744     0.0815     0.0553    95.1161     2.5114
  246.0000    14.0105    13.7299   -38.5545     8.7750     0.0788     0.0556   101.6790     2.5137
  246.5000    14.0144    13.6389   -38.6993     8.7757     0.0770     0.0559   104.8130     2.5159
  247.0000    14.0183    13.5484   -38.5426     8.7763     0.0764     0.0563   103.6252     2.5167
  247.5000    13.9252    13.4586   -38.5367     8.7769     0.0782     0.0566   101.2451     2.5160
  248.0000    13.8328    13.2772   -38.5307     8.7774     0.0799     0.0569    98.8650     2.5129
  248.5000    13.6460    13.2809   -38.5248     8.7780     0.0799     0.0573    97.6772     2.5100
  249.0000    13.5555    13.2846   -39.1159     8.7786     0.0793     0.0576   100.8112     2.5108
  249.5000    13.5592    13.2882   -39.2607     8.7792     0.0775     0.0563   103.0511     2.5146
  250.0000    13.5630    13.2919   -39.2532     8.7798     0.0763     0.0519   103.5015     2.5169
  250.5000    13.5667    13.2038   -39.2473     8.7804     0.0775     0.0474   101.2715     2.5154
  251.0000    13.4767    13.1163   -39.5413     8.7810     0.0790     0.0460    98.1463     2.5110
  251.5000    13.3873    13.0294   -39.5339     8.7815     0.0808     0.0445    97.1073     2.5087
  252.0000    13.3910    12.9430   -39.2295     8.7821     0.0840     0.0461    98.3041     2.5103
  252.5000    13.2976    12.8484   -38.4773     8.7827     0.0900     0.0462   102.4814     2.5043
  253.0000    13.2084    12.6735   -38.6206     8.7833     0.0927     0.0477   103.5291     2.4923
  253.5000    12.9453    12.5129   -39.0624     8.7839     0.0912     0.0553   103.5335     2.4946
  254.0000    12.6753    12.3442   -39.3550     8.7845     0.0942     0.0599   104.0746     2.4931
  254.5000    12.4169    12.1627   -39.4985     8.7851     0.0936     0.0614   106.9965     2.4841
  255.0000    12.0714    11.9306   -39.1938     8.7857     0.0911     0.0645   107.8697     2.4940
  255.5000    11.7605    11.7698   -38.5909     8.7863     0.0881     0.0706   108.0220     2.5015
  256.0000    11.6017    11.6111   -39.0327     8.7869     0.0839     0.0752   106.6863     2.4999
  256.5000    11.6050    11.5341   -39.1761     8.7876     0.0812     0.0767   103.8676     2.5024
  257.0000    11.6890    11.6990   -39.1701     8.7876     0.0770     0.0770   100.9661     2.5107
  257.5000    11.7736    11.8654   -39.1641     8.7877     0.0770     0.0801    96.9821     2.5150
  258.0000    11.8720    12.0342   -39.9048     8.7878     0.0781     0.0859    95.6771     2.5143
  258.5000    12.0420    12.3757   -39.7481     8.7879     0.0790     0.0905    93.6359     2.5135
  259.0000    12.3150    12.5517   -39.7422     8.7879     0.0763     0.0953    91.6867     2.5188
  259.5000    12.6332    12.6424   -39.8871     8.7880     0.0718     0.0894    93.1844     2.5279
  260.0000    12.6374    12.8223   -40.0304     8.7881     0.0643     0.0925    95.7239     2.5369
  260.5000    12.7288    12.8258   -40.3216     8.7881     0.0591     0.0957    93.1963     2.5414
  261.0000    12.7324    12.7348   -40.4664     8.7882     0.0643     0.1006    92.1590     2.5362
  261.5000    12.7359    12.7293   -40.6098     8.7883     0.0658     0.1024    92.7610     2.5355
  262.0000    12.7418    12.7238   -40.7531     8.7884     0.0652     0.1048    93.3631     2.5392
  262.5000    12.7490    12.7183   -40.5965     8.7884     0.0601     0.1049    93.5180     2.5430
  263.0000    12.7563    12.7128   -40.4414     8.7885     0.0585     0.1050    93.8220     2.5453
  263.5000    12.7636    12.7073   -40.1370     8.7886     0.0642     0.1051    93.8279     2.5431
  264.0000    12.7709    12.7018   -39.8326     8.7887     0.0632     0.1051    93.0887     2.5491
  264.5000    12.7781    12.6962   -39.6774     8.7887     0.0641     0.1052    92.0514     2.5446
  265.0000    12.7854    12.6907   -39.8209     8.7888     0.0653     0.1053    93.2495     2.5356
  265.5000    12.8806    12.6845   -39.9642     8.7889     0.0656     0.1053    95.3419     2.5364
  266.0000    13.1559    12.8649   -40.1075     8.7889     0.0641     0.1054    95.9439     2.5379
  266.5000    13.2520    13.0479   -39.9383     8.7895     0.0620     0.1055    96.3969     2.5402
  267.0000    13.4417    13.2335   -39.4985     8.7902     0.0598     0.1026    96.9990     2.5432
  267.5000    13.5399    13.4217   -39.4914     8.7910     0.0571     0.0966    97.1539     2.5455
  268.0000    13.5446    13.5187   -39.4855     8.7876     0.0559     0.0907    97.1598     2.5470
  268.5000    13.5492    13.5224   -39.4796     8.7784     0.0580     0.0847    97.1657     2.5470
  269.0000    13.4590    13.5261   -39.3259     8.7691     0.0631     0.0848    97.1717     2.5402
  269.5000    13.3715    13.4362   -39.4693     8.7599     0.0688     0.0849    97.3266     2.5311
  270.0000    13.2837    13.4401   -39.6112     8.7500     0.0757     0.0805    92.8616     2.5244
  270.5000    13.1965    13.2588   -40.2023     8.7357     0.0790     0.0745    92.3894     2.5174
  271.0000    12.9293    13.0800   -40.3471     8.7366     0.0807     0.0686    96.0031     2.5141
  271.5000    12.7549    12.8146   -40.4905     8.7225     0.0819     0.0656    98.6916     2.5134
  272.0000    12.5841    12.6418   -40.4831     8.7021     0.0828     0.0650    99.1465     2.5096
  272.5000    12.5853    12.5580   -40.4772     8.6942     0.0831     0.0643    94.8012     2.5074
  273.0000    12.5854    12.5566   -40.6221     8.6949     0.0831     0.0644    88.1004     2.5074
  273.5000    12.5855    12.5551   -40.7642     8.6969     0.0831     0.0629    86.9418     2.5067
  274.0000    12.5856    12.5537   -40.4595     8.7032     0.0828     0.0630    86.9478     2.5067
  274.5000    12.5857    12.5523   -40.2965     8.7095     0.0818     0.0631    87.2722     2.5060
