~VERSION INFORMATION
 VERS.                2.0:   CWLS LOG ASCII STANDARD - VERSION 2.0
 WRAP.                 NO:   ONE LINE PER DEPTH STEP
~WELL INFORMATION
#MNEM.UNIT      DATA TYPE    INFORMATION
#----------   ------------   ------------------------------
 STRT.F           46.0000:   START DEPTH
 STOP.F          670.0000:   STOP DEPTH
 STEP.F            0.5000:   STEP LENGTH
 NULL.          -999.2500:   NO VALUE
 COMP. FENIX & SCISSON INC:   COMPANY
 WELL. TEAPOT #27 62SX 11WI-11:   WELL
 FLD .             TEAPOT:   FIELD
 LOC .      S11 T38N R78W:   LOCATION
 CNTY.            NATRONA:   COUNTY
 STAT.            WYOMING:   STATE
 CTRY. UNITED STATES OF AMERICA:   COUNTRY
 SRVC.      Dresser Atlas:   SERVICE COMPANY
 DATE.        27-JUL-1980:   LOGDATE
 API .       490251084000:   API NUMBER
~CURVE INFORMATION
#MNEM.UNIT       API CODE    CURVE DESCRIPTION
#----------   ------------   ------------------------------
 DEPT.F                  :   
 GRD .GAPI   45 310 01 00:   GAMMA RAY FROM DENSITY LOG
 RHOB.G/C3   45 350 01 00:   BULK DENSITY
 CORR.G/C3   45 356 01 00:   DENSITY CORRECTION
 CALD.IN     45 280 60 00:   CALIPER
 DPOR.DEC    45 890 12 00:   DENSITY POROSITY SANDSTONE
 SPR .MV     07 010 01 00:   SPONTANEOUS POTENTIAL
 SFL .OHMM   07 220 01 00:   SHALLOW FOCUSED LOG RESISTIVITY
 ILD .OHMM   07 120 46 00:   INDUCTION LOG DEEP
 ILM .OHMM   07 120 44 00:   INDUCTION LOG MEDIUM
~PARAMETER INFORMATION
#MNEM.UNIT          VALUE    DESCRIPTION
#----------   ------------   ------------------------------
 PD  .                 GL:   PERMANENT DATUM
 EPD .F              5186:   ELEVATION PERMANENT DATUM
 LMF .                 KB:   LOG MEASURED FROM
 DAPD.F                 5:   FEET ABOVE PERMANENT DATUM
 DMF .                 KB:   DRILLING MEASURED FROM
 EKB .F              5191:   KELLING BUSHING
 EGL .F              5186:   GROUND LEVEL
 DATE.            7-27-80:   RUN DATE
 RUN .                  1:   RUN NUMBER
 DD  .F               660:   DEPTH DRILLER
 DL  .F               663:   DEPTH LOGGER
 BLI .F               661:   BOTTOM LOG INTERVAL
 TLI .F                46:   TOP LOG INTERVAL
 BS  .IN            7.875:   BIT SIZE
 BSD .F               660:   BIT SIZE AT DEPTH
 DFT .           CHEM GEL:   DRILLING FLUID TYPE
 DFD .                9.5:   DRILLING FLUID DENSITY
 DFV .                 50:   DRILLING FLUID VISCOSITY
 DFPH.                 11:   DRILLING FLUID PH
 DFL .                  6:   DRILLING FLUID LOSS
 MSS .           FLOWLINE:   MUD SAMPLE SOURCE
 RMS .OHMM            .08:   RESISTIVITY MUD SAMPLE
 MST .F                70:   MUD SAMPLE TEMPERATURE
 RMC .OHMM            .08:   RESISTIVITY MUD CAKE
 MCST.F                70:   MUD CAKE SAMPLE TEMPERATURE
 MFSS.               MEAS:   MUD FILTRATE SAMPLE SOURCE
 MCSS.               MEAS:   MUD CAKE SAMPLE SOURCE
 RMB .OHMM            .06:   RESISTIVITY MUD AT BHT
 BHT .F                90:   BOTTOM HOLE TEMPERATURE
 TCS .HRS               5:   TIME CURCULATED STOPPED
 MRT .F                90:   MAXIMUM RECORDED TEMPERATURE
 LUN .               6145:   LOGGING UNIT NUMBER
 LUL .              GLTTE:   LOGGING UNIT LOCATION
 ENGI.              HENRY:   RECORDING ENGINEER
 WITN.              AMEND:   WITNESSED BY
 CLNT.            A2DTECH:   CLIENT CODE
 ORIG.       2", 5" PRINT:   ORIGIN OF DATA
 UWI .       490251084000:   UNIQUE WELL ID
 DICO. A2D Technologies, Inc.:   DIGITIZING COMPANY
~OTHER INFORMATION
~A   DEPT      GRD       RHOB       CORR       CALD       DPOR        SPR          SFL        ILD      ILM   
# ...
  374.5000   106.7324     2.5018     0.0199     8.5153     0.1069   -48.5852     9.6122     6.6126     7.1364
  375.0000   103.9812     2.5001     0.0180     8.5198     0.1077   -48.7357     9.6793     6.6470     7.0751
  375.5000   101.4441     2.5006     0.0176     8.5242     0.1096   -48.8889     9.7479     6.6917     7.2023
  376.0000   100.1019     2.5083     0.0175     8.5250     0.1028   -49.0447     9.8478     6.6640     7.1763
  376.5000    98.7475     2.5078     0.0174     8.5250     0.1038   -48.9426     9.7705     6.6123     7.1489
  377.0000    98.6926     2.4959     0.0169     8.5250     0.1102   -48.7878     9.6288     6.5568     7.0984
  377.5000    99.2936     2.4834     0.0164     8.5250     0.1167   -48.6183     9.4887     6.4808     7.0304
  378.0000    99.8783     2.4823     0.0159     8.5250     0.1182   -48.4706     9.3824     6.3967     6.9630
  378.5000   100.5510     2.4819     0.0158     8.5250     0.1184   -48.5303     9.3237     6.3075     6.8963
  379.0000   101.3144     2.4813     0.0164     8.5250     0.1182   -48.5871     9.2659     6.2137     6.8303
  379.5000   101.9595     2.4804     0.0171     8.5250     0.1191   -48.6436     9.1865     6.1177     6.7649
  380.0000   102.0311     2.4778     0.0176     8.5250     0.1213   -48.6677     9.0797     5.9842     6.7001
  380.5000   104.4888     2.4736     0.0175     8.5250     0.1220   -48.6738     8.9745     5.7444     6.5458
  381.0000   106.2366     2.4758     0.0172     8.5250     0.1205   -48.4248     8.8702     5.4788     6.3791
  381.5000   104.3483     2.4911     0.0275     8.5250     0.1124   -48.1233     8.7095     5.2099     6.1579
  382.0000   102.8565     2.5061     0.0391     8.5250     0.1036   -47.9319     8.4956     4.9531     5.9115
  382.5000   101.7543     2.5148     0.0362     8.5250     0.1032   -47.7627     8.2874     4.6999     5.6771
  383.0000   100.9362     2.4882     0.0288     8.5250     0.1138   -47.5945     7.9197     4.5008     5.3105
  383.5000   101.2338     2.4704     0.0253     8.5250     0.1251   -47.3583     7.1450     4.5246     5.0857
  384.0000   101.6200     2.4539     0.0246     8.5250     0.1341   -46.9577     6.0223     4.5645     4.8918
  384.5000   101.9527     2.4445     0.0239     8.5250     0.1413   -46.7387     5.6180     4.6240     5.0302
  385.0000   101.8475     2.4519     0.0227     8.5250     0.1354   -46.9233     6.7593     4.7137     5.1718
  385.5000   101.7489     2.4641     0.0205     8.5250     0.1281   -47.0997     8.2865     4.8045     5.4240
  386.0000   101.6510     2.4730     0.0183     8.5250     0.1243   -47.2832     9.2254     5.1443     5.6835
  386.5000   101.5642     2.4775     0.0180     8.5250     0.1211   -47.5963     9.0998     5.4952     5.9555
  387.0000   101.6669     2.4783     0.0185     8.5250     0.1198   -47.9159     9.0651     5.8700     6.2210
  387.5000   101.7115     2.4758     0.0192     8.5250     0.1213   -48.2342     9.2193     6.1481     6.4712
  388.0000   100.6925     2.4872     0.0229     8.5250     0.1166   -48.5032     9.4050     6.3824     6.7511
  388.5000    99.6714     2.4978     0.0342     8.5250     0.1099   -48.6295     9.3655     6.4805     6.7894
  389.0000   100.2260     2.5082     0.0428     8.5250     0.1031   -48.7215     9.3109     6.5299     6.8341
  389.5000   103.3203     2.5138     0.0463     8.5250     0.0988   -48.7983     9.2335     6.5912     6.9631
  390.0000   104.6933     2.5013     0.0393     8.5250     0.1084   -48.8985     9.3565     6.6637     7.0808
  390.5000   104.6291     2.4959     0.0321     8.5250     0.1117   -49.1297     9.5791     6.7553     7.1361
  391.0000   104.5838     2.5003     0.0277     8.5250     0.1077   -49.3649     9.7024     6.8481     7.1920
  391.5000   104.8121     2.4965     0.0237     8.5250     0.1089   -49.4133     9.8265     6.9420     7.3129
  392.0000   105.1538     2.4933     0.0261     8.5250     0.1108   -49.3379     9.9526     7.0373     7.4509
  392.5000   105.4686     2.4991     0.0287     8.5250     0.1077   -49.2596    10.0803     7.0823     7.5915
  393.0000   106.6950     2.5053     0.0313     8.5250     0.1048   -49.1820    10.1238     7.0998     7.6111
  393.5000   106.1616     2.5075     0.0305     8.5250     0.1054   -49.1082    10.1234     7.1172     7.5074
  394.0000   103.5173     2.4977     0.0292     8.5250     0.1095   -49.2552    10.1449     7.1364     7.4375
  394.5000   102.7712     2.4946     0.0279     8.5250     0.1112   -49.4617    10.1881     7.1441     7.4039
  395.0000   103.4808     2.4990     0.0280     8.5250     0.1087   -49.4607    10.2315     7.1523     7.4039
  395.5000   105.9188     2.4983     0.0287     8.5250     0.1080   -49.4594    10.2750     7.1607     7.4039
  396.0000   108.0103     2.4981     0.0294     8.5250     0.1080   -49.3522    10.3196     7.1691     7.4734
  396.5000   107.4915     2.5025     0.0301     8.5250     0.1052   -49.0306    10.3679     7.1774     7.5659
  397.0000   106.7716     2.5073     0.0308     8.5250     0.1023   -48.7108    10.4165     7.1859     7.6596
  397.5000   106.9290     2.5138     0.0318     8.5250     0.0974   -48.3947    10.4653     7.1945     7.7525
  398.0000   107.7645     2.5279     0.0396     8.5250     0.0911   -47.8562    10.5029     7.2022     7.7377
  398.5000   107.7756     2.5334     0.0475     8.5250     0.0860   -47.5343    10.4156     7.1709     7.7233
  399.0000   106.5581     2.5374     0.0537     8.5250     0.0845   -47.6722    10.3320     7.1403     7.7088
  399.5000   105.5274     2.5399     0.0498     8.5250     0.0843   -47.8052    10.2491     7.1101     7.6945
  400.0000   106.3761     2.5328     0.0462     8.5250     0.0895   -47.8622    10.1668     7.0711     7.6744
  400.5000   107.3501     2.5254     0.0422     8.5250     0.0933   -47.8369    10.0852     7.0933     7.6034
  401.0000   105.5098     2.5212     0.0376     8.5250     0.0943   -47.8119     9.9958     7.1249     7.5420
  401.5000   103.2269     2.5223     0.0335     8.5250     0.0940   -47.7865     9.8879     7.1567     7.6149
  402.0000   101.8358     2.5319     0.0336     8.5250     0.0866   -47.7614     9.7802     7.1886     7.6811
  402.5000   101.1921     2.5565     0.0336     8.5250     0.0778   -47.7364     9.7576     7.2023     7.5669
  403.0000   101.8661     2.5776     0.0334     8.5250     0.0621   -47.7107    10.1234     7.2023     7.4499
  403.5000   101.8093     2.5496     0.0266     8.5250     0.0804   -47.6882     9.8816     7.1037     7.3163
  404.0000   102.4378     2.5018     0.0197     8.5250     0.1059   -47.4666     9.5872     6.8663     7.2689
  404.5000   104.5714     2.4936     0.0182     8.5250     0.1111   -47.1338     9.3016     6.5953     7.1445
  405.0000   106.5118     2.4898     0.0227     8.5250     0.1132   -46.7979     8.9890     6.2107     7.0062
  405.5000   106.6191     2.4936     0.0254     8.5250     0.1114   -46.4575     8.6456     5.8540     6.6459
  406.0000   107.4704     2.4964     0.0221     8.5250     0.1100   -46.0457     8.3153     5.3420     6.3227
  406.5000   106.1711     2.4840     0.0176     8.5250     0.1175   -45.5418     7.9695     4.7373     5.9973
  407.0000   104.7749     2.4725     0.0139     8.5250     0.1238   -44.9909     7.5609     4.1947     5.5201
  407.5000   103.5015     2.4633     0.0206     8.5250     0.1283   -44.2780     7.1357     3.7155     5.2172
  408.0000   103.4009     2.4501     0.0272     8.5250     0.1364   -43.4685     6.7345     3.2911     4.7215
  408.5000   103.9448     2.4389     0.0317     8.5250     0.1449   -42.6633     6.3559     2.9151     4.1345
  409.0000   104.9406     2.4296     0.0340     8.5250     0.1505   -41.8549     5.8351     2.5821     3.6205
  409.5000   105.7914     2.4087     0.0363     8.5250     0.1600   -41.1894     5.3162     2.2871     3.1705
  410.0000   105.9169     2.3700     0.0271     8.5250     0.1801   -40.7039     4.6181     2.0519     2.7763
  410.5000   104.9349     2.2981     0.0181     8.5250     0.2344   -40.6045     4.0617     1.9863     2.4917
