~VERSION INFORMATION
 VERS.                2.0:   CWLS LOG ASCII STANDARD - VERSION 2.0
 WRAP.                 NO:   ONE LINE PER DEPTH STEP
~WELL INFORMATION
#MNEM.UNIT      DATA TYPE    INFORMATION
#----------   ------------   ------------------------------
 STRT.F           30.0000:   START DEPTH
 STOP.F          732.0000:   STOP DEPTH
 STEP.F            0.5000:   STEP LENGTH
 NULL.          -999.2500:   NO VALUE
 COMP. FENIX & SCISSON INC:   COMPANY
 WELL.        31-S #31-14:   WELL
 FLD .             TEAPOT:   FIELD
 LOC .      S14 T38N R78W:   LOCATION
 CNTY.            NATRONA:   COUNTY
 STAT.            WYOMING:   STATE
 CTRY. UNITED STATES OF AMERICA:   COUNTRY
 SRVC.              Welex:   SERVICE COMPANY
 DATE.        16-FEB-1977:   LOGDATE
 API .       490251027300:   API NUMBER
~CURVE INFORMATION
#MNEM.UNIT       API CODE    CURVE DESCRIPTION
#----------   ------------   ------------------------------
 DEPT.F                  :   
 CALD.IN     45 280 60 00:   CALIPER FROM DENSITY LOG
 CORR.G/C3   45 356 01 00:   DENSITY CORRECTION
 DPHI.DEC    45 890 12 00:   DENSITY POROSITY SANDSTONE
 GRD .GAPI   45 310 01 00:   GAMMA RAY FROM DENSITY LOG
 RHOB.G/C3   45 350 01 00:   BULK DENSITY
 GURD.OHMM   07 270 05 00:   SHALLOW SHORT GUARD RESISTIVITY
 ILM .OHMM   07 120 44 00:   INDUCTION LOG MEDIUM
 ILD .OHMM   07 120 46 00:   INDUCTION LOG DEEP
 SPR .MV     07 010 01 00:   SPONTANEOUS POTENTIAL
~PARAMETER INFORMATION
#MNEM.UNIT          VALUE    DESCRIPTION
#----------   ------------   ------------------------------
 PD  .                 GL:   PERMANENT DATUM
 EPD .F              5186:   ELEVATION PERMANENT DATUM
 LMF .                 GL:   LOG MEASURED FROM
 DMF .                 GL:   DRILLING MEASURED FROM
 EKB .F              5195:   KELLING BUSHING
 EGL .F              5186:   GROUND LEVEL
 DATE.        16-FEB-1977:   RUN DATE
 RUN .                  1:   RUN NUMBER
 DD  .F               740:   DEPTH DRILLER
 DL  .F               736:   DEPTH LOGGER
 BLI .F               734:   BOTTOM LOG INTERVAL
 TLI .F                30:   TOP LOG INTERVAL
 CS  .IN            8.625:   CASING SIZE
 CBD .F                40:   CASING BOTTOM DRILLER
 CBL .F                44:   CASING BOTTOM LOGGER
 BS  .IN            7.875:   BIT SIZE
 BSD .F               740:   BIT SIZE AT DEPTH
 DFT .   OIL EMULSION MUD:   DRILLING FLUID TYPE
 DFD .                8.3:   DRILLING FLUID DENSITY
 DFV .                 48:   DRILLING FLUID VISCOSITY
 DFPH.               10.5:   DRILLING FLUID PH
 DFL .                7.5:   DRILLING FLUID LOSS
 MSS .           FLOWLINE:   MUD SAMPLE SOURCE
 RMS .OHMM           0.80:   RESISTIVITY MUD SAMPLE
 MST .F                64:   MUD SAMPLE TEMPERATURE
 RMF .OHMM           0.68:   RESISTIVITY MUD FILTRATE SAMPLE
 MFST.F                64:   MUD FILTRATE SAMPLE TEMPERATURE
 RMC .OHMM           1.01:   RESISTIVITY MUD CAKE
 MCST.F                63:   MUD CAKE SAMPLE TEMPERATURE
 MFSS.               MEAS:   MUD FILTRATE SAMPLE SOURCE
 MCSS.               MEAS:   MUD CAKE SAMPLE SOURCE
 RMB .OHMM           0.74:   RESISTIVITY MUD AT BHT
 BHT .F                69:   BOTTOM HOLE TEMPERATURE
 TCS .HRS               5:   TIME CURCULATED STOPPED
 MRT .F                69:   MAXIMUM RECORDED TEMPERATURE
 LUN .               8611:   LOGGING UNIT NUMBER
 LUL .           GILLETTE:   LOGGING UNIT LOCATION
 ENGI.           D.LAWSON:   RECORDING ENGINEER
 WITN.             K.JAPP:   WITNESSED BY
 CLNT.            A2DTECH:   CLIENT CODE
 ORIG.         2.5" PRINT:   ORIGIN OF DATA
 UWI .       490251027300:   UNIQUE WELL ID
 DICO. A2D Technologies, Inc.:   DIGITIZING COMPANY
~OTHER INFORMATION
~A   DEPT       CALD      CORR      DPHI         GRD        RHOB     GURD        ILM        ILD        SPR   
# ...
  322.0000     8.0748     0.1640     0.0718   138.1563     2.5229   910.5125    11.3800    10.1073   -54.3027
  322.5000     8.0935     0.1670     0.0718   139.4090     2.5289   907.5605    10.9257    10.1065   -54.3027
  323.0000     8.0932     0.1699     0.0721   140.2762     2.5301   907.2527    10.4863     9.9681   -54.3027
  323.5000     8.0632     0.1698     0.0730   141.1678     2.5275   904.0140    10.2036     9.8315   -54.3027
  324.0000     8.0332     0.1668     0.0743   140.8725     2.5220   896.8815    10.0658     9.6969   -54.3027
  324.5000     8.0032     0.1637     0.0766   140.2804     2.5174   887.3940    10.2063     9.5641   -54.3739
  325.0000     8.0030     0.1592     0.0783   140.2819     2.5123   883.8672    10.3488     9.4223   -54.5994
  325.5000     7.9730     0.1516     0.0801   140.9906     2.5078   892.8438    10.3502     9.1547   -54.5994
  326.0000     7.9790     0.1485     0.0813   142.3324     2.5063   901.8132    10.1725     8.8946   -54.8961
  326.5000     8.0021     0.1425     0.0813   143.3749     2.5078   892.9006     9.8855     8.5989   -55.1929
  327.0000     8.0144     0.1424     0.0812   143.8487     2.5108   881.0077     9.6066     8.3345   -55.1929
  327.5000     8.0470     0.1393     0.0800   143.8504     2.5140   872.0952     9.2649     8.1578   -55.1929
  328.0000     8.0605     0.1393     0.0785   142.3681     2.5171   862.9454     8.9060     7.9971   -55.4896
  328.5000     8.1195     0.1392     0.0760   140.5891     2.5217   854.2701     8.6660     7.8876   -55.4896
  329.0000     8.1786     0.1392     0.0729   138.5134     2.5255   850.5074     8.4324     7.7795   -55.4896
  329.5000     8.2377     0.1391     0.0700   136.3685     2.5302   845.3859     8.4335     7.6730   -55.4896
  330.0000     8.2671     0.1404     0.0688   133.8180     2.5345   846.8118     8.5591     7.5679   -55.4896
  330.5000     8.2668     0.1420     0.0682   130.6914     2.5389   856.4484     9.2094     7.5808   -55.4896
  331.0000     8.2665     0.1419     0.0670   127.3818     2.5449   881.2494     9.9784     7.6951   -55.4896
  331.5000     8.2365     0.1419     0.0646   125.0267     2.5463   899.1597    10.2259     7.8111   -55.7864
  332.0000     8.1919     0.1448     0.0640   123.6857     2.5416   902.6035    10.0877     7.9289   -55.7864
  332.5000     8.1468     0.1477     0.0673   123.9839     2.5339   893.2560     9.9518     8.2173   -55.7864
  333.0000     8.1169     0.1477     0.0703   125.4690     2.5315   884.3434     9.8177     8.4428   -56.0831
  333.5000     8.1166     0.1476     0.0717   126.9541     2.5320   881.3915     9.8190     8.6771   -56.0831
  334.0000     8.1163     0.1446     0.0700   127.8556     2.5336   880.7082     9.8203     8.7964   -56.0831
  334.5000     8.1160     0.1435     0.0684   128.1438     2.5344   882.4565     9.9573     8.6759   -56.1147
  335.0000     8.1157     0.1414     0.0681   127.5518     2.5314   885.7548    10.0963     8.6754   -56.3798
  335.5000     8.1226     0.1414     0.0699   127.5534     2.5240   887.4734    10.1086     8.6655   -56.3798
  336.0000     8.1551     0.1383     0.0741   127.5549     2.5180   881.5479    10.2386     8.5559   -56.3798
  336.5000     8.1876     0.1383     0.0758   128.0238     2.5180   866.6746    10.3815     8.5240   -56.3798
  337.0000     8.2036     0.1412     0.0734   128.7450     2.5257   857.7621    10.2412     8.4381   -56.3798
  337.5000     8.1735     0.1411     0.0715   129.6366     2.5319   857.7905    10.1788     8.4375   -56.3798
  338.0000     8.1733     0.1471     0.0696   130.5283     2.5344   866.7997    10.1818     8.4370   -56.3798
  338.5000     8.1433     0.1470     0.0681   131.1256     2.5338   876.0589    10.3875     8.4363   -56.0831
  339.0000     8.0837     0.1440     0.0681   131.7181     2.5322   881.7214    10.5324     8.5523   -55.7864
  339.5000     8.0240     0.1409     0.0681   131.5861     2.5322   878.7665    10.8270     8.7898   -55.7864
  340.0000     7.9941     0.1408     0.0687   130.3363     2.5343   878.8007    11.1298     8.9107   -55.7468
  340.5000     8.0713     0.1378     0.0693   128.9555     2.5373   878.8304    11.4455     9.1617   -55.4223
  341.0000     8.1541     0.1377     0.0675   127.5401     2.5388   881.8464    11.6008     9.4124   -55.1929
  341.5000     8.1855     0.1376     0.0639   126.0878     2.5358   905.7174    11.7626     9.4117   -54.8961
  342.0000     8.1115     0.1406     0.0639   125.1990     2.5281   965.3524    11.6037     9.4110   -54.8961
  342.5000     8.0222     0.1405     0.0664   124.6069     2.5207   966.0748    11.3836     9.2821   -54.8961
  343.0000     7.9032     0.1405     0.0688   126.9822     2.5164   950.5076    11.0625     9.1549   -54.8961
  343.5000     7.8139     0.1404     0.0713   131.1379     2.5164   925.5522    10.6913     9.1542   -54.8961
  344.0000     7.7215     0.1404     0.0736   129.2997     2.5178   894.8553    10.4031     9.0833   -55.1929
  344.5000     7.5961     0.1403     0.0740   128.3788     2.5241   882.0454    10.1227     9.0282   -55.1929
  345.0000     7.5084     0.1402     0.0733   127.7547     2.5342   889.1324     9.8499     9.0276   -55.4896
  345.5000     7.4864     0.1402     0.0686   127.4273     2.5402   888.2880     9.7169     8.9040   -55.4896
  346.0000     7.6617     0.1371     0.0650   127.5848     2.5431   877.4893     9.7381     8.9034   -55.7864
  346.5000     7.9308     0.1370     0.0638   128.4764     2.5402   894.0947    10.1517     8.8823   -55.7864
  347.0000     8.1086     0.1370     0.0650   129.6648     2.5340   929.8870    10.4115     8.7808   -55.7864
  347.5000     8.2270     0.1399     0.0692   132.0401     2.5278   923.9548    10.5568     8.6605   -55.7864
  348.0000     8.2564     0.1399     0.0752   132.3382     2.5253   912.0619    10.4930     8.6064   -55.7864
  348.5000     8.2858     0.1398     0.0757   130.7003     2.5283   900.0403    10.3379     8.4774   -55.7864
  349.0000     8.2855     0.1398     0.0743   128.9090     2.5290   893.8216     9.9972     8.4241   -55.7864
  349.5000     8.2852     0.1397     0.0737   128.4849     2.5251   891.2849     9.7277     8.3088   -55.7864
  350.0000     8.2849     0.1386     0.0742   129.5252     2.5163   891.3181     9.5964     8.3082   -55.7864
  350.5000     8.2846     0.1353     0.0774   131.7525     2.5104   891.3478     9.5976     8.3077   -55.7864
  351.0000     8.2843     0.1335     0.0828   133.2376     2.5102   894.3580     9.4680     8.4247   -55.7864
  351.5000     8.3136     0.1304     0.0851   134.4259     2.5134   894.3931     9.5006     8.6558   -55.7864
  352.0000     8.3133     0.1304     0.0845   135.3176     2.5164   894.4216     9.9274     8.7748   -55.7864
  352.5000     8.3130     0.1303     0.0804   136.2216     2.5195   891.4697    10.5713     8.7742   -55.7864
  353.0000     8.3128     0.1303     0.0767   136.8486     2.5226   885.5375    10.5728     8.6540   -55.7864
  353.5000     8.3101     0.1332     0.0744   137.1022     2.5243   876.5654    10.3592     8.5946   -55.7864
  354.0000     8.2825     0.1332     0.0738   136.1049     2.5259   864.0974    10.0109     8.4183   -55.7864
  354.5000     8.2822     0.1331     0.0744   135.0430     2.5282   858.7997     9.8756     8.4178   -55.7864
  355.0000     8.2522     0.1330     0.0753   133.2496     2.5282   862.7068     9.6096     8.3025   -55.7864
  355.5000     8.2369     0.1360     0.0768   132.0640     2.5281   867.8032     8.9734     8.3020   -55.7864
  356.0000     8.2219     0.1374     0.0803   133.2524     2.5267   869.3033     8.7355     8.1882   -55.7864
  356.5000     8.1919     0.1389     0.0833   134.1440     2.5192   873.8293     8.4962     8.1877   -55.7864
  357.0000     8.1917     0.1388     0.0821   134.4421     2.5132   870.8774     8.4974     8.1871   -55.7864
  357.5000     8.1617     0.1387     0.0797   133.5163     2.5103   867.9255     8.6780     8.1577   -55.7864
  358.0000     8.1626     0.1387     0.0779   132.8922     2.5166   861.9916     9.1931     8.0744   -55.7864
