~VERSION INFORMATION
 VERS.                2.0:   CWLS LOG ASCII STANDARD - VERSION 2.0
 WRAP.                 NO:   ONE LINE PER DEPTH STEP
~WELL INFORMATION
#MNEM.UNIT      DATA TYPE    INFORMATION
#----------   ------------   ------------------------------
 STRT.F           35.0000:   START DEPTH
 STOP.F          977.0000:   STOP DEPTH
 STEP.F            0.5000:   STEP LENGTH
 NULL.          -999.2500:   NO VALUE
 COMP. FENIX & SCISSON INC:   COMPANY
 WELL.  NPR-3 "SX" #52-14:   WELL
 FLD .             TEAPOT:   FIELD
 LOC .      S14 T38N R78W:   LOCATION
 CNTY.            NATRONA:   COUNTY
 STAT.            WYOMING:   STATE
 CTRY. UNITED STATES OF AMERICA:   COUNTRY
 SRVC.            Unknown:   SERVICE COMPANY
 DATE.        13-MAR-1978:   LOGDATE
 API .       490251059900:   API NUMBER
~CURVE INFORMATION
#MNEM.UNIT       API CODE    CURVE DESCRIPTION
#----------   ------------   ------------------------------
 DEPT.F                  :   
 CALD.IN     45 280 60 00:   CALIPER FROM DENSITY LOG
 GRD .GAPI   45 310 01 00:   GAMMA RAY FROM DENSITY LOG
 CORR.G/C3   45 356 01 00:   DENSITY CORRECTION
 RHOB.G/C3   45 350 01 00:   BULK DENSITY
 DPHI.DEC    45 890 12 00:   DENSITY POROSITY SANDSTONE
 SPR .MV     07 010 01 00:   SPONTANEOUS POTENTIAL FROM RES. LOG
 ILD .OHMM   07 120 46 00:   INDUCTION LOG DEEP
 SN  .OHMM   07 040 16 00:   SHORT NORMAL 16'
~PARAMETER INFORMATION
#MNEM.UNIT          VALUE    DESCRIPTION
#----------   ------------   ------------------------------
 PD  .                 GL:   PERMANENT DATUM
 EPD .F              5223:   ELEVATION PERMANENT DATUM
 LMF .                 KB:   LOG MEASURED FROM
 DAPD.F                 4:   FEET ABOVE PERMANENT DATUM
 DMF .                 KB:   DRILLING MEASURED FROM
 EKB .F              5227:   KELLING BUSHING
 EGL .F              5223:   GROUND LEVEL
 DATE.            3-13-78:   RUN DATE
 RUN .                  1:   RUN NUMBER
 DD  .F               975:   DEPTH DRILLER
 DL  .F               977:   DEPTH LOGGER
 BLI .F               971:   BOTTOM LOG INTERVAL
 TLI .F                50:   TOP LOG INTERVAL
 CS  .IN            8.625:   CASING SIZE
 CBD .F                40:   CASING BOTTOM DRILLER
 CBL .F                40:   CASING BOTTOM LOGGER
 BS  .IN            7.875:   BIT SIZE
 BSD .F               975:   BIT SIZE AT DEPTH
 DFT .                KCL:   DRILLING FLUID TYPE
 DFD .                8.6:   DRILLING FLUID DENSITY
 DFV .                 33:   DRILLING FLUID VISCOSITY
 DFPH.               10.5:   DRILLING FLUID PH
 DFL .               11.6:   DRILLING FLUID LOSS
 MSS .          FLOW LINE:   MUD SAMPLE SOURCE
 RMS .OHMM            .34:   RESISTIVITY MUD SAMPLE
 MST .F                60:   MUD SAMPLE TEMPERATURE
 RMF .OHMM            .36:   RESISTIVITY MUD FILTRATE SAMPLE
 MFST.F                62:   MUD FILTRATE SAMPLE TEMPERATURE
 RMC .OHMM            .75:   RESISTIVITY MUD CAKE
 MCST.F                59:   MUD CAKE SAMPLE TEMPERATURE
 MFSS.               MEAS:   MUD FILTRATE SAMPLE SOURCE
 MCSS.               MEAS:   MUD CAKE SAMPLE SOURCE
 RMB .OHMM            .27:   RESISTIVITY MUD AT BHT
 BHT .F                75:   BOTTOM HOLE TEMPERATURE
 TCS .HRS               4:   TIME CURCULATED STOPPED
 MRT .F                75:   MAXIMUM RECORDED TEMPERATURE
 LUN .               2958:   LOGGING UNIT NUMBER
 LUL .               CASP:   LOGGING UNIT LOCATION
 ENGI.             MILLER:   RECORDING ENGINEER
 WITN.            RHOADES:   WITNESSED BY
 CLNT.            A2DTECH:   CLIENT CODE
 ORIG.       2", 5" PRINT:   ORIGIN OF DATA
 UWI .       490251059900:   UNIQUE WELL ID
 DICO. A2D Technologies, Inc.:   DIGITIZING COMPANY
~OTHER INFORMATION
~A   DEPT     CALD         GRD      CORR       RHOB       DPHI        SPR        ILD         SN   
# ...
  683.0000     7.9741    94.4819     0.0133     2.4563     0.1110   -56.5015     5.1454     6.2591
  683.5000     7.9731    92.0926     0.0118     2.4511     0.1116   -57.2716     4.8218     6.0429
  684.0000     7.9722    91.0203     0.0103     2.4537     0.1093   -57.3840     4.7594     5.7914
  684.5000     7.9712    90.8715     0.0086     2.4587     0.1080   -56.1567     4.6888     5.4871
  685.0000     7.9703    91.8283     0.0107     2.4573     0.1071   -55.5615     4.7243     5.5606
  685.5000     7.9693    92.6037     0.0133     2.4625     0.1040   -55.4488     4.7725     5.6628
  686.0000     7.9684    92.7674     0.0160     2.4692     0.1008   -55.4869     4.8210     6.0514
  686.5000     7.9674    91.8613     0.0186     2.4697     0.1003   -55.8665     4.8662     6.6009
  687.0000     7.9665    92.5744     0.0207     2.4738     0.0979   -56.2408     5.2309     6.9200
  687.5000     7.9655    93.3637     0.0212     2.4801     0.0965   -56.6149     5.5932     7.1157
  688.0000     7.9646    92.8931     0.0217     2.4800     0.0967   -55.5656     5.9807     7.3170
  688.5000     7.9636    93.6299     0.0222     2.4800     0.0965   -55.6767     6.1968     7.5249
  689.0000     7.9627    93.9238     0.0208     2.4801     0.0960   -55.3980     6.3036     7.6696
  689.5000     7.9617    92.6024     0.0163     2.4779     0.0955   -54.7997     6.4123     7.7621
  690.0000     7.9608    91.2767     0.0131     2.4578     0.0950   -54.9826     6.4966     7.8557
  690.5000     7.9598    92.0116     0.0221     2.4681     0.0944   -55.2296     6.5400     7.9496
  691.0000     7.9588    93.7940     0.0208     2.4856     0.0930   -55.4781     6.5837     8.0446
  691.5000     7.9579    94.8027     0.0188     2.4878     0.0914   -55.7308     6.6277     8.1070
  692.0000     7.9569    93.1213     0.0207     2.4831     0.0887   -55.9521     6.6720     8.1417
  692.5000     7.9561    89.8870     0.0233     2.4885     0.0860   -54.8358     6.7166     8.1766
  693.0000     7.9666    89.2350     0.0260     2.4959     0.0890   -55.2199     6.7615     8.2115
  693.5000     7.9782    89.6867     0.0256     2.4906     0.0885   -55.1437     6.8067     8.2467
  694.0000     7.9898    93.4770     0.0225     2.4888     0.0882   -54.6199     6.8491     8.2820
  694.5000     7.9960    97.4344     0.0119     2.4823     0.0942   -54.4569     6.8646     8.3155
  695.0000     7.9960    97.3749     0.0014     2.4735     0.1035   -54.5692     6.8792     8.3231
  695.5000     7.9960    99.2136    -0.0091     2.4515     0.1085   -54.6928     6.8938     8.3305
  696.0000     7.9960   101.5701    -0.0118     2.4452     0.1091   -54.8168     6.9084     8.3378
  696.5000     7.9960   101.1490    -0.0122     2.4653     0.1098   -54.9397     6.9230     8.3450
  697.0000     7.9960    99.4433    -0.0048     2.4439     0.1105   -55.0620     6.9377     8.3524
  697.5000     7.9960    94.9387     0.0027     2.4579     0.1038   -55.1920     6.9524     8.3597
  698.0000     7.9960    88.6426     0.0070     2.4652     0.1023   -55.4903     6.9672     8.3670
  698.5000     7.9960    86.2131     0.0080     2.4643     0.1017   -55.8020     6.9768     8.3744
  699.0000     7.9960    92.5874     0.0072     2.4722     0.0976   -56.1129     6.9475     8.3821
  699.5000     7.9960    96.1670     0.0064     2.4766     0.0995   -56.3860     6.9256     8.3926
  700.0000     7.9960    94.9198     0.0056     2.4649     0.1035   -56.3884     6.9039     8.3480
  700.5000     7.9960    94.8830     0.0047     2.4520     0.1113   -56.3873     6.8821     8.2605
  701.0000     7.9960    96.3626     0.0057     2.4448     0.1177   -56.3873     6.8605     8.1740
  701.5000     7.9960    95.9341     0.0073     2.4423     0.1215   -56.3872     6.7817     8.1250
  702.0000     7.9960    95.3990     0.0089     2.4399     0.1230   -56.3872     6.6403     8.0815
  702.5000     7.9960    95.4048     0.0104     2.4343     0.1245   -56.3872     6.5019     8.0382
  703.0000     7.9960    95.4526     0.0127     2.4277     0.1283   -56.3872     6.4323     7.9743
  703.5000     7.9960    96.6049     0.0161     2.4197     0.1402   -56.3870     6.3761     7.8838
  704.0000     7.9961    97.1119     0.0146     2.4070     0.1521   -56.3868     6.3204     7.7944
  704.5000     7.9961    96.9083     0.0126     2.3798     0.1660   -56.3893     6.2652     7.6799
  705.0000     7.9913    97.9568     0.0137     2.3550     0.1851   -56.3896     6.2104     7.4617
  705.5000     7.9585    99.5034     0.0149     2.3299     0.2042   -56.7221     6.0823     7.2497
  706.0000     7.9260    95.9075     0.0159     2.2941     0.2233   -57.2654     5.9040     7.0438
  706.5000     7.8937    91.4444     0.0214     2.2543     0.2424   -57.8160     5.7309     6.7883
  707.0000     7.8791    89.8300     0.0397     2.2213     0.2498   -58.3646     5.5639     6.4433
  707.5000     7.8868    88.3687     0.0571     2.2212     0.2459   -58.3875     5.3893     6.1155
  708.0000     7.8944    88.7273     0.0653     2.2331     0.2246   -58.3841     5.0625     5.7196
  708.5000     7.9019    92.4620     0.0699     2.2856     0.2002   -58.3832     4.6248     5.2765
  709.0000     7.9096    97.2565     0.0635     2.3421     0.1757   -58.3832     4.0247     4.8676
  709.5000     7.9240    96.7045     0.0790     2.3602     0.1639   -58.3861     3.5025     4.3193
  710.0000     7.9715    96.4716     0.0900     2.3999     0.1420   -58.3957     3.0480     3.8135
  710.5000     8.0147    98.0197     0.0523     2.4295     0.1206   -58.3185     2.6525     3.3664
  711.0000     8.0380   102.3619     0.0256     2.4389     0.1150   -56.8236     2.4980     3.0915
  711.5000     8.0635   104.4224     0.0254     2.4511     0.1124   -55.3815     2.3866     2.8607
  712.0000     8.0754   102.9947     0.0264     2.4561     0.1098   -54.8533     2.3191     2.7955
  712.5000     8.0748   102.2093     0.0276     2.4588     0.1098   -55.9471     2.2757     2.9008
  713.0000     8.0739   103.5491     0.0287     2.4536     0.1121   -56.9986     2.2375     3.0362
  713.5000     8.0729   105.3422     0.0298     2.4514     0.1134   -57.3761     2.5075     3.2761
  714.0000     8.0720   109.2286     0.0286     2.4528     0.1173   -57.1315     2.8653     3.7141
  714.5000     8.0711   109.6955     0.0220     2.4425     0.1239   -56.8842     3.2390     4.2108
  715.0000     8.0702   108.0165     0.0162     2.4309     0.1304   -56.6334     3.6302     4.7736
  715.5000     8.0693   109.6621     0.0150     2.4197     0.1419   -56.6028     4.0684     5.4116
  716.0000     8.0683   111.1085     0.0174     2.3917     0.1572   -56.6210     4.5599     5.8382
  716.5000     8.0674   108.2755     0.0222     2.3613     0.1661   -56.6408     5.0494     5.9645
  717.0000     8.0665   105.4602     0.0256     2.3832     0.1535   -56.6604     5.0250     5.9628
  717.5000     8.0656   103.2802     0.0035     2.3816     0.1431   -56.6798     4.9980     5.9628
  718.0000     8.0647    99.4853     0.0064     2.3936     0.1328   -56.6992     4.9713     5.9628
  718.5000     8.0638   102.4284     0.0180     2.4111     0.1216   -56.7185     4.8694     5.9628
  719.0000     8.0628   105.3352     0.0157     2.4253     0.1185   -56.7379     4.5369     5.9080
  719.5000     8.0619   109.8051     0.0115     2.4431     0.1152   -56.7573     4.2368     5.5568
  720.0000     8.0610   114.2642     0.0073     2.4490     0.1096   -56.7767     4.1344     5.2401
  720.5000     8.0601   114.1274     0.0069     2.4590     0.1033   -56.8039     4.0596     4.9790
  721.0000     8.0592   114.0820     0.0073     2.4693     0.1004   -56.8392     3.9862     4.8214
  721.5000     8.0582   117.4621     0.0077     2.4732     0.1000   -56.8746     3.9141     4.9063
  722.0000     8.0573   129.2300     0.0082     2.4737     0.1001   -56.9092     3.8433     5.0534
  722.5000     8.0564   136.6110     0.0097     2.4680     0.1044   -56.9458     3.8272     5.2048
  723.0000     8.0561   138.6850     0.0145     2.4637     0.0957   -56.9946     4.0036     5.3794
