~VERSION INFORMATION
 VERS.                2.0:   CWLS LOG ASCII STANDARD - VERSION 2.0
 WRAP.                 NO:   ONE LINE PER DEPTH STEP
~WELL INFORMATION
#MNEM.UNIT      DATA TYPE    INFORMATION
#----------   ------------   ------------------------------
 STRT.F           24.0000:   START DEPTH
 STOP.F          609.0000:   STOP DEPTH
 STEP.F            0.5000:   STEP LENGTH
 NULL.          -999.2500:   NO VALUE
 COMP. FENIX & SCISSON INC:   COMPANY
 WELL.        S 34 #48-34:   WELL
 FLD .            NPR - 3:   FIELD
 LOC .      S34 T39N R78W:   LOCATION
 CNTY.            NATRONA:   COUNTY
 STAT.            WYOMING:   STATE
 CTRY. UNITED STATES OF AMERICA:   COUNTRY
 SRVC.              Welex:   SERVICE COMPANY
 DATE.        03-MAY-1977:   LOGDATE
 API .       490251035700:   API NUMBER
~CURVE INFORMATION
#MNEM.UNIT       API CODE    CURVE DESCRIPTION
#----------   ------------   ------------------------------
 DEPT.F                  :   
 CALD.IN     45 280 60 00:   CALIPER FROM DENSITY LOG
 CORR.G/C3   45 356 01 00:   DENSITY CORRECTION
 DPHI.DEC    45 890 12 00:   DENSITY POROSITY SANDSTONE
 GRD .GAPI   45 310 01 00:   GAMMA RAY FROM DENSITY LOG
 RHOB.G/C3   45 350 01 00:   BULK DENSITY
 GURD.OHMM   07 220 05 00:   SHALLOW GUARD RESISTIVITY
 ILD .OHMM   07 120 46 00:   INDUCTION LOG DEEP
 ILM .OHMM   07 120 44 00:   INDUCTION LOG MEDIUM
 SPR .MV     07 010 01 00:   SPONTANEOUS POTENTIAL FROM RES.
~PARAMETER INFORMATION
#MNEM.UNIT          VALUE    DESCRIPTION
#----------   ------------   ------------------------------
 PD  .                 GL:   PERMANENT DATUM
 EPD .F              5160:   ELEVATION PERMANENT DATUM
 LMF .                 GL:   LOG MEASURED FROM
 DMF .                 GL:   DRILLING MEASURED FROM
 EGL .F              5160:   GROUND LEVEL
 DATE.        03-MAY-1977:   RUN DATE
 RUN .                  1:   RUN NUMBER
 DD  .F               610:   DEPTH DRILLER
 DL  .F               611:   DEPTH LOGGER
 BLI .F               609:   BOTTOM LOG INTERVAL
 TLI .F                30:   TOP LOG INTERVAL
 CS  .IN            8.625:   CASING SIZE
 CBD .F                40:   CASING BOTTOM DRILLER
 CBL .F                32:   CASING BOTTOM LOGGER
 BS  .IN            7.875:   BIT SIZE
 BSD .F               610:   BIT SIZE AT DEPTH
 DFT .            KCL GEL:   DRILLING FLUID TYPE
 DFD .                8.9:   DRILLING FLUID DENSITY
 DFV .                 33:   DRILLING FLUID VISCOSITY
 DFPH.                8.0:   DRILLING FLUID PH
 DFL .                7.2:   DRILLING FLUID LOSS
 MSS .            MUD PIT:   MUD SAMPLE SOURCE
 RMS .OHMM           0.19:   RESISTIVITY MUD SAMPLE
 MST .F                65:   MUD SAMPLE TEMPERATURE
 RMF .OHMM           0.16:   RESISTIVITY MUD FILTRATE SAMPLE
 MFST.F                65:   MUD FILTRATE SAMPLE TEMPERATURE
 RMC .OHMM           0.24:   RESISTIVITY MUD CAKE
 MCST.F                65:   MUD CAKE SAMPLE TEMPERATURE
 MFSS.               MEAS:   MUD FILTRATE SAMPLE SOURCE
 MCSS.               MEAS:   MUD CAKE SAMPLE SOURCE
 RMB .OHMM           0.17:   RESISTIVITY MUD AT BHT
 BHT .F                72:   BOTTOM HOLE TEMPERATURE
 TCS .HRS               2:   TIME CURCULATED STOPPED
 MRT .F                72:   MAXIMUM RECORDED TEMPERATURE
 LUN .               8766:   LOGGING UNIT NUMBER
 LUL .             CASPER:   LOGGING UNIT LOCATION
 ENGI.          T. JOYNER:   RECORDING ENGINEER
 WITN.           ROB LYON:   WITNESSED BY
 CLNT.            A2DTECH:   CLIENT CODE
 ORIG.           5" PRINT:   ORIGIN OF DATA
 UWI .       490251035700:   UNIQUE WELL ID
 DICO. A2D Technologies, Inc.:   DIGITIZING COMPANY
~OTHER INFORMATION
~A   DEPT       CALD      CORR        DPHI      GRD         RHOB     GURD        ILD        ILM        SPR   
# ...
  316.0000     7.8108     0.0138     0.1859   106.2613     2.3823     5.0588     2.7995     3.3700   -36.5811
  316.5000     7.8123     0.0260     0.1569   107.8684     2.4101     4.3784     2.6318     3.1690   -36.5618
  317.0000     7.8073     0.0306     0.1447   114.8991     2.4434     3.6605     2.5109     2.9800   -36.5425
  317.5000     7.8001     0.0307     0.1319   119.6613     2.4608     3.2797     2.4273     2.9824   -36.2256
  318.0000     7.7866     0.0308     0.1271   121.8976     2.4733     3.1704     2.3179     3.1332   -36.2063
  318.5000     7.7882     0.0310     0.1214   119.6901     2.4794     3.4733     2.2877     3.3840   -35.8893
  319.0000     7.7895     0.0296     0.1186   118.3692     2.4817     4.1625     2.3063     3.6803   -35.5724
  319.5000     7.7908     0.0267     0.1216   117.3451     2.4743     5.4208     2.4740     4.0025   -35.4043
  320.0000     7.7826     0.0268     0.1258   117.3595     2.4691     6.3175     2.7094     4.4136   -35.2362
  320.5000     7.7782     0.0207     0.1287   118.5609     2.4647     5.6997     2.9673     4.8670   -34.7704
  321.0000     7.7799     0.0091     0.1308   120.4115     2.4617     6.8799     3.0961     5.3299   -34.4535
  321.5000     7.7811     0.0076     0.1299   124.6728     2.4633     8.6547     3.4380     5.8368   -33.9878
  322.0000     7.7825     0.0153     0.1265   121.1301     2.4694     9.2202     4.2061     6.1318   -33.8196
  322.5000     7.7838     0.0169     0.1238   119.8056     2.4739     9.2291     4.6384     6.3093   -33.6515
  323.0000     7.7854     0.0200     0.1219   124.4230     2.4762     9.1743     4.9412     6.4919   -33.6322
  323.5000     7.7867     0.0216     0.1213   126.9597     2.4763     9.1176     5.3372     6.5879   -33.9105
  324.0000     7.7880     0.0218     0.1285   126.9741     2.4710     9.0635     5.6464     6.5934   -34.1888
  324.5000     7.7893     0.0219     0.1333   126.9885     2.4619     9.0097     5.7704     6.6447   -34.3231
  325.0000     7.7906     0.0220     0.1389   126.4095     2.4536     8.9562     5.8971     6.7429   -34.4526
  325.5000     7.7919     0.0221     0.1458   125.9624     2.4413     8.9030     5.8202     6.7485   -34.7261
  326.0000     7.7932     0.0208     0.1523   127.0354     2.4309     8.8501     5.6681     6.7542   -34.8556
  326.5000     7.7945     0.0163     0.1565   130.6107     2.4227     8.9224     5.5174     6.6650   -34.9899
  327.0000     7.7958     0.0105     0.1595   134.1859     2.4175     9.0557     5.3361     6.3996   -35.1146
  327.5000     7.7972     0.0076     0.1606   135.0906     2.4221     9.1909     5.1954     6.1853   -35.2441
  328.0000     7.7987     0.0141     0.1576   131.2475     2.4417     9.3281     4.8864     5.8546   -35.2248
  328.5000     7.8000     0.0184     0.1390   126.5141     2.4507     9.0820     4.5014     5.2757   -35.2055
  329.0000     7.8203     0.0230     0.1342   122.6710     2.4568     8.4826     4.2927     4.6667   -35.0373
  329.5000     7.8373     0.0231     0.1311   118.2225     2.4629     4.8121     4.0936     4.5463   -35.1717
  330.0000     7.8485     0.0232     0.1283   115.8160     2.4674     4.5877     3.8769     4.9834   -35.1475
  330.5000     7.8499     0.0188     0.1250   120.6407     2.4720     6.0175     3.6963     5.1584   -34.9794
  331.0000     7.8511     0.0174     0.1226   126.5898     2.4743     7.4142     3.6246     5.0889   -34.8113
  331.5000     7.8375     0.0116     0.1232   130.1651     2.4736     7.8441     3.6307     4.9196   -34.6432
  332.0000     7.8092     0.0087     0.1250   124.2448     2.4738     7.0282     3.6823     4.8925   -34.3262
  332.5000     7.8108     0.0058     0.1225   125.4462     2.4783     6.8412     3.7894     5.1116   -34.1581
  333.0000     7.8121     0.0059     0.1201   127.2410     2.4813     8.0321     3.9273     5.4831   -33.5435
  333.5000     7.8132     0.0061     0.1222   129.1842     2.4747     8.7973     4.0977     5.8817   -33.2266
  334.0000     7.8146     0.0077     0.1248   131.2819     2.4695     8.5632     4.3053     6.1369   -32.9097
  334.5000     7.8160     0.0123     0.1236   132.0326     2.4725     8.6931     4.5547     6.4032   -32.8904
  335.0000     7.8173     0.0139     0.1242   130.8632     2.4734     9.5874     4.7523     6.6288   -32.8711
  335.5000     7.8186     0.0185     0.1248   127.3168     2.4727    10.2848     4.9586     6.8616   -32.8517
  336.0000     7.8199     0.0187     0.1241   124.3638     2.4727    10.6575     5.1737     7.0674   -32.8324
  336.5000     7.8215     0.0188     0.1238   121.4109     2.4728    10.8918     5.4357     7.2723   -32.8131
  337.0000     7.8228     0.0189     0.1247   119.7897     2.4744    11.0544     5.6716     7.4831   -32.7938
  337.5000     7.8241     0.0190     0.1284   125.0006     2.4722    11.2195     5.9588     7.7091   -32.7745
  338.0000     7.8254     0.0191     0.1321   130.8014     2.4633    11.3870     6.1320     7.9138   -32.7552
  338.5000     7.8267     0.0192     0.1332   129.3234     2.4588    11.3980     6.3101     7.8559   -32.5871
  339.0000     7.8280     0.0148     0.1332   127.9091     2.4581    11.3303     6.3601     7.5945   -32.5677
  339.5000     7.8246     0.0135     0.1329   126.3972     2.4590    11.2603     6.3662     7.6209   -32.5484
  340.0000     7.8157     0.0091     0.1334   127.4502     2.4575    11.0422     6.3268     7.6315   -32.6786
  340.5000     7.8174     0.0077     0.1343   134.5863     2.4553    10.3850     6.2043     7.4709   -32.6586
  341.0000     7.8184     0.0079     0.1358   136.3812     2.4532    10.2497     6.0827     7.2698   -32.6393
  341.5000     7.8200     0.0095     0.1375   137.5825     2.4517    10.1888     5.8409     7.1247   -32.6200
  342.0000     7.8061     0.0141     0.1387   138.1904     2.4496    10.2011     5.6087     6.9359   -32.6007
  342.5000     7.8226     0.0142     0.1378   132.5669     2.4496    10.1381     5.4988     6.7534   -32.5814
  343.0000     7.8239     0.0143     0.1347   131.5075     2.4527    10.0084     5.3538     6.5743   -32.5620
  343.5000     7.8187     0.0145     0.1313   129.9287     2.4640     9.8145     5.1767     6.4000   -32.5427
  344.0000     7.8116     0.0191     0.1239   127.5693     2.4791     9.2304     4.7688     6.1446   -32.5234
  344.5000     7.8129     0.0207     0.1181   126.9866     2.4851     8.7414     4.5477     5.5815   -32.5041
  345.0000     7.8145     0.0208     0.1163   128.7851     2.4874     8.3938     4.3972     5.5082   -32.4848
  345.5000     7.8156     0.0224     0.1145   130.5799     2.4913     6.8258     4.3410     5.8280   -32.4655
  346.0000     7.8169     0.0225     0.1121   131.7813     2.4944     7.1223     4.3452     6.2945   -32.2974
  346.5000     7.8183     0.0227     0.1108   131.7957     2.4959     8.8364     4.4131     6.7514   -32.2780
  347.0000     7.8346     0.0228     0.1129   131.2166     2.4922    10.0887     4.5111     6.9454   -32.2587
  347.5000     7.8207     0.0229     0.1150   130.3116     2.4893    10.8978     4.6432     6.6682   -32.0906
  348.0000     7.8075     0.0230     0.1170   128.2818     2.4849    11.2148     4.8737     7.0554   -31.9225
  348.5000     7.7939     0.0216     0.1188   125.6256     2.4827    11.3037     5.1205     7.5153   -31.7544
  349.0000     7.7952     0.0218     0.1194   126.2335     2.4805    11.3147     5.3059     7.8407   -31.5862
  349.5000     7.7968     0.0219     0.1190   128.3251     2.4813    11.0901     5.5746     7.6859   -31.5669
  350.0000     7.7981     0.0220     0.1181   130.1199     2.4836    11.1807     5.7764     7.5325   -31.3204
  350.5000     7.8143     0.0204     0.1178   128.9474     2.4852    11.4265     5.9442     7.6455   -30.9871
  351.0000     7.8156     0.0162     0.1183   126.7363     2.4837    11.7588     5.9912     8.0319   -30.4646
  351.5000     7.8017     0.0164     0.1189   123.1849     2.4823    11.8520     6.0806     8.2643   -30.1478
  352.0000     7.8033     0.0150     0.1192   121.2755     2.4824    11.9459     6.1712     8.1574   -29.8311
