~VERSION INFORMATION
 VERS.                2.0:   CWLS LOG ASCII STANDARD - VERSION 2.0
 WRAP.                 NO:   ONE LINE PER DEPTH STEP
~WELL INFORMATION
#MNEM.UNIT      DATA TYPE    INFORMATION
#----------   ------------   ------------------------------
 STRT.F           33.0000:   START DEPTH
 STOP.F         1374.0000:   STOP DEPTH
 STEP.F            0.5000:   STEP LENGTH
 NULL.          -999.2500:   NO VALUE
 COMP. FENIX & SCISSON INC:   COMPANY
 WELL.   NPR-3 "S" #84-14:   WELL
 FLD .             TEAPOT:   FIELD
 LOC .      S14 T38N R78W:   LOCATION
 CNTY.            NATRONA:   COUNTY
 STAT.            WYOMING:   STATE
 CTRY. UNITED STATES OF AMERICA:   COUNTRY
 SRVC.            Unknown:   SERVICE COMPANY
 DATE.        18-MAR-1978:   LOGDATE
 API .       490251060400:   API NUMBER
~CURVE INFORMATION
#MNEM.UNIT       API CODE    CURVE DESCRIPTION
#----------   ------------   ------------------------------
 DEPT.F                  :   
 SPR .MV     05 010 01 00:   SPONTANEOUS POTENTIAL FROM RES.
 SN  .OHMM   05 040 16 00:   SHORT NORMAL 16"
 ILD .OHMM   05 120 46 00:   INDUCTION LOG DEEP
 CALD.IN     45 280 60 00:   CALIPER
 GRD .GAPI   45 310 01 00:   GAMMA RAY FROM DENSITY LOG
 CORR.G/C3   45 356 01 00:   DENSITY CORRECTION
 RHOB.G/C3   45 350 01 00:   BULK DENSITY
 DPHI.DEC    45 890 00 00:   DENSITY POROSITY
~PARAMETER INFORMATION
#MNEM.UNIT          VALUE    DESCRIPTION
#----------   ------------   ------------------------------
 PD  .                 GL:   PERMANENT DATUM
 EPD .F              5314:   ELEVATION PERMANENT DATUM
 LMF .                 KB:   LOG MEASURED FROM
 DMF .                 KB:   DRILLING MEASURED FROM
 EKB .F              5318:   KELLING BUSHING
 EGL .F              5314:   GROUND LEVEL
 DATE.          3-18-1978:   RUN DATE
 RUN .                  1:   RUN NUMBER
 DD  .F              1375:   DEPTH DRILLER
 DL  .F              1380:   DEPTH LOGGER
 BLI .F              1374:   BOTTOM LOG INTERVAL
 TLI .F                50:   TOP LOG INTERVAL
 CS  .IN            8.625:   CASING SIZE
 CBD .F                40:   CASING BOTTOM DRILLER
 CBL .F                50:   CASING BOTTOM LOGGER
 BS  .IN            7.875:   BIT SIZE
 BSD .F              1375:   BIT SIZE AT DEPTH
 DFT .                KCL:   DRILLING FLUID TYPE
 DFD .                8.1:   DRILLING FLUID DENSITY
 DFV .                 31:   DRILLING FLUID VISCOSITY
 DFPH.                 10:   DRILLING FLUID PH
 DFL .                8.4:   DRILLING FLUID LOSS
 MSS .           FLOWLINE:   MUD SAMPLE SOURCE
 RMS .OHMM            .28:   RESISTIVITY MUD SAMPLE
 MST .F                62:   MUD SAMPLE TEMPERATURE
 RMF .OHMM            .26:   RESISTIVITY MUD FILTRATE SAMPLE
 MFST.F                67:   MUD FILTRATE SAMPLE TEMPERATURE
 RMC .OHMM            .36:   RESISTIVITY MUD CAKE
 MCST.F                70:   MUD CAKE SAMPLE TEMPERATURE
 MFSS.               MEAS:   MUD FILTRATE SAMPLE SOURCE
 RMB .OHMM            .22:   RESISTIVITY MUD AT BHT
 BHT .F                80:   BOTTOM HOLE TEMPERATURE
 TCS .HRS               4:   TIME CURCULATED STOPPED
 MRT .F                80:   MAXIMUM RECORDED TEMPERATURE
 LUN .               2958:   LOGGING UNIT NUMBER
 LUL .               CASP:   LOGGING UNIT LOCATION
 ENGI.             MILLER:   RECORDING ENGINEER
 WITN.           MCGINLEY:   WITNESSED BY
 CLNT.            A2DTECH:   CLIENT CODE
 ORIG.      2" & 5" PRINT:   ORIGIN OF DATA
 UWI .       490251060400:   UNIQUE WELL ID
 DICO. A2D Technologies, Inc.:   DIGITIZING COMPANY
~OTHER INFORMATION
~A   DEPT      SPR         SN        ILD       CALD         GRD      CORR       RHOB       DPHI   
# ...
  397.5000   -53.5291     6.0533     5.1268     7.5049    98.0014     0.0151     2.4641     0.0975
  398.0000   -53.7628     6.0533     5.2416     7.5055    98.4756     0.0200     2.4711     0.0905
  398.5000   -54.0068     6.1653     5.4589     7.5061    97.0887     0.0182     2.4834     0.0836
  399.0000   -53.8434     6.3979     5.6851     7.5067    94.5303     0.0144     2.4994     0.0797
  399.5000   -53.5512     6.6979     5.9426     7.5073    91.9664     0.0107     2.5034     0.0834
  400.0000   -53.2541     7.0403     6.1395     7.5079    89.3772     0.0069     2.4947     0.0888
  400.5000   -52.9473     7.1472     6.3458     7.5085    86.8386     0.0051     2.4860     0.0942
  401.0000   -52.8671     7.1472     6.5590     7.5091    88.4559     0.0067     2.4718     0.0996
  401.5000   -52.8652     7.1081     6.8249     7.5097    90.6538     0.0082     2.4581     0.1046
  402.0000   -52.8640     7.0272     6.7955     7.5103    91.1201     0.0090     2.4581     0.1081
  402.5000   -52.5787     6.9126     6.7234     7.5109    91.6941     0.0084     2.4578     0.1116
  403.0000   -52.2707     6.7644     6.5773     7.5115    94.1988     0.0077     2.4554     0.1109
  403.5000   -52.4381     6.6193     6.4343     7.5121    96.6371     0.0070     2.4534     0.1102
  404.0000   -52.7013     6.4773     6.2945     7.5127    97.9637     0.0070     2.4533     0.1110
  404.5000   -52.9673     6.3857     6.1546     7.5133    97.4165     0.0070     2.4527     0.1076
  405.0000   -53.0631     6.3575     6.0483     7.5139    97.0981     0.0071     2.4573     0.1035
  405.5000   -53.0649     6.3294     5.9382     7.5145    97.2159     0.0043     2.4648     0.0986
  406.0000   -53.1272     6.3014     5.9031     7.5151    97.3007     0.0011     2.4684     0.1082
  406.5000   -53.2841     6.2736     5.8680     7.5157    97.3607     0.0005     2.4631     0.1086
  407.0000   -53.4393     6.2458     5.8319     7.5163    97.4153     0.0043     2.4578     0.1086
  407.5000   -53.5948     6.2129     5.7957     7.5169    97.5156     0.0046     2.4548     0.1086
  408.0000   -53.5800     6.1563     5.7717     7.5175    99.0889     0.0039     2.4555     0.1121
  408.5000   -53.3591     6.1002     5.7488     7.5181   100.8055     0.0032     2.4520     0.1157
  409.0000   -53.3187     6.0533     5.7259     7.5187   100.8747     0.0025     2.4485     0.1154
  409.5000   -53.6711     6.0618     5.7032     7.5193   100.7374     0.0018     2.4459     0.1131
  410.0000   -54.0233     6.0772     5.6805     7.5199   100.9753     0.0010     2.4493     0.1109
  410.5000   -54.2651     6.0927     5.6746     7.5205   101.6611     0.0003     2.4526     0.1090
  411.0000   -54.2539     6.1094     5.7057     7.5211   102.8387    -0.0005     2.4554     0.1115
  411.5000   -54.0726     6.1662     5.7332     7.5217   104.2530    -0.0006     2.4520     0.1142
  412.0000   -53.3917     6.2282     5.7609     7.5223   105.6473     0.0025     2.4482     0.1148
  412.5000   -52.9545     6.2909     5.7803     7.5229   105.5198     0.0056     2.4460     0.1135
  413.0000   -52.7286     6.3542     5.8586     7.5235   104.0512     0.0087     2.4483     0.1122
  413.5000   -52.7038     6.4180     5.9726     7.5242   102.6018     0.0090     2.4476     0.1166
  414.0000   -52.8496     6.4827     6.0888     7.5249   102.2364     0.0089     2.4436     0.1158
  414.5000   -52.7075     6.5171     6.2073     7.5256   102.2941     0.0087     2.4433     0.1135
  415.0000   -52.4760     6.5171     6.2232     7.5262   101.5969     0.0086     2.4471     0.1111
  415.5000   -52.2452     6.5171     6.2076     7.5269   100.8053     0.0084     2.4508     0.1119
  416.0000   -52.0741     6.5170     6.1953     7.5276    99.0177     0.0083     2.4487     0.1134
  416.5000   -52.1270     6.5171     6.1830     7.5283    97.0998     0.0082     2.4520     0.1104
  417.0000   -52.1744     6.5176     6.1707     7.5290    96.9352     0.0080     2.4576     0.1090
  417.5000   -52.2215     6.5180     6.1094     7.5297    98.4075     0.0079     2.4555     0.1102
  418.0000   -52.2666     6.4040     5.9964     7.5303    99.6645     0.0077     2.4534     0.1088
  418.5000   -52.2680     6.2950     5.8876     7.5310    99.1690     0.0076     2.4583     0.1062
  419.0000   -52.2676     6.1879     5.7807     7.5317    97.3607     0.0074     2.4591     0.1058
  419.5000   -52.2682     6.0826     5.6759     7.5324    97.6137     0.0073     2.4600     0.1035
  420.0000   -52.2673     5.9977     5.5719     7.5331    98.0387     0.0071     2.4638     0.0962
  420.5000   -52.2525     5.9288     5.4173     7.5337    97.9876     0.0070     2.4722     0.1006
  421.0000   -52.7775     5.8923     5.4198     7.5344    97.5921     0.0070     2.4729     0.1064
  421.5000   -53.4303     5.8559     5.4178     7.5351    97.5342     0.0070     2.4626     0.1122
  422.0000   -53.9079     5.8198     5.4186     7.5358    98.0838     0.0070     2.4495     0.1175
  422.5000   -54.0245     5.7839     5.4187     7.5364    98.9615     0.0070     2.4429     0.1171
  423.0000   -53.8426     5.7483     5.4187     7.5371    99.4835     0.0070     2.4442     0.1151
  423.5000   -53.0845     5.7128     5.4187     7.5378    99.0357     0.0070     2.4476     0.1138
  424.0000   -53.3814     5.6748     5.4187     7.5385    98.3430     0.0070     2.4472     0.1152
  424.5000   -53.8376     5.7005     5.4187     7.5392    98.2525     0.0070     2.4448     0.1162
  425.0000   -53.7805     5.7287     5.4196     7.5399    97.4790     0.0070     2.4442     0.1154
  425.5000   -53.4581     5.7570     5.3862     7.5405    96.7234     0.0071     2.4435     0.1158
  426.0000   -53.1458     5.7856     5.3234     7.5412    98.2513     0.0149     2.4426     0.1143
  426.5000   -52.8816     5.8144     5.2606     7.5419   100.0518     0.0229     2.4451     0.1113
  427.0000   -53.2147     5.8430     5.1985     7.5426    99.0267     0.0231     2.4459     0.1156
  427.5000   -53.5562     5.8717     5.1372     7.5451    96.6638     0.0259     2.4438     0.1190
  428.0000   -53.8730     5.8880     5.0797     7.5579    94.3099     0.0391     2.4452     0.1182
  428.5000   -54.0186     5.7792     5.0797     7.5708    91.9449     0.0372     2.4569     0.1026
  429.0000   -53.9293     5.6777     5.0797     7.5838    89.5206     0.0246     2.4636     0.1126
  429.5000   -53.8705     5.5780     5.0797     7.5970    88.9357     0.0117     2.4492     0.1109
  430.0000   -53.9285     5.4799     5.0797     7.5992    93.1372     0.0048     2.4508     0.1119
  430.5000   -53.9829     5.3836     5.0797     7.5765    96.9354     0.0012     2.4552     0.1168
  431.0000   -54.0362     5.2889     5.0347     7.5653    99.7563    -0.0023     2.4404     0.1217
  431.5000   -53.8897     5.2608     4.9905     7.5549    99.6412    -0.0023     2.4246     0.1266
  432.0000   -53.4646     5.2485     4.9468     7.5446    98.6319    -0.0013     2.4222     0.1290
  432.5000   -53.7613     5.2362     4.9034     7.5342    97.6400    -0.0002     2.4205     0.1298
  433.0000   -54.1381     5.2239     4.8605     7.5239    96.6501     0.0009     2.4186     0.1310
  433.5000   -54.4712     5.2117     4.8503     7.5135    95.6626     0.0019     2.4163     0.1298
  434.0000   -54.4515     5.1994     4.8658     7.5031    94.7165     0.0030     2.4168     0.1264
  434.5000   -54.0958     5.1873     4.8862     7.4927    94.8168     0.0041     2.4306     0.1192
  435.0000   -53.7166     5.1743     4.9065     7.4823    95.1177     0.0049     2.4455     0.1098
  435.5000   -53.4601     5.2922     4.9272     7.4720    95.2884     0.0043     2.4509     0.1122
  436.0000   -53.6048     5.4562     4.9595     7.4634    95.2220     0.0037     2.4454     0.1167
  436.5000   -53.7526     5.5708     5.0166     7.4647    95.1712     0.0031     2.4401     0.1206
  437.0000   -53.7624     5.5752     5.0743     7.4657    95.1307     0.0025     2.4376     0.1186
  437.5000   -53.3880     5.5802     5.1268     7.4667    96.0598     0.0019     2.4437     0.1146
