~VERSION INFORMATION
 VERS.                2.0:   CWLS LOG ASCII STANDARD - VERSION 2.0
 WRAP.                 NO:   ONE LINE PER DEPTH STEP
~WELL INFORMATION
#MNEM.UNIT      DATA TYPE    INFORMATION
#----------   ------------   ------------------------------
 STRT.F           60.0000:   START DEPTH
 STOP.F          482.0000:   STOP DEPTH
 STEP.F            0.5000:   STEP LENGTH
 NULL.          -999.2500:   NO VALUE
 COMP. BROWN JOHN E&C INC:   COMPANY
 WELL. NPR 3 68 SX-3 #68-1-3:   WELL
 FLD .             TEAPOT:   FIELD
 LOC .       S3 T38N R78W:   LOCATION
 CNTY.            NATRONA:   COUNTY
 STAT.            WYOMING:   STATE
 CTRY. UNITED STATES OF AMERICA:   COUNTRY
 SRVC.     Atlas Wireline:   SERVICE COMPANY
 DATE.        29-SEP-1991:   LOGDATE
 API .       490252244800:   API NUMBER
~CURVE INFORMATION
#MNEM.UNIT       API CODE    CURVE DESCRIPTION
#----------   ------------   ------------------------------
 DEPT.F                  :   
 CALD.IN     45 280 60 00:   CALIPER FROM DENSITY LOG
 CNC .DEC    42 890 03 00:   NEUTRON POROSITY SANDSTONE
 CORR.G/C3   45 356 01 00:   DENSITY CORRECTION
 GRD .GAPI   45 310 01 00:   GAMMA RAY FROM DENSITY LOG
 PORD.DEC    45 890 12 00:   POROSITY DENSITY SANDSTONE
 RHOB.G/C3   45 350 01 00:   BULK DENSITY
 RFOC.OHMM   07 220 04 00:   RESISTIVITY FOCUSED LOG
 RILD.OHMM   07 120 46 00:   RESISTIVITY INDUCTION LOG DEEP
 RILM.OHMM   07 120 44 00:   RESISTIVITY INDUCTION LOG MEDIUM
~PARAMETER INFORMATION
#MNEM.UNIT          VALUE    DESCRIPTION
#----------   ------------   ------------------------------
 PD  .                 GL:   PERMANENT DATUM
 EPD .F              5153:   ELEVATION PERMANENT DATUM
 LMF .                 KB:   LOG MEASURED FROM
 DAPD.F                10:   FEET ABOVE PERMANENT DATUM
 DMF .                 KB:   DRILLING MEASURED FROM
 EKB .F              5163:   KELLING BUSHING
 EGL .F              5153:   GROUND LEVEL
 DATE.        29-SEP-1991:   RUN DATE
 RUN .                  1:   RUN NUMBER
 DD  .F               485:   DEPTH DRILLER
 DL  .F               485:   DEPTH LOGGER
 BLI .F               482:   BOTTOM LOG INTERVAL
 CS  .IN            8.625:   CASING SIZE
 CBD .F                98:   CASING BOTTOM DRILLER
 CBL .F               100:   CASING BOTTOM LOGGER
 BS  .IN            7.875:   BIT SIZE
 BSD .F               485:   BIT SIZE AT DEPTH
 DFT .           CHEM GEL:   DRILLING FLUID TYPE
 DFD .               15.4:   DRILLING FLUID DENSITY
 DFV .                 38:   DRILLING FLUID VISCOSITY
 DFPH.                9.0:   DRILLING FLUID PH
 DFL .                8.0:   DRILLING FLUID LOSS
 MSS .           FLOWLINE:   MUD SAMPLE SOURCE
 RMS .OHMM           1.65:   RESISTIVITY MUD SAMPLE
 MST .F                90:   MUD SAMPLE TEMPERATURE
 RMF .OHMM           1.32:   RESISTIVITY MUD FILTRATE SAMPLE
 MFST.F                90:   MUD FILTRATE SAMPLE TEMPERATURE
 RMC .OHMM           2.06:   RESISTIVITY MUD CAKE
 MCST.F                90:   MUD CAKE SAMPLE TEMPERATURE
 MFSS.               CALC:   MUD FILTRATE SAMPLE SOURCE
 MCSS.               CALC:   MUD CAKE SAMPLE SOURCE
 RMB .OHMM           1.65:   RESISTIVITY MUD AT BHT
 BHT .F                90:   BOTTOM HOLE TEMPERATURE
 TCS .HRS               1:   TIME CURCULATED STOPPED
 MRT .F                90:   MAXIMUM RECORDED TEMPERATURE
 LUN .            HL 6272:   LOGGING UNIT NUMBER
 LUL .             CASPER:   LOGGING UNIT LOCATION
 ENGI. WADDELL/ OTTERHOLT:   RECORDING ENGINEER
 WITN.             STRONG:   WITNESSED BY
 CLNT.            A2DTECH:   CLIENT CODE
 ORIG.           5" PRINT:   ORIGIN OF DATA
 UWI .       490252244800:   UNIQUE WELL ID
 DICO. A2D Technologies, Inc.:   DIGITIZING COMPANY
~OTHER INFORMATION
~A   DEPT     CALD        CNC       CORR         GRD      PORD       RHOB       RFOC       RILD       RILM   
# ...
  425.0000     7.7881     0.2758     0.0099    92.8896     0.0698     2.5331    11.6975    11.7950    11.5657
  425.5000     7.8034     0.2743     0.0099    92.5798     0.0680     2.5339    11.8670    11.8836    11.8169
  426.0000     7.8188     0.2727     0.0099    92.5749     0.0671     2.5369    11.8720    11.9728    11.8240
  426.5000     7.8341     0.2718     0.0099    92.5680     0.0680     2.5384    11.8771    11.9789    11.7471
  427.0000     7.8649     0.2734     0.0068    92.8646     0.0701     2.5369    11.9653    11.9002    11.7558
  427.5000     7.8763     0.2764     0.0038    93.7679     0.0731     2.5323    11.9705    11.9078    11.8450
  428.0000     7.8957     0.2748     0.0008    91.3399     0.0752     2.5247    11.9757    11.9138    11.9406
  428.5000     7.9265     0.2734    -0.0023    87.7031     0.0788     2.5155    11.8987    11.9200    12.0258
  429.0000     7.9573     0.2731    -0.0020    87.9998     0.0835     2.5109    11.9037    12.0109    11.8679
  429.5000     7.9572     0.2727     0.0038    87.9938     0.0858     2.5083    11.9922    12.0170    11.8750
  430.0000     7.9809     0.2731     0.0129    87.3828     0.0867     2.5063    12.0646    12.1939    12.1231
  430.5000     7.9879     0.2727     0.0251    86.1160     0.0857     2.5063    12.5842    12.5363    12.4732
  431.0000     7.9878     0.2718     0.0312    84.9501     0.0833     2.5086    12.6765    12.6316    12.5673
  431.5000     7.9877     0.2709     0.0251    84.3378     0.0806     2.5117    12.6694    12.6392    12.5743
  432.0000     7.9722     0.2706     0.0099    84.3318     0.0787     2.5169    12.3371    12.5571    12.4933
  432.5000     7.9566     0.2697    -0.0008    84.3259     0.0775     2.5207    12.0858    12.3925    12.3283
  433.0000     7.9565     0.2694     0.0038    85.5318     0.0778     2.5207    11.8399    12.2189    12.1623
  433.5000     7.9564     0.2673     0.0099    86.7361     0.0794     2.5176    11.8439    12.0662    12.0842
  434.0000     7.9563     0.2661     0.0190    87.9390     0.0829     2.5123    11.8478    12.0753    12.0923
  434.5000     7.9562     0.2645     0.0283    89.7485     0.0862     2.5108    11.8518    12.1672    12.0988
  435.0000     7.9407     0.2628     0.0264    91.2554     0.0853     2.5115    11.8558    12.1745    12.1904
  435.5000     7.9406     0.2615     0.0190    92.4598     0.0841     2.5122    11.8607    12.1818    12.1984
  436.0000     7.9250     0.2603     0.0129    90.9410     0.0835     2.5123    11.8646    12.1894    12.2049
  436.5000     7.9249     0.2609     0.0114    88.7918     0.0862     2.5107    11.8686    12.1984    12.2115
  437.0000     7.9248     0.2640     0.0114    89.7691     0.0877     2.5084    11.7901    12.1209    12.2181
  437.5000     7.9093     0.2719     0.0114    92.7372     0.0883     2.5046    11.7940    12.1282    12.1395
  438.0000     7.8937     0.2815     0.0114    95.1518     0.0834     2.5103    11.7160    12.0494    12.0616
  438.5000     7.8782     0.2879     0.0114    93.9356     0.0749     2.5213    11.4773    11.8915    11.9841
  439.0000     7.8626     0.2924     0.0099    93.6286     0.0725     2.5266    11.3231    11.7281    11.9071
  439.5000     7.8316     0.2936     0.0129    95.1340     0.0715     2.5289    11.0915    11.4997    11.6682
  440.0000     7.8315     0.2927     0.0205    98.1538     0.0718     2.5296    10.8664    11.2684    11.5125
  440.5000     7.8314     0.2918     0.0424    99.3582     0.0736     2.5273    10.7945    11.0402    11.2014
  441.0000     7.8313     0.2912     0.0528    98.7471     0.0754     2.5273    10.7231    10.7446    10.8988
  441.5000     7.8158     0.2936     0.0525    97.5309     0.0739     2.5296    10.7276    10.5284    10.6701
  442.0000     7.8311     0.2973     0.0464    96.3147     0.0720     2.5341    10.8062    10.3131    10.4628
  442.5000     7.8310     0.3007     0.0342    95.0731     0.0681     2.5417    10.8855    10.1094    10.3956
  443.0000     7.8309     0.3057     0.0251    93.8820     0.0645     2.5471    10.8133     9.9754    10.4026
  443.5000     7.8308     0.3103     0.0236    94.4800     0.0608     2.5486    10.7419     9.9121    10.4082
  444.0000     7.8308     0.3115     0.0266    94.4740     0.0626     2.5454    10.5240     9.7822    10.3412
  444.5000     7.8616     0.3131     0.0236    97.1913     0.0693     2.5363    10.3096     9.6525    10.3470
  445.0000     7.8924     0.3160     0.0190    99.9085     0.0726     2.5333    10.1702     9.6584    10.3528
  445.5000     7.9541     0.3173     0.0145    99.9026     0.0717     2.5333     9.9630     9.5970    10.2860
  446.0000     7.9563     0.3145     0.0099    99.5941     0.0701     2.5355     9.9663     9.4713    10.2199
  446.5000     7.9539     0.3121     0.0068    98.6804     0.0665     2.5401     9.9004     9.4111    10.2268
  447.0000     7.9538     0.3097     0.0068    98.6745     0.0649     2.5439     9.9738     9.4168    10.0904
  447.5000     7.9537     0.3108     0.0084    98.6686     0.0631     2.5462    10.2593     9.4225     9.8866
  448.0000     7.9536     0.3197     0.0114    98.6626     0.0625     2.5499    10.6268     9.3627     9.6824
  448.5000     7.9535     0.3200     0.0129    98.9593     0.0622     2.5530    10.8551     9.3697     9.6246
  449.0000     7.9534     0.3197     0.0190    98.6505     0.0618     2.5560    10.9347     9.3088     9.4962
  449.5000     7.9843     0.3194     0.0251    98.6434     0.0615     2.5583    10.8623     9.3159     9.3696
  450.0000     7.9842     0.3188     0.0160    98.0333     0.0542     2.5537    10.7161     9.3215     9.3424
  450.5000     7.9841     0.3194     0.0099    98.0333     0.0553     2.5505    10.3486     9.2562     9.1843
  451.0000     7.9840     0.3237     0.0129    98.6384     0.0639     2.5468    10.3486     9.2562     9.1235
  451.5000     7.9684     0.3224     0.0160    99.5461     0.0630     2.5453    10.3486     9.1919     9.0630
  452.0000     7.9529     0.3170     0.0266   100.7564     0.0617     2.5468    10.3486     9.0017     8.9403
  452.5000     7.9219     0.3151     0.0359   101.9667     0.0602     2.5499    10.3486     8.7541     8.8200
  453.0000     7.9372     0.3145     0.0373   105.2950     0.0593     2.5529    10.2767     8.6329     8.6400
  453.5000     7.9371     0.3170     0.0312   109.2284     0.0574     2.5537    10.0640     8.5729     8.4564
  454.0000     7.9370     0.3200     0.0221   108.9259     0.0553     2.5499     9.8557     8.5102     8.3491
  454.5000     7.9524     0.3224     0.0160   105.9002     0.0604     2.5446     9.7872     8.3954     8.3526
  455.0000     7.9523     0.3212     0.0099   103.1266     0.0653     2.5423     9.7872     8.2216     8.2395
  455.5000     7.9831     0.3206     0.0068   101.9667     0.0643     2.5484     9.7872     7.9955     8.1848
  456.0000     7.9985     0.3230     0.0099   103.4796     0.0598     2.5529     9.7872     7.7756     7.9627
  456.5000     8.0138     0.3309     0.0160   105.2950     0.0576     2.5522     9.7872     7.4570     7.5854
  457.0000     8.0137     0.3388     0.0236   107.1104     0.0576     2.5453     9.8557     7.1469     7.3275
  457.5000     8.0136     0.3477     0.0312   108.3207     0.0600     2.5316     9.9293     6.8109     6.9803
  458.0000     8.0135     0.3548     0.0373   109.8336     0.0697     2.5042    10.0640     6.5318     6.7903
  458.5000     8.0134     0.3521     0.0403   110.7413     0.0903     2.4943     8.2792     6.4414     6.6054
  459.0000     8.0133     0.3488     0.0342   108.3207     0.0927     2.4973     7.0035     7.0035     6.6545
  459.5000     8.0132     0.3406     0.0236   104.6370     0.0902     2.5103     7.3538     7.0035     6.7976
  460.0000     8.0131     0.3309     0.0129   101.9667     0.0805     2.5255     9.7192     7.1085     6.9925
  460.5000     8.0130     0.3239     0.0129   103.1770     0.0718     2.5392    10.0640     7.6147     7.2476
  461.0000     8.0129     0.3248     0.0175   102.8744     0.0671     2.5393    10.0640     8.1645     7.8248
