~VERSION INFORMATION
 VERS.                2.0:   CWLS LOG ASCII STANDARD - VERSION 2.0
 WRAP.                 NO:   ONE LINE PER DEPTH STEP
~WELL INFORMATION
#MNEM.UNIT      DATA TYPE    INFORMATION
#----------   ------------   ------------------------------
 STRT.F           34.0000:   START DEPTH
 STOP.F         1014.5000:   STOP DEPTH
 STEP.F            0.5000:   STEP LENGTH
 NULL.          -999.2500:   NO VALUE
 COMP. FENIX & SCISSON INC:   COMPANY
 WELL.       NPR-3 #54-14:   WELL
 FLD .             TEAPOT:   FIELD
 LOC .      S14 T38N R78W:   LOCATION
 CNTY.            NATRONA:   COUNTY
 STAT.            WYOMING:   STATE
 CTRY. UNITED STATES OF AMERICA:   COUNTRY
 SRVC.            Unknown:   SERVICE COMPANY
 DATE.        20-APR-1978:   LOGDATE
 API .       490251062100:   API NUMBER
~CURVE INFORMATION
#MNEM.UNIT       API CODE    CURVE DESCRIPTION
#----------   ------------   ------------------------------
 DEPT.F                  :   
 SPR .MV     05 010 01 00:   SPONTANEOUS POTENTIAL FROM RES.
 SN  .OHMM   05 040 16 00:   SHORT NORMAL 16"
 ILD .OHMM   05 120 46 00:   INDUCTION LOG DEEP
 CALD.IN     45 280 60 00:   CALIPER
 GRD .GAPI   45 310 01 00:   GAMMA RAY FROM DENSITY LOG
 RHOB.G/C3   45 350 01 00:   BULK DENSITY
 DPOR.DEC    45 890 12 00:   DENSITY POROSITY SANDSTONE
 CORR.G/C3   45 356 01 00:   DENSITY CORRECTION
~PARAMETER INFORMATION
#MNEM.UNIT          VALUE    DESCRIPTION
#----------   ------------   ------------------------------
 PD  .                 GL:   PERMANENT DATUM
 EPD .F              5268:   ELEVATION PERMANENT DATUM
 LMF .                 KB:   LOG MEASURED FROM
 DAPD.F                 4:   FEET ABOVE PERMANENT DATUM
 DMF .                 KB:   DRILLING MEASURED FROM
 EKB .F              5272:   KELLING BUSHING
 EGL .F              5268:   GROUND LEVEL
 DATE.          4-20-1978:   RUN DATE
 RUN .                  1:   RUN NUMBER
 DD  .F              1030:   DEPTH DRILLER
 DL  .F              1021:   DEPTH LOGGER
 BLI .F              1014:   BOTTOM LOG INTERVAL
 TLI .F                50:   TOP LOG INTERVAL
 CS  .IN            8.625:   CASING SIZE
 CBD .F                40:   CASING BOTTOM DRILLER
 BS  .IN            7.875:   BIT SIZE
 BSD .F              1030:   BIT SIZE AT DEPTH
 DFT .                KCL:   DRILLING FLUID TYPE
 DFD .                8.6:   DRILLING FLUID DENSITY
 DFV .                 33:   DRILLING FLUID VISCOSITY
 DFPH.                 10:   DRILLING FLUID PH
 DFL .                  8:   DRILLING FLUID LOSS
 MSS .          FLOW LINE:   MUD SAMPLE SOURCE
 RMS .OHMM            .34:   RESISTIVITY MUD SAMPLE
 MST .F                64:   MUD SAMPLE TEMPERATURE
 RMF .OHMM            .36:   RESISTIVITY MUD FILTRATE SAMPLE
 MFST.F                60:   MUD FILTRATE SAMPLE TEMPERATURE
 RMC .OHMM            .48:   RESISTIVITY MUD CAKE
 MCST.F                68:   MUD CAKE SAMPLE TEMPERATURE
 MFSS.               MEAS:   MUD FILTRATE SAMPLE SOURCE
 MCSS.               MEAS:   MUD CAKE SAMPLE SOURCE
 RMB .OHMM            .29:   RESISTIVITY MUD AT BHT
 BHT .F                74:   BOTTOM HOLE TEMPERATURE
 TCS .HRS               6:   TIME CURCULATED STOPPED
 MRT .F                74:   MAXIMUM RECORDED TEMPERATURE
 LUN .               2958:   LOGGING UNIT NUMBER
 LUL .               CASP:   LOGGING UNIT LOCATION
 ENGI.             MILLER:   RECORDING ENGINEER
 WITN.           MCGINELY:   WITNESSED BY
 CLNT.            A2DTECH:   CLIENT CODE
 ORIG.       2", 5" PRINT:   ORIGIN OF DATA
 UWI .       490251062100:   UNIQUE WELL ID
 DICO. A2D Technologies, Inc.:   DIGITIZING COMPANY
~OTHER INFORMATION
~A   DEPT      SPR         SN        ILD       CALD         GRD      RHOB       DPOR       CORR   
# ...
  601.0000   -30.2188     8.2491     7.0444     7.9377   101.9566     2.4908     0.1134     0.0465
  601.5000   -30.2093     8.2635     7.0551     7.9386    99.4345     2.4966     0.1102     0.0539
  602.0000   -30.1998     8.2779     7.0658     7.9393    96.8732     2.5026     0.1068     0.0556
  602.5000   -30.1898     8.2924     7.0780     7.9401    96.7304     2.5058     0.1070     0.0534
  603.0000   -30.1763     8.3069     7.0623     7.9410    97.2062     2.5042     0.1073     0.0501
  603.5000   -30.3382     8.3214     7.0424     7.9418    98.5886     2.5034     0.1076     0.0396
  604.0000   -30.5291     8.3360     7.0225     7.9426   100.2543     2.5059     0.1074     0.0269
  604.5000   -30.7287     8.3505     7.0026     7.9434   102.2899     2.5074     0.1072     0.0142
  605.0000   -30.7861     8.3651     6.9829     7.9443   104.1122     2.4949     0.1139     0.0072
  605.5000   -30.8003     8.3797     6.9631     7.9451   103.6176     2.4926     0.1130     0.0067
  606.0000   -30.8132     8.3944     6.9435     7.9459   102.2846     2.4977     0.1115     0.0061
  606.5000   -30.8265     8.4091     6.9239     7.9467   101.0078     2.4940     0.1144     0.0055
  607.0000   -30.8399     8.4237     6.9043     7.9475    99.4737     2.4910     0.1140     0.0050
  607.5000   -30.8533     8.4385     6.8854     7.9484    97.4452     2.4915     0.1118     0.0044
  608.0000   -30.8667     8.4532     6.9538     7.9492    95.3955     2.4959     0.1100     0.0038
  608.5000   -30.8801     8.4680     7.0218     7.9500    94.3818     2.5002     0.1096     0.0036
  609.0000   -30.8935     8.4828     7.0901     7.9508    94.9119     2.5020     0.1096     0.0037
  609.5000   -30.9069     8.4976     7.1590     7.9517    99.3435     2.5021     0.1100     0.0039
  610.0000   -30.9203     8.5125     7.2286     7.9525   103.8313     2.4974     0.1123     0.0041
  610.5000   -30.9337     8.5274     7.2988     7.9533   108.3425     2.4906     0.1144     0.0042
  611.0000   -30.9471     8.5422     7.3702     7.9541   110.1201     2.4876     0.1164     0.0044
  611.5000   -30.9604     8.5572     7.4132     7.9549   109.7516     2.4912     0.1123     0.0046
  612.0000   -30.9738     8.5722     7.3859     7.9566   109.2443     2.5008     0.1085     0.0047
  612.5000   -30.9872     8.5914     7.3526     7.9576   108.8865     2.5106     0.1071     0.0049
  613.0000   -31.0006     8.5757     7.3194     8.0121   109.9261     2.5099     0.1105     0.0051
  613.5000   -31.0140     8.5503     7.2864     7.7080   111.2574     2.5021     0.1136     0.0052
  614.0000   -31.0274     8.5252     7.2536     7.7315   109.6100     2.4944     0.1140     0.0055
  614.5000   -31.0408     8.5001     7.2210     7.8805   108.0716     2.4897     0.1108     0.0023
  615.0000   -31.0542     8.4751     7.1884     7.8726   107.5943     2.5056     0.1068    -0.0027
  615.5000   -31.0676     8.4502     7.1560     7.8660   106.3901     2.4964     0.1166    -0.0053
  616.0000   -31.0810     8.4253     7.1238     7.8597   105.5379     2.4792     0.1216     0.0010
  616.5000   -31.0944     8.4005     7.0917     7.8480   106.0454     2.4894     0.1134     0.0068
  617.0000   -31.1078     8.3758     7.0598     7.8342   108.5490     2.5060     0.1064     0.0095
  617.5000   -31.1212     8.3511     7.0280     7.8202   111.0177     2.5088     0.1071     0.0118
  618.0000   -31.1346     8.3266     6.9963     7.8062   112.5654     2.5009     0.1080     0.0140
  618.5000   -31.1480     8.3021     6.9648     7.7921   111.5241     2.5017     0.1077     0.0163
  619.0000   -31.1617     8.2776     6.9334     7.7791   110.9186     2.5017     0.1072     0.0186
  619.5000   -31.1741     8.2533     6.9022     7.7961   112.1728     2.5010     0.1068     0.0195
  620.0000   -31.1374     8.2290     6.8711     7.8143   112.5134     2.5063     0.1064     0.0174
  620.5000   -31.0972     8.2049     6.8401     7.7987   112.4908     2.5098     0.1080     0.0140
  621.0000   -31.0572     8.2193     6.8221     7.7862   112.9829     2.5032     0.1119     0.0106
  621.5000   -31.0173     8.2341     6.8221     7.7861   112.8868     2.4965     0.1157     0.0072
  622.0000   -30.9774     8.2488     6.8448     7.8227   107.3221     2.4898     0.1188     0.0039
  622.5000   -30.9374     8.2635     6.8804     7.8580   101.8852     2.4833     0.1199     0.0005
  623.0000   -30.8975     8.2782     6.9159     7.8932    96.8711     2.4801     0.1190    -0.0029
  623.5000   -30.8578     8.2929     6.9515     7.9295    95.8905     2.4875     0.1180    -0.0063
  624.0000   -30.8186     8.3077     6.9874     7.9371    95.6957     2.4798     0.1218    -0.0098
  624.5000   -30.7736     8.3224     7.0234     7.9372    95.0681     2.4707     0.1260    -0.0105
  625.0000   -30.5786     8.3373     7.0596     7.9371    94.1565     2.4710     0.1269    -0.0077
  625.5000   -30.3743     8.3522     7.0960     7.9371    95.2719     2.4692     0.1279    -0.0030
  626.0000   -30.1705     8.4513     7.1326     7.9371    99.7840     2.4706     0.1288     0.0014
  626.5000   -29.9669     8.6021     7.1695     7.9371   104.2325     2.4828     0.1204     0.0011
  627.0000   -29.7633     8.7555     7.2063     7.9371   108.7164     2.4830     0.1212     0.0007
  627.5000   -29.5597     8.9153     7.2254     7.9371   110.6546     2.4785     0.1230     0.0003
  628.0000   -29.3556     8.9111     7.2419     7.9371   111.4946     2.4741     0.1248    -0.0002
  628.5000   -29.1521     8.9053     7.2586     7.9371   110.7486     2.4698     0.1266    -0.0003
  629.0000   -28.9793     8.8995     7.2753     7.9343   108.6149     2.4654     0.1284     0.0011
  629.5000   -28.9838     8.8937     7.2920     7.9258   109.4789     2.4609     0.1294     0.0048
  630.0000   -29.0063     8.8878     7.3088     7.9174   112.3268     2.4672     0.1252     0.0093
  630.5000   -29.0618     8.8820     7.3257     7.9090   114.0829     2.4797     0.1212     0.0138
  631.0000   -29.1167     8.8762     7.3446     7.9005   114.2465     2.4837     0.1196     0.0155
  631.5000   -29.1717     8.8704     7.3393     7.8921   112.4297     2.4815     0.1207     0.0152
  632.0000   -29.2268     8.8646     7.3310     7.8837   110.1149     2.4789     0.1218     0.0137
  632.5000   -29.2818     8.8588     7.3228     7.8752   107.8189     2.4763     0.1228     0.0122
  633.0000   -29.3368     8.8530     7.3146     7.8668   107.2973     2.4760     0.1239     0.0107
  633.5000   -29.3918     8.8472     7.3064     7.8581   108.1596     2.4760     0.1250     0.0093
  634.0000   -29.4469     8.8410     7.2982     7.8582   109.4162     2.4746     0.1261     0.0078
  634.5000   -29.5019     8.8365     7.2902     7.8267   110.5497     2.4718     0.1264     0.0063
  635.0000   -29.5569     8.8297     7.2819     7.7851   109.0594     2.4690     0.1264     0.0048
  635.5000   -29.6119     8.9137     7.2751     7.7615   106.7876     2.4707     0.1233     0.0033
  636.0000   -29.6670     9.0478     7.3922     7.7847   104.6026     2.4799     0.1200     0.0019
  636.5000   -29.7225     9.1745     7.5260     7.8071   104.6406     2.4824     0.1168     0.0004
  637.0000   -29.7788     9.3029     7.6631     7.8300   105.3167     2.4889     0.1173    -0.0011
  637.5000   -29.7802     9.4332     7.8025     7.8251   105.9928     2.4867     0.1181    -0.0025
  638.0000   -29.7153     9.5653     7.9444     7.8060   107.5709     2.4838     0.1189    -0.0040
  638.5000   -29.6456     9.6992     8.0891     7.7865   110.3015     2.4810     0.1192    -0.0045
  639.0000   -29.5761     9.8350     8.2382     7.7670   112.9848     2.4790     0.1180    -0.0040
  639.5000   -29.5067     9.9727     8.3996     7.7475   115.0610     2.4856     0.1187    -0.0012
  640.0000   -29.4373    10.1123     8.5638     7.7359   114.8518     2.4844     0.1196     0.0008
  640.5000   -29.3678    10.2539     8.7313     7.7307   112.8466     2.4781     0.1179     0.0027
  641.0000   -29.2984    10.3975     8.9021     7.7256   106.0647     2.4883     0.1158     0.0046
