~VERSION INFORMATION
 VERS.                2.0:   CWLS LOG ASCII STANDARD - VERSION 2.0
 WRAP.                 NO:   ONE LINE PER DEPTH STEP
~WELL INFORMATION
#MNEM.UNIT      DATA TYPE    INFORMATION
#----------   ------------   ------------------------------
 STRT.F           16.0000:   START DEPTH
 STOP.F         2438.0000:   STOP DEPTH
 STEP.F            0.5000:   STEP LENGTH
 NULL.          -999.2500:   NO VALUE
 COMP. FENIX & SCISSON INC:   COMPANY
 WELL.      15 SHX #27-27:   WELL
 FLD .             TEAPOT:   FIELD
 LOC .      S27 T39N R78W:   LOCATION
 CNTY.            NATRONA:   COUNTY
 STAT.            WYOMING:   STATE
 CTRY. UNITED STATES OF AMERICA:   COUNTRY
 SRVC.            Unknown:   SERVICE COMPANY
 DATE.        09-JUN-1978:   LOGDATE
 API .       490251064100:   API NUMBER
~CURVE INFORMATION
#MNEM.UNIT       API CODE    CURVE DESCRIPTION
#----------   ------------   ------------------------------
 DEPT.F                  :   
 CALD.IN     45 280 60 00:   CALIPER FROM DENSITY LOG
 GRD .GAPI   45 310 01 00:   GAMMA RAY FROM DENSITY LOG
 CORR.G/C3   45 356 01 00:   DENSITY CORRECTION
 RHOB.G/C3   45 350 01 00:   BULK DENSITY
 DPHI.DEC    45 890 10 00:   DENSITY POROSITY LIMESTONE
~PARAMETER INFORMATION
#MNEM.UNIT          VALUE    DESCRIPTION
#----------   ------------   ------------------------------
 PD  .                 GL:   PERMANENT DATUM
 EPD .F              5062:   ELEVATION PERMANENT DATUM
 LMF .                 KB:   LOG MEASURED FROM
 DAPD.F                10:   FEET ABOVE PERMANENT DATUM
 DMF .                 KB:   DRILLING MEASURED FROM
 EKB .F              5072:   KELLING BUSHING
 EGL .F              5062:   GROUND LEVEL
 DATE.        09-JUN-1978:   RUN DATE
 RUN .                  1:   RUN NUMBER
 DD  .F              2450:   DEPTH DRILLER
 DL  .F              2445:   DEPTH LOGGER
 BLI .F              2438:   BOTTOM LOG INTERVAL
 TLI .F                10:   TOP LOG INTERVAL
 CS  .IN            9.625:   CASING SIZE
 CBD .F               688:   CASING BOTTOM DRILLER
 CBL .F               694:   CASING BOTTOM LOGGER
 BS  .IN             8.75:   BIT SIZE
 BSD .F              2450:   BIT SIZE AT DEPTH
 DFT .           AIR MIST:   DRILLING FLUID TYPE
 TCS .HRS               1:   TIME CURCULATED STOPPED
 LUN .               2958:   LOGGING UNIT NUMBER
 LUL .                CPR:   LOGGING UNIT LOCATION
 ENGI.             MILLER:   RECORDING ENGINEER
 WITN.           MCGINLEY:   WITNESSED BY
 CLNT.            A2DTECH:   CLIENT CODE
 ORIG.           5" PRINT:   ORIGIN OF DATA
 UWI .       490251064100:   UNIQUE WELL ID
 DICO. A2D Technologies, Inc.:   DIGITIZING COMPANY
~OTHER INFORMATION
~A   DEPT     CALD         GRD      CORR       RHOB       DPHI   
# ...
 2151.0000     9.0514    68.4175     0.0012     2.4894     0.0389
 2151.5000     9.0832    70.4246     0.0088     2.4948     0.0355
 2152.0000     9.0842    64.6043     0.0182     2.4994     0.0315
 2152.5000     9.0697    62.6209     0.0229     2.5103     0.0290
 2153.0000     9.0250    61.8663     0.0138     2.5157     0.0333
 2153.5000     8.9953    61.1118    -0.0138     2.4888     0.0388
 2154.0000     8.9657    54.9809    -0.0168     2.4788     0.0462
 2154.5000     8.9821    51.9222    -0.0151     2.4750     0.0474
 2155.0000     8.9831    49.7852    -0.0135     2.4712     0.0478
 2155.5000     8.9995    50.1220    -0.0118     2.4751     0.0489
 2156.0000     9.0160    57.5914    -0.0086     2.4749     0.0541
 2156.5000     9.0326    63.9612    -0.0054     2.4582     0.0624
 2157.0000     9.0490    68.7366    -0.0022     2.4490     0.0498
 2157.5000     9.0960    70.1326    -0.0006     2.4691     0.0411
 2158.0000     9.0971    67.9956    -0.0025     2.4822     0.0522
 2158.5000     9.1135    62.4791    -0.0160     2.4684     0.0562
 2159.0000     9.0532    61.5676    -0.0141     2.4531     0.0648
 2159.5000     9.0082    66.6536    -0.0032     2.4493     0.0632
 2160.0000     8.9785    72.3507     0.0000     2.4601     0.0481
 2160.5000     9.0103    72.2106    -0.0029     2.4732     0.0462
 2161.0000     9.0743    66.2910    -0.0090     2.4733     0.0480
 2161.5000     9.2141    62.8674    -0.0135     2.4710     0.0582
 2162.0000     9.2898    65.4957    -0.0072     2.4577     0.0616
 2162.5000     9.2908    68.8886     0.0068     2.4557     0.0366
 2163.0000     9.1998    69.3629     0.0099     2.4920     0.0323
 2163.5000     9.1393    69.6836     0.0101     2.4982     0.0307
 2164.0000     9.1406    73.0766    -0.0022     2.4959     0.0519
 2164.5000     9.1877    76.4661    -0.0051     2.4805     0.0491
 2165.0000     9.2654    74.1789    -0.0019     2.4729     0.0316
 2165.5000     9.2971    71.1202     0.0245     2.4883     0.0291
 2166.0000     9.3135    65.9110     0.0260     2.5192     0.0303
 2166.5000     9.2980    58.9816     0.0169     2.5177     0.0316
 2167.0000     9.2363    55.4925     0.0140     2.5077     0.0328
 2167.5000     9.1635    58.7352     0.0110     2.5102     0.0342
 2168.0000     9.1646    65.0467     0.0034     2.5048     0.0364
 2168.5000     9.1963    66.4427    -0.0057     2.4932     0.0413
 2169.0000     9.2434    64.6129    -0.0179     2.4887     0.0446
 2169.5000     9.2598    62.3223    -0.0209     2.4856     0.0381
 2170.0000     9.2759    56.9594    -0.0008     2.5019     0.0344
 2170.5000     9.2618    53.5935    -0.0053     2.5058     0.0359
 2171.0000     9.2322    46.8482    -0.0144     2.4996     0.0381
 2171.5000     9.2179    46.0937    -0.0189     2.4927     0.0408
 2172.0000     9.2344    48.8817    -0.0234     2.4851     0.0473
 2172.5000     9.2356    57.6448    -0.0233     2.4774     0.0494
 2173.0000     9.2367    63.9563    -0.0196     2.4782     0.0339
 2173.5000     9.2377    66.8884    -0.0013     2.4952     0.0337
 2174.0000     9.2388    65.6730     0.0017     2.4991     0.0336
 2174.5000     9.2398    62.3071     0.0003     2.5015     0.0336
 2175.0000     9.2409    61.0884    -0.0042     2.5023     0.0336
 2175.5000     9.2573    61.7197    -0.0072     2.4993     0.0373
 2176.0000     9.2737    64.4982    -0.0086     2.4939     0.0397
 2176.5000     9.2900    66.5086    -0.0054     2.4909     0.0400
 2177.0000     9.3218    76.8633     0.0024     2.4909     0.0397
 2177.5000     9.3689    80.5557     0.0056     2.4910     0.0359
 2178.0000     9.4162    87.5971     0.0042     2.4902     0.0362
 2178.5000     9.4325    89.4539     0.0012     2.4871     0.0408
 2179.0000     9.3876    84.5519    -0.0018     2.4842     0.0420
 2179.5000     9.2506    69.5117    -0.0063     2.4835     0.0426
 2180.0000     9.0829    68.2929    -0.0092     2.4804     0.0482
 2180.5000     9.0377    73.2253    -0.0043     2.4782     0.0425
 2181.0000     9.0544    83.3771     0.0018     2.4821     0.0435
 2181.5000     9.0861    83.0834     0.0019     2.4813     0.0487
 2182.0000     9.1331    79.5638     0.0020     2.4752     0.0505
 2182.5000     9.1986    76.7011     0.0052     2.4730     0.0453
 2183.0000     9.3831    71.5301     0.0053     2.4761     0.0425
 2183.5000     9.3973    70.3878     0.0054     2.4878     0.0357
 2184.0000     9.2756    73.1696     0.0040     2.4931     0.0387
 2184.5000     9.0620    72.7189     0.0041     2.4947     0.0406
 2185.0000     9.0167    74.2719     0.0089     2.4963     0.0310
 2185.5000     9.0641    81.1979     0.0229     2.5033     0.0291
 2186.0000     9.2338    83.8228     0.0291     2.5095     0.0291
 2186.5000     9.2809    79.2280     0.0231     2.5119     0.0294
 2187.0000     9.2973    73.7115     0.0170     2.5127     0.0303
 2187.5000     9.2983    72.0353     0.0156     2.5127     0.0321
 2188.0000     9.2673    60.6840     0.0095     2.5120     0.0327
 2188.5000     9.2237    59.0044     0.0050     2.5105     0.0330
 2189.0000     9.2094    65.1657     0.0036     2.4997     0.0327
 2189.5000     9.2107    67.6369     0.0038     2.4975     0.0265
 2190.0000     9.2731    67.8041     0.0193     2.5122     0.0249
 2190.5000     9.3662    67.8176     0.0363     2.5307     0.0240
 2191.0000     9.4133    67.9847     0.0411     2.5462     0.0267
 2191.5000     9.4143    69.7926     0.0350     2.5493     0.0298
 2192.0000     9.4000    84.2040     0.0197     2.5193     0.0353
 2192.5000     9.3551    91.6845     0.0075     2.4985     0.0359
 2193.0000     9.3404    99.3785     0.0061     2.4901     0.0365
 2193.5000     9.3094   103.9969     0.0077     2.4918     0.0467
 2194.0000     9.2815   101.4025     0.0109     2.4794     0.0494
 2194.5000     9.2982   102.0304     0.0111     2.4818     0.0368
 2195.0000     9.3606   110.0258     0.0112     2.4945     0.0327
 2195.5000     9.4230   120.5508     0.0096     2.4965     0.0336
 2196.0000     9.4394   133.5621     0.0035     2.4904     0.0416
 2196.5000     9.4095   132.5003    -0.0069     2.4812     0.0653
 2197.0000     9.3648   120.9931    -0.0145     2.4389     0.0767
 2197.5000     9.3505   112.8653    -0.0160     2.4212     0.0865
 2198.0000     9.3515   103.7613     0.0026     2.4613     0.0548
 2198.5000     9.3994    97.3696     0.0474     2.4621     0.0572
 2199.0000     9.4304    98.8806     0.0429     2.4606     0.0554
 2199.5000     9.4470   112.3083     0.0430     2.4761     0.0461
 2200.0000     9.4500   114.2809     0.0493     2.4784     0.0433
 2200.5000     9.4482   118.9477     0.0602     2.4777     0.0559
 2201.0000     9.3455   119.8841     0.0233     2.4715     0.0537
 2201.5000     9.2214   116.8365     0.0171     2.4646     0.0484
 2202.0000     9.2689   113.4768     0.0143     2.4603     0.0586
 2202.5000     9.3008   111.9604     0.0052     2.4619     0.0555
 2203.0000     9.3020   112.1337     0.0054     2.4628     0.0545
 2203.5000     9.3032   112.1534     0.0085     2.4629     0.0563
 2204.0000     9.2278   111.7123     0.0102     2.4637     0.0575
 2204.5000     9.1063   106.6628     0.0134     2.4638     0.0581
 2205.0000     9.0765   100.2309     0.0181     2.4646     0.0578
 2205.5000     9.1394   103.7836     0.0229     2.4647     0.0574
 2206.0000     9.2019   114.2531     0.0276     2.4656     0.0561
 2206.5000     9.2338   114.7617     0.0293     2.4688     0.0511
 2207.0000     9.2350   117.1511     0.0294     2.4789     0.0493
 2207.5000     9.2362   120.1450     0.0218     2.4705     0.0558
 2208.0000     9.2221   116.1758     0.0096     2.4544     0.0616
 2208.5000     9.1770   112.5088     0.0004     2.4521     0.0597
 2209.0000     9.1018   108.0738    -0.0041     2.4538     0.0594
 2209.5000     9.0877   102.7172    -0.0086     2.4546     0.0603
 2210.0000     9.0892   107.0380    -0.0116     2.4516     0.0612
 2210.5000     9.1211   106.5968    -0.0114     2.4447     0.0639
 2211.0000     9.1990   105.2291    -0.0113     2.4378     0.0682
 2211.5000     9.2769   105.8681    -0.0081     2.4334     0.0737
