~VERSION INFORMATION
 VERS.                2.0:   CWLS LOG ASCII STANDARD - VERSION 2.0
 WRAP.                 NO:   ONE LINE PER DEPTH STEP
~WELL INFORMATION
#MNEM.UNIT      DATA TYPE    INFORMATION
#----------   ------------   ------------------------------
 STRT.F            3.0000:   START DEPTH
 STOP.F         1011.0000:   STOP DEPTH
 STEP.F            0.5000:   STEP LENGTH
 NULL.          -999.2500:   NO VALUE
 COMP. BROWN JOHN E&C INC:   COMPANY
 WELL. NPR 3 SHX-38 #2-35:   WELL
 FLD .             TEAPOT:   FIELD
 LOC .      S35 T39N R78W:   LOCATION
 CNTY.            NATRONA:   COUNTY
 STAT.            WYOMING:   STATE
 CTRY. UNITED STATES OF AMERICA:   COUNTRY
 SRVC.     Atlas Wireline:   SERVICE COMPANY
 DATE.        15-NOV-1991:   LOGDATE
 API .       490252248100:   API NUMBER
~CURVE INFORMATION
#MNEM.UNIT       API CODE    CURVE DESCRIPTION
#----------   ------------   ------------------------------
 DEPT.F                  :   
 GRR .GAPI   07 310 01 00:   GAMMA RAY
 RILD.OHMM   07 120 46 00:   INDUCTION LOG DEEP RESISTIVITY
 RILM.OHMM   07 120 44 00:   INDUCTION LOG MEDIUM RESISTIVITY
~PARAMETER INFORMATION
#MNEM.UNIT          VALUE    DESCRIPTION
#----------   ------------   ------------------------------
 PD  .                 GL:   PERMANENT DATUM
 EPD .F              5119:   ELEVATION PERMANENT DATUM
 LMF .                 KB:   LOG MEASURED FROM
 DAPD.F                11:   FEET ABOVE PERMANENT DATUM
 DMF .                 KB:   DRILLING MEASURED FROM
 EKB .F              5120:   KELLING BUSHING
 EGL .F              5119:   GROUND LEVEL
 DATE.        15-NOV-1991:   RUN DATE
 RUN .                  1:   RUN NUMBER
 DD  .F              1015:   DEPTH DRILLER
 DL  .F              1017:   DEPTH LOGGER
 BLI .F              1015:   BOTTOM LOG INTERVAL
 CS  .IN            8.625:   CASING SIZE
 CBD .F                60:   CASING BOTTOM DRILLER
 CBL .F                60:   CASING BOTTOM LOGGER
 BS  .IN            7.875:   BIT SIZE
 BSD .F              1015:   BIT SIZE AT DEPTH
 DFT .                AIR:   DRILLING FLUID TYPE
 LUN .            HL-6272:   LOGGING UNIT NUMBER
 LUL .         CASPER, WY:   LOGGING UNIT LOCATION
 ENGI.             ZIFGER:   RECORDING ENGINEER
 WITN.         MR. STRONG:   WITNESSED BY
 CLNT.            A2DTECH:   CLIENT CODE
 ORIG.           5" PRINT:   ORIGIN OF DATA
 UWI .       490252248100:   UNIQUE WELL ID
 DICO. A2D Technologies, Inc.:   DIGITIZING COMPANY
~OTHER INFORMATION
~A    DEPT      GRR      RILD       RILM   
# ...
  822.0000    95.5872    14.6119    14.2919
  822.5000    95.0076    15.1420    14.7077
  823.0000    93.8209    15.4737    15.3483
  823.5000    88.3854    15.7953    15.7948
  824.0000    87.1988    15.9171    16.0291
  824.5000    87.5296    15.9282    16.0414
  825.0000    91.5023    15.8101    16.0537
  825.5000    94.2610    15.4928    15.9543
  826.0000    94.2883    15.0762    15.7453
  826.5000    93.1017    14.5510    15.2171
  827.0000    92.2185    14.1944    14.7067
  827.5000    97.1017    14.0073    14.1145
  828.0000    97.4325    13.9195    13.9296
  828.5000    97.7633    13.8323    13.8434
  829.0000    98.7011    13.8420    13.7577
  829.5000    99.9423    13.6595    13.6725
  830.0000   102.3976    13.5739    13.4934
  830.5000   104.2458    13.4912    13.5037
  831.0000   105.4871    13.4044    13.4201
  831.5000   103.6935    13.2300    13.3371
  832.0000    97.6510    13.1448    13.1623
  832.5000    99.8027    12.8813    13.0809
  833.0000   101.0440    12.8028    12.9999
  833.5000    99.5539    12.8118    12.8296
  834.0000   100.1882    12.5549    12.7058
  834.5000   101.7329    12.3894    12.4956
  835.0000   103.5812    12.2240    12.3319
  835.5000   104.8225    11.9811    12.1703
  836.0000   105.4567    11.9039    12.0950
  836.5000   105.4841    11.7491    11.8535
  837.0000   104.6009    11.6734    11.7802
  837.5000   100.6829    11.5216    11.7072
  838.0000    98.8892    11.5296    11.6348
  838.5000   100.4340    11.4554    11.5627
  839.0000   102.2822    11.4654    11.4911
  839.5000   102.6131    11.5538    11.5000
  840.0000   100.5159    11.5618    11.5894
  840.5000   100.2398    11.6510    11.7613
  841.0000   100.5706    11.6591    11.8527
  841.5000   100.9014    11.5861    11.7793
  842.0000   101.2322    11.5115    11.7064
  842.5000   100.0455    11.3617    11.6339
  843.0000    94.6100    11.2905    11.5619
  843.5000    96.1548    11.2178    11.4104
  844.0000    98.9135    11.1475    11.3398
  844.5000   101.3687    11.0777    11.1912
  845.0000   105.3414    11.0874    11.1220
  845.5000   105.9757    11.0160    11.0531
  846.0000   105.3961    11.0256    11.0616
  846.5000   105.7269    11.1106    11.0701
  847.0000   106.3612    11.3537    11.2343
  847.5000   106.3885    11.6022    11.4009
  848.0000   106.4158    11.9391    11.6510
  848.5000   106.4431    12.1155    11.8238
  849.0000   106.4704    12.2089    11.9157
  849.5000   104.6768    12.1324    11.9249
  850.0000    93.7785    12.0543    11.7687
  850.5000    90.7709    11.8147    11.6145
  851.0000    88.9772    11.5061    11.3826
  851.5000    89.0046    11.0615    11.0008
  852.0000    91.4598    10.6169    10.5836
  852.5000    95.4325    10.0127    10.1239
  853.0000   100.6208     9.4170     9.5828
  853.5000   103.6833     8.9764     8.8804
  854.0000   103.4074     8.6752     8.4625
  854.5000   103.1246     8.5019     8.4076
  855.0000   102.5452     8.5086     8.4732
  855.5000   101.6692     8.4543     8.5379
  856.0000   101.0898     8.4625     8.6032
  856.5000   100.8139     8.4691     8.6793
  857.0000   101.1450     8.5351     8.7340
  857.5000   102.6900     8.6619     8.8623
  858.0000   109.0909     8.7905     8.9299
  858.5000   114.8848     8.9211     9.0611
  859.0000   115.5125     9.0536     9.1942
  859.5000   114.6296     9.2525     9.2645
  860.0000   114.9621     9.3899     9.4006
  860.5000   114.9894     9.5294     9.4724
  861.0000   114.0698     9.6021     9.6116
  861.5000   109.2293     9.7446     9.6851
  862.0000   107.7873     9.6841     9.6912
  862.5000   110.2428     9.6242     9.6974
  863.0000   113.0018     9.4981     9.6345
  863.5000   113.6364     9.4392     9.5070
  864.0000   113.0570     9.3807     9.4469
  864.5000   111.8706     9.3883     9.4544
  865.0000   110.6842     9.3284     9.3931
  865.5000   110.1048     9.3375     9.4005
  866.0000   110.1324     9.3448     9.4058
  866.5000   111.6775     9.3521     9.4125
  867.0000   112.9190     9.2924     9.4184
  867.5000   112.9466     9.3014     9.4244
  868.0000   113.8847     9.2421     9.4294
  868.5000   117.8576     9.2511     9.3693
  869.0000   122.7411     9.2583     9.3767
  869.5000   124.2861     9.2655     9.3159
  870.0000   118.2439     9.2713     9.3221
  870.5000   116.7471     9.2784     9.3280
  871.0000   117.6921     9.2916     9.3338
  871.5000   116.8092     9.3578     9.3397
  872.0000   112.8914     9.3650     9.3456
  872.5000   106.5411     9.3723     9.4169
  873.0000   103.2303     9.4453     9.4888
  873.5000   103.5614     9.5856     9.6283
  874.0000   108.4448     9.7280     9.8382
  874.5000   113.0248    10.0113    10.1939
  875.0000   114.5698    10.5210    10.7110
  875.5000   113.6869    11.2908    11.4124
  876.0000   109.4657    12.2017    12.3306
  876.5000   105.5479    13.1861    13.8924
  877.0000   100.3278    14.5516    15.1152
  877.5000    91.7804    15.8358    16.3314
  878.0000    89.5411    17.2333    17.5227
  878.5000    90.5118    17.7353    18.0301
  879.0000    92.9387    17.6222    18.0415
  879.5000    94.7832    17.1063    17.4340
  880.0000    96.9352    16.5596    16.8469
  880.5000    98.7837    16.2348    16.3910
  881.0000    99.1148    15.9163    16.0617
  881.5000    94.2866    15.7107    15.8491
  882.0000    93.1002    15.6133    15.6394
  882.5000    92.2173    15.4090    15.5405
  883.0000    91.9345    15.4210    15.3349
  883.5000    91.9690    15.2189    14.9246
  884.0000    94.4245    15.0196    14.7074
  884.5000    96.5765    14.7197    14.3286
  885.0000    96.6041    14.3254    14.0311
  885.5000    96.9352    14.0393    13.6628
  886.0000    97.8733    13.7590    13.4796
  886.5000    99.1148    13.4816    13.3036
  887.0000   101.2668    13.3050    13.2194
  887.5000   103.7224    13.1307    13.1357
  888.0000   106.7848    13.0495    13.1442
  888.5000   107.4125    13.1537    13.2447
  889.0000   105.3226    13.1778    13.2531
  889.5000   102.5080    13.2754    13.3543
  890.0000   101.0824    13.4611    13.5506
  890.5000   100.2391    13.5659    13.7497
  891.0000   100.2671    13.6715    13.8548
  891.5000   101.2090    13.6822    13.9606
  892.0000   103.6603    13.7888    13.9695
  892.5000   106.0521    13.7035    13.8789
  893.0000   108.7871    13.5240    13.6953
  893.5000   109.7056    13.1591    13.3289
  894.0000   109.1105    12.9868    13.0590
  894.5000   109.7764    12.9064    13.0693
  895.0000   110.3514    12.7398    12.9846
  895.5000   110.3634    12.5729    12.8148
  896.0000   111.8929    12.4082    12.7318
  896.5000   113.4223    12.2457    12.4779
  897.0000   114.0413    12.1675    12.2272
  897.5000   113.7498    11.9246    12.0484
  898.0000   112.8483    11.6888    11.8211
  898.5000   111.0424    11.6016    11.6559
  899.0000   109.5369    11.3823    11.5045
  899.5000   108.3350    11.2332    11.3580
  900.0000   111.0784    11.1637    11.2077
  900.5000   114.1253    11.0945    11.2148
  901.0000   115.9582    11.1811    11.1437
  901.5000   116.2707    11.2682    11.3076
  902.0000   113.5543    11.4356    11.4738
  902.5000   105.6756    11.5247    11.5615
  903.0000    96.5829    11.4534    11.5688
  903.5000    94.1669    11.2358    11.4157
  904.0000    95.4294    10.7663    10.5918
  904.5000    99.7590    10.6225    10.3783
  905.0000   103.9959    10.4824    10.2442
  905.5000   106.4097    10.4167    10.1788
  906.0000   107.2800    10.3514    10.1157
  906.5000   107.5955    10.2879    10.1254
  907.0000   107.3010    10.2954    10.1331
  907.5000   108.2265    10.3025    10.1408
  908.0000   110.0594    10.3096    10.1485
  908.5000   109.4644    10.3167    10.1562
  909.0000   107.0485    10.3239    10.1640
  909.5000   105.8436    10.2941    10.0991
  910.0000   106.1621    10.2662    10.1794
  910.5000   106.4775    10.2735    10.1144
  911.0000   106.7930    10.2092    10.1241
  911.5000   106.8050    10.1452    10.0613
  912.0000   107.1205    10.1537    10.0690
  912.5000   105.0081    10.0900    10.0066
