~VERSION INFORMATION
 VERS.                2.0:   CWLS LOG ASCII STANDARD - VERSION 2.0
 WRAP.                 NO:   ONE LINE PER DEPTH STEP
~WELL INFORMATION
#MNEM.UNIT      DATA TYPE    INFORMATION
#----------   ------------   ------------------------------
 STRT.F           78.5000:   START DEPTH
 STOP.F         1021.0000:   STOP DEPTH
 STEP.F            0.5000:   STEP LENGTH
 NULL.          -999.2500:   NO VALUE
 COMP. U S NAVY/INTEX OIL CO:   COMPANY
 WELL.     NRR 3 ##65S-11:   WELL
 FLD .             TEAPOT:   FIELD
 LOC .      S11 T38N R78W:   LOCATION
 CNTY.            NATRONA:   COUNTY
 STAT.            WYOMING:   STATE
 CTRY. UNITED STATES OF AMERICA:   COUNTRY
 SRVC.       Schlumberger:   SERVICE COMPANY
 DATE.        09-MAR-1960:   LOGDATE
 API .       490250634100:   API NUMBER
~CURVE INFORMATION
#MNEM.UNIT       API CODE    CURVE DESCRIPTION
#----------   ------------   ------------------------------
 DEPT.F                  :   
 SPR .MV     05 010 01 00:   SPONTANEOUS POTENTIAL FROM RES.
 ILD .OHMM   05 120 46 00:   INDUCTION LOG DEEP
 CILD.MMHO   05 110 00 00:   CONDUCTIVITY INDUCTION LOG
 ASN .OHMM   05 041 16 00:   AMPLIFIED SHORT NORMAL 16"
~PARAMETER INFORMATION
#MNEM.UNIT          VALUE    DESCRIPTION
#----------   ------------   ------------------------------
 PD  .                 GL:   PERMANENT DATUM
 EPD .F              5227:   ELEVATION PERMANENT DATUM
 LMF .                 KB:   LOG MEASURED FROM
 DAPD.F                 5:   FEET ABOVE PERMANENT DATUM
 DMF .                 KB:   DRILLING MEASURED FROM
 EKB .F              5232:   KELLING BUSHING
 EGL .F              5227:   GROUND LEVEL
 DATE.             3-9-60:   RUN DATE
 RUN .                  1:   RUN NUMBER
 DD  .F              1025:   DEPTH DRILLER
 DL  .F              1026:   DEPTH LOGGER
 BLI .F              1021:   BOTTOM LOG INTERVAL
 TLI .F                80:   TOP LOG INTERVAL
 CBD .F                12:   CASING BOTTOM DRILLER
 BS  .IN            7.875:   BIT SIZE
 BSD .F              1025:   BIT SIZE AT DEPTH
 DFT .          OIL EMULS:   DRILLING FLUID TYPE
 DFD .               10.2:   DRILLING FLUID DENSITY
 DFV .                 36:   DRILLING FLUID VISCOSITY
 DFPH.                7.5:   DRILLING FLUID PH
 DFL .                  4:   DRILLING FLUID LOSS
 MSS .          FLOW LINE:   MUD SAMPLE SOURCE
 RMS .OHMM           2.18:   RESISTIVITY MUD SAMPLE
 MST .F                64:   MUD SAMPLE TEMPERATURE
 RMF .OHMM           1.17:   RESISTIVITY MUD FILTRATE SAMPLE
 MFST.F                63:   MUD FILTRATE SAMPLE TEMPERATURE
 RMC .OHMM           2.02:   RESISTIVITY MUD CAKE
 MCST.F                64:   MUD CAKE SAMPLE TEMPERATURE
 MFSS.                  M:   MUD FILTRATE SAMPLE SOURCE
 MCSS.                  M:   MUD CAKE SAMPLE SOURCE
 TCS .HRS             .75:   TIME CURCULATED STOPPED
 LUN .               2795:   LOGGING UNIT NUMBER
 LUL .               CSPR:   LOGGING UNIT LOCATION
 ENGI.              SCOTT:   RECORDING ENGINEER
 WITN.          JORGENSEN:   WITNESSED BY
 CLNT.            A2DTECH:   CLIENT CODE
 ORIG.           2" PRINT:   ORIGIN OF DATA
 UWI .       490250634100:   UNIQUE WELL ID
 DICO. A2D Technologies, Inc.:   DIGITIZING COMPANY
~OTHER INFORMATION
~A   DEPT      SPR        ILD       CILD        ASN   
# ...
  443.5000   -53.5528     2.1374   446.6638     3.5822
  444.0000   -53.8306     2.1611   445.3908     3.7836
  444.5000   -54.0713     2.3529   398.8597     4.1135
  445.0000   -54.3326     2.7014   355.3307     4.5085
  445.5000   -54.5794     4.0095   311.8016     5.5413
  446.0000   -54.8420     5.3644   268.2726     6.7293
  446.5000   -55.0412     6.7114   224.7435     8.0722
  447.0000   -55.0551     8.0363   181.2144     9.4216
  447.5000   -55.0506     9.4222   137.6854    11.0235
  448.0000   -55.0598    10.4376   107.9237    11.4604
  448.5000   -55.0166    10.4961    94.2695    11.8595
  449.0000   -54.7243    10.6156    93.2303    11.9776
  449.5000   -54.4457    10.4150    95.6277    11.8371
  450.0000   -54.2260     9.6901   101.2504    11.5782
  450.5000   -54.0477     9.0631   109.8967    11.1043
  451.0000   -53.8995     8.4157   121.4195     9.8016
  451.5000   -53.7269     7.7837   132.9742     9.9114
  452.0000   -53.6240     7.1370   144.4609     8.9518
  452.5000   -53.6372     6.5126   155.8517     7.7816
  453.0000   -53.6427     5.8355   167.2425     7.0140
  453.5000   -53.8681     5.1255   178.6333     7.0116
  454.0000   -54.1606     5.0175   185.8717     7.2862
  454.5000   -54.4399     5.3278   186.8737     8.1783
  455.0000   -54.7305     6.1330   178.1006     9.9464
  455.5000   -55.0057     7.0253   160.9241    10.1944
  456.0000   -55.3101     7.8894   143.7475    10.8577
  456.5000   -55.5010     8.8221   126.5709    11.2798
  457.0000   -55.5613     9.4491   108.7174    11.6521
  457.5000   -55.6460     9.7311   101.7034    12.0233
  458.0000   -55.7183    10.0742    97.6954    12.3976
  458.5000   -55.7974    10.3269    95.6814    12.7736
  459.0000   -55.8728    10.5895    93.6473    13.0562
  459.5000   -55.9501    10.8474    91.6132    13.3378
  460.0000   -56.0265    11.1031    89.5792    13.6112
  460.5000   -56.1034    11.3672    88.1112    13.8634
  461.0000   -56.1806    11.5192    87.0942    13.9225
  461.5000   -56.2574    11.5777    86.0771    14.0282
  462.0000   -56.3352    11.6499    85.4783    14.1248
  462.5000   -56.4107    11.7150    85.1572    14.2186
  463.0000   -56.4904    11.7840    84.8360    14.3160
  463.5000   -56.5624    11.8507    84.5148    14.4104
  464.0000   -56.6473    11.9186    84.1936    14.5071
  464.5000   -56.6167    11.9859    83.8725    14.5990
  465.0000   -56.5090    12.0539    83.5513    14.7032
  465.5000   -56.4268    12.1211    83.2301    14.9389
  466.0000   -56.3250    12.1896    82.9090    15.1549
  466.5000   -56.2776    12.2583    82.6653    15.3731
  467.0000   -56.3837    12.3879    78.6573    15.5892
  467.5000   -56.4799    12.5470    78.0048    15.8098
  468.0000   -56.5787    12.7009    77.1358    16.0199
  468.5000   -56.6756    12.8574    76.2617    16.2654
  469.0000   -56.7738    13.0123    75.3860    16.4285
  469.5000   -56.8713    13.1685    74.5122    16.6198
  470.0000   -56.9691    13.3231    73.6409    16.8005
  470.5000   -57.0671    13.4821    72.6540    16.9876
  471.0000   -57.1642    13.6702    71.6185    17.1737
  471.5000   -57.2735    13.9006    70.4114    17.4197
  472.0000   -57.4549    14.1405    69.2149    17.7582
  472.5000   -57.6634    14.3739    68.0184    18.0928
  473.0000   -57.8667    14.6165    66.8219    18.4359
  473.5000   -58.0761    14.8432    65.6254    18.7966
  474.0000   -58.2604    15.1869    64.4289    19.3908
  474.5000   -58.1999    15.6616    63.2323    20.0198
  475.0000   -58.1033    16.1184    61.4464    20.6509
  475.5000   -58.0137    16.6035    59.0534    21.2820
  476.0000   -57.9207    17.2619    56.6604    21.9141
  476.5000   -57.8301    17.9419    54.2674    22.5462
  477.0000   -57.7367    18.6100    51.8743    23.1780
  477.5000   -57.6479    19.2949    49.4813    23.8083
  478.0000   -57.5491    19.9529    47.0883    24.4363
  478.5000   -57.4987    20.6511    44.6953    25.1201
  479.0000   -57.6970    20.9220    42.5852    25.0796
  479.5000   -57.8960    20.9582    42.5852    25.1310
  480.0000   -58.1638    21.0314    42.5852    24.1015
  480.5000   -58.4172    20.8911    42.5852    23.2620
  481.0000   -58.6687    20.0011    45.5177    22.4197
  481.5000   -58.9248    19.1332    48.3993    21.5666
  482.0000   -59.1726    18.2736    51.2809    21.0395
  482.5000   -59.4299    17.4054    54.1625    20.6501
  483.0000   -59.4676    16.5509    57.0441    20.2630
  483.5000   -59.3920    15.5943    60.6212    19.7896
  484.0000   -59.3362    15.4058    62.6253    19.3211
  484.5000   -59.2874    15.3661    62.6253    19.0669
  485.0000   -59.3059    15.2914    62.6253    18.8534
  485.5000   -59.2220    15.2246    62.6253    18.7372
  486.0000   -58.9878    15.1679    62.6253    18.6210
  486.5000   -58.7565    15.0805    62.6253    18.4870
  487.0000   -58.5004    15.0608    63.6273    17.9273
  487.5000   -58.2276    14.6102    66.2575    17.2666
  488.0000   -57.8758    13.5438    69.3086    16.6053
  488.5000   -57.2368    12.5159    72.6453    15.8851
  489.0000   -56.4909    11.4593    82.4783    14.6812
  489.5000   -55.7633    10.4187    93.3267    13.3428
  490.0000   -55.0259     9.3708   104.1750    11.9869
  490.5000   -54.2968     8.3201   115.0234    10.6728
  491.0000   -53.5542     7.3156   125.8717     9.9299
  491.5000   -52.8742     6.8948   136.7735     9.4577
  492.0000   -52.7082     6.5270   145.2746     9.0281
  492.5000   -52.6085     6.3142   153.8176     8.8637
  493.0000   -52.4957     6.2622   157.2746     8.7475
  493.5000   -52.3898     6.3025   156.2575     8.7475
  494.0000   -52.2772     6.3490   155.2405     8.8476
  494.5000   -52.1739     6.3929   154.2234     8.8999
  495.0000   -52.0555     6.4380   153.2064     8.9218
  495.5000   -52.0547     6.4814   152.8056     8.9014
  496.0000   -52.1428     6.5271   152.8056     8.7751
  496.5000   -52.2116     6.5608   152.8056     8.6601
  497.0000   -52.2897     6.5650   152.8056     8.5408
  497.5000   -52.3630     6.5606   152.8056     8.4258
  498.0000   -52.4387     6.5693   152.8056     8.3804
  498.5000   -52.5138     6.5391   152.8056     8.4796
  499.0000   -52.5881     6.4549   152.8056     8.6074
  499.5000   -52.6643     6.4716   151.9162     8.7210
  500.0000   -52.7374     6.5021   150.6880     8.8516
  500.5000   -52.8164     6.5433   149.4597     8.8736
  501.0000   -52.7212     6.5641   148.2315     8.8444
  501.5000   -52.5656     6.5437   146.7936     8.7686
  502.0000   -52.4215     6.5197   147.9292     8.6913
  502.5000   -52.2721     6.4953   149.3085     8.6133
  503.0000   -52.1256     6.4708   150.6738     8.5361
  503.5000   -51.9766     6.4473   152.0463     8.4577
  504.0000   -51.8341     6.4214   153.4248     8.3813
  504.5000   -51.8491     6.4001   154.8070     8.3008
  505.0000   -51.8921     6.3695   156.1872     8.2333
  505.5000   -51.9292     6.3948   156.3338     8.2204
  506.0000   -51.9689     6.4744   155.3039     8.2618
  506.5000   -52.0073     6.5442   154.2735     8.3343
  507.0000   -52.0463     6.6189   153.2442     8.4240
  507.5000   -52.0850     6.6910   152.2155     8.5387
  508.0000   -52.1239     6.7644   150.7938     8.6712
  508.5000   -52.1626     6.8372   149.1433     8.8079
  509.0000   -52.2013     6.9103   147.4904     8.8387
  509.5000   -52.2402     6.9833   145.8396     8.8113
  510.0000   -52.2785     7.0558   144.1914     8.7945
  510.5000   -52.3180     7.1298   142.5447     8.9021
  511.0000   -52.3553     7.2009   140.8993     9.0697
  511.5000   -52.3974     7.2776   139.2519     9.2252
  512.0000   -52.4162     7.3439   137.6023     9.3974
  512.5000   -52.3523     7.4307   135.9492     9.5180
  513.0000   -52.2941     7.4614   134.2928     9.5634
  513.5000   -52.2344     7.5427   132.6382     9.5943
  514.0000   -52.1757     7.5431   131.7635     9.6354
  514.5000   -52.1163     7.4549   131.7635     9.6498
  515.0000   -52.0573     7.3880   132.1930     9.6554
  515.5000   -51.9980     7.3101   133.0733     9.5959
  516.0000   -51.9394     7.2380   133.9536     9.4683
