~VERSION INFORMATION
 VERS.                2.0:   CWLS LOG ASCII STANDARD - VERSION 2.0
 WRAP.                 NO:   ONE LINE PER DEPTH STEP
~WELL INFORMATION
#MNEM.UNIT      DATA TYPE    INFORMATION
#----------   ------------   ------------------------------
 STRT.F           30.0000:   START DEPTH
 STOP.F         2432.5000:   STOP DEPTH
 STEP.F            0.5000:   STEP LENGTH
 NULL.          -999.2500:   NO VALUE
 COMP. FENIX & SCISSON INC:   COMPANY
 WELL.     72 SHX 4 #72-4:   WELL
 FLD .             TEAPOT:   FIELD
 LOC .       S4 T38N R78W:   LOCATION
 CNTY.            NATRONA:   COUNTY
 STAT.            WYOMING:   STATE
 CTRY. UNITED STATES OF AMERICA:   COUNTRY
 SRVC.           BIRDWELL:   SERVICE COMPANY
 DATE.        05-MAR-1979:   LOGDATE
 API .       490251074300:   API NUMBER
~CURVE INFORMATION
#MNEM.UNIT       API CODE    CURVE DESCRIPTION
#----------   ------------   ------------------------------
 DEPT.F                  :   
 SPR .MV     05 010 01 00:   SPONTANEOUS POTENTIAL FROM RES.
 SN  .OHMM   05 040 16 00:   SHORT NORMAL 16"
 ILD .OHMM   05 120 46 00:   INDUCTION LOG DEEP
 CALD.IN     45 280 60 00:   CALIPER
 GRD .GAPI   45 310 01 00:   GAMMA RAY FROM DENSITY LOG
 RHOB.G/C3   45 350 01 00:   BULK DENSITY
 CORR.G/C3   45 356 01 00:   DENSITY CORRECTION
 DPHI.DEC    45 890 12 00:   DENSITY POROSITY SANDSTONE
~PARAMETER INFORMATION
#MNEM.UNIT          VALUE    DESCRIPTION
#----------   ------------   ------------------------------
 PD  .                 GL:   PERMANENT DATUM
 EPD .F              5194:   ELEVATION PERMANENT DATUM
 LMF .                 KB:   LOG MEASURED FROM
 DAPD.F                10:   FEET ABOVE PERMANENT DATUM
 DMF .                 KB:   DRILLING MEASURED FROM
 EKB .F              5204:   KELLING BUSHING
 EGL .F              5194:   GROUND LEVEL
 DATE.             3-5-79:   RUN DATE
 RUN .                  1:   RUN NUMBER
 DD  .F              2560:   DEPTH DRILLER
 DL  .F              2432:   DEPTH LOGGER
 BLI .F              2432:   BOTTOM LOG INTERVAL
 TLI .F               400:   TOP LOG INTERVAL
 CS  .IN            9.625:   CASING SIZE
 CBD .F               685:   CASING BOTTOM DRILLER
 CBL .F               685:   CASING BOTTOM LOGGER
 BS  .IN             8.75:   BIT SIZE
 BSD .F              2560:   BIT SIZE AT DEPTH
 DFT .                AIR:   DRILLING FLUID TYPE
 TCS .HRS               5:   TIME CURCULATED STOPPED
 LUN .               3006:   LOGGING UNIT NUMBER
 LUL .             CASPER:   LOGGING UNIT LOCATION
 ENGI.         B. ROLLINS:   RECORDING ENGINEER
 WITN.           DINSMORE:   WITNESSED BY
 CLNT.            A2DTECH:   CLIENT CODE
 ORIG.           5" PRINT:   ORIGIN OF DATA
 UWI .       490251074300:   UNIQUE WELL ID
 DICO. A2D Technologies, Inc.:   DIGITIZING COMPANY
~OTHER INFORMATION
~A   DEPT      SPR         SN        ILD        CALD       GRD       RHOB         CORR      DPHI  
# ...
 2217.0000  -999.2500  -999.2500  -999.2500     8.4770    74.9325     2.5276     0.0243     0.0132
 2217.5000  -999.2500  -999.2500  -999.2500     8.4769    75.0809     2.5198     0.0261     0.0128
 2218.0000  -999.2500  -999.2500  -999.2500     8.4770    76.0336     2.5179     0.0280     0.0124
 2218.5000  -999.2500  -999.2500  -999.2500     8.4769    77.3774     2.5170     0.0226     0.0257
 2219.0000  -999.2500  -999.2500  -999.2500     8.4769    78.7413     2.5106     0.0163     0.0382
 2219.5000  -999.2500  -999.2500  -999.2500     8.4769    80.0969     2.4924     0.0105     0.0413
 2220.0000  -999.2500  -999.2500  -999.2500     8.4769    81.1843     2.4815     0.0201     0.0303
 2220.5000  -999.2500  -999.2500  -999.2500     8.4769    79.9171     2.4912     0.0306     0.0165
 2221.0000  -999.2500  -999.2500  -999.2500     8.4769    77.5643     2.5134     0.0410     0.0079
 2221.5000  -999.2500  -999.2500  -999.2500     8.4769    75.2072     2.5334     0.0492     0.0051
 2222.0000  -999.2500  -999.2500  -999.2500     8.4769    73.9480     2.5356     0.0556     0.0028
 2222.5000  -999.2500  -999.2500  -999.2500     8.4769    74.4692     2.5361     0.0580     0.0028
 2223.0000  -999.2500  -999.2500  -999.2500     8.4769    77.4054     2.5353     0.0581     0.0075
 2223.5000  -999.2500  -999.2500  -999.2500     8.4770    80.3327     2.5338     0.0604     0.0100
 2224.0000  -999.2500  -999.2500  -999.2500     8.4770    80.9585     2.5328     0.0703     0.0071
 2224.5000  -999.2500  -999.2500  -999.2500     8.4768    80.6920     2.5347     0.0798     0.0030
 2225.0000  -999.2500  -999.2500  -999.2500     8.4756    79.8935     2.5416     0.0894    -0.0045
 2225.5000  -999.2500  -999.2500  -999.2500     8.4744    78.7800     2.5520     0.0990    -0.0144
 2226.0000  -999.2500  -999.2500  -999.2500     8.4732    76.7039     2.5626     0.1007    -0.0096
 2226.5000  -999.2500  -999.2500  -999.2500     8.4720    74.4480     2.5655     0.0941    -0.0038
 2227.0000  -999.2500  -999.2500  -999.2500     8.4709    73.2336     2.5544     0.0875     0.0019
 2227.5000  -999.2500  -999.2500  -999.2500     8.4697    73.4515     2.5419     0.0870     0.0077
 2228.0000  -999.2500  -999.2500  -999.2500     8.4685    74.6937     2.5360     0.0885     0.0089
 2228.5000  -999.2500  -999.2500  -999.2500     8.4673    77.0098     2.5335     0.0900     0.0036
 2229.0000  -999.2500  -999.2500  -999.2500     8.4661    80.7342     2.5336     0.0915     0.0036
 2229.5000  -999.2500  -999.2500  -999.2500     8.4649    84.4088     2.5336     0.0930     0.0028
 2230.0000  -999.2500  -999.2500  -999.2500     8.4638    86.9937     2.5326     0.0915     0.0088
 2230.5000  -999.2500  -999.2500  -999.2500     8.4626    85.9081     2.5267     0.0742     0.0122
 2231.0000  -999.2500  -999.2500  -999.2500     8.4614    84.8111     2.5208     0.0571     0.0147
 2231.5000  -999.2500  -999.2500  -999.2500     8.4602    83.7137     2.5157     0.0484     0.0173
 2232.0000  -999.2500  -999.2500  -999.2500     8.4590    82.7642     2.5129     0.0491     0.0180
 2232.5000  -999.2500  -999.2500  -999.2500     8.4579    82.9404     2.5100     0.0498     0.0176
 2233.0000  -999.2500  -999.2500  -999.2500     8.4566    82.1991     2.5071     0.0459     0.0209
 2233.5000  -999.2500  -999.2500  -999.2500     8.4550    81.3984     2.5012     0.0388     0.0320
 2234.0000  -999.2500  -999.2500  -999.2500     8.4533    80.5956     2.4912     0.0316     0.0420
 2234.5000  -999.2500  -999.2500  -999.2500     8.4517    80.1706     2.4808     0.0275     0.0355
 2235.0000  -999.2500  -999.2500  -999.2500     8.4500    79.8995     2.4786     0.0265     0.0298
 2235.5000  -999.2500  -999.2500  -999.2500     8.4484    79.5836     2.4852     0.0219     0.0333
 2236.0000  -999.2500  -999.2500  -999.2500     8.4468    76.9016     2.4871     0.0147     0.0367
 2236.5000  -999.2500  -999.2500  -999.2500     8.4451    70.9931     2.4812     0.0081     0.0369
 2237.0000  -999.2500  -999.2500  -999.2500     8.4435    65.0940     2.4792     0.0080     0.0397
 2237.5000  -999.2500  -999.2500  -999.2500     8.4418    62.3460     2.4778     0.0080     0.0409
 2238.0000  -999.2500  -999.2500  -999.2500     8.4402    63.5040     2.4774     0.0080     0.0402
 2238.5000  -999.2500  -999.2500  -999.2500     8.4386    65.0917     2.4774     0.0087     0.0402
 2239.0000  -999.2500  -999.2500  -999.2500     8.4369    64.9302     2.4774     0.0104     0.0415
 2239.5000  -999.2500  -999.2500  -999.2500     8.4353    64.4373     2.4774     0.0127     0.0385
 2240.0000  -999.2500  -999.2500  -999.2500     8.4337    63.9592     2.4794     0.0196     0.0274
 2240.5000  -999.2500  -999.2500  -999.2500     8.4320    64.8569     2.4831     0.0267     0.0148
 2241.0000  -999.2500  -999.2500  -999.2500     8.4304    67.4766     2.5107     0.0295     0.0145
 2241.5000  -999.2500  -999.2500  -999.2500     8.4287    70.1077     2.5131     0.0313     0.0248
 2242.0000  -999.2500  -999.2500  -999.2500     8.4271    65.9360     2.5027     0.0331     0.0212
 2242.5000  -999.2500  -999.2500  -999.2500     8.4255    64.6597     2.5036     0.0349     0.0206
 2243.0000  -999.2500  -999.2500  -999.2500     8.4238    65.2187     2.5040     0.0366     0.0277
 2243.5000  -999.2500  -999.2500  -999.2500     8.4222    65.8295     2.4996     0.0384     0.0266
 2244.0000  -999.2500  -999.2500  -999.2500     8.4206    65.7856     2.4957     0.0402     0.0297
 2244.5000  -999.2500  -999.2500  -999.2500     8.4189    65.5531     2.4959     0.0420     0.0392
 2245.0000  -999.2500  -999.2500  -999.2500     8.4171    67.7311     2.4833     0.0438     0.0415
 2245.5000  -999.2500  -999.2500  -999.2500     8.4218    70.8145     2.4775     0.0456     0.0398
 2246.0000  -999.2500  -999.2500  -999.2500     8.4285    73.9921     2.4773     0.0474     0.0329
 2246.5000  -999.2500  -999.2500  -999.2500     8.4354    74.5748     2.4780     0.0508     0.0259
 2247.0000  -999.2500  -999.2500  -999.2500     8.4421    72.3182     2.4926     0.0567     0.0189
 2247.5000  -999.2500  -999.2500  -999.2500     8.4489    69.2479     2.5075     0.0681     0.0143
 2248.0000  -999.2500  -999.2500  -999.2500     8.4557    69.5621     2.5154     0.0791     0.0176
 2248.5000  -999.2500  -999.2500  -999.2500     8.4625    71.2391     2.5091     0.0882     0.0203
 2249.0000  -999.2500  -999.2500  -999.2500     8.4693    72.5670     2.5025     0.0860     0.0217
 2249.5000  -999.2500  -999.2500  -999.2500     8.4762    71.9316     2.5030     0.0786     0.0328
 2250.0000  -999.2500  -999.2500  -999.2500     8.4739    70.5363     2.4959     0.0730     0.0364
 2250.5000  -999.2500  -999.2500  -999.2500     8.4703    69.1382     2.4891     0.0684     0.0198
 2251.0000  -999.2500  -999.2500  -999.2500     8.4666    68.4682     2.4998     0.0738     0.0141
 2251.5000  -999.2500  -999.2500  -999.2500     8.4630    71.6891     2.5132     0.0674     0.0272
 2252.0000  -999.2500  -999.2500  -999.2500     8.4594    75.6642     2.5000     0.0531     0.0365
 2252.5000  -999.2500  -999.2500  -999.2500     8.4558    76.1368     2.4862     0.0401     0.0316
 2253.0000  -999.2500  -999.2500  -999.2500     8.4522    73.2100     2.4885     0.0390     0.0297
 2253.5000  -999.2500  -999.2500  -999.2500     8.4486    70.9025     2.4943     0.0381     0.0330
 2254.0000  -999.2500  -999.2500  -999.2500     8.4450    71.5874     2.4935     0.0372     0.0341
 2254.5000  -999.2500  -999.2500  -999.2500     8.4414    72.6235     2.4921     0.0364     0.0171
 2255.0000  -999.2500  -999.2500  -999.2500     8.4378    73.6806     2.5074     0.0289     0.0148
 2255.5000  -999.2500  -999.2500  -999.2500     8.4342    74.2720     2.5092     0.0205     0.0260
 2256.0000  -999.2500  -999.2500  -999.2500     8.4306    70.3436     2.5060     0.0123     0.0260
 2256.5000  -999.2500  -999.2500  -999.2500     8.4270    66.1532     2.5027     0.0142     0.0206
 2257.0000  -999.2500  -999.2500  -999.2500     8.4234    64.0786     2.5041     0.0181     0.0120
