~VERSION INFORMATION
 VERS.                2.0:   CWLS LOG ASCII STANDARD - VERSION 2.0
 WRAP.                 NO:   ONE LINE PER DEPTH STEP
~WELL INFORMATION
#MNEM.UNIT      DATA TYPE    INFORMATION
#----------   ------------   ------------------------------
 STRT.F            2.0000:   START DEPTH
 STOP.F          482.5000:   STOP DEPTH
 STEP.F            0.5000:   STEP LENGTH
 NULL.          -999.2500:   NO VALUE
 COMP. LAWRENCE/ALLISON INC:   COMPANY
 WELL. NPR 3 #52-45-SX-10:   WELL
 FLD .             TEAPOT:   FIELD
 LOC .      S10 T38N R78W:   LOCATION
 CNTY.            NATRONA:   COUNTY
 STAT.            WYOMING:   STATE
 CTRY. UNITED STATES OF AMERICA:   COUNTRY
 SRVC.           Gearhart:   SERVICE COMPANY
 DATE.        30-MAY-1988:   LOGDATE
 API .       490251122800:   API NUMBER
~CURVE INFORMATION
#MNEM.UNIT       API CODE    CURVE DESCRIPTION
#----------   ------------   ------------------------------
 DEPT.F                  :   
 GRR .GAPI   07 310 01 00:   GAMMA RAY FROM RES. LOG.
 RILD.OHMM   07 120 46 00:   INDUCTION LOG DEEP RESISTIVITY
 RILM.OHMM   07 120 44 00:   INDUCTION LOG MEDIUM RESISTIVITY
~PARAMETER INFORMATION
#MNEM.UNIT          VALUE    DESCRIPTION
#----------   ------------   ------------------------------
 PD  .                 GL:   PERMANENT DATUM
 EPD .F              5176:   ELEVATION PERMANENT DATUM
 LMF .                 KB:   LOG MEASURED FROM
 DAPD.F                10:   FEET ABOVE PERMANENT DATUM
 DMF .                 KB:   DRILLING MEASURED FROM
 EKB .F              5186:   KELLING BUSHING
 EGL .F              5176:   GROUND LEVEL
 DATE.            5-30-88:   RUN DATE
 RUN .                  1:   RUN NUMBER
 DD  .F               490:   DEPTH DRILLER
 DL  .F               491:   DEPTH LOGGER
 BLI .F               483:   BOTTOM LOG INTERVAL
 TLI .F                49:   TOP LOG INTERVAL
 CS  .IN            8.625:   CASING SIZE
 CBD .F                49:   CASING BOTTOM DRILLER
 CBL .F                49:   CASING BOTTOM LOGGER
 BS  .IN            7.875:   BIT SIZE
 BSD .F               490:   BIT SIZE AT DEPTH
 DFT .                AIR:   DRILLING FLUID TYPE
 TCS .HRS            0148:   TIME CURCULATED STOPPED
 MRT .F                70:   MAXIMUM RECORDED TEMPERATURE
 LUN .               7597:   LOGGING UNIT NUMBER
 LUL .           GILLETTE:   LOGGING UNIT LOCATION
 ENGI.          HUCKFELDT:   RECORDING ENGINEER
 WITN.             STRONG:   WITNESSED BY
 CLNT.            A2DTECH:   CLIENT CODE
 ORIG. 1", 2.5", 5" PRINT:   ORIGIN OF DATA
 UWI .       490251122800:   UNIQUE WELL ID
 DICO. A2D Technologies, Inc.:   DIGITIZING COMPANY
~OTHER INFORMATION
~A    DEPT      GRR      RILD       RILM   
    2.0000    12.2736  -999.2500  -999.2500
    2.5000    11.0027  -999.2500  -999.2500
    3.0000     9.6082  -999.2500  -999.2500
    3.5000     9.5202  -999.2500  -999.2500
    4.0000    12.6870  -999.2500  -999.2500
    4.5000    15.8863  -999.2500  -999.2500
    5.0000    19.0888  -999.2500  -999.2500
    5.5000    22.2630  -999.2500  -999.2500
    6.0000    23.9822  -999.2500  -999.2500
    6.5000    26.0600  -999.2500  -999.2500
    7.0000    28.1041  -999.2500  -999.2500
    7.5000    29.1581  -999.2500  -999.2500
    8.0000    29.1739  -999.2500  -999.2500
    8.5000    29.1163  -999.2500  -999.2500
    9.0000    31.2283  -999.2500  -999.2500
    9.5000    33.8676  -999.2500  -999.2500
   10.0000    39.9501  -999.2500  -999.2500
   10.5000    45.8524  -999.2500  -999.2500
   11.0000    51.5130  -999.2500  -999.2500
   11.5000    55.1629  -999.2500  -999.2500
   12.0000    56.1663  -999.2500  -999.2500
   12.5000    56.4659  -999.2500  -999.2500
   13.0000    56.7505  -999.2500  -999.2500
   13.5000    56.2938  -999.2500  -999.2500
   14.0000    54.6054  -999.2500  -999.2500
   14.5000    52.9410  -999.2500  -999.2500
   15.0000    51.2449  -999.2500  -999.2500
   15.5000    50.2202  -999.2500  -999.2500
   16.0000    50.5722  -999.2500  -999.2500
   16.5000    51.0863  -999.2500  -999.2500
   17.0000    51.5946  -999.2500  -999.2500
   17.5000    52.0983  -999.2500  -999.2500
   18.0000    52.4301  -999.2500  -999.2500
   18.5000    51.6833  -999.2500  -999.2500
   19.0000    50.0291  -999.2500  -999.2500
   19.5000    48.3460  -999.2500  -999.2500
   20.0000    46.8365  -999.2500  -999.2500
   20.5000    46.8835  -999.2500  -999.2500
   21.0000    46.8485  -999.2500  -999.2500
   21.5000    46.1638  -999.2500  -999.2500
   22.0000    46.3627  -999.2500  -999.2500
   22.5000    46.5586  -999.2500  -999.2500
   23.0000    46.7591  -999.2500  -999.2500
   23.5000    46.9583  -999.2500  -999.2500
   24.0000    47.1581  -999.2500  -999.2500
   24.5000    47.3584  -999.2500  -999.2500
   25.0000    47.5522  -999.2500  -999.2500
   25.5000    47.4923  -999.2500  -999.2500
   26.0000    46.9028  -999.2500  -999.2500
   26.5000    46.3215  -999.2500  -999.2500
   27.0000    45.7376  -999.2500  -999.2500
   27.5000    45.8990  -999.2500  -999.2500
   28.0000    46.2174  -999.2500  -999.2500
   28.5000    46.4553  -999.2500  -999.2500
   29.0000    46.2701  -999.2500  -999.2500
   29.5000    46.0715  -999.2500  -999.2500
   30.0000    46.8631  -999.2500  -999.2500
   30.5000    47.1932  -999.2500  -999.2500
   31.0000    47.0554  -999.2500  -999.2500
   31.5000    46.9041  -999.2500  -999.2500
   32.0000    46.8802  -999.2500  -999.2500
   32.5000    46.8810  -999.2500  -999.2500
   33.0000    46.9742  -999.2500  -999.2500
   33.5000    47.3065  -999.2500  -999.2500
   34.0000    48.4686  -999.2500  -999.2500
   34.5000    49.6661  -999.2500  -999.2500
   35.0000    50.5251  -999.2500  -999.2500
   35.5000    50.3910  -999.2500  -999.2500
   36.0000    49.3188  -999.2500  -999.2500
   36.5000    47.1212  -999.2500  -999.2500
   37.0000    44.9380  -999.2500  -999.2500
   37.5000    42.7591  -999.2500  -999.2500
   38.0000    40.5756  -999.2500  -999.2500
   38.5000    39.2122  -999.2500  -999.2500
   39.0000    39.1589  -999.2500  -999.2500
   39.5000    39.8224  -999.2500  -999.2500
   40.0000    44.8000  -999.2500  -999.2500
   40.5000    50.2987  -999.2500  -999.2500
   41.0000    56.1977  -999.2500  -999.2500
   41.5000    60.5282  -999.2500  -999.2500
   42.0000    64.5676  -999.2500  -999.2500
   42.5000    66.5393  -999.2500  -999.2500
   43.0000    65.6906  -999.2500  -999.2500
   43.5000    65.3375  -999.2500  -999.2500
   44.0000    67.4751  -999.2500  -999.2500
   44.5000    69.9309  -999.2500  -999.2500
   45.0000    71.7989  -999.2500  -999.2500
   45.5000    71.1089  -999.2500  -999.2500
   46.0000    70.3066  -999.2500  -999.2500
   46.5000    69.8016  -999.2500  -999.2500
   47.0000    70.9319  -999.2500  -999.2500
   47.5000    72.4706  -999.2500  -999.2500
   48.0000    74.5771  -999.2500  -999.2500
   48.5000    79.8744  -999.2500  -999.2500
   49.0000    88.5624  -999.2500  -999.2500
   49.5000    98.1021    12.1826    84.1084
   50.0000   108.0072     4.0970    36.7553
   50.5000   114.8248     2.3346     7.9348
   51.0000   119.4936     2.0374     7.9768
   51.5000   120.9950     2.5492     2.9326
   52.0000   122.5467     4.5670     2.4565
   52.5000   123.7709     8.1820     2.9489
   53.0000   123.7475    12.4104     3.6619
   53.5000   123.7275    12.5260     4.5473
   54.0000   124.7942     8.1414     5.6467
   54.5000   126.2775     6.3099     7.0120
   55.0000   126.9615     6.2517     7.8087
   55.5000   125.7758     6.8013     7.4015
   56.0000   123.7255     7.2425     6.9018
   56.5000   122.4874     7.7096     6.4358
   57.0000   122.9806     7.8840     6.1369
   57.5000   124.2494     7.8858     6.2787
   58.0000   125.3087     7.5511     6.4955
   58.5000   124.5927     7.2077     6.7328
   59.0000   123.8981     6.9870     6.7448
   59.5000   123.2083     6.9870     6.7608
   60.0000   122.5172     7.0157     6.7769
   60.5000   122.0614     7.0520     6.7937
   61.0000   124.5181     7.1777     6.8840
   61.5000   127.3311     7.3740     7.0242
   62.0000   129.4980     7.5757     7.1664
   62.5000   125.5601     7.7828     7.3176
   63.0000   122.0532     7.9957     7.5297
   63.5000   121.8942     8.2144     7.7581
   64.0000   121.3839     8.4381     7.9937
   64.5000   120.1394     8.6808     8.2364
   65.0000   118.9835     8.9405     8.4864
   65.5000   117.8265     9.2096     8.7441
   66.0000   116.6774     9.4866     9.0096
   66.5000   115.5592     9.7718     9.2831
   67.0000   115.1461    10.0656     9.5649
   67.5000   115.3879    10.3682     9.8553
   68.0000   118.1194    10.6799    10.1545
   68.5000   119.5763    11.0010    10.4628
   69.0000   116.7966    11.3318    10.7805
   69.5000   114.1247    11.6725    11.1078
   70.0000   112.4539    12.0234    11.4451
   70.5000   111.5352    12.3849    11.7926
   71.0000   110.5450    12.7602    12.1506
   71.5000   109.5501    12.8407    12.4104
   72.0000   108.5562    12.9224    12.4857
   72.5000   107.5547    13.0045    12.5601
   73.0000   107.4362    13.0872    12.6352
   73.5000   107.8249    13.1704    12.6427
   74.0000   108.2179    13.2421    12.6434
   74.5000   108.6161    13.0057    12.5297
   75.0000   109.2511    12.8558    12.3817
   75.5000   110.2886    12.7076    12.2354
   76.0000   111.3234    12.5611    12.0909
   76.5000   112.3536    12.4163    11.9481
   77.0000   112.4804    12.2731    11.8069
   77.5000   112.4812    12.1317    11.6674
   78.0000   112.4649    11.9919    11.5296
   78.5000   111.6547    11.8486    11.3934
   79.0000   109.3834    11.7393    11.2078
   79.5000   107.1293    11.7393    11.2490
   80.0000   104.8708    11.7734    11.3161
   80.5000   102.8958    11.8498    11.3835
   81.0000   101.8902    11.9274    11.4514
   81.5000   101.8703    12.0044    11.5237
   82.0000   101.9740    12.0698    11.4049
   82.5000   103.2524    11.8377    11.2468
   83.0000   104.8629    11.6408    11.0850
   83.5000   106.4790    11.4470    11.0978
   84.0000   108.0938    11.2565    10.8300
   84.5000   109.7086    11.0693    10.6161
   85.0000   111.2988    10.8820    10.4048
   85.5000   112.5204    10.6966    10.1977
   86.0000   110.9153    10.7021    10.0284
   86.5000   108.8212    10.7004    10.0200
   87.0000   108.4371    10.7004     9.9984
   87.5000   108.8040    10.6824     9.9768
   88.0000   109.2470    10.6086     9.9552
   88.5000   109.6822    10.5353     9.9358
   89.0000   110.0780    10.4625     9.9103
   89.5000   108.6561    10.3902     9.8609
   90.0000   106.0818    10.3184     9.8117
   90.5000   103.9555    10.2472     9.7627
   91.0000   104.0993    10.1763     9.7140
   91.5000   106.3443    10.1058     9.6655
   92.0000   108.6573    10.0248     9.6172
   92.5000   106.9171    10.0238     9.5739
