~VERSION INFORMATION
 VERS.                2.0:   CWLS LOG ASCII STANDARD - VERSION 2.0
 WRAP.                 NO:   ONE LINE PER DEPTH STEP
~WELL INFORMATION
#MNEM.UNIT      DATA TYPE    INFORMATION
#----------   ------------   ------------------------------
 STRT.F           38.0000:   START DEPTH
 STOP.F          890.0000:   STOP DEPTH
 STEP.F            0.5000:   STEP LENGTH
 NULL.          -999.2500:   NO VALUE
 COMP. FENIX & SCISSON INC:   COMPANY
 WELL.       43 SX #14-14:   WELL
 FLD .             TEAPOT:   FIELD
 LOC .      S14 T38N R78W:   LOCATION
 CNTY.            NATRONA:   COUNTY
 STAT.            WYOMING:   STATE
 CTRY. UNITED STATES OF AMERICA:   COUNTRY
 SRVC.            Unknown:   SERVICE COMPANY
 DATE.        28-APR-1978:   LOGDATE
 API .       490251063600:   API NUMBER
~CURVE INFORMATION
#MNEM.UNIT       API CODE    CURVE DESCRIPTION
#----------   ------------   ------------------------------
 DEPT.F                  :   
 SPR .MV     05 010 01 00:   SPONTANEOUS POTENTIAL FROM RES.
 SN  .OHMM   05 040 16 00:   SHORT NORMAL 16"
 ILD .OHMM   05 120 46 00:   INDUCTION LOG DEEP
 CILD.MMHO   05 110 46 00:   CONDUCTIVITY INDUCTION LOG DEEP
 CALD.IN     45 280 60 00:   CALIPER FROM DENSITY LOG
 GRD .GAPI   45 310 01 00:   GAMMA RAY FROM DENSITY LOG
 CORR.G/C3   45 356 01 00:   DENSITY CORRECTION
 DPHI.DEC    45 890 12 00:   DENSITY POROSITY SANDSTONE
 DEN .G/C3   45 350 01 00:   COMPENSATED BULK DENSTIY
~PARAMETER INFORMATION
#MNEM.UNIT          VALUE    DESCRIPTION
#----------   ------------   ------------------------------
 PD  .                 GL:   PERMANENT DATUM
 EPD .F              5217:   ELEVATION PERMANENT DATUM
 LMF .                 KB:   LOG MEASURED FROM
 DMF .                 KB:   DRILLING MEASURED FROM
 EKB .F              5221:   KELLING BUSHING
 EGL .F              5217:   GROUND LEVEL
 DATE.        28-APR-1978:   RUN DATE
 RUN .                  1:   RUN NUMBER
 DD  .F               890:   DEPTH DRILLER
 DL  .F               890:   DEPTH LOGGER
 BLI .F               884:   BOTTOM LOG INTERVAL
 TLI .F                40:   TOP LOG INTERVAL
 CS  .IN            8.625:   CASING SIZE
 CBD .F                40:   CASING BOTTOM DRILLER
 CBL .F                40:   CASING BOTTOM LOGGER
 BS  .IN            7.875:   BIT SIZE
 BSD .F               890:   BIT SIZE AT DEPTH
 DFT .                KCL:   DRILLING FLUID TYPE
 DFD .                8.7:   DRILLING FLUID DENSITY
 DFV .                 34:   DRILLING FLUID VISCOSITY
 DFL .                4.8:   DRILLING FLUID LOSS
 MSS .            MUD PIT:   MUD SAMPLE SOURCE
 RMS .OHMM             .4:   RESISTIVITY MUD SAMPLE
 MST .F                56:   MUD SAMPLE TEMPERATURE
 RMF .OHMM            .38:   RESISTIVITY MUD FILTRATE SAMPLE
 MFST.F                64:   MUD FILTRATE SAMPLE TEMPERATURE
 RMC .OHMM              1:   RESISTIVITY MUD CAKE
 MCST.F                66:   MUD CAKE SAMPLE TEMPERATURE
 MFSS.               MEAS:   MUD FILTRATE SAMPLE SOURCE
 RMB .OHMM             .3:   RESISTIVITY MUD AT BHT
 BHT .F                74:   BOTTOM HOLE TEMPERATURE
 TCS .HRS            0100:   TIME CURCULATED STOPPED
 MRT .F                74:   MAXIMUM RECORDED TEMPERATURE
 LUN .               2958:   LOGGING UNIT NUMBER
 LUL .               CASP:   LOGGING UNIT LOCATION
 ENGI.             MILLER:   RECORDING ENGINEER
 WITN.           MCGINLEY:   WITNESSED BY
 CLNT.            A2DTECH:   CLIENT CODE
 ORIG.           5" PRINT:   ORIGIN OF DATA
 UWI .       490251063600:   UNIQUE WELL ID
 DICO. A2D Technologies, Inc.:   DIGITIZING COMPANY
~OTHER INFORMATION
~A   DEPT      SPR         SN        ILD       CILD       CALD        GRD       CORR       DPHI        DEN   
# ...
  731.5000   -29.1502    10.6838    11.8518    73.9326     8.0352    62.8439     0.0523     0.1189     2.4361
  732.0000   -29.1442    10.6148    11.8610    73.8577     8.0368    63.6432     0.0479     0.1186     2.4362
  732.5000   -29.1383    10.4753    11.7058    73.7828     8.0384    64.8227     0.0464     0.1198     2.4272
  733.0000   -29.2822    10.4090    11.5507    74.4592     8.0401    65.2857     0.0452     0.1194     2.4288
  733.5000   -29.2748    10.4162    11.3996    74.3840     8.0417    65.2990     0.0453     0.1185     2.4341
  734.0000   -29.2689    10.3489    11.3282    75.8070     8.0433    64.8624     0.0439     0.1182     2.4364
  734.5000   -29.2630    10.3561    11.2573    76.4809     8.0300    64.1260     0.0440     0.1185     2.4357
  735.0000   -29.2570    10.2892    11.2661    76.4057     8.0316    63.3896     0.0441     0.1184     2.4349
  735.5000   -29.2511    10.2963    11.2731    77.8287     8.0482    63.0997     0.0457     0.1187     2.4336
  736.0000   -29.2452    10.3020    11.2008    78.5026     8.0947    62.9630     0.0443     0.1184     2.4329
  736.5000   -29.2392    10.2354    11.2095    79.1765     8.2011    63.8791     0.0429     0.1175     2.4390
  737.0000   -29.2333    10.1707    11.0628    79.1011     8.2476    64.3421     0.0370     0.1147     2.4405
  737.5000   -29.3772    10.1778    11.0697    79.7753     8.2343    64.2054     0.0371     0.1123     2.4414
  738.0000   -29.5197    10.1120    10.9987    80.4494     8.1122    64.0687     0.0372     0.1108     2.4437
  738.5000   -29.5123    10.0485    11.0073    81.1236     7.9342    64.0825     0.0373     0.1147     2.4445
  739.0000   -29.5063     9.9846    11.0141    81.0479     7.8653    64.2484     0.0374     0.1221     2.4355
  739.5000   -29.5004     9.9915    11.0210    81.7229     7.8669    64.4115     0.0390     0.1218     2.4266
  740.0000   -29.4945     9.9269    11.0269    81.6467     7.8835    65.4743     0.0451     0.1155     2.4274
  740.5000   -29.4885     9.9329    11.0347    82.3221     7.9450    65.6374     0.0557     0.1113     2.4402
  741.0000   -29.4826     9.9393    10.9656    82.9963     7.9915    65.6506     0.0678     0.1097     2.4470
  741.5000   -29.6265     9.9439    10.9724    83.6704     8.0530    65.5139     0.0724     0.1091     2.4478
  742.0000   -30.0657     9.9502    10.9038    84.3423     8.1145    65.5272     0.0725     0.1106     2.4487
  742.5000   -30.3565     9.8860    10.9106    84.2672     8.1611    65.3872     0.0741     0.1112     2.4487
  743.0000   -30.6473     9.8928    10.8406    84.1920     8.2375    65.7035     0.0743     0.1118     2.4465
  743.5000   -30.6399     9.8982    10.8490    84.1168     8.2541    68.4154     0.0744     0.1072     2.4458
  744.0000   -30.7838     9.9037    10.8558    84.0417     8.2557    68.5786     0.0745     0.1009     2.4519
  744.5000   -30.9263     9.9083    10.8625    83.9665     8.2574    67.5423     0.0686     0.0937     2.4708
  745.0000   -30.9188     9.8452    10.8693    83.8914     8.2440    67.4056     0.0627     0.0924     2.4799
  745.5000   -30.9129     9.8520    10.8761    83.8162     8.2307    68.1718     0.0553     0.0971     2.4799
  746.0000   -30.9070     9.7897    10.8828    83.7411     8.2323    69.2345     0.0477     0.1036     2.4807
  746.5000   -30.9011     9.7951    10.8896    83.6659     8.2343    69.5443     0.0390     0.1080     2.4642
  747.0000   -30.8951     9.8005    10.8964    83.5907     8.2206    68.9611     0.0331     0.1067     2.4605
  747.5000   -30.8892     9.8737    10.9032    83.5156     8.2226    68.2247     0.0317     0.1007     2.4583
  748.0000   -30.8833     9.9475    10.9099    83.4404     8.2088    68.2379     0.0288     0.0980     2.4531
  748.5000   -30.8773    10.0219    10.9923    83.3653     8.2108    68.7009     0.0274     0.1082     2.4697
  749.0000   -30.8714    10.0274    10.9991    83.2901     8.2125    69.1639     0.0275     0.1055     2.4533
  749.5000   -30.8655    10.0330    11.0060    83.9640     8.2141    69.4770     0.0276     0.1033     2.4616
  750.0000   -31.0094    10.0371    11.0031    83.8976     8.2607    69.3416     0.0297     0.1108     2.4579
  750.5000   -30.9950    10.0288    10.9841    83.8373     8.2319    69.3562     0.0339     0.1108     2.4399
  751.0000   -30.9818    10.0210    10.9651    83.7770     8.2183    69.3708     0.0340     0.1111     2.4384
  751.5000   -30.9685    10.0133    10.9461    83.7167     8.2202    69.3854     0.0341     0.1116     2.4460
  752.0000   -30.9552    10.0056    10.9272    83.6565     8.2066    69.1944     0.0311     0.1131     2.4476
  752.5000   -30.9420     9.9979    10.9082    83.5962     8.1931    67.4692     0.0299     0.1197     2.4439
  753.0000   -30.9287     9.9902    10.8892    83.5359     8.1782    67.0340     0.0346     0.1212     2.4379
  753.5000   -30.9148     9.9825    10.8702    84.2169     8.1515    67.0486     0.0377     0.1210     2.4274
  754.0000   -31.0531     9.9747    10.8513    84.9207     8.1226    67.5130     0.0393     0.1124     2.4373
  754.5000   -31.0363     9.9670    10.8323    85.6094     8.1091    67.5276     0.0395     0.1046     2.4433
  755.0000   -31.0228     9.9593    10.8133    85.5340     8.0956    67.3886     0.0381     0.0998     2.4569
  755.5000   -31.0094     9.9609    10.7943    85.4737     8.0974    67.2570     0.0367     0.1000     2.4683
  756.0000   -30.9960     9.8966    10.7754    85.4134     8.1127    67.2716     0.0354     0.1012     2.4713
  756.5000   -30.9825     9.9706    10.7564    85.3530     8.1302    67.4443     0.0355     0.1015     2.4676
  757.0000   -30.9691     9.9336    10.7374    85.2927     8.1317    67.7511     0.0356     0.1009     2.4646
  757.5000   -30.9556     9.9012    10.7163    85.2434     8.1335    67.7688     0.0358     0.1002     2.4647
  758.0000   -30.9422     9.8689    10.7214    85.1721     8.1649    67.9333     0.0389     0.0996     2.4678
  758.5000   -30.7804     9.8564    10.7266    85.1117     8.1813    67.9479     0.0390     0.1002     2.4686
  759.0000   -30.7669     9.8620    10.8061    85.0637     8.2277    67.9625     0.0392     0.1068     2.4596
  759.5000   -30.6051     9.8674    10.8862    85.0037     8.2441    67.9771     0.0393     0.1119     2.4521
  760.0000   -30.2949     9.8729    10.9669    84.9373     8.2456    67.3884     0.0379     0.1133     2.4507
  760.5000   -29.9848     9.9467    10.9722    84.6833     8.2320    67.7065     0.0381     0.1221     2.4440
  761.0000   -29.5262     9.9522    10.9775    84.4292     8.1719    69.5261     0.0367     0.1250     2.4342
  761.5000   -29.2160    10.0266    11.0588    84.1752     8.0706    71.6701     0.0369     0.1364     2.4275
  762.0000   -28.9059    10.1715    11.2179    83.9504     8.0268    72.2517     0.0370     0.1487     2.4197
  762.5000   -28.4473    10.4617    11.4581    81.6429     8.0133    68.6681     0.0386     0.1589     2.3865
  763.0000   -28.1371    10.9096    12.0308    76.3391     7.9998    65.6842     0.0433     0.1762     2.3653
  763.5000   -27.6786    11.5346    12.9857    74.0316     8.0166    61.5009     0.0449     0.1834     2.3473
  764.0000   -27.3684    12.1116    14.3094    67.2297     8.0479    54.7652     0.0450     0.1854     2.3285
  764.5000   -27.2066    12.6301    15.5520    60.4278     8.0793    55.5331     0.0451     0.1810     2.3143
  765.0000   -27.1958    13.0803    16.4425    55.1240     8.0958    55.8476     0.0453     0.1776     2.3234
  765.5000   -27.1825    13.7347    17.6254    50.5693     8.1425    56.4619     0.0469     0.1746     2.3242
  766.0000   -27.1691    14.4218    19.0243    45.2656     8.1589    57.4122     0.0471     0.1707     2.3340
  766.5000   -27.1558    14.6301    19.5661    42.9580     8.1454    58.8935     0.0472     0.1677     2.3476
  767.0000   -27.1424    14.6383    19.7111    42.1487     8.1019    59.3579     0.0473     0.1661     2.3416
  767.5000   -27.1291    14.6464    19.5850    42.8374     7.9836    60.1221     0.0459     0.1646     2.3485
