~VERSION INFORMATION
 VERS.                2.0:   CWLS LOG ASCII STANDARD - VERSION 2.0
 WRAP.                 NO:   ONE LINE PER DEPTH STEP
~WELL INFORMATION
#MNEM.UNIT      DATA TYPE    INFORMATION
#----------   ------------   ------------------------------
 STRT.F           36.5000:   START DEPTH
 STOP.F          476.0000:   STOP DEPTH
 STEP.F            0.5000:   STEP LENGTH
 NULL.          -999.2500:   NO VALUE
 COMP. LAWRENCE/ALLISON INC:   COMPANY
 WELL.    54-36 SXFO #3-3:   WELL
 FLD .            WILDCAT:   FIELD
 LOC .       S3 T38N R78W:   LOCATION
 CNTY.            NATRONA:   COUNTY
 STAT.            WYOMING:   STATE
 CTRY. UNITED STATES OF AMERICA:   COUNTRY
 SRVC.      Dresser Atlas:   SERVICE COMPANY
 DATE.        09-DEC-1983:   LOGDATE
 API .       490251095500:   API NUMBER
~CURVE INFORMATION
#MNEM.UNIT       API CODE    CURVE DESCRIPTION
#----------   ------------   ------------------------------
 DEPT.F                  :   
 GRD .GAPI   45 310 01 00:   GAMMA RAY FROM DENSITY LOG
 PORD.DEC    45 890 12 00:   POROSITY DENSITY SANDSTONE
 DEN .G/C3   45 350 01 00:   COMPENSATED BULK DENSTIY
 CORR.G/C3   45 356 01 00:   DENSITY CORRECTION
 CALD.IN     45 280 60 00:   CALIPER
 RFOC.OHMM   07 220 04 00:   RESISTIVITY FOCUSED LOG
 RILD.OHMM   07 120 46 00:   INDUCTION LOG DEEP RESISTIVITY
 RILM.OHMM   07 120 44 00:   INDUCTION LOG MEDIUM RESISTIVITY
~PARAMETER INFORMATION
#MNEM.UNIT          VALUE    DESCRIPTION
#----------   ------------   ------------------------------
 PD  .                 GL:   PERMANENT DATUM
 EPD .F              5166:   ELEVATION PERMANENT DATUM
 LMF .                 KB:   LOG MEASURED FROM
 DAPD.F                10:   FEET ABOVE PERMANENT DATUM
 DMF .                 KB:   DRILLING MEASURED FROM
 EKB .F              5176:   KELLING BUSHING
 EGL .F              5166:   GROUND LEVEL
 DATE.            12-9-83:   RUN DATE
 RUN .                  1:   RUN NUMBER
 DD  .F               478:   DEPTH DRILLER
 DL  .F               475:   DEPTH LOGGER
 BLI .F               473:   BOTTOM LOG INTERVAL
 TLI .F                44:   TOP LOG INTERVAL
 CBD .F                40:   CASING BOTTOM DRILLER
 CBL .F                44:   CASING BOTTOM LOGGER
 BS  .IN             8.75:   BIT SIZE
 BSD .F               478:   BIT SIZE AT DEPTH
 DFT .           AIR FOAM:   DRILLING FLUID TYPE
 MRT .F               100:   MAXIMUM RECORDED TEMPERATURE
 LUN .               6307:   LOGGING UNIT NUMBER
 LUL .               GLTE:   LOGGING UNIT LOCATION
 ENGI.            DEYOUNG:   RECORDING ENGINEER
 WITN.             GROOMS:   WITNESSED BY
 CLNT.            A2DTECH:   CLIENT CODE
 ORIG.       2", 5" PRINT:   ORIGIN OF DATA
 UWI .       490251095500:   UNIQUE WELL ID
 DICO. A2D Technologies, Inc.:   DIGITIZING COMPANY
~OTHER INFORMATION
~A   DEPT       GRD      PORD        DEN       CORR       CALD       RFOC       RILD       RILM   
# ...
  117.5000   105.9696     0.1237     2.4768     0.0556    10.7996  -999.2500    10.9229    11.2976
  118.0000   104.9096     0.1248     2.4755     0.0327    10.7996  -999.2500    11.2343    11.5650
  118.5000   103.8763     0.1241     2.4844     0.0157    10.8057  -999.2500    11.5545    11.8387
  119.0000   101.3787     0.1160     2.4932     0.0140    10.8174  -999.2500    11.6908    12.1189
  119.5000    98.4626     0.1060     2.5032     0.0123    10.8291  -999.2500    11.7247    12.3319
  120.0000    96.4778     0.1114     2.4943     0.0246    10.8408  -999.2500    11.7586    12.2671
  120.5000    99.1045     0.1191     2.4800     0.0389    10.8525  -999.2500    11.7769    12.2158
  121.0000    99.8616     0.1267     2.4655     0.0313    10.8642  -999.2500    11.7780    12.1642
  121.5000    97.2745     0.1343     2.4520     0.0106    10.8758  -999.2500    11.7117    12.1133
  122.0000    95.7788     0.1405     2.4437    -0.0105    10.8921  -999.2500    11.6128    12.0433
  122.5000    97.1618     0.1453     2.4356    -0.0234    10.9102  -999.2500    11.5155    11.9709
  123.0000    98.7822     0.1465     2.4341    -0.0300    10.9285  -999.2500    11.4192    11.8989
  123.5000    97.6934     0.1476     2.4341    -0.0269    10.9465  -999.2500    11.3236    11.8273
  124.0000    96.3001     0.1481     2.4367    -0.0061    10.9619  -999.2500    11.2288    11.7562
  124.5000    94.8586     0.1438     2.4420     0.0199    10.9963  -999.2500    11.1348    11.6855
  125.0000    95.1782     0.1390     2.4472     0.0464    11.0301  -999.2500    11.0415    11.6153
  125.5000    96.9751     0.1385     2.4513     0.0512    11.0635  -999.2500    10.9491    11.5455
  126.0000   100.2562     0.1436     2.4414     0.0393    11.0970  -999.2500    10.8576    11.4760
  126.5000   103.5079     0.1501     2.4247     0.0273    11.1305  -999.2500    10.7396    11.2557
  127.0000   106.8092     0.1534     2.4249     0.0153    11.1639  -999.2500    10.7411    11.0714
  127.5000   107.6116     0.1517     2.4263     0.0033    11.1974  -999.2500    10.7404    10.8409
  128.0000   103.5352     0.1509     2.4266    -0.0088    11.2323  -999.2500    10.7403    10.9312
  128.5000    98.9340     0.1579     2.4162    -0.0047    11.2563  -999.2500    10.8028    11.0574
  129.0000    97.1322     0.1665     2.4049     0.0014    11.2864  -999.2500    10.8893    11.1863
  129.5000    98.7368     0.1733     2.3935     0.0173    11.3163  -999.2500    10.9765    11.3164
  130.0000    99.5502     0.1801     2.3823     0.0397    11.3464  -999.2500    11.0646    11.4480
  130.5000    99.0058     0.1875     2.3710     0.0632    11.3764  -999.2500    11.1529    11.5811
  131.0000    97.9318     0.1883     2.3674     0.0638    11.4089  -999.2500    11.2468    11.7769
  131.5000    93.0411     0.1816     2.3735     0.0391    11.4523  -999.2500    11.0298    11.6324
  132.0000    87.1544     0.1719     2.3954    -0.0182    11.4957  -999.2500    10.8055    11.3740
  132.5000    85.8437     0.1643     2.4068    -0.0611    11.5390  -999.2500    10.5857    11.1215
  133.0000    89.4772     0.1650     2.4061    -0.0713    11.5823  -999.2500    10.3704    10.8745
  133.5000    94.1569     0.1690     2.4004    -0.0359    11.6256  -999.2500    10.1594    10.6330
  134.0000    98.9652     0.1729     2.3929    -0.0068    11.6708  -999.2500     9.9528    10.3964
  134.5000    98.9790     0.1769     2.3853    -0.0235    11.6790  -999.2500     9.7504    10.1666
  135.0000    98.6283     0.1808     2.3778    -0.0461    11.6759  -999.2500     9.6594    10.0311
  135.5000    99.4809     0.1848     2.3703    -0.0382    11.6725  -999.2500     9.6000     9.9674
  136.0000   100.5775     0.1888     2.3629    -0.0235    11.6692  -999.2500     9.5410     9.9030
  136.5000   101.6842     0.1896     2.3600     0.0193    11.6658  -999.2500     9.4958     9.8389
  137.0000   102.7757     0.1898     2.3611     0.0157    11.6628  -999.2500     9.4543     9.7753
  137.5000   103.2295     0.1879     2.3668     0.0109    11.6403  -999.2500     9.4129     9.7121
  138.0000   101.2426     0.1822     2.3766     0.0181    11.6069  -999.2500     9.3718     9.6492
  138.5000    99.3270     0.1764     2.3865     0.0285    11.5731  -999.2500     9.3308     9.5868
  139.0000    97.7886     0.1706     2.3962     0.0227    11.5394  -999.2500     9.2900     9.5248
  139.5000    99.0468     0.1667     2.4034     0.0024    11.5057  -999.2500     9.2494     9.4632
  140.0000   100.3196     0.1666     2.4050    -0.0159    11.4956  -999.2500     9.2090     9.4020
  140.5000   101.5895     0.1691     2.3976    -0.0120    11.4895  -999.2500     9.1688     9.3525
  141.0000   102.8482     0.1749     2.3883     0.0132    11.4830  -999.2500     9.1287     9.3427
  141.5000   103.5943     0.1807     2.3790     0.0485    11.4618  -999.2500     9.0888     9.3329
  142.0000   102.4068     0.1803     2.3766     0.0792    11.4165  -999.2500     9.0491     9.3231
  142.5000   101.2719     0.1764     2.3828     0.0773    11.3701  -999.2500     9.0095     9.3133
  143.0000   100.1339     0.1710     2.3936     0.0520    11.3594  -999.2500     8.9701     9.3035
  143.5000    99.0067     0.1656     2.4044     0.0295    11.3571  -999.2500     8.9309     9.2937
  144.0000    98.3466     0.1603     2.4151     0.0239    11.3550  -999.2500     8.8919     9.2839
  144.5000    99.0649     0.1549     2.4258     0.0181    11.3527  -999.2500     8.8530     9.2746
  145.0000    99.7504     0.1497     2.4351     0.0239    11.3505  -999.2500     8.8143     9.2255
  145.5000    99.6205     0.1471     2.4391     0.0362    11.3483  -999.2500     8.7758     9.0597
  146.0000    99.0289     0.1446     2.4434     0.0488    11.3461  -999.2500     8.6541     8.8970
  146.5000    98.4203     0.1427     2.4399     0.0543    11.3438  -999.2500     8.4818     8.7371
  147.0000    97.8019     0.1447     2.4342     0.0538    11.3416  -999.2500     8.3130     8.5801
  147.5000    97.5361     0.1492     2.4284     0.0383    11.3394  -999.2500     8.1475     8.4259
  148.0000   101.3544     0.1537     2.4227     0.0218    11.3371  -999.2500     7.9854     8.2745
  148.5000   105.2094     0.1552     2.4247     0.0196    11.3349  -999.2500     7.8264     8.1259
  149.0000   106.5482     0.1486     2.4332     0.0215    11.3327  -999.2500     7.6707     7.9798
  149.5000   103.3312     0.1441     2.4407     0.0236    11.3304  -999.2500     7.5180     7.8363
  150.0000    98.3767     0.1437     2.4318     0.0257    11.3282  -999.2500     7.3683     7.6961
  150.5000    96.6193     0.1532     2.4227     0.0247    11.3260  -999.2500     7.2951     7.5656
  151.0000    97.7030     0.1595     2.4136     0.0227    11.3237  -999.2500     7.2942     7.5520
  151.5000    98.6672     0.1615     2.4119     0.0154    11.3215  -999.2500     7.2955     7.5368
  152.0000    95.5793     0.1604     2.4151     0.0069    11.3185  -999.2500     7.2964     7.5217
  152.5000    92.6924     0.1593     2.4178    -0.0017    11.3151  -999.2500     7.2282     7.4995
  153.0000    93.3346     0.1601     2.4150     0.0032    11.3116  -999.2500     7.3162     7.5551
  153.5000    97.3019     0.1611     2.4122     0.0217    11.3082  -999.2500     7.4383     7.6618
  154.0000   100.0818     0.1591     2.4133     0.0398    11.3047  -999.2500     7.5624     7.7699
  154.5000   102.7032     0.1570     2.4172     0.0480    11.3009  -999.2500     7.6885     7.8793
  155.0000   101.7089     0.1550     2.4211     0.0293    11.3126  -999.2500     7.8168     7.9903
  155.5000   100.5725     0.1530     2.4248    -0.0026    11.3274  -999.2500     7.9360     8.1028
  156.0000   100.0068     0.1510     2.4285    -0.0176    11.3422  -999.2500     7.9997     8.2169
  156.5000   103.9908     0.1490     2.4321    -0.0128    11.3570  -999.2500     8.0638     8.3327
  157.0000   105.5493     0.1478     2.4358    -0.0030    11.3718  -999.2500     8.1285     8.4501
  157.5000   103.6203     0.1471     2.4376     0.0071    11.3866  -999.2500     8.1937     8.5696
