~VERSION INFORMATION
 VERS.                2.0:   CWLS LOG ASCII STANDARD - VERSION 2.0
 WRAP.                 NO:   ONE LINE PER DEPTH STEP
~WELL INFORMATION
#MNEM.UNIT      DATA TYPE    INFORMATION
#----------   ------------   ------------------------------
 STRT.F            0.0000:   START DEPTH
 STOP.F          556.0000:   STOP DEPTH
 STEP.F            0.5000:   STEP LENGTH
 NULL.          -999.2500:   NO VALUE
 COMP.       F D SERV INC:   COMPANY
 WELL. NAVAL PETROLEUM RESERVE NPR #3 #86-3 SX 3:   WELL
 FLD .             TEAPOT:   FIELD
 LOC .       S3 T38N R78W:   LOCATION
 CNTY.            NATRONA:   COUNTY
 STAT.            WYOMING:   STATE
 CTRY. UNITED STATES OF AMERICA:   COUNTRY
 SRVC.      Western Atlas:   SERVICE COMPANY
 DATE.        24-OCT-1992:   LOGDATE
 API .       490252255300:   API NUMBER
~CURVE INFORMATION
#MNEM.UNIT       API CODE    CURVE DESCRIPTION
#----------   ------------   ------------------------------
 DEPT.F                  :   
 GRR .GAPI   07 310 01 00:   GAMMA RAY
 RILD.OHMM   07 120 46 00:   INDUCTION LOG DEEP RESISTIVITY
 RILM.OHMM   07 120 44 00:   RESITIVITY LONG MEDIUM
~PARAMETER INFORMATION
#MNEM.UNIT          VALUE    DESCRIPTION
#----------   ------------   ------------------------------
 PD  .                 GL:   PERMANENT DATUM
 EPD .F              5157:   ELEVATION PERMANENT DATUM
 LMF .                 KB:   LOG MEASURED FROM
 DAPD.F                10:   FEET ABOVE PERMANENT DATUM
 DMF .                 KB:   DRILLING MEASURED FROM
 EKB .F              5167:   KELLING BUSHING
 EDF .F              5166:   DRILLING FLOOR
 EGL .F              5157:   GROUND LEVEL
 DATE.        24-OCT-1992:   RUN DATE
 RUN .                  1:   RUN NUMBER
 DD  .F               565:   DEPTH DRILLER
 DL  .F               564:   DEPTH LOGGER
 BLI .F               564:   BOTTOM LOG INTERVAL
 TLI .F                 0:   TOP LOG INTERVAL
 CS  .IN            8.625:   CASING SIZE
 CBD .F                85:   CASING BOTTOM DRILLER
 CBL .F                56:   CASING BOTTOM LOGGER
 BS  .IN            7.875:   BIT SIZE
 BSD .F               565:   BIT SIZE AT DEPTH
 DFT .           AIR FOAM:   DRILLING FLUID TYPE
 DFD .                   :   DRILLING FLUID DENSITY
 DFV .                   :   DRILLING FLUID VISCOSITY
 DFPH.                   :   DRILLING FLUID PH
 DFL .                   :   DRILLING FLUID LOSS
 MSS .                   :   MUD SAMPLE SOURCE
 RMS .OHMM               :   RESISTIVITY MUD SAMPLE
 MST .F                  :   MUD SAMPLE TEMPERATURE
 RMF .OHMM               :   RESISTIVITY MUD FILTRATE SAMPLE
 MFST.F                  :   MUD FILTRATE SAMPLE TEMPERATURE
 RMC .OHMM               :   RESISTIVITY MUD CAKE
 MCST.F                  :   MUD CAKE SAMPLE TEMPERATURE
 MFSS.                   :   MUD FILTRATE SAMPLE SOURCE
 MCSS.                   :   MUD CAKE SAMPLE SOURCE
 RMB .OHMM               :   RESISTIVITY MUD AT BHT
 BHT .F                  :   BOTTOM HOLE TEMPERATURE
 TCS .HRS               1:   TIME CURCULATED STOPPED
 TLAB.HRS                :   TIME LOGGER AT BOTTOM
 MRT .F                76:   MAXIMUM RECORDED TEMPERATURE
 LUN .            HL-6274:   LOGGING UNIT NUMBER
 LUL .             CASPER:   LOGGING UNIT LOCATION
 ENGI.             RAUTIO:   RECORDING ENGINEER
 WITN.        GARY STRONG:   WITNESSED BY
 CLNT.            A2DTECH:   CLIENT CODE
 ORIG.           5" PRINT:   ORIGIN OF DATA
 UWI .       490252255300:   UNIQUE WELL ID
 DICO. A2D Technologies, Inc.:   DIGITIZING COMPANY
 OS  .                   :   OTHER SERVICES
 PWI .                   :   PRIMARY WELL IDENTIFIER
 R1  .                   :   REMARKS 1
 R2  .                   :   REMARKS 2
 LSRV.                   :   LOG MNEMONIC
~OTHER INFORMATION
~A    DEPT      GRR      RILD       RILM   
    0.0000    11.4982  -999.2500  -999.2500
    0.5000    13.6191  -999.2500  -999.2500
    1.0000    17.8581  -999.2500  -999.2500
    1.5000    26.3330  -999.2500  -999.2500
    2.0000    34.2028  -999.2500  -999.2500
    2.5000    37.2516  -999.2500  -999.2500
    3.0000    38.4454  -999.2500  -999.2500
    3.5000    37.8431  -999.2500  -999.2500
    4.0000    36.6358  -999.2500  -999.2500
    4.5000    33.6130  -999.2500  -999.2500
    5.0000    26.3542  -999.2500  -999.2500
    5.5000    19.7005  -999.2500  -999.2500
    6.0000    16.9803  -999.2500  -999.2500
    6.5000    17.2865  -999.2500  -999.2500
    7.0000    18.1971  -999.2500  -999.2500
    7.5000    20.0155  -999.2500  -999.2500
    8.0000    22.1364  -999.2500  -999.2500
    8.5000    24.5599  -999.2500  -999.2500
    9.0000    26.6808  -999.2500  -999.2500
    9.5000    28.8381  -999.2500  -999.2500
   10.0000    30.6208  -999.2500  -999.2500
   10.5000    36.6752  -999.2500  -999.2500
   11.0000    53.3195  -999.2500  -999.2500
   11.5000    66.0305  -999.2500  -999.2500
   12.0000    74.5054  -999.2500  -999.2500
   12.5000    74.2057  -999.2500  -999.2500
   13.0000    74.9027  -999.2500  -999.2500
   13.5000    76.3303  -999.2500  -999.2500
   14.0000    75.7281  -999.2500  -999.2500
   14.5000    74.8233  -999.2500  -999.2500
   15.0000    73.3134  -999.2500  -999.2500
   15.5000    71.8034  -999.2500  -999.2500
   16.0000    71.2012  -999.2500  -999.2500
   16.5000    71.8100  -999.2500  -999.2500
   17.0000    72.4180  -999.2500  -999.2500
   17.5000    73.3287  -999.2500  -999.2500
   18.0000    74.2393  -999.2500  -999.2500
   18.5000    76.0577  -999.2500  -999.2500
   19.0000    78.1786  -999.2500  -999.2500
   19.5000    80.0131  -999.2500  -999.2500
   20.0000    80.3024  -999.2500  -999.2500
   20.5000    76.6752  -999.2500  -999.2500
   21.0000    60.9444  -999.2500  -999.2500
   21.5000    60.0389  -999.2500  -999.2500
   22.0000    63.6734  -999.2500  -999.2500
   22.5000    72.7535  -999.2500  -999.2500
   23.0000    78.2269  -999.2500  -999.2500
   23.5000    78.5089  -999.2500  -999.2500
   24.0000    75.1835  -999.2500  -999.2500
   24.5000    74.5813  -999.2500  -999.2500
   25.0000    76.0971  -999.2500  -999.2500
   25.5000    77.6128  -999.2500  -999.2500
   26.0000    77.6278  -999.2500  -999.2500
   26.5000    76.6788  -999.2500  -999.2500
   27.0000    75.5043  -999.2500  -999.2500
   27.5000    74.2970  -999.2500  -999.2500
   28.0000    73.3914  -999.2500  -999.2500
   28.5000    74.0002  -999.2500  -999.2500
   29.0000    75.2134  -999.2500  -999.2500
   29.5000    77.0318  -999.2500  -999.2500
   30.0000    78.8906  -999.2500  -999.2500
   30.5000    79.7615  -999.2500  -999.2500
   31.0000    79.1593  -999.2500  -999.2500
   31.5000    77.6493  -999.2500  -999.2500
   32.0000    77.3489  -999.2500  -999.2500
   32.5000    77.3526  -999.2500  -999.2500
   33.0000    79.4856  -999.2500  -999.2500
   33.5000    83.2042  -999.2500  -999.2500
   34.0000    81.2955  -999.2500  -999.2500
   34.5000    78.2727  -999.2500  -999.2500
   35.0000    78.5782  -999.2500  -999.2500
   35.5000    78.8837  -999.2500  -999.2500
   36.0000    77.9789  -999.2500  -999.2500
   36.5000    77.3767  -999.2500  -999.2500
   37.0000    77.3803  -999.2500  -999.2500
   37.5000    77.0799  -999.2500  -999.2500
   38.0000    77.3862  -999.2500  -999.2500
   38.5000    77.6917  -999.2500  -999.2500
   39.0000    77.9971  -999.2500  -999.2500
   39.5000    77.6974  -999.2500  -999.2500
   40.0000    77.3777  -999.2500  -999.2500
   40.5000    76.7956  -999.2500  -999.2500
   41.0000    77.7070  -999.2500  -999.2500
   41.5000    78.9202  -999.2500  -999.2500
   42.0000    79.5282  -999.2500  -999.2500
   42.5000    79.2286  -999.2500  -999.2500
   43.0000    78.9289  -999.2500  -999.2500
   43.5000    79.2627  -999.2500  -999.2500
   44.0000    78.6329  -999.2500  -999.2500
   44.5000    75.9127  -999.2500  -999.2500
   45.0000    74.4020  -999.2500  -999.2500
   45.5000    75.9185  -999.2500  -999.2500
   46.0000    75.6189  -999.2500  -999.2500
   46.5000    74.7141  -999.2500  -999.2500
   47.0000    75.0560  -999.2500  -999.2500
   47.5000    77.1412  -999.2500  -999.2500
   48.0000    78.6570  -999.2500  -999.2500
   48.5000    79.8702  -999.2500  -999.2500
   49.0000    81.0834  -999.2500  -999.2500
   49.5000    81.9941  -999.2500  -999.2500
   50.0000    84.7201  -999.2500  -999.2500
   50.5000    91.9042  -999.2500  -999.2500
   51.0000    92.2903  -999.2500  -999.2500
   51.5000    91.9906  -999.2500  -999.2500
   52.0000    91.6909  -999.2500  -999.2500
   52.5000    91.3913  -999.2500  -999.2500
   53.0000    90.4872  -999.2500  -999.2500
   53.5000    88.6505  -999.2500  -999.2500
   54.0000    85.3253  -999.2500  -999.2500
   54.5000    87.1407  -999.2500  -999.2500
   55.0000    92.5870  -999.2500  -999.2500
   55.5000   105.9002  -999.2500  -999.2500
   56.0000   118.6607  1598.4519  1953.2539
   56.5000   129.1982     3.2330     3.8664
   57.0000   130.4085     2.0839     3.5072
   57.5000   128.8956     2.0267     3.5562
   58.0000   128.2905     2.2398     5.2516
   58.5000   129.8033     4.0705     5.8914
   59.0000   130.7110     8.1749    10.1032
   59.5000   131.9213     8.3482    10.1735
   60.0000   132.8492     8.0067     9.7569
   60.5000   133.4342     6.6797     8.9124
   61.0000   132.2239     6.3619     7.8624
   61.5000   130.7110     6.1444     7.8588
   62.0000   129.5008     6.1448     8.5601
   62.5000   127.9879     6.1883     8.4284
   63.0000   127.3828     6.6821     7.8613
   63.5000   127.9879     8.2372     7.4871
   64.0000   130.7353     8.5300     7.3321
   64.5000   134.7776     8.1811     7.2811
   65.0000   136.7625     7.7919     7.3829
   65.5000   134.3419     7.4669     7.3305
   66.0000   131.3162     7.2176     7.2298
   66.5000   131.6188     7.3708     7.2800
   67.0000   132.2239     7.4748     7.3819
   67.5000   131.9213     7.6333     7.4851
   68.0000   127.6853     7.7410     7.5898
   68.5000   125.2647     7.8502     7.7497
   69.0000   130.1059     7.9057     7.8036
   69.5000   135.2496     8.0174     7.9127
   70.0000   134.6445     8.0740     7.9677
   70.5000   132.8290     8.0746     8.0791
   71.0000   131.9213     8.0189     8.2493
   71.5000   132.2239     8.0196     8.3647
   72.0000   132.8290     8.0201     8.3064
   72.5000   134.3823     8.1333     8.3641
   73.0000   139.1831     8.1909     8.3638
   73.5000   143.4191     8.3064     8.4219
   74.0000   144.6293     8.3651     8.4805
   74.5000   143.1165     8.5425     8.5395
   75.0000   139.1831     8.6630     8.6589
   75.5000   134.6445     8.8468     8.7800
   76.0000   135.5522     8.9716     8.9028
   76.5000   135.2334     9.1087     9.0904
   77.0000   133.2567     9.2913     9.2899
   77.5000   127.9879     9.3569     9.4775
   78.0000   125.2647     9.5553     9.5434
   78.5000   127.9879     9.6228     9.6097
   79.0000   131.6188     9.8269     9.8121
   79.5000   133.1316    10.0353    10.0188
   80.0000   130.1059    10.2481    10.2299
   80.5000   127.9879    10.4656    10.4505
   81.0000   127.9879    10.5395    10.7400
   81.5000   128.8956    10.6140    10.7396
   82.0000   130.1059    10.6147    10.8144
   82.5000   131.0136    10.6154    10.8139
   83.0000   132.2239    10.5424    10.6641
   83.5000   133.1316    10.4698    10.3708
   84.0000   133.1316    10.3255    10.2271
   84.5000   131.9213    10.2545    10.1558
   85.0000   130.7110    10.1839    10.0849
   85.5000   130.1059    10.1138    10.0146
   86.0000   127.3828    10.1147     9.9448
   86.5000   126.4750    10.0451     9.8755
   87.0000   127.6853    10.0458     9.8752
   87.5000   128.8956    10.0466     9.8748
   88.0000   132.8290    10.0473     9.8060
   88.5000   134.6445     9.9780     9.7376
   89.0000   133.7206     9.9093     9.6026
   89.5000   132.2239     9.7729     9.6023
   90.0000   132.8290     9.6382     9.6019
   90.5000   133.4342     9.6389     9.5350
