~VERSION INFORMATION
 VERS.                2.0:   CWLS LOG ASCII STANDARD - VERSION 2.0
 WRAP.                 NO:   ONE LINE PER DEPTH STEP
~WELL INFORMATION
#MNEM.UNIT      DATA TYPE    INFORMATION
#----------   ------------   ------------------------------
 STRT.F          534.0000:   START DEPTH
 STOP.F         1847.5000:   STOP DEPTH
 STEP.F            0.5000:   STEP LENGTH
 NULL.          -999.2500:   NO VALUE
 COMP. LAWRENCE/ALLISON INC:   COMPANY
 WELL.      18 SHX #18-27:   WELL
 FLD .             TEAPOT:   FIELD
 LOC .      S27 T39N R78W:   LOCATION
 CNTY.            NATRONA:   COUNTY
 STAT.            WYOMING:   STATE
 CTRY. UNITED STATES OF AMERICA:   COUNTRY
 SRVC.            Unknown:   SERVICE COMPANY
 DATE.        01-MAR-1985:   LOGDATE
 API .       490251102000:   API NUMBER
~CURVE INFORMATION
#MNEM.UNIT       API CODE    CURVE DESCRIPTION
#----------   ------------   ------------------------------
 DEPT.F                  :   
 ROP .MIN/FT 91 810 01 00:   RATE OF DRILLING PENETRATION
 TGAS.UNITS  91 830 01 00:   TOTAL GAS FROM HOTWIRE
~PARAMETER INFORMATION
#MNEM.UNIT          VALUE    DESCRIPTION
#----------   ------------   ------------------------------
 DATE.           3-1-1985:   RUN DATE
 DD  .F              1848:   DEPTH DRILLER
 DL  .F              1825:   DEPTH LOGGER
 TLI .F               535:   TOP LOG INTERVAL
 WITN.  ALBERT C. KRAVATZ:   WITNESSED BY
 CLNT.            A2DTECH:   CLIENT CODE
 ORIG.           5" PRINT:   ORIGIN OF DATA
 UWI .       490251102000:   UNIQUE WELL ID
 DICO. A2D Technologies, Inc.:   DIGITIZING COMPANY
~OTHER INFORMATION
~A   DEPT      ROP       TGAS   
# ...
  655.5000     1.0522    11.0306
  656.0000     1.0532    10.9999
  656.5000     1.0543    10.9691
  657.0000     1.0553    10.9384
  657.5000     1.0563    10.9077
  658.0000     1.0573    10.8769
  658.5000     1.0583    10.8462
  659.0000     1.0593    10.8154
  659.5000     1.0603    10.7847
  660.0000     1.0613    10.7540
  660.5000     1.0623    10.7232
  661.0000     1.0633    10.6925
  661.5000     0.9958    10.6618
  662.0000     0.8742    10.6310
  662.5000     0.7526    10.6003
  663.0000     0.6310    10.5695
  663.5000     0.5367    10.5388
  664.0000     0.5370    10.5081
  664.5000     0.5373    10.4773
  665.0000     0.5376    10.4466
  665.5000     0.5379    10.4158
  666.0000     0.5382    10.3851
  666.5000     0.5385    10.3544
  667.0000     0.5388    10.3236
  667.5000     0.5391    10.2929
  668.0000     0.5394    10.2622
  668.5000     0.5397    10.2314
  669.0000     0.5400    10.2007
  669.5000     0.5403    10.1699
  670.0000     0.5407    10.1392
  670.5000     0.5410    10.1085
  671.0000     0.5413    10.0777
  671.5000     0.5416    10.0470
  672.0000     0.5419    10.0163
  672.5000     0.5422     9.9855
  673.0000     0.5425     9.9548
  673.5000     0.5428     9.9240
  674.0000     0.5431     9.8933
  674.5000     0.5434     9.8626
  675.0000     0.5437     9.8318
  675.5000     0.5440     9.8011
  676.0000     0.5443     9.7704
  676.5000     0.5446     9.7396
  677.0000     0.5449     9.7089
  677.5000     0.5452     9.6781
  678.0000     0.5455     9.6474
  678.5000     0.5458     9.6167
  679.0000     0.5461     9.5859
  679.5000     0.5464     9.5552
  680.0000     0.5467     9.5244
  680.5000     0.5471     9.4937
  681.0000     0.5474     9.4630
  681.5000     0.5477     9.4322
  682.0000     0.5480     9.4015
  682.5000     0.5483     9.3708
  683.0000     0.5486     9.3400
  683.5000     0.5489     9.3093
  684.0000     0.5492     9.2785
  684.5000     0.5495     9.2478
  685.0000     0.5498     9.2171
  685.5000     0.5501     9.1863
  686.0000     0.5504     9.1556
  686.5000     0.5507     9.1249
  687.0000     0.5510     9.0941
  687.5000     0.5513     9.0634
  688.0000     0.5516     9.0326
  688.5000     0.5519     9.0019
  689.0000     0.5522     8.9712
  689.5000     0.5525     8.9404
  690.0000     0.5528     8.9097
  690.5000     0.5532     8.8790
  691.0000     0.5535     8.8482
  691.5000     0.5538     8.8175
  692.0000     0.5541     8.7867
  692.5000     0.5544     8.7560
  693.0000     0.5547     8.7253
  693.5000     0.5550     8.6945
  694.0000     0.5553     8.6638
  694.5000     0.5556     8.6330
  695.0000     0.5559     8.6023
  695.5000     0.5562     8.5716
  696.0000     0.5565     8.5408
  696.5000     0.5568     8.5101
  697.0000     0.5571     8.4794
  697.5000     0.5574     8.4486
  698.0000     0.5577     8.4179
  698.5000     0.5580     8.3871
  699.0000     0.5583     8.3564
  699.5000     0.5586     8.3257
  700.0000     0.5589     8.2949
  700.5000     0.5592     8.2654
  701.0000     0.5596     8.2360
  701.5000     0.5599     8.2065
  702.0000     0.5602     8.1770
  702.5000     0.5605     8.1475
  703.0000     0.5608     8.1180
  703.5000     0.5611     8.0885
  704.0000     0.5614     8.0591
  704.5000     0.5617     8.0296
  705.0000     0.5620     8.0001
  705.5000     0.5623     7.9706
  706.0000     0.5626     7.9411
  706.5000     0.5629     7.9116
  707.0000     0.5632     7.8822
  707.5000     0.5635     7.8527
  708.0000     0.5638     7.8232
  708.5000     0.5641     7.7937
  709.0000     0.5644     7.7642
  709.5000     0.5647     7.7347
  710.0000     0.5650     7.7053
  710.5000     0.5653     7.6758
  711.0000     0.5657     7.6463
  711.5000     0.5660     7.6168
  712.0000     0.5663     7.5873
  712.5000     0.5666     7.5578
  713.0000     0.5669     7.5284
  713.5000     0.5672     7.4989
  714.0000     0.5675     7.4694
  714.5000     0.5678     7.4399
  715.0000     0.5681     7.4104
  715.5000     0.5684     7.3809
  716.0000     0.5687     7.3515
  716.5000     0.5690     7.3220
  717.0000     0.5693     7.2925
  717.5000     0.5696     7.2630
  718.0000     0.5699     7.2335
  718.5000     0.5702     7.2040
  719.0000     0.5705     7.1745
  719.5000     0.5708     7.1451
  720.0000     0.5711     7.1156
  720.5000     0.5714     7.0861
  721.0000     0.5717     7.0566
  721.5000     0.5721     7.0271
  722.0000     0.5725     6.9976
  722.5000     0.6572     6.9682
  723.0000     0.7419     6.9387
  723.5000     0.8171     6.9092
  724.0000     0.8169     6.8797
  724.5000     0.8167     6.8502
  725.0000     0.8165     6.8207
  725.5000     0.8163     6.7913
  726.0000     0.8161     6.7618
  726.5000     0.8159     6.7323
  727.0000     0.8157     6.7028
  727.5000     0.8154     6.6733
  728.0000     0.8152     6.6438
  728.5000     0.8150     6.6144
  729.0000     0.8148     6.5849
  729.5000     0.8146     6.5554
  730.0000     0.8144     6.5259
  730.5000     0.8142     6.4964
  731.0000     0.8140     6.4669
  731.5000     0.8138     6.4375
  732.0000     0.8136     6.4080
  732.5000     0.8134     6.3785
  733.0000     0.8131     6.3490
  733.5000     0.8129     6.3195
  734.0000     0.8127     6.2900
  734.5000     0.8125     6.2606
  735.0000     0.8123     6.2311
  735.5000     0.8121     6.2016
  736.0000     0.8119     6.1721
  736.5000     0.8117     6.1426
  737.0000     0.8115     6.1131
  737.5000     0.8113     6.0837
  738.0000     0.8111     6.0542
  738.5000     0.8108     6.0247
  739.0000     0.8106     5.9952
  739.5000     0.8104     5.9657
  740.0000     0.8102     5.9362
  740.5000     0.8100     5.9067
  741.0000     0.8098     5.8773
  741.5000     0.8096     5.8478
  742.0000     0.8094     5.8183
  742.5000     0.8092     5.7888
  743.0000     0.8090     5.7593
  743.5000     0.8088     5.7298
  744.0000     0.8085     5.7004
  744.5000     0.8083     5.6709
  745.0000     0.8081     5.6414
  745.5000     0.8079     5.6119
  746.0000     0.8077     5.5824
  746.5000     0.8075     5.5529
  747.0000     0.8073     5.5235
  747.5000     0.8071     5.4940
  748.0000     0.8069     5.4645
  748.5000     0.8067     5.4350
  749.0000     0.8065     5.4055
  749.5000     0.8062     5.3760
  750.0000     0.8060     5.3466
  750.5000     0.8058     5.3171
  751.0000     0.8056     5.2876
  751.5000     0.8054     5.2581
  752.0000     0.8052     5.2286
  752.5000     0.8050     5.1991
  753.0000     0.9196     5.1697
  753.5000     1.0641     5.1402
  754.0000     1.2086     5.1107
  754.5000     1.3531     5.0812
  755.0000     1.4878     5.0517
  755.5000     1.4880     5.0222
  756.0000     1.4883     4.9928
  756.5000     1.4885     4.9633
  757.0000     1.4887     4.9338
  757.5000     1.4890     4.9043
  758.0000     1.4892     4.8748
  758.5000     1.4894     4.8453
  759.0000     1.4896     4.8158
  759.5000     1.4899     4.7864
  760.0000     1.4901     4.7569
  760.5000     1.4903     4.7274
  761.0000     1.4906     4.6979
  761.5000     1.4908     4.6684
  762.0000     1.4910     4.6389
  762.5000     1.4913     4.6095
  763.0000     1.4915     4.5800
  763.5000     1.4917     4.5505
  764.0000     1.4920     4.5210
  764.5000     1.4922     4.4915
  765.0000     1.4924     4.4620
  765.5000     1.4927     4.4326
  766.0000     1.4929     4.4031
  766.5000     1.4931     4.3736
  767.0000     1.4933     4.3441
  767.5000     1.4936     4.3146
  768.0000     1.4938     4.2851
  768.5000     1.4940     4.2557
  769.0000     1.4943     4.2262
  769.5000     1.4945     4.1967
  770.0000     1.4947     4.1672
  770.5000     1.4950     4.1377
  771.0000     1.4952     4.1082
  771.5000     1.4954     4.0788
  772.0000     1.4957     4.0493
  772.5000     1.4959     4.0198
  773.0000     1.4961     3.9903
  773.5000     1.4964     3.9608
  774.0000     1.4966     3.9313
  774.5000     1.4968     3.9019
  775.0000     1.4971     3.8724
  775.5000     1.4973     3.8429
  776.0000     1.4975     3.8134
  776.5000     1.4977     3.7839
