~VERSION INFORMATION
 VERS.                2.0:   CWLS LOG ASCII STANDARD - VERSION 2.0
 WRAP.                 NO:   ONE LINE PER DEPTH STEP
~WELL INFORMATION
#MNEM.UNIT      DATA TYPE    INFORMATION
#----------   ------------   ------------------------------
 STRT.F            0.0000:   START DEPTH
 STOP.F          652.0000:   STOP DEPTH
 STEP.F            0.5000:   STEP LENGTH
 NULL.          -999.2500:   NO VALUE
 COMP. US DEPTMNT OF ENRGY:   COMPANY
 WELL. NPR ##3 14-14-SX-11:   WELL
 FLD .   TEAPOT NAVAL RES:   FIELD
 LOC .      S11 T38N R78W:   LOCATION
 CNTY.            NATRONA:   COUNTY
 STAT.            WYOMING:   STATE
 CTRY. UNITED STATES OF AMERICA:   COUNTRY
 SRVC.            Unknown:   SERVICE COMPANY
 DATE.        03-JAN-1985:   LOGDATE
 API .       490251102400:   API NUMBER
~CURVE INFORMATION
#MNEM.UNIT       API CODE    CURVE DESCRIPTION
#----------   ------------   ------------------------------
 DEPT.F                  :   
 CALD.IN     45 280 60 00:   CALIPER
 CORR.G/C3   45 356 01 00:   DENSITY CORRECTION
 PORD.DEC    45 890 12 00:   DENSITY POROSITY SANDSTONE
 CNC .DEC    42 890 03 00:   NEUTRON POROSITY SANDSTONE
 SPR .MV     11 010 01 00:   SPONTANEOUS POTENTIAL FROM RES.
 GRR .GAPI   11 310 01 00:   GAMMA RAY FROM RES.
 RS  .OHMM   11 220 09 00:   RESISTIVITY SHALLOW
 RD  .OHMM   11 220 10 00:   RESISTIVITY DEEP
 DEN .G/C3   45 350 01 00:   COMPENSATED BULK DENSTIY
~PARAMETER INFORMATION
#MNEM.UNIT          VALUE    DESCRIPTION
#----------   ------------   ------------------------------
 PD  .                 GL:   PERMANENT DATUM
 EPD .F            5197.3:   ELEVATION PERMANENT DATUM
 LMF .                 KB:   LOG MEASURED FROM
 DMF .                 KB:   DRILLING MEASURED FROM
 EKB .F            5197.3:   KELLING BUSHING
 EGL .F            5197.3:   GROUND LEVEL
 DATE.         3-JAN-1985:   RUN DATE
 RUN .                  1:   RUN NUMBER
 DD  .F               650:   DEPTH DRILLER
 DL  .F               653:   DEPTH LOGGER
 BLI .F               651:   BOTTOM LOG INTERVAL
 CS  .IN            8.625:   CASING SIZE
 CBD .F                20:   CASING BOTTOM DRILLER
 CBL .F                20:   CASING BOTTOM LOGGER
 BS  .IN             6.25:   BIT SIZE
 BSD .F               650:   BIT SIZE AT DEPTH
 DFT .                KCL:   DRILLING FLUID TYPE
 RMS .OHMM            .12:   RESISTIVITY MUD SAMPLE
 MST .F                70:   MUD SAMPLE TEMPERATURE
 RMF .OHMM            .09:   RESISTIVITY MUD FILTRATE SAMPLE
 MFST.F                70:   MUD FILTRATE SAMPLE TEMPERATURE
 RMC .OHMM            .15:   RESISTIVITY MUD CAKE
 MCST.F                70:   MUD CAKE SAMPLE TEMPERATURE
 MFSS.               CALC:   MUD FILTRATE SAMPLE SOURCE
 MCSS.               CALC:   MUD CAKE SAMPLE SOURCE
 RMB .OHMM             .1:   RESISTIVITY MUD AT BHT
 BHT .F                80:   BOTTOM HOLE TEMPERATURE
 TCS .HRS               3:   TIME CURCULATED STOPPED
 MRT .F                80:   MAXIMUM RECORDED TEMPERATURE
 LUN .               6274:   LOGGING UNIT NUMBER
 LUL .               GLTE:   LOGGING UNIT LOCATION
 ENGI.               MACK:   RECORDING ENGINEER
 WITN.               PAGE:   WITNESSED BY
 CLNT.            A2DTECH:   CLIENT CODE
 ORIG.       2", 5" PRINT:   ORIGIN OF DATA
 UWI .       490251102400:   UNIQUE WELL ID
 DICO. A2D Technologies, Inc.:   DIGITIZING COMPANY
~OTHER INFORMATION
~A    DEPT    CALD       CORR       PORD        CNC        SPR         GRR        RS         RD        DEN   
# ...
  255.5000     6.5202     0.0282     0.1282     0.2771   -51.0535   102.1695     9.9723    13.6426     2.4627
  256.0000     6.5202     0.0292     0.1288     0.2756   -51.0742   101.6510     9.9967    13.7064     2.4616
  256.5000     6.5202     0.0202     0.1277     0.2700   -51.0947   104.0782    10.0168    13.5517     2.4661
  257.0000     6.5202     0.0166     0.1248     0.2652   -51.1153   106.7858     9.9261    13.3569     2.4704
  257.5000     6.5202     0.0303     0.1211     0.2659   -51.1359   109.5196     9.8516    13.1647     2.4738
  258.0000     6.5202     0.0402     0.1217     0.2763   -51.1566   112.2367     9.5163    13.0119     2.4711
  258.5000     6.5202     0.0192     0.1270     0.2858   -51.1778   114.4528     9.1323    12.8228     2.4638
  259.0000     6.5202     0.0100     0.1303     0.2875   -51.1976   113.6101     9.1673    12.6364     2.4566
  259.5000     6.5202     0.0063     0.1327     0.2827   -51.1640   111.5640     9.2108    12.3829     2.4515
  260.0000     6.5202     0.0065     0.1352     0.2777   -50.8925   109.6068     9.2541    12.5115     2.4502
  260.5000     6.5202     0.0274     0.1376     0.2743   -50.6266   108.8438     9.2971    12.7295     2.4437
  261.0000     6.5207     0.0254     0.1386     0.2761   -50.3628   110.6623     9.4987    12.9490     2.4449
  261.5000     6.5286     0.0230     0.1386     0.2790   -50.2375   109.7441     9.7389    13.2084     2.4500
  262.0000     6.5208     0.0165     0.1372     0.2792   -50.3023   108.8726     9.9249    13.1753     2.4486
  262.5000     6.4899     0.0086     0.1355     0.2719   -50.3649   108.1128     9.7073    13.1359     2.4497
  263.0000     6.4899     0.0030     0.1338     0.2633   -50.4281   107.4801     9.5357    13.0967     2.4520
  263.5000     6.4899     0.0000     0.1322     0.2585   -50.4911   106.8580     9.4778    13.0575     2.4548
  264.0000     6.4899    -0.0005     0.1303     0.2548   -50.5526   106.5980     9.4778    13.0184     2.4552
  264.5000     6.5146    -0.0047     0.1309     0.2540   -50.6000   107.4368     9.4778    12.9792     2.4581
  265.0000     6.5141     0.0103     0.1309     0.2562   -51.0158   108.1770     9.4326    12.9671     2.4606
  265.5000     6.5136     0.0261     0.1290     0.2605   -51.4775   108.9024     9.3813    13.0562     2.4666
  266.0000     6.5132     0.0390     0.1271     0.2647   -51.9421   109.7508     9.3303    13.0872     2.4662
  266.5000     6.5127     0.0324     0.1261     0.2690   -52.4042   112.8790     9.2795    12.5503     2.4663
  267.0000     6.5121     0.0261     0.1268     0.2733   -52.8433   116.0604     9.2290    12.2692     2.4645
  267.5000     6.5116     0.0273     0.1276     0.2770   -52.9579   116.5507     9.1788    12.2692     2.4621
  268.0000     6.5111     0.0305     0.1283     0.2787   -53.0824   116.1956     9.1289    12.2692     2.4620
  268.5000     6.5106     0.0338     0.1273     0.2756   -53.2085   116.6514     9.0792    12.2692     2.4695
  269.0000     6.5101     0.0353     0.1241     0.2725   -53.3345   116.7893     9.0300    12.2692     2.4761
  269.5000     6.5096     0.0307     0.1209     0.2715   -53.4607   114.3489     8.9803    12.1815     2.4762
  270.0000     6.5091     0.0364     0.1194     0.2723   -53.5910   110.4543     8.9314    12.0877     2.4762
  270.5000     6.5086     0.0453     0.1199     0.2731   -53.6185   106.4558     8.8618    11.9947     2.4767
  271.0000     6.5081     0.0521     0.1205     0.2801   -53.6187   106.3731     8.7231    11.7132     2.4753
  271.5000     6.5076     0.0560     0.1211     0.2936   -53.6229   108.6951     8.3003    11.1029     2.4710
  272.0000     6.5071     0.0536     0.1240     0.3088   -53.8790   108.0060     7.8783    10.5244     2.4599
  272.5000     6.5066     0.0230     0.1296     0.3081   -54.6186   104.6004     7.4779     9.9761     2.4513
  273.0000     6.5061     0.0111     0.1354     0.3032   -55.2685   101.3049     7.0977     9.4563     2.4494
  273.5000     6.5056     0.0219     0.1336     0.2990   -55.4407   101.1318     6.8008     9.0508     2.4589
  274.0000     6.5051     0.0325     0.1290     0.2840   -55.6197   103.8794     7.2252     9.6451     2.4681
  274.5000     6.5045     0.0388     0.1223     0.2811   -55.4432   108.4234     7.6052    10.2956     2.4738
  275.0000     6.5040     0.0429     0.1217     0.2879   -55.1393   112.0213     8.0051    10.9818     2.4720
  275.5000     6.5035     0.0388     0.1232     0.2954   -54.8342   114.0181     8.2536    11.0489     2.4679
  276.0000     6.5030     0.0307     0.1260     0.2958   -54.5292   115.4985     8.2124    11.1301     2.4624
  276.5000     6.5025     0.0224     0.1288     0.2978   -54.2244   115.8104     8.1779    11.2119     2.4575
  277.0000     6.5020     0.0147     0.1314     0.2990   -53.9195   113.5950     8.2883    11.2943     2.4594
  277.5000     6.5015     0.0181     0.1292     0.2881   -53.6149   109.6862     8.4250    11.3773     2.4652
  278.0000     6.5010     0.0219     0.1251     0.3055   -53.3011   105.8381     8.5641    11.4609     2.4708
  278.5000     6.5005     0.0258     0.1215     0.2806   -52.9980   104.3370     8.6438    11.5451     2.4753
  279.0000     6.5000     0.0236     0.1205     0.2707   -53.3199   107.0215     8.6433    11.6090     2.4745
  279.5000     6.4995     0.0204     0.1213     0.2608   -53.2028   111.0149     8.6432    11.5808     2.4724
  280.0000     6.4990     0.0232     0.1233     0.2689   -53.0778   114.1762     8.6430    11.5540     2.4682
  280.5000     6.4985     0.0351     0.1258     0.2847   -52.9477   113.4443     8.6430    11.5272     2.4642
  281.0000     6.4980     0.0428     0.1283     0.2851   -52.8184   111.7137     8.5967    11.5024     2.4604
  281.5000     6.4975     0.0435     0.1308     0.2855   -52.6889   112.5995     8.4275    11.3177     2.4527
  282.0000     6.4970     0.0290     0.1333     0.2900   -52.5601   112.9405     8.2617    11.1064     2.4542
  282.5000     6.4964     0.0331     0.1338     0.2986   -52.4255   112.3915     8.1028    10.7439     2.4570
  283.0000     6.4959     0.0382     0.1320     0.3123   -52.7064   111.8015     7.7036    10.2505     2.4580
  283.5000     6.4954     0.0492     0.1306     0.3233   -53.1137   110.9541     7.2015     9.7436     2.4501
  284.0000     6.4949     0.0766     0.1360     0.3145   -53.5271   109.1745     6.6710     9.0404     2.4422
  284.5000     6.4944     0.0711     0.1425     0.3097   -53.9346   105.0412     6.1796     8.3205     2.4348
  285.0000     6.4939     0.0533     0.1446     0.3074   -54.2263   103.9016     5.7244     7.6579     2.4388
  285.5000     6.4934     0.0355     0.1431     0.3034   -54.2206   106.4929     5.4509     7.1010     2.4433
  286.0000     6.4929     0.0241     0.1387     0.2986   -54.1796   112.6610     5.7080     7.0563     2.4478
  286.5000     6.4924     0.0237     0.1362     0.2878   -53.8588   120.4354     6.2777     8.4906     2.4523
  287.0000     6.4919     0.0231     0.1337     0.2799   -53.5371   124.1141     6.9520     9.4909     2.4568
  287.5000     6.4914     0.0226     0.1312     0.2761   -53.2161   121.0377     7.7453    10.0573     2.4613
  288.0000     6.4909     0.0170     0.1287     0.2721   -52.8921   114.3820     7.7410    10.2784     2.4637
  288.5000     6.4904     0.0132     0.1290     0.2684   -52.5235   109.7502     7.8107    10.3792     2.4592
  289.0000     6.4899     0.0192     0.1312     0.2684   -52.1358   108.5414     7.9319    10.4810     2.4580
  289.5000     6.4894     0.0250     0.1309     0.2767   -51.7481   107.8352     8.0621    10.5865     2.4605
  290.0000     6.4889     0.0310     0.1281     0.2819   -51.3603   107.7897     8.1947    10.7534     2.4688
  290.5000     6.4883     0.0353     0.1238     0.2740   -50.9725   109.0168     8.3287    10.9274     2.4781
  291.0000     6.4878     0.0393     0.1195     0.2662   -50.5843   109.9662     8.4479    11.1042     2.4831
  291.5000     6.4873     0.0434     0.1155     0.2600   -50.1949   109.5991     8.5999    11.2839     2.4831
