~VERSION INFORMATION
 VERS.                2.0:   CWLS LOG ASCII STANDARD - VERSION 2.0
 WRAP.                 NO:   ONE LINE PER DEPTH STEP
~WELL INFORMATION
#MNEM.UNIT      DATA TYPE    INFORMATION
#----------   ------------   ------------------------------
 STRT.F           40.0000:   START DEPTH
 STOP.F          459.0000:   STOP DEPTH
 STEP.F            0.5000:   STEP LENGTH
 NULL.          -999.2500:   NO VALUE
 COMP. BROWN JOHN E&C INC:   COMPANY
 WELL. NPR 3 63-34  X 10 #63-10:   WELL
 FLD .             TEAPOT:   FIELD
 LOC .      S10 T38N R78W:   LOCATION
 CNTY.            NATRONA:   COUNTY
 STAT.            WYOMING:   STATE
 CTRY. UNITED STATES OF AMERICA:   COUNTRY
 SRVC.       Schlumberger:   SERVICE COMPANY
 DATE.        25-SEP-1990:   LOGDATE
 API .       490251132100:   API NUMBER
~CURVE INFORMATION
#MNEM.UNIT       API CODE    CURVE DESCRIPTION
#----------   ------------   ------------------------------
 DEPT.F                  :   
 GRR .GAPI   07 310 01 00:   GAMMA RAY FROM RES. LOG.
 ILD .OHMM   07 120 46 00:   INDUCTION LOG DEEP
 ILM .OHMM   07 120 44 00:   INDUCTION LOG MEDIUM
~PARAMETER INFORMATION
#MNEM.UNIT          VALUE    DESCRIPTION
#----------   ------------   ------------------------------
 PD  .                 GL:   PERMANENT DATUM
 EPD .F              5178:   ELEVATION PERMANENT DATUM
 LMF .                 KB:   LOG MEASURED FROM
 DAPD.F                10:   FEET ABOVE PERMANENT DATUM
 DMF .                 KB:   DRILLING MEASURED FROM
 EKB .F              5188:   KELLING BUSHING
 EDF .F              5187:   DRILLING FLOOR
 EGL .F              5178:   GROUND LEVEL
 DATE.          9-25-1990:   RUN DATE
 RUN .                  1:   RUN NUMBER
 DD  .F               464:   DEPTH DRILLER
 DL  .F               465:   DEPTH LOGGER
 BLI .F               459:   BOTTOM LOG INTERVAL
 TLI .F                40:   TOP LOG INTERVAL
 CS  .IN            8.625:   CASING SIZE
 CBD .F                48:   CASING BOTTOM DRILLER
 CBL .F                46:   CASING BOTTOM LOGGER
 BS  .IN            7.875:   BIT SIZE
 BSD .F               464:   BIT SIZE AT DEPTH
 DFT .                AIR:   DRILLING FLUID TYPE
 TLAB.HRS            2200:   TIME LOGGER AT BOTTOM
 LUN .               5882:   LOGGING UNIT NUMBER
 LUL .               CODY:   LOGGING UNIT LOCATION
 ENGI.             FISHER:   RECORDING ENGINEER
 WITN.             STRONG:   WITNESSED BY
 CLNT.            A2DTECH:   CLIENT CODE
 ORIG.       2", 5" PRINT:   ORIGIN OF DATA
 UWI .       490251132100:   UNIQUE WELL ID
 DICO. A2D Technologies, Inc.:   DIGITIZING COMPANY
~OTHER INFORMATION
~A   DEPT       GRR       ILD        ILM   
# ...
  222.0000   158.6888     7.4834     7.6194
  222.5000   155.4438     7.2390     7.4054
  223.0000   150.0280     7.0026     7.1975
  223.5000   148.1394     6.7748     7.0504
  224.0000   149.9120     6.6777     7.0122
  224.5000   151.3384     6.6783     6.9186
  225.0000   151.3031     6.6805     6.8030
  225.5000   150.6049     6.2931     6.5432
  226.0000   150.1920     6.0520     6.3106
  226.5000   152.1069     5.8362     6.0877
  227.0000   151.7538     5.7975     5.9726
  227.5000   148.4392     5.7852     5.9500
  228.0000   145.6337     5.7729     5.9293
  228.5000   143.9207     5.7607     5.9172
  229.0000   143.3853     5.7541     6.0519
  229.5000   141.2474     6.0275     6.2641
  230.0000   139.8468     6.2921     6.4838
  230.5000   139.9707     6.5684     6.7112
  231.0000   142.1590     6.8568     6.9465
  231.5000   144.4866     7.1229     7.1901
  232.0000   143.3668     7.3187     7.4172
  232.5000   141.9777     7.4744     7.5214
  233.0000   142.9949     7.4775     7.5395
  233.5000   142.5925     6.9313     7.3309
  234.0000   140.1294     6.2740     6.8860
  234.5000   135.8286     6.0395     6.3997
  235.0000   138.4860     5.9099     6.0188
  235.5000   142.7447     5.7830     5.7502
  236.0000   147.1965     5.6649     5.4931
  236.5000   146.0250     5.4943     5.3408
  237.0000   141.6050     5.5637     5.5946
  237.5000   138.1714     5.7007     5.7541
  238.0000   136.8046     5.8080     6.1390
  238.5000   137.3320     6.2267     6.5128
  239.0000   137.9652     6.6793     6.9094
  239.5000   136.4143     7.0435     7.2850
  240.0000   133.5781     7.4117     7.6276
  240.5000   131.9286     7.7991     7.9863
  241.0000   135.1022     8.2068     8.3106
  241.5000   139.0976     8.3533     8.4666
  242.0000   140.0566     8.4589     8.6259
  242.5000   137.5596     8.5578     8.7874
  243.0000   134.9495     8.6579     8.9196
  243.5000   134.3470     8.7517     8.9290
  244.0000   134.2424     8.7517     8.9394
  244.5000   138.7009     8.7566     8.9498
  245.0000   139.9762     8.7704     8.9602
  245.5000   139.5128     8.7842     8.9706
  246.0000   137.2339     8.7982     8.9812
  246.5000   136.9660     8.8120     8.9914
  247.0000   137.2159     8.8267     8.9997
  247.5000   135.4115     8.8331     8.9471
  248.0000   134.0112     8.6805     8.9035
  248.5000   133.2320     8.5901     8.8598
  249.0000   133.3626     8.5901     8.8325
  249.5000   134.7542     8.5901     8.8315
  250.0000   136.1180     8.9136     9.2114
  250.5000   136.7874     9.2331     9.4850
  251.0000   135.5149     9.5641     9.7666
  251.5000   132.9158     9.7872    10.1682
  252.0000   129.7991     9.0858    10.1703
  252.5000   126.5428     8.3300     9.0898
  253.0000   124.8998     7.5564     8.1899
  253.5000   125.3231     6.6514     7.3842
  254.0000   130.6202     5.8070     6.6577
  254.5000   140.7584     5.0976     6.3161
  255.0000   148.0781     5.4210     6.3697
  255.5000   147.2507     5.7967     6.4112
  256.0000   138.8081     6.1985     6.6298
  256.5000   130.6057     6.6281     7.1037
  257.0000   126.6992     7.2164     7.6780
  257.5000   125.2838     8.1515     8.7630
  258.0000   123.8007     9.2077    10.0064
  258.5000   123.9660    10.4008    11.0521
  259.0000   125.9832    11.5745    11.2555
  259.5000   128.5980    11.5745    11.2555
  260.0000   130.3072    11.5745    11.2555
  260.5000   131.8368    11.5745    11.1511
  261.0000   129.7793    11.7832    10.9452
  261.5000   125.6396    12.0965    11.0476
  262.0000   121.4520    12.5653    11.7739
  262.5000   115.1835    13.7025    12.7287
  263.0000   108.6958    14.7142    13.7610
  263.5000   100.2506    15.5330    14.8770
  264.0000    91.9052    17.0279    15.5914
  264.5000    83.4324    18.8987    17.7275
  265.0000    80.3878    20.8328    19.6895
  265.5000    79.2791    22.8962    21.7479
  266.0000    82.3585    25.0107    24.0270
  266.5000    85.5705    27.2791    26.5319
  267.0000    86.4683    29.1308    28.8477
  267.5000    83.4627    29.9433    29.6656
  268.0000    79.6506    30.5293    29.6656
  268.5000    76.4569    30.9574    29.5469
  269.0000    78.4460    31.3915    29.3904
  269.5000    80.9314    31.9616    29.3904
  270.0000    83.7796    31.5620    29.7819
  270.5000    82.9421    30.8022    30.5066
  271.0000    81.0806    30.0607    29.1794
  271.5000    80.9914    29.3904    28.2465
  272.0000    81.0390    29.5834    27.2791
  272.5000    81.9025    29.7642    27.7587
  273.0000    82.7774    29.9391    28.4027
  273.5000    83.6735    30.3092    29.0617
  274.0000    83.9298    30.7874    29.6656
  274.5000    81.1094    31.4842    30.5306
  275.0000    78.4009    32.2608    31.7726
  275.5000    78.4871    33.0566    33.0652
  276.0000    79.3059    34.1228    35.0832
  276.5000    79.2676    34.1101    34.9077
  277.0000    74.4224    35.1477    34.5691
  277.5000    72.3497    35.9461    34.4354
  278.0000    76.1464    36.6172    36.0509
  278.5000    80.9676    37.4479    37.2415
  279.0000    81.1407    37.3450    38.5096
  279.5000    76.5483    37.2053    39.6013
  280.0000    71.7026    37.1006    39.9721
  280.5000    74.7618    37.1006    38.2360
  281.0000    78.9907    36.9277    37.4275
  281.5000    81.5889    36.6885    37.2875
  282.0000    82.0633    36.4509    37.1006
  282.5000    81.5436    35.3527    37.4479
  283.0000    80.9995    34.1432    34.4698
  283.5000    83.9619    33.1754    32.5785
  284.0000    87.0443    32.4767    30.7954
  284.5000    89.5927    31.9616    30.1786
  285.0000    89.9817    31.5716    30.1109
  285.5000    88.7320    31.2116    30.0340
  286.0000    88.2914    30.8557    29.9433
  286.5000    88.5187    30.2634    30.2236
  287.0000    89.5959    29.6656    28.8176
  287.5000    91.1108    29.1178    27.9872
  288.0000    92.6238    28.0044    26.8441
  288.5000    94.1089    26.9335    25.3194
  289.0000    94.9484    26.1729    24.9646
  289.5000    93.9070    25.4807    24.5338
  290.0000    91.6551    24.8068    24.1105
  290.5000    91.7750    24.1667    23.6945
  291.0000    92.7162    24.0998    23.2856
  291.5000    94.4018    24.0346    22.8526
  292.0000    95.0716    23.9696    22.6407
  292.5000    95.5089    23.9426    22.8189
  293.0000    95.2014    23.9425    23.0051
  293.5000    94.7750    23.9423    23.2869
  294.0000    94.3599    23.9417    23.2742
  294.5000    94.4475    23.9351    23.5844
  295.0000    94.5608    24.3118    23.7127
  295.5000    94.6756    24.6889    23.8491
  296.0000    94.9746    25.0718    23.9590
  296.5000    95.6918    25.3194    24.0891
  297.0000    95.6284    25.2233    24.6214
  297.5000    95.1176    25.1415    24.3930
  298.0000    94.7094    25.0231    24.3957
  298.5000    96.3030    24.8206    23.9380
  299.0000    98.4118    24.6214    23.6723
  299.5000   100.5170    24.6214    23.4093
  300.0000   100.0592    24.2886    23.1493
  300.5000    98.3928    23.7997    22.8921
  301.0000    94.9098    23.4078    22.6378
  301.5000    93.6134    23.1641    22.3863
  302.0000    95.1686    22.9230    22.1376
  302.5000    95.9039    22.6077    21.8917
  303.0000    95.6806    22.2654    21.6485
  303.5000    96.5521    21.9282    21.4080
  304.0000    98.8880    21.7909    21.1701
  304.5000    98.4227    21.7447    20.9349
  305.0000    94.5782    21.6986    20.7024
  305.5000    91.1396    21.6548    20.4349
  306.0000    90.3103    21.4053    20.6506
  306.5000    91.4365    21.4124    21.0142
  307.0000    92.7515    21.4095    21.0937
  307.5000    94.1741    21.5724    21.1797
  308.0000    95.7687    21.7133    21.2660
  308.5000    97.2436    21.8123    21.3534
  309.0000    97.4716    21.8123    21.4103
  309.5000    97.1592    21.8123    21.0107
  310.0000    96.7472    21.1928    20.6712
  310.5000    97.5881    20.5977    20.3374
  311.0000    98.2766    20.3044    20.0576
  311.5000    97.2900    20.1250    19.8715
  312.0000    95.3879    20.0576    19.8715
  312.5000    91.9760    20.8193    19.8715
