~VERSION INFORMATION
 VERS.                2.0:   CWLS LOG ASCII STANDARD - VERSION 2.0
 WRAP.                 NO:   ONE LINE PER DEPTH STEP
~WELL INFORMATION
#MNEM.UNIT      DATA TYPE    INFORMATION
#----------   ------------   ------------------------------
 STRT.F            6.0000:   START DEPTH
 STOP.F         2600.0000:   STOP DEPTH
 STEP.F            0.5000:   STEP LENGTH
 NULL.          -999.2500:   NO VALUE
 COMP. FENIX & SCISSON INC:   COMPANY
 WELL.   NPR 3 SH #17 -34:   WELL
 FLD .             TEAPOT:   FIELD
 LOC .      S34 T39N R78W:   LOCATION
 CNTY.            NATRONA:   COUNTY
 STAT.            WYOMING:   STATE
 CTRY. UNITED STATES OF AMERICA:   COUNTRY
 SRVC.            Unknown:   SERVICE COMPANY
 DATE.        21-MAR-1978:   LOGDATE
 API .       490251060600:   API NUMBER
~CURVE INFORMATION
#MNEM.UNIT       API CODE    CURVE DESCRIPTION
#----------   ------------   ------------------------------
 DEPT.F                  :   
 NPHI.DEC    42 890 03 00:   NEUTRON POROSITY SANDSTONE
 CALD.IN     45 280 60 00:   CALIPER FROM DENSITY LOG
 GRD .GAPI   45 310 01 00:   GAMMA RAY FROM DENSITY LOG
 CORR.G/C3   45 356 01 00:   DENSITY CORRECTION
 RHOB.G/C3   45 350 01 00:   BULK DENSITY
 DPHI.DEC    45 890 12 00:   DENSITY POROSITY SANDSTONE
~PARAMETER INFORMATION
#MNEM.UNIT          VALUE    DESCRIPTION
#----------   ------------   ------------------------------
 PD  .                 GL:   PERMANENT DATUM
 EPD .F              5150:   ELEVATION PERMANENT DATUM
 LMF .                 KB:   LOG MEASURED FROM
 DMF .                 KB:   DRILLING MEASURED FROM
 EKB .F              5160:   KELLING BUSHING
 EGL .F              5150:   GROUND LEVEL
 DATE.          3-21-1978:   RUN DATE
 RUN .                  1:   RUN NUMBER
 DD  .F              2612:   DEPTH DRILLER
 DL  .F              2592:   DEPTH LOGGER
 BLI .F              2590:   BOTTOM LOG INTERVAL
 TLI .F                20:   TOP LOG INTERVAL
 CS  .IN            9.625:   CASING SIZE
 CBD .F               710:   CASING BOTTOM DRILLER
 CBL .F               710:   CASING BOTTOM LOGGER
 BS  .IN            8.625:   BIT SIZE
 BSD .F              2612:   BIT SIZE AT DEPTH
 DFT .           AIR MIST:   DRILLING FLUID TYPE
 BHT .F               110:   BOTTOM HOLE TEMPERATURE
 TCS .HRS               2:   TIME CURCULATED STOPPED
 MRT .F               110:   MAXIMUM RECORDED TEMPERATURE
 LUN .               2958:   LOGGING UNIT NUMBER
 LUL .               CASP:   LOGGING UNIT LOCATION
 ENGI.            POINTER:   RECORDING ENGINEER
 WITN.           MCGINLEY:   WITNESSED BY
 CLNT.            A2DTECH:   CLIENT CODE
 ORIG.      2" , 5" PRINT:   ORIGIN OF DATA
 UWI .       490251060600:   UNIQUE WELL ID
 DICO. A2D Technologies, Inc.:   DIGITIZING COMPANY
~OTHER INFORMATION
~A    DEPT      NPHI     CALD        GRD       CORR       RHOB       DPHI   
# ...
 1410.0000  -999.2500     9.1526   104.2545     0.1150     2.5016     0.0964
 1410.5000  -999.2500     9.1535   104.3265     0.1185     2.4943     0.0922
 1411.0000  -999.2500     9.1544   104.3163     0.1219     2.4992     0.0888
 1411.5000  -999.2500     9.1553   104.4054     0.1253     2.5041     0.0861
 1412.0000  -999.2500     9.1562   101.2768     0.1287     2.5091     0.0859
 1412.5000  -999.2500     9.1572    98.7101     0.1315     2.5107     0.0862
 1413.0000  -999.2500     9.1581    99.1840     0.1341     2.5120     0.0862
 1413.5000  -999.2500     9.1590   102.3390     0.1367     2.5132     0.0852
 1414.0000  -999.2500     9.1599   105.7620     0.1393     2.5145     0.0849
 1414.5000  -999.2500     9.1608   107.5109     0.1389     2.5147     0.0852
 1415.0000  -999.2500     9.1617   106.4583     0.1379     2.5142     0.0864
 1415.5000  -999.2500     9.1627   104.3805     0.1357     2.5096     0.0880
 1416.0000  -999.2500     9.1636   102.1797     0.1356     2.5013     0.0896
 1416.5000  -999.2500     9.1644   100.8085     0.1360     2.5026     0.0905
 1417.0000  -999.2500     9.1596   100.4035     0.1363     2.5050     0.0906
 1417.5000  -999.2500     9.1469    99.8595     0.1366     2.5030     0.0908
 1418.0000  -999.2500     9.1343   102.7281     0.1369     2.5020     0.0876
 1418.5000  -999.2500     9.1216   103.0554     0.1373     2.5089     0.0848
 1419.0000  -999.2500     9.1090   104.7031     0.1338     2.5138     0.0886
 1419.5000  -999.2500     9.0963   106.4876     0.1283     2.5078     0.0920
 1420.0000  -999.2500     9.0855   106.6959     0.1274     2.5020     0.0944
 1420.5000  -999.2500     9.0871   104.8569     0.1274     2.4962     0.0967
 1421.0000  -999.2500     9.0889   103.0143     0.1274     2.4940     0.0967
 1421.5000  -999.2500     9.0906   102.3341     0.1273     2.4952     0.0876
 1422.0000  -999.2500     9.0923   102.3754     0.1237     2.5020     0.0892
 1422.5000  -999.2500     9.0941   102.6606     0.1169     2.5045     0.0919
 1423.0000  -999.2500     9.0958   101.7744     0.1108     2.5015     0.0914
 1423.5000  -999.2500     9.0975    98.6092     0.1097     2.5013     0.0860
 1424.0000  -999.2500     9.0993    95.5154     0.1087     2.5099     0.0868
 1424.5000  -999.2500     9.1010    94.9444     0.1076     2.5109     0.0886
 1425.0000  -999.2500     9.1027    96.9782     0.1065     2.5061     0.0935
 1425.5000  -999.2500     9.1045    99.2233     0.1054     2.4986     0.0980
 1426.0000  -999.2500     9.1062    99.4644     0.1043     2.4911     0.0992
 1426.5000  -999.2500     9.1079    99.7921     0.1036     2.4872     0.0966
 1427.0000  -999.2500     9.1097   100.4144     0.1094     2.4901     0.0946
 1427.5000  -999.2500     9.1114   102.2955     0.1152     2.4930     0.0937
 1428.0000  -999.2500     9.1131   104.2695     0.1209     2.4965     0.0894
 1428.5000  -999.2500     9.1149   104.5165     0.1235     2.5121     0.0857
 1429.0000  -999.2500     9.1166   103.9216     0.1133     2.5121     0.0887
 1429.5000  -999.2500     9.1183   102.6762     0.1099     2.5049     0.0908
 1430.0000  -999.2500     9.1201   102.3713     0.1080     2.5003     0.0894
 1430.5000  -999.2500     9.1218   102.5170     0.1061     2.5048     0.0888
 1431.0000  -999.2500     9.1236   102.0026     0.1043     2.5069     0.0920
 1431.5000  -999.2500     9.1253   101.2743     0.1045     2.4991     0.0952
 1432.0000  -999.2500     9.1270   100.5607     0.1114     2.4910     0.0943
 1432.5000  -999.2500     9.1287   101.6210     0.1226     2.4981     0.0928
 1433.0000  -999.2500     9.1305   102.3486     0.1247     2.5011     0.0934
 1433.5000  -999.2500     9.1322   102.4764     0.1239     2.4945     0.0954
 1434.0000  -999.2500     9.1340   103.7803     0.1264     2.4879     0.0974
 1434.5000  -999.2500     9.1357   104.8678     0.1325     2.4941     0.0930
 1435.0000  -999.2500     9.1374   104.7604     0.1385     2.5063     0.0872
 1435.5000  -999.2500     9.1392   104.6573     0.1367     2.5110     0.0851
 1436.0000  -999.2500     9.1409   104.5475     0.1338     2.5127     0.0856
 1436.5000  -999.2500     9.1426   104.4373     0.1314     2.5129     0.0884
 1437.0000  -999.2500     9.1444   104.3382     0.1321     2.5073     0.0908
 1437.5000  -999.2500     9.1461   103.8161     0.1327     2.5033     0.0905
 1438.0000  -999.2500     9.1478   103.0645     0.1333     2.5056     0.0889
 1438.5000  -999.2500     9.1496   102.3124     0.1310     2.5078     0.0872
 1439.0000  -999.2500     9.1513   101.7428     0.1283     2.5100     0.0875
 1439.5000  -999.2500     9.1530   103.3405     0.1166     2.5110     0.0880
 1440.0000  -999.2500     9.1548   111.0578     0.1116     2.5099     0.0885
 1440.5000  -999.2500     9.1565   109.2611     0.1091     2.5022     0.0892
 1441.0000  -999.2500     9.1582   105.8937     0.1087     2.4942     0.0898
 1441.5000  -999.2500     9.1600   102.4134     0.1137     2.4989     0.0916
 1442.0000  -999.2500     9.1617   101.7739     0.1184     2.5031     0.0932
 1442.5000  -999.2500     9.1635   100.7081     0.1231     2.4994     0.0924
 1443.0000  -999.2500     9.1650    99.7107     0.1278     2.4992     0.0917
 1443.5000  -999.2500     9.1650   100.1075     0.1319     2.5044     0.0918
 1444.0000  -999.2500     9.1650   102.8565     0.1337     2.5047     0.0924
 1444.5000  -999.2500     9.1650   111.6527     0.1356     2.4990     0.0935
 1445.0000  -999.2500     9.1650   111.9111     0.1375     2.4970     0.0966
 1445.5000  -999.2500     9.1650   111.8805     0.1392     2.4959     0.0949
 1446.0000  -999.2500     9.1650   112.0212     0.1363     2.4949     0.0936
 1446.5000  -999.2500     9.1650   112.3908     0.1332     2.4937     0.1014
 1447.0000  -999.2500     9.1650   112.6058     0.1299     2.4835     0.1080
 1447.5000  -999.2500     9.1650   109.7890     0.1325     2.4727     0.1148
 1448.0000  -999.2500     9.1650   106.8265     0.1368     2.4631     0.1140
 1448.5000  -999.2500     9.1650   104.6778     0.1483     2.4592     0.1107
 1449.0000  -999.2500     9.1650   103.1713     0.1798     2.4685     0.1055
 1449.5000  -999.2500     9.1650   101.5132     0.1948     2.4757     0.1061
 1450.0000  -999.2500     9.1650    95.7696     0.1936     2.4723     0.1088
 1450.5000  -999.2500     9.1650    97.4122     0.1917     2.4681     0.1056
 1451.0000  -999.2500     9.1650   102.9772     0.2061     2.4681     0.1024
 1451.5000  -999.2500     9.1650   104.4837     0.2154     2.4853     0.1063
 1452.0000  -999.2500     9.1601   105.1461     0.2064     2.4813     0.1098
 1452.5000  -999.2500     9.1492   105.2871     0.1977     2.4743     0.1143
 1453.0000  -999.2500     9.1383   105.3921     0.1896     2.4671     0.1074
 1453.5000  -999.2500     9.1274   105.0512     0.1928     2.4639     0.0956
 1454.0000  -999.2500     9.1165   102.6072     0.1895     2.4922     0.0982
 1454.5000  -999.2500     9.1057   102.0995     0.1716     2.4946     0.1008
 1455.0000  -999.2500     9.1053   101.9990     0.1628     2.4908     0.1037
 1455.5000  -999.2500     9.1053   101.9139     0.1618     2.4866     0.1067
 1456.0000  -999.2500     9.1054   101.8255     0.1607     2.4808     0.1149
 1456.5000  -999.2500     9.1054   101.7179     0.1594     2.4642     0.1269
 1457.0000  -999.2500     9.1054   102.4331     0.1671     2.4476     0.1325
 1457.5000  -999.2500     9.1054   103.3959     0.1775     2.4316     0.1275
 1458.0000  -999.2500     9.1054   103.6315     0.1836     2.4447     0.0986
 1458.5000  -999.2500     9.1054   102.4662     0.1691     2.4725     0.1001
 1459.0000  -999.2500     9.1054   102.4745     0.1469     2.4879     0.1031
 1459.5000  -999.2500     9.1054   103.9751     0.1393     2.4898     0.0965
 1460.0000  -999.2500     9.1054   104.3391     0.1389     2.4978     0.0928
 1460.5000  -999.2500     9.1054   103.5322     0.1387     2.4953     0.0908
 1461.0000  -999.2500     9.1054   102.7604     0.1384     2.5007     0.0892
 1461.5000  -999.2500     9.1054   100.5883     0.1382     2.5052     0.0893
