~VERSION INFORMATION
 VERS.                2.0:   CWLS LOG ASCII STANDARD - VERSION 2.0
 WRAP.                 NO:   ONE LINE PER DEPTH STEP
~WELL INFORMATION
#MNEM.UNIT      DATA TYPE    INFORMATION
#----------   ------------   ------------------------------
 STRT.F          100.0000:   START DEPTH
 STOP.F          874.0000:   STOP DEPTH
 STEP.F            0.5000:   STEP LENGTH
 NULL.          -999.2500:   NO VALUE
 COMP. U S NAVY-INTEX OIL:   COMPANY
 WELL.     NPR #3 #45-S-2:   WELL
 FLD .             TEAPOT:   FIELD
 LOC .       S2 T38N R78W:   LOCATION
 CNTY.            NATRONA:   COUNTY
 STAT.            WYOMING:   STATE
 CTRY. UNITED STATES OF AMERICA:   COUNTRY
 SRVC.       Schlumberger:   SERVICE COMPANY
 DATE.        15-JUL-1962:   LOGDATE
 API .       490250642400:   API NUMBER
~CURVE INFORMATION
#MNEM.UNIT       API CODE    CURVE DESCRIPTION
#----------   ------------   ------------------------------
 DEPT.F                  :   
 ASN .OHMM   05 041 16 00:   AMPLIFIED SHORT NORMAL 16"
 CILD.MMHO   05 110 46 00:   CONDUCTIVITY INDUCTION LOG DEEP
 ILD .OHMM   05 120 46 00:   INDUCTION LOG DEEP
 SPR .MV     05 010 01 00:   SPONTANEOUS POTENTIAL FROM RES.
 GR  .GAPI   30 310 01 00:   GAMMA RAY
~PARAMETER INFORMATION
#MNEM.UNIT          VALUE    DESCRIPTION
#----------   ------------   ------------------------------
 LMF .                 KB:   LOG MEASURED FROM
 DMF .                 KB:   DRILLING MEASURED FROM
 EKB .F              5149:   KELLING BUSHING
 EGL .F              5144:   GROUND LEVEL
 DATE.        15-JUL-1962:   RUN DATE
 RUN .                  1:   RUN NUMBER
 DD  .F               875:   DEPTH DRILLER
 DL  .F               875:   DEPTH LOGGER
 BLI .F               874:   BOTTOM LOG INTERVAL
 TLI .F               100:   TOP LOG INTERVAL
 BS  .IN             6.75:   BIT SIZE
 BSD .F               875:   BIT SIZE AT DEPTH
 DFT .           OIL EMUL:   DRILLING FLUID TYPE
 DFD .               10.2:   DRILLING FLUID DENSITY
 DFV .                 42:   DRILLING FLUID VISCOSITY
 DFL .                4.6:   DRILLING FLUID LOSS
 RMS .OHMM            6.0:   RESISTIVITY MUD SAMPLE
 MST .F                64:   MUD SAMPLE TEMPERATURE
 RMF .OHMM            5.8:   RESISTIVITY MUD FILTRATE SAMPLE
 MFST.F                64:   MUD FILTRATE SAMPLE TEMPERATURE
 RMC .OHMM            5.2:   RESISTIVITY MUD CAKE
 MCST.F                66:   MUD CAKE SAMPLE TEMPERATURE
 TCS .HRS             0.5:   TIME CURCULATED STOPPED
 LUN .               2503:   LOGGING UNIT NUMBER
 LUL .               CSPR:   LOGGING UNIT LOCATION
 ENGI.           ELLERMAN:   RECORDING ENGINEER
 WITN.          JORGENSON:   WITNESSED BY
 CLNT.            A2DTECH:   CLIENT CODE
 ORIG.           5" PRINT:   ORIGIN OF DATA
 UWI .       490250642400:   UNIQUE WELL ID
 DICO. A2D Technologies, Inc.:   DIGITIZING COMPANY
~OTHER INFORMATION
~A   DEPT        ASN      CILD       ILD        SPR         GR   
# ...
  405.0000     7.1034   146.7387     6.9686   -38.8042  -999.2500
  405.5000     7.0590   148.9948     6.9693   -38.8182  -999.2500
  406.0000     7.0299   150.4878     6.9701   -39.3891  -999.2500
  406.5000     7.0007   149.7025     6.9709   -39.9812  -999.2500
  407.0000     6.9715   148.1652     6.9717   -40.2758  -999.2500
  407.5000     7.0024   145.9975     7.0472   -39.9696  -999.2500
  408.0000     7.0929   142.8178     7.1777   -39.3659  -999.2500
  408.5000     7.2134   139.7399     7.3063   -39.0612  -999.2500
  409.0000     7.3788   136.6111     7.5010   -38.9058  -999.2500
  409.5000     7.5292   132.1397     7.7307   -39.0496  -999.2500
  410.0000     7.6946   129.8448     7.8744   -39.0424  -999.2500
  410.5000     7.8900   128.3075     8.0248   -39.3356  -999.2500
  411.0000     8.0290   126.7701     8.1004   -39.4807  -999.2500
  411.5000     8.1760   125.9904     8.1759   -39.7739  -999.2500
  412.0000     8.2067   127.4834     8.1018   -39.9163  -999.2500
  412.5000     8.1475   129.7339     7.8031   -40.0598  -999.2500
  413.0000     7.9986   134.2572     7.6543   -39.8944  -999.2500
  413.5000     7.7897   138.0735     7.5800   -39.4489  -999.2500
  414.0000     7.5809   142.7475     7.3564   -39.1441  -999.2500
  414.5000     7.4317   147.0639     7.1325   -39.1383  -999.2500
  415.0000     7.3069   150.0721     6.9835   -38.9831  -999.2500
  415.5000     7.1341   151.5706     6.9094   -38.8278  -999.2500
  416.0000     7.0448   153.0636     6.9850   -38.8220  -999.2500
  416.5000     6.9859   153.0358     7.0608   -39.1152  -999.2500
  417.0000     6.9866   151.4985     7.0971   -40.0048  -999.2500
  417.5000     7.0173   148.4461     7.2868   -40.7464  -999.2500
  418.0000     7.1078   146.1511     7.2875   -40.8916  -999.2500
  418.5000     7.2744   143.0859     7.3630   -40.5854  -999.2500
  419.0000     7.4901   140.7020     7.5143   -39.9817  -999.2500
  419.5000     7.6491   137.7458     7.5892   -39.5476  -999.2500
  420.0000     7.7097   135.5387     7.6564   -39.0732  -999.2500
  420.5000     7.7703   133.1559     7.8332   -38.7484  -999.2500
  421.0000     7.8459   130.8610     7.8908   -38.4623  -999.2500
  421.5000     7.8915   128.5661     8.0412   -38.4051  -999.2500
  422.0000     7.8772   126.2712     8.1168   -38.3013  -999.2500
  422.5000     7.9239   124.7339     8.1924   -38.2960  -999.2500
  423.0000     8.1254   123.1966     8.1933   -38.2900  -999.2500
  423.5000     8.2988   122.4167     8.1940   -38.2839  -999.2500
  424.0000     8.3294   122.3939     8.1947   -38.4276  -999.2500
  424.5000     8.3302   123.8821     8.1204   -38.7208  -999.2500
  425.0000     8.3157   125.3806     7.9716   -38.8645  -999.2500
  425.5000     8.3015   126.8681     7.8975   -39.0082  -999.2500
  426.0000     8.2574   128.3611     7.8233   -38.8072  -999.2500
  426.5000     8.1535   129.8540     7.8242   -38.6417  -999.2500
  427.0000     8.0345   131.3470     7.7499   -38.3914  -999.2500
  427.5000     7.8855   132.8400     7.6760   -38.2362  -999.2500
  428.0000     7.7038   134.3333     7.6017   -38.0807  -999.2500
  428.5000     7.6027   137.3411     7.5277   -37.9242  -999.2500
  429.0000     7.5735   139.6920     7.4511   -37.7698  -999.2500
  429.5000     7.5742   141.8422     7.3046   -37.7632  -999.2500
  430.0000     7.5598   144.0872     7.2305   -37.7574  -999.2500
  430.5000     7.5457   144.8282     7.3062   -37.7519  -999.2500
  431.0000     7.5464   144.8004     7.3069   -37.8954  -999.2500
  431.5000     7.5472   143.2631     7.3077   -37.8894  -999.2500
  432.0000     7.5479   142.4834     7.3433   -38.0332  -999.2500
  432.5000     7.5638   140.9460     7.4588   -38.0259  -999.2500
  433.0000     7.6094   139.4087     7.4683   -38.0202  -999.2500
  433.5000     7.6850   138.2374     7.6100   -38.0149  -999.2500
  434.0000     7.7755   137.0657     7.6108   -38.0090  -999.2500
  434.5000     7.8960   136.3106     7.6535   -38.0028  -999.2500
  435.0000     8.0015   135.5303     7.6872   -37.9970  -999.2500
  435.5000     8.0921   134.7469     7.7627   -37.9910  -999.2500
  436.0000     8.2144   134.3400     7.7635   -37.9851  -999.2500
  436.5000     8.2733   133.9449     7.7644   -37.9791  -999.2500
  437.0000     8.1992   133.9242     7.7651   -37.9724  -999.2500
  437.5000     8.0203   133.1430     7.6908   -37.9666  -999.2500
  438.0000     8.0809   132.3633     7.6166   -38.4093  -999.2500
  438.5000     8.2463   130.8258     7.6924   -38.8520  -999.2500
  439.0000     8.1871   130.8030     7.6931   -39.1451  -999.2500
  439.5000     8.1579   132.2968     7.6940   -38.9884  -999.2500
  440.0000     8.1607   133.0322     7.6947   -38.8331  -999.2500
  440.5000     8.2194   133.0044     7.6955   -38.8273  -999.2500
  441.0000     8.2801   131.4671     7.6962   -38.8215  -999.2500
  441.5000     8.3556   129.1722     7.7717   -39.1147  -999.2500
  442.0000     8.4312   126.1197     7.9222   -39.4081  -999.2500
  442.5000     8.5217   123.8248     8.0726   -40.1495  -999.2500
  443.0000     8.6273   121.5299     8.2232   -40.5921  -999.2500
  443.5000     8.7487   119.9924     8.3736   -39.9870  -999.2500
  444.0000     8.9048   119.1616     8.4492   -39.6822  -999.2500
  444.5000     9.1236   118.4276     8.5248   -39.3782  -999.2500
  445.0000     9.1842   118.4054     8.5255   -39.0728  -999.2500
  445.5000     9.1550   118.3832     8.4513   -38.7680  -999.2500
  446.0000     9.0957   118.3610     8.4521   -38.5431  -999.2500
  446.5000     9.0217   118.3389     8.4530   -38.2282  -999.2500
  447.0000     8.9775   118.3167     8.5285   -38.1375  -999.2500
  447.5000     8.9329   118.2945     8.5293   -37.8466  -999.2500
  448.0000     8.9191   117.5148     8.6048   -37.6913  -999.2500
  448.5000     9.1296   116.7096     8.6804   -37.6855  -999.2500
  449.0000     9.2950   115.0959     8.8333   -37.6797  -999.2500
  449.5000     9.4305   112.1397     9.1311   -37.6739  -999.2500
  450.0000     9.5808   110.6024     8.9069   -37.5189  -999.2500
  450.5000     9.6898   109.0431     9.1300   -37.5204  -999.2500
  451.0000     9.8060   105.9687     9.2787   -37.6713  -999.2500
  451.5000     9.9111   103.6515     9.4269   -37.6727  -999.2500
  452.0000    10.0162   101.9697     9.5748   -37.6742  -999.2500
  452.5000    10.1063    99.7648     9.7231   -37.8251  -999.2500
  453.0000    10.1066    99.7207     9.8710   -37.9990  -999.2500
  453.5000    10.1818    98.1615    10.0196   -38.7252  -999.2500
  454.0000    10.2569    97.3598    10.0926   -39.9225  -999.2500
  454.5000    10.3320    97.0240    10.1664   -40.8208  -999.2500
  455.0000    10.4820    96.5152    10.2398   -40.5233  -999.2500
  455.5000    10.5644    96.4697    10.3129   -40.0763  -999.2500
  456.0000    10.6324    96.4242    10.3114   -39.3304  -999.2500
  456.5000    10.7824    96.3707    10.3848   -38.7175  -999.2500
  457.0000    10.7827    96.3266    10.3830   -38.1378  -999.2500
  457.5000    10.6332    96.2825    10.3067   -37.9894  -999.2500
  458.0000    10.4839    96.2385    10.3052   -38.1407  -999.2500
  458.5000    10.3344    96.1944    10.3038   -38.2916  -999.2500
  459.0000    10.2599    96.1503    10.3024   -38.5920  -999.2500
  459.5000    10.2602    96.8637    10.3009   -38.8924  -999.2500
  460.0000    10.2605    96.8196    10.2944   -39.3423  -999.2500
  460.5000    10.3357    97.5331    10.2228   -39.1942  -999.2500
  461.0000    10.3360    98.2356    10.1465   -39.0462  -999.2500
  461.5000    10.4860    98.5766    10.1450   -38.7014  -999.2500
  462.0000    10.6359    98.9160    10.1436   -38.1526  -999.2500
  462.5000    10.7111    98.8636    10.0673   -37.7056  -999.2500
  463.0000    10.6365    98.8168     9.9910   -37.5575  -999.2500
  463.5000    10.4123    99.5303     9.9895   -37.4096  -999.2500
  464.0000    10.1881   100.2437     9.6884   -37.9073  -999.2500
  464.5000    10.0387   100.9572     9.3127   -38.7581  -999.2500
  465.0000    10.0389   101.6707     9.0867   -39.5069  -999.2500
  465.5000     9.8896   103.8883     9.0104   -39.9568  -999.2500
