~VERSION INFORMATION
 VERS.                2.0:   CWLS LOG ASCII STANDARD - VERSION 2.0
 WRAP.                 NO:   ONE LINE PER DEPTH STEP
~WELL INFORMATION
#MNEM.UNIT      DATA TYPE    INFORMATION
#----------   ------------   ------------------------------
 STRT.F            2.0000:   START DEPTH
 STOP.F          508.0000:   STOP DEPTH
 STEP.F            0.1000:   STEP LENGTH
 NULL.          -999.2500:   NO VALUE
 COMP. LAWRENCE/ALLISON INC:   COMPANY
 WELL.      48-41 SX #3-3:   WELL
 FLD .             TEAPOT:   FIELD
 LOC .       S3 T38N R78W:   LOCATION
 CNTY.            NATRONA:   COUNTY
 STAT.            WYOMING:   STATE
 CTRY. UNITED STATES OF AMERICA:   COUNTRY
 SRVC.           Gearhart:   SERVICE COMPANY
 DATE.        09-JUL-1988:   LOGDATE
 API .       490251123300:   API NUMBER
~CURVE INFORMATION
#MNEM.UNIT       API CODE    CURVE DESCRIPTION
#----------   ------------   ------------------------------
 DEPT.F                  :   
 GRR .GAPI   07 310 01 00:   GAMMA RAY
 RILD.OHMM   07 120 46 00:   INDUCTION LOG DEEP RESISTIVITY
 RILM.OHMM   07 120 44 00:   INDUCTION LOG MEDIUM RESISTIVITY
~PARAMETER INFORMATION
#MNEM.UNIT          VALUE    DESCRIPTION
#----------   ------------   ------------------------------
 PD  .                 GL:   PERMANENT DATUM
 EPD .F              5200:   ELEVATION PERMANENT DATUM
 LMF .                 KB:   LOG MEASURED FROM
 DAPD.F                 5:   FEET ABOVE PERMANENT DATUM
 DMF .                 KB:   DRILLING MEASURED FROM
 EKB .F              5205:   KELLING BUSHING
 EDF .F              5204:   DRILLING FLOOR
 EGL .F              5200:   GROUND LEVEL
 DATE.        09-JUL-1988:   RUN DATE
 RUN .                  1:   RUN NUMBER
 DD  .F               510:   DEPTH DRILLER
 DL  .F               516:   DEPTH LOGGER
 BLI .F               508:   BOTTOM LOG INTERVAL
 TLI .F               1.5:   TOP LOG INTERVAL
 CS  .IN            9.625:   CASING SIZE
 CBD .F                40:   CASING BOTTOM DRILLER
 CBL .F                45:   CASING BOTTOM LOGGER
 BS  .IN             8.75:   BIT SIZE
 BSD .F               510:   BIT SIZE AT DEPTH
 DFT .                AIR:   DRILLING FLUID TYPE
 TCS .HRS            1800:   TIME CURCULATED STOPPED
 TLAB.HRS            1843:   TIME LOGGER AT BOTTOM
 MRT .F                70:   MAXIMUM RECORDED TEMPERATURE
 LUN .               7597:   LOGGING UNIT NUMBER
 LUL .           GILLETTE:   LOGGING UNIT LOCATION
 ENGI.         WEATHERMON:   RECORDING ENGINEER
 WITN.              FIVAS:   WITNESSED BY
 CLNT.            A2DTECH:   CLIENT CODE
 ORIG.           5" PRINT:   ORIGIN OF DATA
 UWI .       490251123300:   UNIQUE WELL ID
 DICO. A2D Technologies, Inc.:   DIGITIZING COMPANY
~OTHER INFORMATION
~A    DEPT      GRR      RILD       RILM   
# ...
  457.0000   103.1807    14.1371    13.8845
  457.1000   103.1831    14.1486    13.8836
  457.2000   103.0731    14.2338    13.8827
  457.3000   102.8285    14.2330    13.9240
  457.4000   102.5801    14.2323    13.9772
  457.5000   102.0882    14.2315    13.9763
  457.6000   101.5968    14.2307    13.9752
  457.7000   101.1052    14.2299    13.9744
  457.8000   100.5251    14.2290    14.0318
  457.9000    99.7868    14.2283    14.0695
  458.0000    98.9882    14.2275    14.0685
  458.1000    98.5366    14.2267    14.0675
  458.2000    98.0450    14.2260    14.0665
  458.3000    97.5534    14.2251    14.0656
  458.4000    97.0618    14.2243    14.0646
  458.5000    96.5702    14.2236    14.0636
  458.6000    95.9908    14.2228    14.0627
  458.7000    95.7899    14.2220    14.0617
  458.8000    95.5453    14.2213    14.0606
  458.9000    95.2064    14.2203    14.0598
  459.0000    94.7948    14.2196    14.0588
  459.1000    94.7977    14.2189    14.0578
  459.2000    94.8000    14.2181    14.0568
  459.3000    94.8024    14.2173    14.0559
  459.4000    94.9292    14.2164    14.0548
  459.5000    95.1786    14.2157    14.0539
  459.6000    95.4281    14.2149    14.0529
  459.7000    95.7160    14.2141    14.0519
  459.8000    95.9269    14.2134    14.0510
  459.9000    96.3308    14.2126    14.0500
  460.0000    96.7268    14.2116    14.0489
  460.1000    97.0225    14.2110    14.0481
  460.2000    97.5350    14.2102    14.0471
  460.3000    98.0153    14.2094    14.0060
  460.4000    98.6966    14.2086    13.9482
  460.5000    99.3094    14.2078    13.9472
  460.6000    99.7294    14.2070    13.9462
  460.7000    99.9788    14.2063    13.9453
  460.8000   100.2606    14.2055    13.9444
  460.9000   100.6923    14.2047    13.9434
  461.0000   101.1888    14.2039    13.9424
  461.1000   101.5788    14.2030    13.9414
  461.2000   101.8280    14.2023    13.9404
  461.3000   102.0795    14.2015    13.9395
  461.4000   102.3269    14.1686    13.9386
  461.5000   102.5763    14.1020    13.9376
  461.6000   102.8257    14.1991    13.9366
  461.7000   103.0751    14.1984    13.9356
  461.8000   103.2964    14.1976    13.9346
  461.9000   103.2990    14.1968    13.9337
  462.0000   103.3012    14.1960    13.9328
  462.1000   103.1368    14.1952    13.9318
  462.2000   102.8922    14.1943    13.9308
  462.3000   102.6478    14.1937    13.9299
  462.4000   102.3994    14.1929    13.9288
  462.5000   101.9075    14.1921    13.9279
  462.6000   101.4161    14.1913    13.9270
  462.7000   100.9245    14.1905    13.9260
  462.8000   100.3445    14.1897    13.9033
  462.9000    99.5720    14.1889    13.8280
  463.0000    98.5062    14.1881    13.8269
  463.1000    97.6008    14.1874    13.8261
  463.2000    96.9606    14.1865    13.8251
  463.3000    96.4691    14.1857    13.8242
  463.4000    96.0418    14.1850    13.8232
  463.5000    95.8071    14.1333    13.8222
  463.6000    96.1113    14.0855    13.8212
  463.7000    96.1133    14.0847    13.8203
  463.8000    96.2643    14.0839    13.7668
  463.9000    96.6081    14.0831    13.7231
  464.0000    97.1046    14.0823    13.7221
  464.1000    97.6291    14.0816    13.7211
  464.2000    98.3303    14.0564    13.7201
  464.3000    98.8948    13.9827    13.7192
  464.4000    99.5158    13.9819    13.7183
  464.5000   100.2593    13.9812    13.7174
  464.6000   100.9863    13.9804    13.7164
  464.7000   101.5594    13.9465    13.7113
  464.8000   102.1878    13.8824    13.6197
  464.9000   102.9311    13.8816    13.6189
  465.0000   103.5741    13.8041    13.6180
  465.1000   104.1170    13.7253    13.6171
  465.2000   104.8844    13.6882    13.6161
  465.3000   105.1258    13.6632    13.6152
  465.4000   105.5597    13.5921    13.6141
  465.5000   105.9257    13.5913    13.5471
  465.6000   106.1751    13.5238    13.5184
  465.7000   106.4244    13.4960    13.4831
  465.8000   106.7063    13.4627    13.4233
  465.9000   106.9234    13.3858    13.4191
  466.0000   107.1728    13.3081    13.3286
  466.1000   107.4221    13.3074    13.3278
  466.2000   107.6193    13.2493    13.3269
  466.3000   107.6217    13.1736    13.2925
  466.4000   107.8690    13.0983    13.2331
  466.5000   107.7370    13.0234    13.2322
  466.6000   107.3559    12.9398    13.2311
  466.7000   107.0289    12.8751    13.1669
  466.8000   106.9751    12.8491    13.0904
  466.9000   106.4316    12.8169    13.0466
  467.0000   106.4337    12.7437    13.0284
  467.1000   106.1028    12.6701    12.9548
  467.2000   105.8361    12.6695    12.9537
  467.3000   105.7220    12.6137    12.8913
  467.4000   105.2346    12.5805    12.8626
  467.5000   104.9900    12.5567    12.8303
  467.6000   104.7454    12.4923    12.7721
  467.7000   104.5008    12.4915    12.7696
  467.8000   104.3446    12.4286    12.6821
  467.9000   104.3470    12.3576    12.6813
  468.0000   104.3496    12.3176    12.6353
  468.1000   104.8056    12.3018    12.5921
  468.2000   105.4747    12.2312    12.5912
  468.3000   106.0996    12.2305    12.5892
  468.4000   106.6602    12.2298    12.5024
  468.5000   107.4038    12.1908    12.5017
  468.6000   108.2799    12.1440    12.4567
  468.7000   108.6876    12.1433    12.3843
  468.8000   109.1840    12.1426    12.3272
  468.9000   109.7748    12.0809    12.3256
  469.0000   110.4781    12.0575    12.2403
  469.1000   111.0025    12.0264    12.2396
  469.2000   111.4705    11.9729    12.2387
  469.3000   112.1456    11.9722    12.2092
  469.4000   112.6401    11.9715    12.1382
  469.5000   112.9597    11.9709    12.0676
  469.6000   113.4562    11.9323    11.9836
  469.7000   114.0293    11.8869    11.9829
  469.8000   114.4490    11.8862    11.9406
  469.9000   114.9452    11.8855    11.8986
  470.0000   115.2410    11.8247    11.8841
  470.1000   115.2434    11.7572    11.8149
  470.2000   115.2459    11.7200    11.7462
  470.3000   115.0092    11.7040    11.6779
  470.4000   114.5798    11.6378    11.6100
  470.5000   114.2188    11.6371    11.5687
  470.6000   113.9743    11.5846    11.5679
  470.7000   113.7078    11.5555    11.5671
  470.8000   113.1521    11.5323    11.5003
  470.9000   112.9394    11.4664    11.4334
  471.0000   112.6948    11.3945    11.3670
  471.1000   112.4502    11.3358    11.3009
  471.2000   112.2057    11.2710    11.2472
  471.3000   111.9591    11.2358    11.2464
  471.4000   111.4716    11.2200    11.1819
  471.5000   110.9799    11.1570    11.1169
  471.6000   110.6249    11.1563    11.0522
  471.7000   110.4626    11.1056    11.0121
  471.8000   110.4651    11.0781    10.9998
  471.9000   110.4677    11.0554    10.9346
  472.0000   110.6908    11.0003    10.9339
  472.1000   110.9401    10.9997    10.8841
  472.2000   111.1895    10.9991    10.8570
  472.3000   111.4390    10.9985    10.8799
  472.4000   111.6883    10.9979    10.9310
  472.5000   111.9378    10.9973    10.9301
  472.6000   112.1871    10.9967    10.9294
  472.7000   112.4366    10.9960    10.9286
  472.8000   112.6860    10.9955    10.9279
  472.9000   112.9353    10.9949    10.9271
  473.0000   113.2050    10.9943    10.9263
  473.1000   113.6611    10.9936    10.9255
  473.2000   113.9848    10.9930    10.9860
  473.3000   114.2341    10.9924    10.9999
  473.4000   114.4835    11.0352    10.9992
  473.5000   114.7330    11.0974    10.9984
  473.6000   115.0269    11.1440    10.9977
  473.7000   115.0289    11.1434    10.9969
  473.8000   114.7341    11.1426    10.9962
  473.9000   114.2425    11.1421    10.9954
  474.0000   113.7508    11.1415    10.9946
  474.1000   113.2315    11.1409    10.9938
  474.2000   113.0007    11.1403    10.9931
  474.3000   112.5775    11.1396    10.9923
  474.4000   112.2105    11.1391    10.9916
  474.5000   111.9660    11.1384    10.9908
  474.6000   111.7213    11.1378    10.9901
  474.7000   111.4389    11.1372    10.9670
  474.8000   111.4410    11.1366    10.9127
  474.9000   111.4434    11.1358    10.9119
  475.0000   111.4458    11.0841    10.9112
  475.1000   111.4482    11.0208    10.9104
