~VERSION INFORMATION
 VERS.                2.0:   CWLS LOG ASCII STANDARD - VERSION 2.0
 WRAP.                 NO:   ONE LINE PER DEPTH STEP
~WELL INFORMATION
#MNEM.UNIT      DATA TYPE    INFORMATION
#----------   ------------   ------------------------------
 STRT.M           36.0000:   START DEPTH
 STOP.M          687.0000:   STOP DEPTH
 STEP.M            0.5000:   STEP LENGTH
 NULL.          -999.2500:   NO VALUE
 COMP. LAWRENCE/ALLISON INC:   COMPANY
 WELL.    53-1-STX #15-15:   WELL
 FLD .             TEAPOT:   FIELD
 LOC .      S15 T38N R78W:   LOCATION
 CNTY.            NATRONA:   COUNTY
 STAT.            WYOMING:   STATE
 CTRY. UNITED STATES OF AMERICA:   COUNTRY
 SRVC.           Gearhart:   SERVICE COMPANY
 DATE.        29-AUG-1987:   LOGDATE
 API .       490251118700:   API NUMBER
~CURVE INFORMATION
#MNEM.UNIT       API CODE    CURVE DESCRIPTION
#----------   ------------   ------------------------------
 DEPT.M                  :   
 GRR .GAPI   07 310 01 00:   GAMMA RAY
 ILD .OHMM   07 120 46 00:   INDUCTION LOG DEEP
 ILM .OHMM   07 120 44 00:   INDUCTION LOG MEDIUM
~PARAMETER INFORMATION
#MNEM.UNIT          VALUE    DESCRIPTION
#----------   ------------   ------------------------------
 PD  .                 GL:   PERMANENT DATUM
 EPD .F              5237:   ELEVATION PERMANENT DATUM
 LMF .                 KB:   LOG MEASURED FROM
 DAPD.F              10.5:   FEET ABOVE PERMANENT DATUM
 DMF .                 KB:   DRILLING MEASURED FROM
 EKB .F              5247:   KELLING BUSHING
 EDF .F            5246.5:   DRILLING FLOOR
 EGL .F              5237:   GROUND LEVEL
 DATE.        29-AUG-1987:   RUN DATE
 RUN .                  1:   RUN NUMBER
 DD  .F               695:   DEPTH DRILLER
 DL  .F               696:   DEPTH LOGGER
 BLI .F               688:   BOTTOM LOG INTERVAL
 TLI .F                37:   TOP LOG INTERVAL
 CS  .IN            9.625:   CASING SIZE
 CBD .F                48:   CASING BOTTOM DRILLER
 CBL .F                49:   CASING BOTTOM LOGGER
 BS  .IN             8.75:   BIT SIZE
 BSD .F               695:   BIT SIZE AT DEPTH
 DFT .                AIR:   DRILLING FLUID TYPE
 TCS .HRS            0400:   TIME CURCULATED STOPPED
 MRT .F                80:   MAXIMUM RECORDED TEMPERATURE
 LUN .               7597:   LOGGING UNIT NUMBER
 LUL .           GILLETTE:   LOGGING UNIT LOCATION
 ENGI.         WEATHERMON:   RECORDING ENGINEER
 WITN.             STRONG:   WITNESSED BY
 CLNT.            A2DTECH:   CLIENT CODE
 ORIG.       2", 5" PRINT:   ORIGIN OF DATA
 UWI .       490251118700:   UNIQUE WELL ID
 DICO. A2D Technologies, Inc.:   DIGITIZING COMPANY
~OTHER INFORMATION
~A   DEPT       GRR       ILD        ILM   
# ...
  218.0000   126.5490    10.2628     9.7010
  218.5000   127.4836     9.9846     9.3106
  219.0000   128.4182     9.7816     9.1234
  219.5000   130.8657     9.7161     9.1278
  220.0000   133.0106     9.4528     9.1957
  220.5000   134.5503     9.3895     9.2002
  221.0000   133.0045     9.3267     9.2055
  221.5000   129.6278     9.3935     9.2099
  222.0000   124.9555     9.4610     9.2783
  222.5000   121.3515     9.5287     9.2176
  223.0000   119.5630     9.5968     9.2231
  223.5000   118.9847     9.4664     9.2275
  224.0000   119.3142     9.3387     9.2319
  224.5000   120.5514     9.2762     9.2363
  225.0000   122.9988     9.2781     9.0507
  225.5000   125.1437     9.1524     8.7468
  226.0000   126.0783     9.0907     8.3949
  226.5000   128.2232     8.6033     8.1694
  227.0000   130.9733     8.3125     8.1169
  227.5000   133.4207     8.2564     8.1208
  228.0000   130.4219     8.2585     8.1812
  228.5000   126.8179     8.3176     8.3578
  229.0000   125.0294     8.4938     8.4784
  229.5000   125.0563     8.7946     8.7813
  230.0000   128.4115     9.0433     8.9699
  230.5000   129.9516     9.1080     8.9742
  231.0000   129.9781     9.1099     9.0409
  231.5000   128.4478     9.1118     9.0452
  232.0000   127.6114     9.1140     9.0495
  232.5000   128.2501     9.1159     9.1801
  233.0000   129.4873     9.1178     9.2483
  233.5000   130.1193     9.1196     9.2527
  234.0000   128.0282     9.1215     9.1932
  234.5000   126.2397     9.1234     9.1311
  235.0000   124.4512     9.0623     8.9435
  235.5000   124.4781     9.0642     8.8819
  236.0000   125.7152     9.1290     8.7760
  236.5000   125.4328     9.0674     8.7185
  237.0000   123.6510     9.0698     8.7237
  237.5000   122.4676     9.0716     8.7279
  238.0000   121.8827     9.0109     8.7320
  238.5000   124.9420     8.8276     8.7362
  239.0000   128.2972     8.8294     8.7403
  239.5000   129.8369     8.8312     8.7445
  240.0000   129.8638     8.8330     8.8095
  240.5000   128.6805     8.8348     8.8137
  241.0000   129.0106     8.8306     8.7570
  241.5000   128.7342     8.7080     8.6404
  242.0000   126.9524     8.5396     8.4086
  242.5000   124.5587     8.3659     8.3466
  243.0000   122.4676     8.3680     8.3009
  243.5000   122.1852     8.3116     8.1916
  244.0000   123.1266     8.3137     8.1955
  244.5000   121.6406     8.3732     8.1994
  245.0000   121.9701     8.4331     8.2033
  245.5000   124.1150     8.4348     8.2072
  246.0000   128.3779     8.4365     8.2111
  246.5000   132.0356     8.4382     8.2721
  247.0000   134.1805     8.3813     8.2180
  247.5000   133.6023     8.4417     8.1660
  248.0000   131.5112     8.4434     8.1700
  248.5000   129.4191     8.4452     8.1739
  249.0000   130.3547     8.4469     8.1778
  249.5000   131.8944     8.5073     8.1253
  250.0000   133.1316     8.5090     8.1199
  250.5000   133.0802     8.5108     8.0211
  251.0000   129.7005     8.5185     8.0259
  251.5000   126.5712     8.5824     8.2553
  252.0000   126.9034     8.7555     8.4326
  252.5000   130.5638     8.8181     8.6137
  253.0000   132.1063     8.8199     8.6777
  253.5000   129.4127     8.8217     8.7422
  254.0000   124.9037     8.8235     8.7463
  254.5000   124.0182     8.8253     8.8726
  255.0000   125.2655     8.8884     8.8768
  255.5000   127.4131     8.9515     8.8196
  256.0000   126.5113     8.8303     8.8239
  256.5000   124.6989     8.8326     8.8282
  257.0000   124.4761     8.8344     8.8325
  257.5000   125.1183     8.8362     8.8376
  258.0000   129.3839     8.8380     8.8418
  258.5000   135.7675     8.7788     8.8460
  259.0000   138.5202     8.7806     8.8503
  259.5000   140.3652     8.7824     8.8545
  260.0000   140.9926     8.7842     8.6167
  260.5000   138.0038     8.7861     8.4435
  261.0000   135.3103     8.6073     8.3314
  261.5000   130.1962     8.4820     8.2768
  262.0000   130.6263     8.2611     8.2236
  262.5000   132.9859     8.1488     8.1153
  263.0000   134.2258     8.0942     8.0632
  263.5000   134.8605     8.0401     8.0114
  264.0000   133.0747     8.0421     7.9555
  264.5000   131.8940     7.8785     7.8541
  265.0000   130.1081     7.8801     7.8036
  265.5000   128.6248     7.8817     7.8625
  266.0000   128.3147     7.8834     7.8663
  266.5000   130.1969     7.8850     7.8700
  267.0000   131.7393     8.0520     7.9285
  267.5000   129.8184     8.2797     8.0988
  268.0000   127.8651     8.5730     8.2728
  268.5000   127.2969     8.8154     8.4505
  269.0000   126.4188     9.0021     8.6320
  269.5000   125.2381     9.1929     8.7565
  270.0000   125.5703     9.3229     8.8829
  270.5000   126.8102     9.3928     9.0111
  271.0000   127.4449     9.4567     9.0780
  271.5000   128.0796     9.2643     9.0824
  272.0000   130.8324     9.2667     9.0869
  272.5000   131.4675     9.3329     9.0921
  273.0000   130.8078     9.3348     9.0964
  273.5000   126.3900     9.2719     9.0369
  274.0000   124.2942     9.2098     8.9799
  274.5000   126.1466     9.0856     8.9841
  275.0000   126.4787     8.9621     8.9884
  275.5000   126.1984     8.9644     8.9296
  276.0000   125.9254     8.9661     8.8722
  276.5000   126.8701     8.9060     8.8775
  277.0000   128.4125     8.9079     8.8203
  277.5000   129.3498     8.9097     8.7032
  278.0000   130.2996     8.9116     8.5876
  278.5000   131.2648     9.0377     8.5324
  279.0000   132.7743     9.1659     8.5366
  279.5000   133.4090     9.2955     8.5416
  280.0000   132.5309     9.4924     8.6648
  280.5000   125.6013     9.6935     8.7899
  281.0000   120.7898     9.8989     8.9787
  281.5000   119.0040     9.9696     9.1715
  282.0000   119.6387    10.1808     9.4336
  282.5000   121.7863    10.4687     9.7032
  283.0000   124.2365    10.6168     9.9116
  283.5000   126.0817    10.9928    10.1949
  284.0000   121.7672    11.3821    10.6325
  284.5000   116.7683    11.7088    11.0888
  285.0000   113.7722    12.1185    11.4057
  285.5000   111.9864    12.4617    11.7332
  286.0000   112.6211    12.8141    12.0671
  286.5000   112.9459    12.9953    12.3396
  287.0000   110.2597    13.1791    12.6799
  287.5000   107.8687    13.2733    12.8629
  288.0000   110.9240    13.3682    13.1391
  288.5000   115.7948    13.4638    13.1454
  289.0000   120.6717    13.4665    13.0594
  289.5000   121.9395    13.4693    13.0671
  290.0000   120.7321    13.4720    12.8935
  290.5000   119.5514    13.4748    12.8091
  291.0000   116.5553    13.3833    12.7268
  291.5000   112.6514    13.0218    12.5592
  292.0000   109.9579    12.5678    12.3924
  292.5000   109.0723    12.3256    12.3127
  293.0000   109.4119    12.0754    12.0618
  293.5000   111.5595    11.9119    11.7324
  294.0000   114.9174    11.7505    11.5054
  294.5000   115.5521    11.6713    11.4314
  295.0000   113.7368    11.6743    11.5177
  295.5000   112.2904    11.6766    11.7651
  296.0000   110.2020    11.7601    12.0178
  296.5000   107.8110    12.0927    12.1912
  297.0000   106.3277    12.0951    12.1114
  297.5000   108.1728    12.0141    11.9519
  298.0000   115.1615    12.0166    11.7932
  298.5000   119.1245    11.8447    11.6365
  299.0000   120.0618    11.6127    11.5617
  299.5000   117.9734    11.2206    11.5672
  300.0000   115.8875    11.2225    11.4926
  300.5000   115.6073    11.0698    11.2602
  301.0000   118.9728    11.0673    11.1076
  301.5000   118.7001    10.9207    11.0340
  302.0000   114.7965    10.7720    11.0378
  302.5000   108.1697    10.8484    11.0408
  303.0000   105.1659    10.7514    10.9669
  303.5000   105.5593    10.4689    10.7451
  304.0000   108.6072    10.3396    10.6732
  304.5000   111.0195    10.3414    10.6768
  305.0000   115.2853    10.3428    10.4602
  305.5000   121.0640    10.3443    10.3192
  306.0000   122.0015    10.3457    10.3220
  306.5000   121.1236    10.2754    10.2529
  307.0000   120.2457    10.2059    10.2564
  307.5000   118.7627    10.1370    10.2593
  308.0000   113.0436    10.1387    10.1906
  308.5000   110.3503    10.1401    10.1941
