~VERSION INFORMATION
 VERS.                2.0:   CWLS LOG ASCII STANDARD - VERSION 2.0
 WRAP.                 NO:   ONE LINE PER DEPTH STEP
~WELL INFORMATION
#MNEM.UNIT      DATA TYPE    INFORMATION
#----------   ------------   ------------------------------
 STRT.F            0.0000:   START DEPTH
 STOP.F          678.0000:   STOP DEPTH
 STEP.F            0.5000:   STEP LENGTH
 NULL.          -999.2500:   NO VALUE
 COMP. FENIX & SCISSON INC:   COMPANY
 WELL. 37-21 SX 11 WO #37-11:   WELL
 FLD .             TEAPOT:   FIELD
 LOC .      S11 T38N R78W:   LOCATION
 CNTY.            NATRONA:   COUNTY
 STAT.            WYOMING:   STATE
 CTRY. UNITED STATES OF AMERICA:   COUNTRY
 SRVC.      Dresser Atlas:   SERVICE COMPANY
 DATE.        14-OCT-1983:   LOGDATE
 API .       490251084300:   API NUMBER
~CURVE INFORMATION
#MNEM.UNIT       API CODE    CURVE DESCRIPTION
#----------   ------------   ------------------------------
 DEPT.F                  :   
 SPR .MV     07 010 01 00:   SPONTANEOUS POTENTIAL
 SFLU.OHMM   07 220 01 00:   SPHERICALLY FOCUSED LOG UNAVERAGED RESISTIVITY
 ILM .OHMM   07 120 44 00:   INDUCTION LOG MEDIUM
 ILD .OHMM   07 120 46 00:   INDUCTION LOG DEEP
 NPHI.DEC    42 890 03 00:   NEUTRON POROSITY SANDSTONE
 DPHI.DEC    45 890 12 00:   DENSITY POROSITY SANDSTONE
 RHOB.G/C3   45 350 01 00:   BULK DENSITY
 CORR.G/C3   45 356 01 00:   DENSITY CORRECTION
 GRD .GAPI   45 310 01 00:   GAMMA RAY FROM DENSITY LOG
 CALD.IN     45 280 60 00:   CALIPER
~PARAMETER INFORMATION
#MNEM.UNIT          VALUE    DESCRIPTION
#----------   ------------   ------------------------------
 PD  .                 GL:   PERMANENT DATUM
 EPD .F              5188:   ELEVATION PERMANENT DATUM
 LMF .                 KB:   LOG MEASURED FROM
 DAPD.F                 5:   FEET ABOVE PERMANENT DATUM
 DMF .                 KB:   DRILLING MEASURED FROM
 EKB .F              5193:   KELLING BUSHING
 EGL .F              5188:   GROUND LEVEL
 DATE.           10-14-83:   RUN DATE
 RUN .                  4:   RUN NUMBER
 DD  .F               629:   DEPTH DRILLER
 DL  .F               630:   DEPTH LOGGER
 BLI .F               624:   BOTTOM LOG INTERVAL
 TLI .F               335:   TOP LOG INTERVAL
 BS  .IN             8.75:   BIT SIZE
 BSD .F               629:   BIT SIZE AT DEPTH
 DFT .          KCL WATER:   DRILLING FLUID TYPE
 LUN .               6307:   LOGGING UNIT NUMBER
 LUL .               GLTE:   LOGGING UNIT LOCATION
 ENGI.            DEYOUNG:   RECORDING ENGINEER
 WITN.            SCHULTE:   WITNESSED BY
 CLNT.            A2DTECH:   CLIENT CODE
 ORIG.       2", 5" PRINT:   ORIGIN OF DATA
 UWI .       490251084300:   UNIQUE WELL ID
 DICO. A2D Technologies, Inc.:   DIGITIZING COMPANY
~OTHER INFORMATION
~A    DEPT     SPR       SFLU        ILM        ILD       NPHI       DPHI       RHOB       CORR        GRD       CALD   
# ...
  301.5000   -31.3456     9.5344     8.9806     8.5758     0.2428     0.1053     2.5032     0.0816   100.9209     9.6310
  302.0000   -31.2889     9.4433     8.9138     8.5087     0.2404     0.1023     2.5062     0.0818    99.9212     9.6294
  302.5000   -31.2334     9.3972     8.8475     8.4478     0.2379     0.1045     2.5099     0.0820   100.8721     9.6278
  303.0000   -31.2520     9.3785     8.8061     8.3877     0.2360     0.1063     2.5203     0.0821    99.7961     9.6263
  303.5000   -31.3699     9.3614     8.7908     8.3281     0.2349     0.1050     2.5250     0.0823    98.7041     9.6247
  304.0000   -31.4866     9.3443     8.7754     8.2688     0.2380     0.1037     2.5208     0.0825    99.2946     9.6231
  304.5000   -31.6036     9.3272     8.7600     8.2100     0.2407     0.0975     2.5168     0.0827    99.8824     9.6215
  305.0000   -31.7195     9.3116     8.7446     8.1914     0.2427     0.0970     2.5090     0.0825    98.6711     9.6199
  305.5000   -31.7771     9.0983     8.6850     8.0765     0.2446     0.1031     2.5005     0.0810    97.7474     9.6183
  306.0000   -31.7368     8.9125     8.5132     7.9715     0.2478     0.0984     2.4921     0.0756    98.2846     9.6167
  306.5000   -31.6981     8.7305     8.3447     7.8657     0.2506     0.1041     2.4874     0.0747    98.8404     9.6151
  307.0000   -31.6591     8.5522     8.1796     7.7621     0.2528     0.1097     2.5024     0.0796    98.3599     9.6135
  307.5000   -31.6200     8.3776     8.0177     7.6598     0.2518     0.1152     2.5076     0.0844    97.9412     9.6119
  308.0000   -31.5596     8.2065     7.8590     7.5587     0.2552     0.1172     2.5055     0.0797    98.5276     9.6104
  308.5000   -31.4553     8.1167     7.6829     7.4593     0.2586     0.1109     2.4890     0.0740    97.1270     9.6088
  309.0000   -31.3516     8.3811     7.7727     7.4066     0.2575     0.1019     2.4879     0.0748    95.7553     9.6072
  309.5000   -31.2479     8.5677     7.9096     7.5105     0.2565     0.1068     2.5081     0.0858    94.5981     9.6056
  310.0000   -31.1443     8.7579     8.0490     7.6325     0.2540     0.1151     2.5224     0.0923    95.7544     9.6040
  310.5000   -31.0406     8.9520     8.1909     7.7566     0.2503     0.1179     2.5309     0.0988    96.3263     9.6024
  311.0000   -30.9369     9.0658     8.3352     7.8827     0.2463     0.1065     2.5223     0.0978    94.8819     9.6008
  311.5000   -30.8332     9.0801     8.4823     8.0109     0.2419     0.0982     2.5148     0.0940    93.4711     9.5992
  312.0000   -30.7288     9.0944     8.6318     8.1412     0.2393     0.0921     2.5107     0.0900    92.0174     9.5976
  312.5000   -30.6217     9.1088     8.6963     8.2669     0.2445     0.0976     2.5067     0.0861    93.4775     9.5961
  313.0000   -30.7309     9.1231     8.7459     8.3064     0.2498     0.1012     2.5028     0.0831    95.5093     9.5945
  313.5000   -30.8732     9.1375     8.7960     8.3445     0.2539     0.1030     2.5026     0.0817    96.4792     9.5929
  314.0000   -31.0164     9.2250     8.8464     8.3827     0.2505     0.1049     2.5115     0.0825    93.7075     9.5913
  314.5000   -31.1590     9.3542     8.8970     8.4211     0.2482     0.1068     2.5218     0.0917    91.6153     9.5897
  315.0000   -31.3016     9.4851     8.9480     8.4598     0.2550     0.1079     2.5261     0.1004    91.9035     9.5881
  315.5000   -31.4444     9.6179     8.9992     8.4969     0.2618     0.1032     2.5230     0.0965    94.8193     9.5865
  316.0000   -31.5864     9.7477     9.0508     8.4970     0.2669     0.0976     2.5131     0.0912    96.0620     9.5849
  316.5000   -31.7310     9.6559     9.1025     8.4969     0.2629     0.0936     2.5031     0.0859    94.8194     9.5834
  317.0000   -31.6829     9.5681     9.1424     8.4969     0.2508     0.0985     2.4987     0.0814    96.0689     9.5817
  317.5000   -31.4962     9.4810     9.0843     8.4970     0.2439     0.1047     2.4955     0.0790    97.3286     9.5801
  318.0000   -31.3077     9.3972     9.0372     8.4969     0.2420     0.1090     2.5024     0.0793    98.4617     9.5799
  318.5000   -31.1187     9.2881     8.9904     8.5751     0.2501     0.1114     2.5030     0.0796    97.2143     9.5799
  319.0000   -30.9299     9.2599     8.9439     8.4752     0.2555     0.1117     2.5039     0.0800    96.9041     9.5799
  319.5000   -30.7442     9.2317     8.8976     8.3791     0.2639     0.1098     2.5029     0.0804    98.2692     9.5799
  320.0000   -30.6200     9.2036     8.8515     8.2837     0.2723     0.1079     2.4954     0.0808    98.4086     9.5799
  320.5000   -30.6658     9.1756     8.8057     8.1896     0.2731     0.1061     2.4889     0.0803    96.4161     9.5799
  321.0000   -30.7077     9.1420     8.7601     8.0967     0.2738     0.1076     2.5024     0.0867    94.4228     9.5799
  321.5000   -30.7502     9.1420     8.7335     8.0427     0.2689     0.1112     2.5150     0.0929    92.6624     9.5799
  322.0000   -30.7925     9.1988     8.8541     8.0427     0.2550     0.1151     2.5205     0.0987    93.9477     9.5799
  322.5000   -30.8349     9.2555     8.9402     8.0427     0.2447     0.1084     2.5054     0.0941    95.7398     9.5799
  323.0000   -30.8773     9.3116     9.0274     8.0427     0.2464     0.0999     2.5080     0.0888    96.1804     9.5799
  323.5000   -30.9196     9.4956     9.1152     8.1684     0.2439     0.0978     2.5052     0.0841    92.3986     9.5799
  324.0000   -30.9620     9.6818     9.2040     8.3796     0.2371     0.1056     2.4982     0.0813    93.0520     9.5799
  324.5000   -31.0044     9.8716     9.2937     8.5963     0.2350     0.1061     2.4909     0.0786    90.3587     9.5799
  325.0000   -31.0467    10.0651     9.4643     8.8186     0.2395     0.1063     2.4914     0.0758    91.9097     9.5799
  325.5000   -31.0892    10.2625     9.6585     9.0466     0.2406     0.1113     2.4966     0.0731    93.4438     9.5799
  326.0000   -31.1316    10.4636     9.8566     9.2806     0.2386     0.1163     2.4999     0.0714    94.6359     9.5799
  326.5000   -31.1728    10.6688    10.0588     9.5205     0.2409     0.1142     2.4935     0.0752    91.8763     9.5799
  327.0000   -31.1519    10.8796    10.2650     9.6421     0.2461     0.1102     2.4983     0.0790    89.8596     9.5799
  327.5000   -31.0114    11.1189    10.4948     9.7665     0.2515     0.1104     2.5035     0.0827    90.6918     9.5799
  328.0000   -30.8707    11.3654    10.7605     9.8917     0.2539     0.1132     2.4947     0.0786    91.4963     9.5799
  328.5000   -30.7485    11.6175    11.0329    10.0192     0.2564     0.1097     2.4875     0.0745    92.1376     9.5799
  329.0000   -30.5596    11.8750    11.3122    10.2335     0.2561     0.1088     2.5001     0.0714    90.2859     9.5799
  329.5000   -30.3735    12.1431    11.5985    10.5129     0.2486     0.1133     2.5111     0.0763    88.3588     9.5799
  330.0000   -30.1872    12.5989    11.8921    10.8000     0.2368     0.1140     2.5176     0.0813    89.2889     9.5799
  330.5000   -30.0246    13.0805    12.1932    11.0950     0.2315     0.1078     2.5243     0.0862    88.3482     9.5799
  331.0000   -30.0941    13.5811    12.5018    11.3980     0.2286     0.1027     2.5312     0.0863    87.0094     9.5799
  331.5000   -30.1650    14.1008    12.8183    11.7092     0.2254     0.0978     2.5237     0.0858    85.9040     9.5793
  332.0000   -30.2348    14.6395    13.1427    12.0290     0.2230     0.0921     2.5146     0.0852    86.0030     9.5786
  332.5000   -30.3044    14.9893    13.5533    12.3675     0.2194     0.0889     2.5057     0.0829    86.0847     9.5779
  333.0000   -30.3740    14.4988    13.5057    12.5138     0.2272     0.0965     2.4951     0.0741    85.8017     9.5772
  333.5000   -30.4436    14.1512    13.4441    12.5711     0.2367     0.1027     2.4661     0.0656    85.2475     9.5764
  334.0000   -30.5133    13.8119    13.1509    12.5961     0.2323     0.1085     2.4501     0.0562    85.8448     9.5757
  334.5000   -30.5824    13.4807    12.7953    12.3964     0.2258     0.1197     2.4419     0.0437    87.4427     9.5750
