~VERSION INFORMATION
 VERS.                2.0:   CWLS LOG ASCII STANDARD - VERSION 2.0
 WRAP.                 NO:   ONE LINE PER DEPTH STEP
~WELL INFORMATION
#MNEM.UNIT      DATA TYPE    INFORMATION
#----------   ------------   ------------------------------
 STRT.F           80.0000:   START DEPTH
 STOP.F          718.5000:   STOP DEPTH
 STEP.F            0.5000:   STEP LENGTH
 NULL.          -999.2500:   NO VALUE
 COMP. U S NAVY-INTEX OIL:   COMPANY
 WELL. RES 3 TEAPOT DOM #21-S-2:   WELL
 FLD .        TEAPOT DOME:   FIELD
 LOC .       S2 T38N R78W:   LOCATION
 CNTY.            NATRONA:   COUNTY
 STAT.            WYOMING:   STATE
 CTRY. UNITED STATES OF AMERICA:   COUNTRY
 SRVC. Schlumberger Well Surveying Corp:   SERVICE COMPANY
 DATE.        18-JUL-1962:   LOGDATE
 API .       490250648100:   API NUMBER
~CURVE INFORMATION
#MNEM.UNIT       API CODE    CURVE DESCRIPTION
#----------   ------------   ------------------------------
 DEPT.F                  :   
 CALM.IN     15 280 01 00:   CALIPER FROM MICRO LOG
 SPR .MV     05 010 01 00:   SPONTANEOUS POTENTIAL FROM RES.
 ASN .OHMM   05 041 16 00:   AMPLIFIED SHORT NORMAL 16"
 ILD .OHMM   05 120 46 00:   INDUCTION LOG DEEP
 CILD.MMHO   05 110 46 00:   CONDUCTIVITY INDUCTION LOG DEEP
~PARAMETER INFORMATION
#MNEM.UNIT          VALUE    DESCRIPTION
#----------   ------------   ------------------------------
 LMF .                 KB:   LOG MEASURED FROM
 DMF .                 KB:   DRILLING MEASURED FROM
 EKB .F              5116:   KELLING BUSHING
 EGL .F              5111:   GROUND LEVEL
 DATE.          7-18-1962:   RUN DATE
 RUN .                  1:   RUN NUMBER
 DD  .F               719:   DEPTH DRILLER
 DL  .F               719:   DEPTH LOGGER
 BLI .F               718:   BOTTOM LOG INTERVAL
 TLI .F                90:   TOP LOG INTERVAL
 BS  .IN             6.75:   BIT SIZE
 BSD .F               719:   BIT SIZE AT DEPTH
 DFT .           OIL EMUL:   DRILLING FLUID TYPE
 DFD .                 10:   DRILLING FLUID DENSITY
 DFV .                 45:   DRILLING FLUID VISCOSITY
 DFL .                2.8:   DRILLING FLUID LOSS
 RMS .OHMM           3.87:   RESISTIVITY MUD SAMPLE
 MST .F                94:   MUD SAMPLE TEMPERATURE
 RMF .OHMM           2.93:   RESISTIVITY MUD FILTRATE SAMPLE
 MFST.F                94:   MUD FILTRATE SAMPLE TEMPERATURE
 RMC .OHMM           3.95:   RESISTIVITY MUD CAKE
 MCST.F                94:   MUD CAKE SAMPLE TEMPERATURE
 TCS .HRS              .5:   TIME CURCULATED STOPPED
 LUN .               2503:   LOGGING UNIT NUMBER
 LUL .              CSPR.:   LOGGING UNIT LOCATION
 ENGI.             DANNER:   RECORDING ENGINEER
 WITN.          JORGENSEN:   WITNESSED BY
 CLNT.            A2DTECH:   CLIENT CODE
 ORIG.      2" , 5" PRINT:   ORIGIN OF DATA
 UWI .       490250648100:   UNIQUE WELL ID
 DICO. A2D Technologies, Inc.:   DIGITIZING COMPANY
~OTHER INFORMATION
~A   DEPT     CALM        SPR          ASN        ILD      CILD  
# ...
  385.0000  -999.2500   -58.7823     9.2298     8.4542   112.8114
  385.5000  -999.2500   -59.1525     9.6866     8.6360   109.3525
  386.0000  -999.2500   -58.8808     9.9181     8.8147   106.7318
  386.5000  -999.2500   -58.5564    10.0441     8.9372   105.8127
  387.0000  -999.2500   -58.2353     9.8737     9.0641   105.1156
  387.5000  -999.2500   -57.9766     9.8355     9.1903   105.7475
  388.0000  -999.2500   -58.1289    10.0405     9.2674   106.9615
  388.5000  -999.2500   -58.2745    10.0033     9.0438   108.6466
  389.0000  -999.2500   -58.3754     9.8394     8.8228   110.3317
  389.5000  -999.2500   -58.0693     9.5923     8.6033   112.0854
  390.0000  -999.2500   -57.6841     9.3667     8.3820   113.8909
  390.5000  -999.2500   -57.2976     9.1974     8.2815   115.6963
  391.0000  -999.2500   -56.9083     9.1107     8.2607   116.0804
  391.5000  -999.2500   -56.7390     9.1144     8.2414   116.0804
  392.0000  -999.2500   -56.7075     9.1379     8.2222   116.0804
  392.5000  -999.2500   -56.6786     9.1615     8.2029   116.3111
  393.0000  -999.2500   -56.6499     9.1584     8.1835   116.5410
  393.5000  -999.2500   -56.6209     9.1146     8.1642   116.7708
  394.0000  -999.2500   -56.5920     9.0713     8.1449   117.0006
  394.5000  -999.2500   -56.5620     9.0280     8.1255   117.2304
  395.0000  -999.2500   -56.5976     8.9872     8.1062   117.4603
  395.5000  -999.2500   -56.6667     8.9531     8.0869   117.6901
  396.0000  -999.2500   -56.7367     8.9196     8.0675   117.9199
  396.5000  -999.2500   -56.8068     8.9022     8.0482   118.1497
  397.0000  -999.2500   -56.8774     8.8878     8.0289   118.3796
  397.5000  -999.2500   -56.9500     8.8734     8.0095   118.6094
  398.0000  -999.2500   -56.8457     8.8588     7.9902   118.8392
  398.5000  -999.2500   -56.7188     8.8543     7.9708   119.0690
  399.0000  -999.2500   -56.5914     8.8542     7.9515   119.2989
  399.5000  -999.2500   -56.4644     8.8548     7.9322   119.5287
  400.0000  -999.2500   -56.3380     8.8839     7.9128   119.7585
  400.5000  -999.2500   -56.2105     8.9432     7.8935   119.9883
  401.0000  -999.2500   -56.1794     8.9880     7.8742   120.3461
  401.5000  -999.2500   -56.2348     8.9162     7.8548   120.8224
  402.0000  -999.2500   -56.2912     8.8569     7.8355   121.3007
  402.5000  -999.2500   -56.3502     8.8923     7.8162   121.7787
  403.0000  -999.2500   -56.4475     8.9263     7.7969   122.2566
  403.5000  -999.2500   -56.5493     8.9489     7.7775   122.7344
  404.0000  -999.2500   -56.6514     8.9022     7.7582   123.2123
  404.5000  -999.2500   -56.7533     8.8562     7.7388   123.6901
  405.0000  -999.2500   -56.8378     8.8104     7.7194   124.1680
  405.5000  -999.2500   -56.9260     8.7646     7.7007   124.6459
  406.0000  -999.2500   -56.7602     8.7185     7.7171   125.1256
  406.5000  -999.2500   -56.4485     8.6753     7.7926   124.0157
  407.0000  -999.2500   -56.1574     8.6964     7.8672   122.9013
  407.5000  -999.2500   -56.1975     8.7205     7.9420   121.7869
  408.0000  -999.2500   -56.2477     8.7621     8.0167   120.6726
  408.5000  -999.2500   -56.2955     8.8300     8.0915   119.5582
  409.0000  -999.2500   -56.3368     8.8974     8.1662   118.4438
  409.5000  -999.2500   -56.6284     8.9650     8.2409   117.3295
  410.0000  -999.2500   -56.9443     9.0325     8.3157   116.2151
  410.5000  -999.2500   -57.2612     9.0966     8.3905   115.1007
  411.0000  -999.2500   -57.5781     9.1405     8.4656   114.0704
  411.5000  -999.2500   -57.8941     9.1837     8.5395   114.3179
  412.0000  -999.2500   -58.1729     9.1741     8.5716   114.5482
  412.5000  -999.2500   -58.1680     9.1437     8.4759   114.7784
  413.0000  -999.2500   -57.9471     9.1066     8.3848   115.0087
  413.5000  -999.2500   -57.5568     9.0333     8.2939   116.1199
  414.0000  -999.2500   -57.1649     8.9587     8.2030   117.5905
  414.5000  -999.2500   -56.7730     8.8841     8.1121   119.0611
  415.0000  -999.2500   -56.3844     8.8096     8.0211   120.5317
  415.5000  -999.2500   -56.1822     8.7351     7.9302   122.0023
  416.0000  -999.2500   -56.2802     8.6610     7.8393   123.4728
  416.5000  -999.2500   -56.4708     8.5875     7.7484   124.8347
  417.0000  -999.2500   -57.0701     8.5165     7.6575   126.0950
  417.5000  -999.2500   -57.1582     8.4275     7.5665   127.3617
  418.0000  -999.2500   -57.1586     8.3075     7.4756   128.6281
  418.5000  -999.2500   -57.1586     8.1960     7.3847   129.8949
  419.0000  -999.2500   -57.1655     8.1262     7.2936   131.1619
  419.5000  -999.2500   -56.8826     8.0689     7.2009   132.4345
  420.0000  -999.2500   -56.5710     8.0702     7.2222   133.1658
  420.5000  -999.2500   -56.1807     8.0701     7.2800   133.1653
  421.0000  -999.2500   -55.6125     8.0685     7.3387   132.8100
  421.5000  -999.2500   -55.0450     8.1369     7.3972   131.2905
  422.0000  -999.2500   -54.4587     8.2162     7.4563   129.7708
  422.5000  -999.2500   -54.4219     8.2933     7.5335   128.2513
  423.0000  -999.2500   -54.5356     8.3629     7.6351   126.7317
  423.5000  -999.2500   -54.6535     8.4306     7.7362   125.2121
  424.0000  -999.2500   -54.7702     8.4982     7.8377   123.6925
  424.5000  -999.2500   -54.8866     8.5436     7.9386   122.1726
  425.0000  -999.2500   -55.0034     8.5660     8.0401   120.6532
  425.5000  -999.2500   -55.1228     8.6367     8.0904   119.1186
  426.0000  -999.2500   -55.0853     8.7272     8.0938   118.1472
  426.5000  -999.2500   -55.0165     8.8185     8.1931   118.3281
  427.0000  -999.2500   -54.9471     8.9104     8.1491   118.5090
  427.5000  -999.2500   -54.8780     8.9154     8.1081   118.6896
  428.0000  -999.2500   -54.8090     8.9158     8.0693   118.8704
  428.5000  -999.2500   -54.7399     8.8670     8.0303   119.0503
  429.0000  -999.2500   -54.6709     8.8040     7.9913   119.5342
  429.5000  -999.2500   -54.6019     8.7403     7.9524   120.1131
  430.0000  -999.2500   -54.5328     8.6843     7.9134   120.6920
  430.5000  -999.2500   -54.4632     8.6348     7.8744   121.2709
  431.0000  -999.2500   -54.3941     8.6328     7.8352   121.8498
  431.5000  -999.2500   -54.3604     8.6332     7.7947   122.4287
  432.0000  -999.2500   -54.5798     8.6418     7.8297   123.0076
  432.5000  -999.2500   -54.7990     8.6632     7.8802   122.7410
  433.0000  -999.2500   -55.0174     8.6845     7.9307   122.2805
  433.5000  -999.2500   -55.2352     8.7052     7.9789   120.9237
  434.0000  -999.2500   -55.4545     8.7693     8.1125   119.0117
  434.5000  -999.2500   -55.5858     8.8958     8.2591   117.1210
  435.0000  -999.2500   -55.6597     9.0799     8.4059   115.2467
  435.5000  -999.2500   -55.7324     9.2628     8.5526   113.4531
  436.0000  -999.2500   -55.8046     9.4461     8.6992   111.6205
  436.5000  -999.2500   -55.8758     9.6116     8.8454   109.3658
  437.0000  -999.2500   -55.9586     9.7428     8.9927   106.8761
  437.5000  -999.2500   -56.2766     9.8713     9.1566   104.3863
  438.0000  -999.2500   -56.5981     9.9994     9.3988   101.8966
  438.5000  -999.2500   -56.9196    10.1277     9.6327    99.4069
  439.0000  -999.2500   -56.8204    10.2951     9.8664    96.9171
  439.5000  -999.2500   -56.6637    10.7073    10.1002    94.4274
  440.0000  -999.2500   -56.5060    11.1242    10.3340    91.9377
  440.5000  -999.2500   -56.3493    11.5371    10.5678    89.4479
  441.0000  -999.2500   -56.1925    11.8736    10.8015    86.9582
  441.5000  -999.2500   -56.0352    12.0469    11.0356    84.4684
  442.0000  -999.2500   -55.8787    12.2238    11.2708    81.9096
  442.5000  -999.2500   -55.7648    12.4000    11.4996    81.6482
  443.0000  -999.2500   -55.9292    12.5785    11.5093    81.3105
  443.5000  -999.2500   -56.0909    12.6799    11.5091    80.9729
  444.0000  -999.2500   -56.2540    12.7640    11.4609    81.2412
  444.5000  -999.2500   -56.5599    12.8064    11.4026    81.6633
  445.0000  -999.2500   -57.1147    12.7608    11.3441    82.0854
  445.5000  -999.2500   -57.6684    12.7169    11.2854    82.5075
