~VERSION INFORMATION
 VERS.                2.0:   CWLS LOG ASCII STANDARD - VERSION 2.0
 WRAP.                 NO:   ONE LINE PER DEPTH STEP
~WELL INFORMATION
#MNEM.UNIT      DATA TYPE    INFORMATION
#----------   ------------   ------------------------------
 STRT.F          834.5000:   START DEPTH
 STOP.F         1644.0000:   STOP DEPTH
 STEP.F            0.5000:   STEP LENGTH
 NULL.          -999.2500:   NO VALUE
 COMP. LAWRENCE/ALLISON INC:   COMPANY
 WELL.      85 STX #15-15:   WELL
 FLD .            WILDCAT:   FIELD
 LOC .      S15 T38N R78W:   LOCATION
 CNTY.            NATRONA:   COUNTY
 STAT.            WYOMING:   STATE
 CTRY. UNITED STATES OF AMERICA:   COUNTRY
 SRVC.            Unknown:   SERVICE COMPANY
 DATE.        06-SEP-1987:   LOGDATE
 API .       490251116000:   API NUMBER
~CURVE INFORMATION
#MNEM.UNIT       API CODE    CURVE DESCRIPTION
#----------   ------------   ------------------------------
 DEPT.F                  :   
 TGAS.UNITS  91 830 01 00:   TOTAL GAS FROM HOTWIRE
 ROP .MIN/FT 91 810 01 00:   RAT OF DRILLING PENETRATION
~PARAMETER INFORMATION
#MNEM.UNIT          VALUE    DESCRIPTION
#----------   ------------   ------------------------------
 DATE.             9-6-87:   RUN DATE
 BLI .F              1644:   BOTTOM LOG INTERVAL
 TLI .F               834:   TOP LOG INTERVAL
 LUN .              T-146:   LOGGING UNIT NUMBER
 ENGI.               HUSK:   RECORDING ENGINEER
 WITN.              TOWER:   WITNESSED BY
 CLNT.            A2DTECH:   CLIENT CODE
 ORIG.           5" PRINT:   ORIGIN OF DATA
 UWI .       490251116000:   UNIQUE WELL ID
 DICO. A2D Technologies, Inc.:   DIGITIZING COMPANY
~OTHER INFORMATION
~A   DEPT       TGAS        ROP 
# ...
 1077.5000   100.6488     0.3003
 1078.0000    99.8920     0.3019
 1078.5000    99.1548     0.3034
 1079.0000    98.3784     0.3049
 1079.5000    98.0589     0.2962
 1080.0000    97.9001     0.2971
 1080.5000    97.7365     0.2961
 1081.0000    97.7471     0.2951
 1081.5000    97.7575     0.2940
 1082.0000    98.1876     0.2930
 1082.5000    97.7777     0.2920
 1083.0000    98.2082     0.2910
 1083.5000    99.0537     0.2900
 1084.0000   100.3169     0.2890
 1084.5000   101.9977     0.2879
 1085.0000   103.6786     0.2869
 1085.5000   104.9418     0.2859
 1086.0000   105.3697     0.2849
 1086.5000   106.6329     0.2839
 1087.0000   107.4784     0.2828
 1087.5000   108.3240     0.2818
 1088.0000   108.7519     0.2808
 1088.5000   110.0151     0.2798
 1089.0000   111.6961     0.2788
 1089.5000   112.1241     0.2777
 1090.0000   112.2045     0.2767
 1090.5000   113.8175     0.2757
 1091.0000   115.0807     0.2747
 1091.5000   115.0910     0.2737
 1092.0000   115.5189     0.2726
 1092.5000   115.5292     0.2716
 1093.0000   115.9572     0.2706
 1093.5000   116.8027     0.2696
 1094.0000   117.2306     0.2686
 1094.5000   117.2409     0.2675
 1095.0000   117.2512     0.2665
 1095.5000   118.0968     0.2655
 1096.0000   118.5247     0.2645
 1096.5000   119.7879     0.2635
 1097.0000   120.2158     0.2624
 1097.5000   119.8085     0.2614
 1098.0000   119.4011     0.2604
 1098.5000   118.9938     0.2594
 1099.0000   118.5864     0.2584
 1099.5000   117.7640     0.2574
 1100.0000   117.3752     0.2565
 1100.5000   117.4473     0.2565
 1101.0000   117.5194     0.2565
 1101.5000   117.5914     0.2565
 1102.0000   117.6635     0.2565
 1102.5000   117.7356     0.2565
 1103.0000   117.8077     0.2565
 1103.5000   117.8797     0.2565
 1104.0000   117.9518     0.2565
 1104.5000   118.0239     0.2565
 1105.0000   118.0959     0.2565
 1105.5000   118.1680     0.2566
 1106.0000   118.2401     0.2566
 1106.5000   118.3122     0.2566
 1107.0000   118.3842     0.2566
 1107.5000   118.4563     0.2566
 1108.0000   118.5284     0.2566
 1108.5000   118.6004     0.2566
 1109.0000   118.6725     0.2566
 1109.5000   118.7446     0.2566
 1110.0000   118.8167     0.2566
 1110.5000   118.8887     0.2566
 1111.0000   118.9608     0.2566
 1111.5000   119.0329     0.2566
 1112.0000   119.1049     0.2566
 1112.5000   119.1770     0.2566
 1113.0000   119.2491     0.2566
 1113.5000   119.3212     0.2566
 1114.0000   119.3932     0.2566
 1114.5000   119.4653     0.2566
 1115.0000   119.5374     0.2566
 1115.5000   119.6095     0.2566
 1116.0000   119.6815     0.2566
 1116.5000   119.7536     0.2566
 1117.0000   119.8257     0.2566
 1117.5000   119.8977     0.2567
 1118.0000   119.9698     0.2567
 1118.5000   120.0419     0.2567
 1119.0000   120.1140     0.2567
 1119.5000   120.1860     0.2567
 1120.0000   120.2581     0.2567
 1120.5000   120.2837     0.2577
 1121.0000   120.2941     0.2587
 1121.5000   120.3045     0.2598
 1122.0000   120.3149     0.2608
 1122.5000   120.3253     0.2618
 1123.0000   120.3357     0.2628
 1123.5000   120.3461     0.2639
 1124.0000   120.3565     0.2649
 1124.5000   120.3669     0.2659
 1125.0000   120.3773     0.2669
 1125.5000   120.3877     0.2680
 1126.0000   120.3981     0.2690
 1126.5000   120.4085     0.2700
 1127.0000   120.4189     0.2710
 1127.5000   120.4293     0.2721
 1128.0000   120.4397     0.2731
 1128.5000   120.4501     0.2741
 1129.0000   120.4605     0.2751
 1129.5000   120.4709     0.2762
 1130.0000   120.4813     0.2772
 1130.5000   120.4917     0.2782
 1131.0000   120.5021     0.2792
 1131.5000   120.5125     0.2803
 1132.0000   120.5229     0.2813
 1132.5000   120.5333     0.2823
 1133.0000   120.5437     0.2834
 1133.5000   120.5541     0.2844
 1134.0000   120.5645     0.2854
 1134.5000   120.5749     0.2864
 1135.0000   120.5853     0.2875
 1135.5000   120.5957     0.2885
 1136.0000   120.6061     0.2895
 1136.5000   120.6165     0.2905
 1137.0000   120.6269     0.2916
 1137.5000   120.6373     0.2926
 1138.0000   120.6477     0.2936
 1138.5000   120.6581     0.2946
 1139.0000   120.6685     0.2957
 1139.5000   120.6789     0.2967
 1140.0000   120.6876     0.2978
 1140.5000   120.6759     0.2980
 1141.0000   120.6658     0.2983
 1141.5000   120.6558     0.2985
 1142.0000   120.6457     0.2988
 1142.5000   120.6356     0.2991
 1143.0000   120.6255     0.2993
 1143.5000   120.6154     0.2996
 1144.0000   120.6053     0.2998
 1144.5000   120.5952     0.3001
 1145.0000   120.5852     0.3003
 1145.5000   120.5751     0.3006
 1146.0000   120.5650     0.3008
 1146.5000   120.5549     0.3011
 1147.0000   120.5448     0.3014
 1147.5000   120.5347     0.3016
 1148.0000   120.5246     0.3019
 1148.5000   120.5145     0.3021
 1149.0000   120.5045     0.3024
 1149.5000   120.4944     0.3026
 1150.0000   120.4843     0.3029
 1150.5000   120.4742     0.3031
 1151.0000   120.4641     0.3034
 1151.5000   120.4540     0.3037
 1152.0000   120.4439     0.3039
 1152.5000   120.4339     0.3042
 1153.0000   120.4238     0.3044
 1153.5000   120.4137     0.3047
 1154.0000   120.4036     0.3049
 1154.5000   120.3935     0.3052
 1155.0000   120.3834     0.3054
 1155.5000   120.3733     0.3057
 1156.0000   120.3633     0.3060
 1156.5000   120.3532     0.3062
 1157.0000   120.3431     0.3065
 1157.5000   120.3330     0.3067
 1158.0000   120.3229     0.3173
 1158.5000   120.3128     0.3278
 1159.0000   120.3027     0.3588
 1159.5000   120.2927     0.3796
 1160.0000   120.2826     0.3899
 1160.5000   120.2973     0.3896
 1161.0000   120.3293     0.3894
 1161.5000   120.3612     0.3891
 1162.0000   120.3932     0.3889
 1162.5000   120.4252     0.3886
 1163.0000   120.4572     0.3884
 1163.5000   120.4892     0.3881
 1164.0000   120.5212     0.3879
 1164.5000   120.5532     0.3876
 1165.0000   120.5851     0.3874
 1165.5000   120.6171     0.3871
 1166.0000   120.6491     0.3869
 1166.5000   120.6811     0.3866
 1167.0000   120.7131     0.3864
 1167.5000   120.7451     0.3861
 1168.0000   120.7770     0.3859
 1168.5000   120.8090     0.3856
 1169.0000   120.8410     0.3853
 1169.5000   120.8730     0.3851
 1170.0000   120.9074     0.3848
 1170.5000   120.9379     0.3846
 1171.0000   120.9708     0.3843
 1171.5000   118.4955     0.3841
 1172.0000   115.6025     0.3838
 1172.5000   112.7094     0.3836
 1173.0000   110.6243     0.3833
 1173.5000   107.6973     0.3831
 1174.0000   104.4557     0.3828
 1174.5000   102.8156     0.3826
 1175.0000    99.0873     0.3823
 1175.5000    96.1943     0.3821
 1176.0000    92.8837     0.3818
 1176.5000    89.1554     0.3816
 1177.0000    85.8445     0.3813
 1177.5000    84.1008     0.3811
 1178.0000    80.4840     0.3808
 1178.5000    77.5910     0.3806
 1179.0000    73.8628     0.3803
 1179.5000    72.2227     0.3800
 1180.0000    69.3322     0.3798
 1180.5000    67.3051     0.3809
 1181.0000    66.5308     0.3819
 1181.5000    65.3389     0.3830
 1182.0000    62.4764     0.3840
 1182.5000    62.1350     0.3850
 1183.0000    62.1960     0.3860
 1183.5000    61.4065     0.3871
 1184.0000    61.0499     0.3881
 1184.5000    60.6932     0.3891
 1185.0000    60.7502     0.3901
 1185.5000    60.7995     0.3912
 1186.0000    60.8488     0.3922
 1186.5000    60.8980     0.3932
 1187.0000    60.9473     0.3942
 1187.5000    60.9966     0.3953
 1188.0000    61.0459     0.3963
 1188.5000    61.0951     0.3973
 1189.0000    61.1444     0.3984
 1189.5000    61.1937     0.3994
 1190.0000    61.2430     0.4004
 1190.5000    61.2922     0.4014
 1191.0000    61.3415     0.4025
 1191.5000    61.3908     0.4035
 1192.0000    61.4401     0.4045
 1192.5000    61.4893     0.4055
 1193.0000    61.5386     0.4066
 1193.5000    61.5879     0.4076
 1194.0000    61.6372     0.4086
 1194.5000    61.6864     0.4096
 1195.0000    61.7357     0.4107
 1195.5000    61.7850     0.4117
 1196.0000    61.8343     0.4127
 1196.5000    61.8835     0.4137
 1197.0000    61.9328     0.4148
 1197.5000    61.9821     0.4158
 1198.0000    62.0314     0.4168
 1198.5000    62.0806     0.4178
