~VERSION INFORMATION
 VERS.                2.0:   CWLS LOG ASCII STANDARD - VERSION 2.0
 WRAP.                 NO:   ONE LINE PER DEPTH STEP
~WELL INFORMATION
#MNEM.UNIT      DATA TYPE    INFORMATION
#----------   ------------   ------------------------------
 STRT.F           30.0000:   START DEPTH
 STOP.F          602.0000:   STOP DEPTH
 STEP.F            0.5000:   STEP LENGTH
 NULL.          -999.2500:   NO VALUE
 COMP. FENIX & SCISSON U.S NAVY:   COMPANY
 WELL.   S-3 NPR #3 #51-3:   WELL
 FLD .             TEAPOT:   FIELD
 LOC .       S3 T38N R78W:   LOCATION
 CNTY.            NATRONA:   COUNTY
 STAT.            WYOMING:   STATE
 CTRY. UNITED STATES OF AMERICA:   COUNTRY
 SRVC.              Welex:   SERVICE COMPANY
 DATE.        08-MAR-1977:   LOGDATE
 API .       490251030800:   API NUMBER
~CURVE INFORMATION
#MNEM.UNIT       API CODE    CURVE DESCRIPTION
#----------   ------------   ------------------------------
 DEPT.F                  :   
 SPR .MV     07 010 01 00:   SPONTANEOUS POTENTIAL
 ILD .OHMM   07 120 46 00:   INDUCTION LOG DEEP
 ILM .OHMM   07 120 44 00:   INDUCTION LOG MEDIUM
 SGRD.OHMM   07 221 05 00:   SHALLOW SHORT GUARD RESISTIVITY
 CALD.IN     45 280 60 00:   CALIPER FROM DENSITY LOG
 CORR.G/C3   45 356 01 00:   DENSITY CORRECTION
 RHOB.G/C3   45 350 01 00:   BULK DENSITY
 DPHI.DEC    45 890 12 00:   DENSITY POROSITY SANDSTONE
 GRD .GAPI   45 310 01 00:   GAMMA RAY FROM DENSITY LOG
~PARAMETER INFORMATION
#MNEM.UNIT          VALUE    DESCRIPTION
#----------   ------------   ------------------------------
 PD  .                 GL:   PERMANENT DATUM
 EPD .F              5140:   ELEVATION PERMANENT DATUM
 LMF .                 GL:   LOG MEASURED FROM
 DAPD.F                  :   FEET ABOVE PERMANENT DATUM
 DMF .                 GL:   DRILLING MEASURED FROM
 EKB .F                  :   KELLING BUSHING
 EDF .F                  :   DRILLING FLOOR
 EGL .F              5140:   GROUND LEVEL
 DATE.             3-8-77:   RUN DATE
 RUN .                  1:   RUN NUMBER
 DD  .F               611:   DEPTH DRILLER
 DL  .F               555:   DEPTH LOGGER
 BLI .F               553:   BOTTOM LOG INTERVAL
 TLI .F                40:   TOP LOG INTERVAL
 CS  .IN            8.625:   CASING SIZE
 CBD .F                40:   CASING BOTTOM DRILLER
 CBL .F                40:   CASING BOTTOM LOGGER
 BS  .IN            7.875:   BIT SIZE
 BSD .F               611:   BIT SIZE AT DEPTH
 DFT .           CHEM GEL:   DRILLING FLUID TYPE
 DFD .                8.6:   DRILLING FLUID DENSITY
 DFV .                 42:   DRILLING FLUID VISCOSITY
 DFPH.                  8:   DRILLING FLUID PH
 DFL .                3.2:   DRILLING FLUID LOSS
 MSS .           FLOWLINE:   MUD SAMPLE SOURCE
 RMS .OHMM           1.49:   RESISTIVITY MUD SAMPLE
 MST .F                48:   MUD SAMPLE TEMPERATURE
 RMF .OHMM           1.07:   RESISTIVITY MUD FILTRATE SAMPLE
 MFST.F                48:   MUD FILTRATE SAMPLE TEMPERATURE
 RMC .OHMM           2.34:   RESISTIVITY MUD CAKE
 MCST.F                48:   MUD CAKE SAMPLE TEMPERATURE
 MFSS.           MEASURED:   MUD FILTRATE SAMPLE SOURCE
 MCSS.           MEASURED:   MUD CAKE SAMPLE SOURCE
 RMB .OHMM           1.19:   RESISTIVITY MUD AT BHT
 BHT .F                60:   BOTTOM HOLE TEMPERATURE
 TCS .HRS               2:   TIME CURCULATED STOPPED
 TLAB.HRS                :   TIME LOGGER AT BOTTOM
 MRT .F                60:   MAXIMUM RECORDED TEMPERATURE
 LUN .               0716:   LOGGING UNIT NUMBER
 LUL .             VERNAL:   LOGGING UNIT LOCATION
 ENGI.           CALLAHAN:   RECORDING ENGINEER
 WITN.         STUEBINGER:   WITNESSED BY
 CLNT.            A2DTECH:   CLIENT CODE
 ORIG.       2", 5" PRINT:   ORIGIN OF DATA
 UWI .       490251030800:   UNIQUE WELL ID
 DICO. A2D Technologies, Inc.:   DIGITIZING COMPANY
 OS  .                   :   OTHER SERVICES
 PWI .                   :   PRIMARY WELL IDENTIFIER
 R1  .                   :   REMARKS 1
 R2  .                   :   REMARKS 2
 LSRV.                   :   LOG MNEMONIC
~OTHER INFORMATION
~A   DEPT      SPR        ILD        ILM       SGRD       CALD       CORR       RHOB       DPHI        GRD   
# ...
  212.5000   -36.9371     9.5169    10.4722    12.1267     7.8189     0.0320     2.5006     0.0890   116.4653
  213.0000   -37.0931     9.5798    10.4693    12.7901     7.8186     0.0320     2.4983     0.0914   116.4653
  213.5000   -36.8000     9.6425    10.4664    12.6079     7.8182     0.0319     2.4960     0.0935   117.6737
  214.0000   -36.5040     9.7097    10.5364    12.1739     7.8330     0.0319     2.4915     0.0992   119.6495
  214.5000   -36.3597     9.7703    10.6797    11.8366     7.8476     0.0183     2.4847     0.1034   117.2205
  215.0000   -36.6672     9.7663    10.7517    12.0802     7.8622     0.0032     2.4712     0.1106   118.1269
  215.5000   -36.5214     9.8309    11.1265    13.4903     7.8620     0.0046     2.4545     0.1176   119.4864
  216.0000   -36.3785     9.8967    11.3569    14.2531     7.8617     0.0091     2.4479     0.1212   119.9396
  216.5000   -35.9338    10.0306    11.5967    13.8567     7.8614     0.0181     2.4584     0.1182   119.9396
  217.0000   -37.1423    10.1671    11.9961    13.8512     7.8610     0.0256     2.4606     0.1167   118.5801
  217.5000   -37.1481    10.4491    12.1608    14.1363     7.8458     0.0346     2.4554     0.1170   119.7885
  218.0000   -36.4031    10.7382    12.3270    14.4287     7.8155     0.0511     2.4621     0.1166   118.7130
  218.5000   -35.8069    10.9599    12.4955    14.6228     7.7703     0.0812     2.4757     0.1116   116.7674
  219.0000   -36.4147    11.0333    12.5780    14.2174     7.6952     0.1007     2.4937     0.0984   115.4079
  219.5000   -37.1713    11.3385    12.5747    14.2103     7.5901     0.1146     2.5189     0.0873   114.6526
  220.0000   -37.3273    11.4928    12.7701    14.5028     7.4980     0.1322     2.5335     0.0801   114.1994
  220.5000   -37.4846    11.6564    13.5611    15.2171     7.4248     0.1337     2.5268     0.0741   113.8973
  221.0000   -37.6406    12.0546    13.7473    15.8579     7.4395     0.1110     2.5080     0.0747   112.8399
  221.5000   -37.4948    12.1353    13.9342    15.8500     7.4991     0.0583     2.5004     0.0880   110.7190
  222.0000   -37.2003    12.2995    14.0282    16.0646     7.6335     0.0206     2.4967     0.0900   110.2719
  222.5000   -37.0559    12.3808    14.1210    16.1789     7.7679     0.0055     2.4929     0.0960   111.3293
  223.0000   -36.7629    12.5493    14.3191    16.3870     7.8126    -0.0022     2.4884     0.1036   113.1420
  223.5000   -36.1577    12.6323    14.5095    17.0754     7.8572    -0.0142     2.4759     0.1105   113.7462
  224.0000   -35.8736    12.7158    14.7078    17.1889     7.8419    -0.0067     2.4463     0.1222   113.8973
  224.5000   -36.3313    12.7105    14.8060    16.8271     7.8566     0.0038     2.4718     0.1105   113.8973
  225.0000   -36.4858    12.7063    14.8010    16.9375     7.8563     0.0098     2.4846     0.1057   113.2931
  225.5000   -36.0411    12.7021    14.7971    17.0481     7.8560     0.0143     2.4846     0.1042   113.1420
  226.0000   -35.7466    12.6978    14.7931    17.1597     7.8557     0.0187     2.4823     0.1036   113.4441
  226.5000   -35.4536    12.6936    14.7891    16.3395     7.8554     0.0233     2.4822     0.1033   114.6526
  227.0000   -35.1481    12.6782    14.7843    16.3330     7.8551     0.0277     2.4853     0.1021   114.8036
  227.5000   -35.0147    12.5966    14.6784    16.6692     7.8547     0.0337     2.4908     0.1000   113.7462
  228.0000   -35.9229    12.5055    14.4728    16.6625     7.8544     0.0366     2.4966     0.0943   113.2931
  228.5000   -36.0788    12.3294    14.3692    15.9780     7.8542     0.0275     2.4996     0.0925   113.1420
  229.0000   -36.0846    12.2402    14.3653    16.1980     7.8389     0.0335     2.5026     0.0929   112.5015
  229.5000   -35.9402    12.2361    14.2624    16.6425     7.8386     0.0336     2.5018     0.0935   110.2719
  230.0000   -35.7958    12.1475    14.1594    17.1031     7.8084     0.0318     2.4988     0.0893   106.6465
  230.5000   -35.6515    12.0588    14.1556    17.6968     7.8081     0.0274     2.4950     0.0983   107.7039
  231.0000   -35.6588    11.8889    14.1518    16.1668     7.7928     0.0273     2.4904     0.1004   109.2145
  231.5000   -35.9649    11.8030    14.0505    15.1854     7.8075     0.0303     2.4807     0.1013   110.4230
  232.0000   -36.2710    11.7990    13.8537    15.9316     7.8071     0.0272     2.4747     0.1016   111.0272
  232.5000   -36.4269    11.7951    13.8500    15.5711     7.8069     0.0212     2.4755     0.1049   111.3444
  233.0000   -36.4327    11.7912    13.6446    14.8523     7.8066     0.0181     2.4762     0.1047   111.4804
  233.5000   -36.2884    11.7871    13.4638    15.1580     7.8213     0.0196     2.4747     0.1074   111.1782
  234.0000   -36.1440    11.7823    13.4602    15.5775     7.8359     0.0150     2.4747     0.1095   110.5740
  234.5000   -36.1513    11.7784    13.3638    15.6811     7.8506     0.0044     2.4687     0.1146   106.6465
  235.0000   -36.1571    11.7745    13.3603    15.0353     7.8503     0.0059     2.4423     0.1236   106.4955
  235.5000   -36.1629    11.7706    13.2646    14.7203     7.8500     0.0088     2.4551     0.1191   106.6465
  236.0000   -36.1687    11.7666    13.2610    14.8302     7.8497     0.0178     2.4754     0.1083   105.9819
  236.5000   -36.3246    11.7626    13.2567    15.3310     7.8494     0.0072     2.4573     0.1184   104.6828
  237.0000   -36.4806    11.6767    12.9808    15.6481     7.8341     0.0042     2.4385     0.1237   106.4955
  237.5000   -36.7868    11.5922    12.6231    15.3187     7.8488     0.0072     2.4130     0.1345   108.0060
  238.0000   -36.7939    11.4290    12.4463    14.3874     7.8484     0.0131     2.4242     0.1321   109.2145
  238.5000   -36.7997    11.3463    12.4430    13.9887     7.8482     0.0176     2.4415     0.1243   108.7613
  239.0000   -36.6554    11.3425    12.3539    14.0835     7.8479     0.0176     2.4484     0.1213   107.8550
  239.5000   -36.3594    11.1828    12.3408    14.2709     7.8476     0.0160     2.4393     0.1201   107.4018
  240.0000   -36.2151    11.0244    12.2613    14.2638     7.8473     0.0130     2.4280     0.1306   107.2508
  240.5000   -36.2223    10.7941    12.2580    14.1597     7.8470     0.0129     2.4347     0.1278   107.2508
  241.0000   -36.2152    10.6421    12.1703    13.9593     7.8317     0.0098     2.4400     0.1243   107.2508
  241.5000   -36.0838    10.6386    12.0831    13.3858     7.8464     0.0023     2.4242     0.1301   106.7976
  242.0000   -35.9408    10.6350    12.0799    13.1964     7.8461    -0.0053     2.4234     0.1388   106.1934
  242.5000   -35.9466    10.5581    11.9107    14.0394     7.8308    -0.0054     2.4257     0.1397   105.7402
  243.0000   -36.2527    10.4816    11.8246    13.4626     7.8305    -0.0054     2.4249     0.1331   105.4320
  243.5000   -36.2585    10.4774    11.7399    14.1243     7.8302     0.0006     2.4242     0.1367   105.1359
  244.0000   -36.2643    10.4739    11.6559    14.1186     7.8299     0.0081     2.4467     0.1317   105.1359
  244.5000   -36.4339    10.4704    11.6528    12.4590     7.8283     0.0188     2.4527     0.1184   105.2870
  245.0000   -36.8780    10.4669    11.6497    12.2827     7.7993     0.0321     2.4602     0.1169   105.4381
  245.5000   -37.0325    10.4634    11.7275    13.0673     7.7841     0.0366     2.4634     0.1148   105.5891
  246.0000   -36.5893    10.4599    11.9790    12.9720     7.7688     0.0124     2.4429     0.1217   105.7402
  246.5000   -36.2933    10.3118    11.8837    14.5853     7.7236     0.0018     2.4369     0.1283   105.8942
  247.0000   -36.7510    10.2372    11.1632    14.0833     7.6635     0.0183     2.4459     0.1277   106.0423
  247.5000   -37.2073    10.2338    10.8556    12.0883     7.6632     0.0319     2.4534     0.1302   106.4955
  248.0000   -37.0491    10.2304    11.1573    12.0013     7.6806     0.0099     2.4391     0.1285   106.6465
  248.5000   -36.6183    10.2270    11.4675    13.3085     7.7823     0.0197     2.4384     0.1239   106.4955
