~VERSION INFORMATION
 VERS.                2.0:   CWLS LOG ASCII STANDARD - VERSION 2.0
 WRAP.                 NO:   ONE LINE PER DEPTH STEP
~WELL INFORMATION
#MNEM.UNIT      DATA TYPE    INFORMATION
#----------   ------------   ------------------------------
 STRT.F           38.0000:   START DEPTH
 STOP.F          517.0000:   STOP DEPTH
 STEP.F            0.5000:   STEP LENGTH
 NULL.          -999.2500:   NO VALUE
 COMP. FENIX & SCISSON U.S. NAVY:   COMPANY
 WELL.     NPR 3 #88 S -3:   WELL
 FLD .             TEAPOT:   FIELD
 LOC .       S3 T38N R78W:   LOCATION
 CNTY.            NATRONA:   COUNTY
 STAT.            WYOMING:   STATE
 CTRY. UNITED STATES OF AMERICA:   COUNTRY
 SRVC.              Welex:   SERVICE COMPANY
 DATE.        10-APR-1977:   LOGDATE
 API .       490251033000:   API NUMBER
~CURVE INFORMATION
#MNEM.UNIT       API CODE    CURVE DESCRIPTION
#----------   ------------   ------------------------------
 DEPT.F                  :   
 GRD .GAPI   45 310 01 00:   GAMMA RAY FROM DENSITY LOG
 CALD.IN     45 280 60 00:   CALIPER FROM DENSITY LOG
 CORR.G/C3   45 356 01 00:   DENSITY CORRECTION
 RHOB.G/C3   45 350 01 00:   BULK DENSITY
 DPHI.DEC    45 890 12 00:   DENSITY POROSITY SANDSTONE
 SPR .MV     07 010 01 00:   SPONTANEOUS POTENTIAL
 ILD .OHMM   07 120 46 00:   INDUCTION LOG DEEP
 ILM .OHMM   07 120 44 00:   INDUCTION LOG MEDIUM
 SGRD.OHMM   07 221 05 00:   SHALLOW SHORT GUARD RESISTIVITY
~PARAMETER INFORMATION
#MNEM.UNIT          VALUE    DESCRIPTION
#----------   ------------   ------------------------------
 PD  .                 GL:   PERMANENT DATUM
 EPD .F              5120:   ELEVATION PERMANENT DATUM
 LMF .                 GL:   LOG MEASURED FROM
 DMF .                 GL:   DRILLING MEASURED FROM
 EGL .F              5120:   GROUND LEVEL
 DATE.        10-APR-1977:   RUN DATE
 RUN .                  1:   RUN NUMBER
 DD  .F               520:   DEPTH DRILLER
 DL  .F               519:   DEPTH LOGGER
 BLI .F               517:   BOTTOM LOG INTERVAL
 TLI .F                40:   TOP LOG INTERVAL
 CS  .IN            8.625:   CASING SIZE
 CBD .F                40:   CASING BOTTOM DRILLER
 CBL .F                42:   CASING BOTTOM LOGGER
 BS  .IN            7.875:   BIT SIZE
 BSD .F               520:   BIT SIZE AT DEPTH
 DFT .           KCL- GEL:   DRILLING FLUID TYPE
 DFD .                8.8:   DRILLING FLUID DENSITY
 DFV .                 38:   DRILLING FLUID VISCOSITY
 DFPH.                8.0:   DRILLING FLUID PH
 DFL .                6.4:   DRILLING FLUID LOSS
 MSS .            MUD PIT:   MUD SAMPLE SOURCE
 RMS .OHMM            .28:   RESISTIVITY MUD SAMPLE
 MST .F                55:   MUD SAMPLE TEMPERATURE
 RMF .OHMM            .23:   RESISTIVITY MUD FILTRATE SAMPLE
 MFST.F                55:   MUD FILTRATE SAMPLE TEMPERATURE
 RMC .OHMM            .32:   RESISTIVITY MUD CAKE
 MCST.F                55:   MUD CAKE SAMPLE TEMPERATURE
 MFSS.               MEAS:   MUD FILTRATE SAMPLE SOURCE
 MCSS.               MEAS:   MUD CAKE SAMPLE SOURCE
 RMB .OHMM            .24:   RESISTIVITY MUD AT BHT
 BHT .F                65:   BOTTOM HOLE TEMPERATURE
 TCS .HRS            0300:   TIME CURCULATED STOPPED
 MRT .F                65:   MAXIMUM RECORDED TEMPERATURE
 LUN .               0716:   LOGGING UNIT NUMBER
 LUL .             VERNAL:   LOGGING UNIT LOCATION
 ENGI.        E. CALLAHAN:   RECORDING ENGINEER
 WITN.            R. LYON:   WITNESSED BY
 CLNT.            A2DTECH:   CLIENT CODE
 ORIG.           5" PRINT:   ORIGIN OF DATA
 UWI .       490251033000:   UNIQUE WELL ID
 DICO. A2D Technologies, Inc.:   DIGITIZING COMPANY
~OTHER INFORMATION
~A   DEPT       GRD        CALD     CORR         RHOB     DPHI        SPR        ILD        ILM       SGRD   
# ...
  184.0000   112.1166     7.9815     0.0009     2.4476     0.1229   -30.2943     7.9134     8.5633    12.6520
  184.5000   112.2805     7.9676    -0.0004     2.4386     0.1277   -30.3166     7.8492     8.4967    12.3799
  185.0000   113.0405     7.9686     0.0027     2.4304     0.1340   -30.3344     7.7378     8.4883    12.1985
  185.5000   114.6947     7.9697     0.0073     2.4297     0.1273   -30.3523     7.6770     8.4224    12.3596
  186.0000   116.0508     7.9707     0.0135     2.4418     0.1222   -30.3701     7.6179     8.3570    12.7875
  186.5000   116.8108     7.9569     0.0181     2.4501     0.1201   -30.5385     7.5067     8.2345    12.8691
  187.0000   117.5708     7.9579     0.0197     2.4528     0.1204   -30.5563     7.4490     8.1705    12.3291
  187.5000   117.8838     7.9739     0.0184     2.4476     0.1209   -30.7247     7.3403     8.1071    11.7322
  188.0000   117.6005     7.9452     0.0140     2.4379     0.1245   -31.0438     7.1829     7.9328    11.9703
  188.5000   116.8702     7.9462     0.0096     2.4327     0.1293   -31.0616     6.9316     7.7082    12.2133
  189.0000   116.1399     7.9323     0.0083     2.4301     0.1317   -31.2300     6.6891     7.4380    12.0234
  189.5000   115.4096     7.9334     0.0084     2.4302     0.1323   -31.2478     6.5002     7.2781    11.2123
  190.0000   115.5735     7.9344     0.0100     2.4362     0.1268   -31.5669     6.3167     6.9257    10.5217
  190.5000   117.3768     7.9355     0.0132     2.4449     0.1220   -31.7353     6.1813     6.6363     9.4691
  191.0000   118.5839     7.9365     0.0118     2.4517     0.1184   -31.7531     6.1766     6.6309     8.6414
  191.5000   119.3439     7.9375     0.0089     2.4563     0.1184   -31.9215     6.1290     6.6784     8.4574
  192.0000   119.9548     7.9386     0.0061     2.4439     0.1244   -31.7887     6.1673     6.8060    10.9351
  192.5000   120.1187     7.9396     0.0047     2.4339     0.1288   -31.9579     6.2918     6.8959    11.5553
  193.0000   119.0904     7.9407     0.0048     2.4279     0.1348   -31.9794     6.6015     6.9884    11.4632
  193.5000   117.9130     7.9417     0.0058     2.4276     0.1333   -31.9973     6.7359     7.1302    11.1388
  194.0000   116.7356     7.9427     0.0081     2.4299     0.1297   -32.1657     6.8254     7.1742    11.1296
  194.5000   115.7072     7.9438     0.0105     2.4348     0.1273   -32.1835     6.9160     7.2185    11.1983
  195.0000   115.4240     7.9448     0.0129     2.4401     0.1239   -32.3519     7.0078     7.3635    11.3462
  195.5000   116.6311     7.9459     0.0115     2.4507     0.1215   -32.5203     7.1022     7.4607    11.6575
  196.0000   117.2421     7.9469     0.0064     2.4579     0.1200   -32.6888     7.2455     7.5609    11.7294
  196.5000   116.2137     7.9330     0.0021     2.4531     0.1218   -32.7066     7.2910     7.6594    11.8018
  197.0000   114.7383     7.9341    -0.0038     2.4339     0.1260   -32.8750     7.2852     7.7065    11.7896
  197.5000   114.9021     7.9351    -0.0074     2.4287     0.1307   -33.0434     7.2287     7.5934    11.9454
  198.0000   115.9602     7.9361    -0.0088     2.4288     0.1334   -33.3625     7.1731     7.5843    11.9355
  198.5000   115.5280     7.9372    -0.0086     2.4243     0.1355   -33.5309     7.1677     7.5216    11.6789
  199.0000   114.4996     7.9382    -0.0070     2.4221     0.1355   -33.6993     7.0631     7.3649    11.4277
  199.5000   113.6203     7.9393    -0.0054     2.4259     0.1334   -33.8677     6.9117     7.3077    11.1820
  200.0000   113.4861     7.9403    -0.0013     2.4292     0.1327   -34.0361     6.7166     7.2405    10.6347
  200.5000   114.6918     7.9353     0.0023     2.4223     0.1342   -34.2041     6.6635     7.0939    10.3421
  201.0000   115.3014     7.9304     0.0069     2.4261     0.1345   -34.2190     6.5658     6.8385    10.8491
  201.5000   114.1225     7.9289     0.0101     2.4247     0.1357   -34.2339     6.3799     6.5100    10.9188
  202.0000   112.0494     7.9301     0.0132     2.4187     0.1369   -34.5500     6.1993     6.2007    10.6826
  202.5000   109.5293     7.9313     0.0148     2.4187     0.1383   -34.5649     5.9404     5.9009    10.3088
  203.0000   108.6485     7.9325     0.0119     2.4188     0.1404   -34.7304     5.6135     5.5765     9.8790
  203.5000   110.0793     7.9337     0.0045     2.4083     0.1434   -34.8959     5.4546     5.4190     9.3360
  204.0000   109.5710     7.9349    -0.0014     2.4016     0.1497   -35.2120     5.4122     5.3783     8.6353
  204.5000   107.9451     7.9361    -0.0043     2.4002     0.1518   -35.0726     5.4078     5.5252     7.5311
  205.0000   107.1388     7.9373    -0.0057     2.4010     0.1496   -35.0912     5.4413     5.7169     6.9988
  205.5000   107.9719     7.9385    -0.0041     2.4085     0.1436   -34.9548     5.5131     5.9566     9.0694
  206.0000   109.3265     7.9398    -0.0040     2.4184     0.1376   -34.8198     5.6642     6.1632    10.1811
  206.5000   110.8302     7.9409    -0.0039     2.4274     0.1310   -34.6837     5.8195     6.4217    10.3904
  207.0000   111.7378     7.9421    -0.0023     2.4342     0.1276   -34.5482     6.0224     6.6444    10.6000
  207.5000   112.4218     7.9434     0.0030     2.4298     0.1270   -34.2621     6.2803     6.8750    11.0444
  208.0000   113.2549     7.9444     0.0084     2.4351     0.1258   -34.1264     6.5416     7.1135    11.5880
  208.5000   114.0879     7.9457     0.0123     2.4464     0.1225   -33.9804     6.6683     7.2583    11.5793
  209.0000   114.7719     7.9468     0.0131     2.4592     0.1170   -33.8550     6.8498     7.3036    11.4901
  209.5000   113.8166     7.9480     0.0125     2.4518     0.1188   -33.8699     6.9902     7.4005    11.4016
  210.0000   112.4888     7.9492     0.0096     2.4466     0.1212   -33.7342     7.1805     7.4988    11.2352
  210.5000   113.3217     7.9504     0.0074     2.4459     0.1218   -33.5985     7.3262     7.6009    12.1216
  211.0000   115.4961     7.9516     0.0076     2.4534     0.1188   -33.6171     7.4245     7.6992    12.1995
  211.5000   117.5214     7.9379     0.0077     2.4527     0.1193   -33.6320     7.5752     7.8093    12.1032
  212.0000   118.9506     7.9391     0.0115     2.4453     0.1223   -33.4963     7.6736     7.9587    12.0941
  212.5000   118.5914     7.9402     0.0177     2.4453     0.1196   -33.5112     7.7766     8.0644    12.4267
  213.0000   117.8596     7.9414     0.0252     2.4604     0.1148   -33.3718     7.8245     8.1162    12.5919
  213.5000   117.1295     7.9426     0.0306     2.4740     0.1081   -33.3904     7.8727     8.2239    12.4947
  214.0000   116.6958     7.9438     0.0322     2.4823     0.1003   -33.5559     7.9213     8.2752    12.3984
  214.5000   116.7092     7.9450     0.0270     2.4876     0.0976   -33.5708     7.9131     8.3850    12.4774
  215.0000   116.8716     7.9462     0.0152     2.4802     0.1042   -33.5857     7.9065     8.4947    13.0898
  215.5000   117.3320     7.9474     0.0100     2.4667     0.1102   -33.7512     7.9000     8.5493    13.1714
  216.0000   118.6867     7.9486     0.0108     2.4716     0.1101   -33.7661     7.8935     8.6611    12.9788
  216.5000   119.8923     7.9498     0.0155     2.4751     0.1044   -33.7810     7.8870     8.7168    12.8792
  217.0000   120.7999     7.9510     0.0201     2.4781     0.1011   -33.9465     7.8257     8.7695    13.4167
  217.5000   121.5584     7.9522     0.0247     2.4883     0.0981   -34.1120     7.8191     8.7628    13.1290
  218.0000   122.1679     7.9384     0.0270     2.4921     0.0959   -34.2775     7.8126     8.7562    13.0279
  218.5000   122.4794     7.9396     0.0271     2.4937     0.0953   -34.4430     7.7521     8.7496    13.1116
  219.0000   121.8966     7.9408     0.0257     2.4930     0.0965   -34.4579     7.7999     8.6822    13.2856
  219.5000   120.5687     7.9420     0.0228     2.4859     0.0998   -34.6235     7.8480     8.6153    12.9983
  220.0000   119.3899     7.9283     0.0229     2.4754     0.1025   -34.6385     7.8963     8.4896    12.9885
