~VERSION INFORMATION
 VERS.                2.0:   CWLS LOG ASCII STANDARD - VERSION 2.0
 WRAP.                 NO:   ONE LINE PER DEPTH STEP
~WELL INFORMATION
#MNEM.UNIT      DATA TYPE    INFORMATION
#----------   ------------   ------------------------------
 STRT.F           14.0000:   START DEPTH
 STOP.F          581.5000:   STOP DEPTH
 STEP.F            0.5000:   STEP LENGTH
 NULL.          -999.2500:   NO VALUE
 COMP. LAWRENCE/ALLISON INC:   COMPANY
 WELL.   41-11 STX #10-10:   WELL
 FLD .              NPR 3:   FIELD
 LOC .      S10 T38N R78W:   LOCATION
 CNTY.            NATRONA:   COUNTY
 STAT.            WYOMING:   STATE
 CTRY. UNITED STATES OF AMERICA:   COUNTRY
 SRVC.           Gearhart:   SERVICE COMPANY
 DATE.        03-JUL-1986:   LOGDATE
 API .       490251107900:   API NUMBER
~CURVE INFORMATION
#MNEM.UNIT       API CODE    CURVE DESCRIPTION
#----------   ------------   ------------------------------
 DEPT.F                  :   
 GRR .GAPI   07 310 01 00:   GAMMA RAY FROM RES. LOG.
 RILM.OHMM   07 120 44 00:   INDUCTION LOG MEDIUM RESISTIVITY
 RILD.OHMM   07 120 46 00:   INDUCTION LOG DEEP RESISTIVITY
~PARAMETER INFORMATION
#MNEM.UNIT          VALUE    DESCRIPTION
#----------   ------------   ------------------------------
 PD  .                 GL:   PERMANENT DATUM
 EPD .F              5233:   ELEVATION PERMANENT DATUM
 LMF .                 KB:   LOG MEASURED FROM
 DAPD.F                 5:   FEET ABOVE PERMANENT DATUM
 DMF .                 KB:   DRILLING MEASURED FROM
 EKB .F              5238:   KELLING BUSHING
 EGL .F              5233:   GROUND LEVEL
 DATE.             7-3-86:   RUN DATE
 RUN .                  1:   RUN NUMBER
 DD  .F               590:   DEPTH DRILLER
 DL  .F               591:   DEPTH LOGGER
 BLI .F               581:   BOTTOM LOG INTERVAL
 TLI .F                14:   TOP LOG INTERVAL
 CS  .IN            8.625:   CASING SIZE
 CBD .F                47:   CASING BOTTOM DRILLER
 CBL .F                47:   CASING BOTTOM LOGGER
 BS  .IN            7.875:   BIT SIZE
 BSD .F               590:   BIT SIZE AT DEPTH
 DFT .                AIR:   DRILLING FLUID TYPE
 TCS .HRS            0900:   TIME CURCULATED STOPPED
 TLAB.HRS            1100:   TIME LOGGER AT BOTTOM
 MRT .F                80:   MAXIMUM RECORDED TEMPERATURE
 LUN .               7609:   LOGGING UNIT NUMBER
 LUL .           GILLETTE:   LOGGING UNIT LOCATION
 ENGI.              BAUER:   RECORDING ENGINEER
 WITN.              FIVAS:   WITNESSED BY
 CLNT.            A2DTECH:   CLIENT CODE
 ORIG.       2", 5" PRINT:   ORIGIN OF DATA
 UWI .       490251107900:   UNIQUE WELL ID
 DICO. A2D Technologies, Inc.:   DIGITIZING COMPANY
~OTHER INFORMATION
~A   DEPT       GRR      RILM       RILD   
# ...
  378.0000    80.9552    18.3941    19.6376
  378.5000    80.2031    18.4283    19.6772
  379.0000    79.4403    18.4624    19.7169
  379.5000    79.4635    18.4729    19.7221
  380.0000    79.6355    18.4043    19.5676
  380.5000    81.0156    18.3423    19.3540
  381.0000    82.9127    18.2802    19.1423
  381.5000    83.5576    18.2183    18.9304
  382.0000    82.7603    18.1567    18.6468
  382.5000    81.1664    18.0953    18.6619
  383.0000    80.7289    18.0341    18.6839
  383.5000    80.5508    17.9730    18.7059
  384.0000    80.9403    17.9122    18.7279
  384.5000    82.3584    17.8516    18.7500
  385.0000    83.8639    17.7963    18.7718
  385.5000    84.9265    17.8619    18.7941
  386.0000    84.1367    17.9241    18.8188
  386.5000    82.1737    17.9631    18.5715
  387.0000    81.0974    17.6845    18.2459
  387.5000    81.0305    17.4512    17.9253
  388.0000    81.1597    17.2210    17.6104
  388.5000    81.3075    16.9938    17.3001
  389.0000    80.5174    16.7696    16.9818
  389.5000    79.8580    16.5482    16.9850
  390.0000    80.3362    16.3300    16.7596
  390.5000    81.3708    16.1527    16.6180
  391.0000    82.7945    16.0256    16.4776
  391.5000    82.1279    15.8994    16.3384
  392.0000    81.1342    15.7743    16.2004
  392.5000    80.1519    15.6501    16.0635
  393.0000    80.5736    15.5269    15.9278
  393.5000    82.9962    15.4047    15.7932
  394.0000    85.5463    15.2834    15.6598
  394.5000    83.7084    15.1631    15.5275
  395.0000    81.2314    15.0438    15.3964
  395.5000    79.7463    14.9254    15.2663
  396.0000    79.6160    14.7161    15.1374
  396.5000    81.3102    14.6388    15.0423
  397.0000    81.0164    14.5618    15.0060
  397.5000    79.5441    14.4853    14.9520
  398.0000    79.0089    14.4092    14.8986
  398.5000    79.8999    14.3334    14.8454
  399.0000    80.9585    14.2581    14.7924
  399.5000    82.1594    14.1831    14.7633
  400.0000    84.1055    14.1086    14.7921
  400.5000    87.4925    14.0340    14.8120
  401.0000    91.1848    13.9582    14.8319
  401.5000    92.7535    14.0338    14.8519
  402.0000    89.7743    14.1315    14.8718
  402.5000    86.1133    14.2295    14.8918
  403.0000    82.3115    14.3282    14.9152
  403.5000    79.7679    14.4276    14.9419
  404.0000    78.0299    14.5276    14.9687
  404.5000    79.8371    14.6284    14.9956
  405.0000    82.0977    14.7633    15.0225
  405.5000    83.7866    14.6339    15.0417
  406.0000    82.5956    14.4434    14.9300
  406.5000    80.2080    14.2554    14.7149
  407.0000    79.8684    14.0698    14.5028
  407.5000    80.2742    13.8866    14.2938
  408.0000    81.7291    13.7058    14.0878
  408.5000    83.1717    13.5273    13.8848
  409.0000    84.8328    13.3512    13.7600
  409.5000    87.0479    13.1774    13.6652
  410.0000    89.2529    13.0751    13.5711
  410.5000    91.4305    13.0461    13.4776
  411.0000    91.9955    13.0111    13.4467
  411.5000    90.3234    12.9762    13.5226
  412.0000    88.6752    12.9536    14.1527
  412.5000    87.0239    13.5282    14.8121
  413.0000    83.9619    14.1183    15.4948
  413.5000    80.4696    14.7341    16.6688
  414.0000    76.9666    15.6775    18.0086
  414.5000    73.4489    17.4626    19.5384
  415.0000    71.2162    19.4509    21.5293
  415.5000    69.5187    21.6657    23.8550
  416.0000    67.8265    24.1326    26.4354
  416.5000    65.1493    26.8804    29.2729
  417.0000    62.1715    29.9411    32.0920
  417.5000    60.0510    32.1271    33.0278
  418.0000    57.9427    33.3951    33.9031
  418.5000    56.1623    34.7132    33.2989
  419.0000    58.7988    35.5241    32.7992
  419.5000    62.1941    33.7172    32.2566
  420.0000    65.9735    32.3474    31.2831
  420.5000    69.7520    31.0332    30.3390
  421.0000    72.1569    29.6521    29.4233
  421.5000    73.3267    27.8488    28.5353
  422.0000    74.0562    27.1616    27.6741
  422.5000    73.1726    26.5828    27.0133
  423.0000    71.7924    26.0732    26.7531
  423.5000    70.6426    25.8099    26.4955
  424.0000    70.7522    25.5526    26.2253
  424.5000    71.4486    25.2983    25.9369
  425.0000    71.9512    25.0463    25.6516
  425.5000    71.2471    24.7968    25.3695
  426.0000    69.4403    24.5498    25.0904
  426.5000    67.6400    24.3052    24.8145
  427.0000    68.2856    24.0631    24.5434
  427.5000    70.7402    23.8234    24.3368
  428.0000    73.1545    23.5861    24.1052
  428.5000    75.5607    23.3511    23.8725
  429.0000    76.8882    23.1157    23.6426
  429.5000    76.8703    22.8834    23.4149
  430.0000    75.8434    22.4991    23.1894
  430.5000    74.6921    22.1225    22.9661
  431.0000    73.5504    21.7522    22.7449
  431.5000    72.3789    21.3881    22.4184
  432.0000    73.0567    21.0301    22.0597
  432.5000    74.5908    20.6782    21.7067
  433.0000    75.9216    20.3321    21.3594
  433.5000    76.6877    20.0543    21.0177
  434.0000    77.4690    19.9241    20.7885
  434.5000    78.2431    19.7947    20.6566
  435.0000    78.0383    19.6662    20.5255
  435.5000    75.9951    19.5385    20.3952
  436.0000    74.0302    19.4116    20.2658
  436.5000    72.3574    19.2856    20.1371
  437.0000    73.6128    19.1603    20.0093
  437.5000    75.6059    19.0358    19.9056
  438.0000    77.6155    18.9124    19.9067
  438.5000    79.5942    18.8218    19.9068
  439.0000    80.9590    18.9013    19.9068
  439.5000    79.9897    18.9644    19.9068
  440.0000    78.3522    19.0278    19.9068
  440.5000    76.7166    19.0914    19.9068
  441.0000    75.6802    19.1557    19.9068
  441.5000    74.7616    19.2242    19.9071
  442.0000    73.7998    19.2958    19.9076
  442.5000    74.4725    19.3598    19.9062
  443.0000    75.5709    19.0273    19.9095
  443.5000    76.6618    18.6077    19.3247
  444.0000    77.8174    18.1964    18.9126
  444.5000    80.7203    17.7944    18.5103
  445.0000    83.5434    17.4013    18.1164
  445.5000    86.1903    17.0171    17.7959
  446.0000    84.2140    16.6413    17.4753
  446.5000    80.9935    16.3153    17.1531
  447.0000    79.2411    16.1258    16.8368
  447.5000    77.7626    15.9386    16.5264
  448.0000    76.2786    15.7535    16.2088
  448.5000    75.3588    15.5706    16.1033
  449.0000    74.8272    15.3898    15.9663
  449.5000    74.5658    15.2612    15.8304
  450.0000    75.7886    15.1615    15.6957
  450.5000    77.7462    15.0626    15.5621
  451.0000    79.6508    14.9642    15.4297
  451.5000    79.7301    14.8665    15.1829
  452.0000    79.7184    14.7695    15.1002
  452.5000    79.7173    14.6731    15.0000
  453.0000    79.7203    14.5773    14.9006
  453.5000    79.5138    14.4821    14.8017
  454.0000    78.4989    14.3875    14.7036
  454.5000    76.3335    14.2936    14.6061
  455.0000    75.8293    14.2003    14.5092
  455.5000    79.4143    14.1076    14.4130
  456.0000    82.9550    14.0155    14.3174
  456.5000    85.8841    13.9589    14.2222
  457.0000    85.7820    13.9584    14.2468
  457.5000    85.0242    13.9586    14.2728
  458.0000    84.2577    13.9586    14.2985
  458.5000    83.4968    13.9586    14.3243
  459.0000    82.7365    13.9586    14.3502
  459.5000    81.9706    13.9586    14.3554
  460.0000    81.1910    13.9586    14.3554
  460.5000    80.6878    13.9586    14.3554
  461.0000    83.3143    13.9586    14.3553
  461.5000    86.1247    13.9587    14.3554
  462.0000    88.2552    13.9588    14.3555
  462.5000    89.3177    13.9600    14.3570
  463.0000    91.0034    13.9221    14.3210
  463.5000    93.4028    13.8484    14.2510
  464.0000    93.0262    13.7742    14.1801
  464.5000    89.4456    13.7001    14.1098
  465.0000    85.6781    13.6265    14.0398
  465.5000    83.8983    13.5533    13.9702
  466.0000    86.3282    13.4805    13.9009
  466.5000    88.7666    13.4081    13.8319
  467.0000    91.1874    13.3361    13.7633
  467.5000    93.4661    13.2644    13.6950
  468.0000    93.6130    13.1932    13.6271
  468.5000    90.8579    13.1217    13.5595
