~VERSION INFORMATION
 VERS.                2.0:   CWLS LOG ASCII STANDARD - VERSION 2.0
 WRAP.                 NO:   ONE LINE PER DEPTH STEP
~WELL INFORMATION
#MNEM.UNIT      DATA TYPE    INFORMATION
#----------   ------------   ------------------------------
 STRT.F         1208.5000:   START DEPTH
 STOP.F         3816.0000:   STOP DEPTH
 STEP.F            0.5000:   STEP LENGTH
 NULL.          -999.2500:   NO VALUE
 COMP. BROWN JOHN E&C INC:   COMPANY
 WELL. NPR 3 STX-11 #13-11:   WELL
 FLD .             TEAPOT:   FIELD
 LOC .      S11 T38N R78W:   LOCATION
 CNTY.            NATRONA:   COUNTY
 STAT.            WYOMING:   STATE
 CTRY. UNITED STATES OF AMERICA:   COUNTRY
 SRVC.            Unknown:   SERVICE COMPANY
 DATE.        08-APR-1986:   LOGDATE
 API .       490251105000:   API NUMBER
~CURVE INFORMATION
#MNEM.UNIT       API CODE    CURVE DESCRIPTION
#----------   ------------   ------------------------------
 DEPT.F                  :   
 ROP .MIN/FT 91 810 01 00:   RATE OF DRILLING PENETRATION
 TGAS.UNITS  91 830 01 00:   TOTAL GAS FROM HOTWIRE
 GR  .GAPI   81 310 01 00:   GAMMA RAY
 TT  .US/F   81 520 00 00:   TRANSIT TIME
~PARAMETER INFORMATION
#MNEM.UNIT          VALUE    DESCRIPTION
#----------   ------------   ------------------------------
 PD  .                 GL:   PERMANENT DATUM
 EPD .F              5176:   ELEVATION PERMANENT DATUM
 LMF .                 KB:   LOG MEASURED FROM
 DAPD.F              11.8:   FEET ABOVE PERMANENT DATUM
 DMF .                 KB:   DRILLING MEASURED FROM
 EKB .F            5187.8:   KELLING BUSHING
 EGL .F              5176:   GROUND LEVEL
 DATE.             4-8-86:   RUN DATE
 RUN .                  1:   RUN NUMBER
 DD  .F              4051:   DEPTH DRILLER
 DL  .F              3815:   DEPTH LOGGER
 BLI .F              3815:   BOTTOM LOG INTERVAL
 TLI .F              2200:   TOP LOG INTERVAL
 CS  .IN              5.5:   CASING SIZE
 CBD .F              3861:   CASING BOTTOM DRILLER
 DFT .              WATER:   DRILLING FLUID TYPE
 BHT .F               167:   BOTTOM HOLE TEMPERATURE
 MRT .F               167:   MAXIMUM RECORDED TEMPERATURE
 LUN .            558/374:   LOGGING UNIT NUMBER
 LUL .             CASPER:   LOGGING UNIT LOCATION
 ENGI.             BAILEY:   RECORDING ENGINEER
 WITN.             BARRON:   WITNESSED BY
 CLNT.            A2DTECH:   CLIENT CODE
 ORIG.     2.5", 5" PRINT:   ORIGIN OF DATA
 UWI .       490251105000:   UNIQUE WELL ID
 DICO. A2D Technologies, Inc.:   DIGITIZING COMPANY
~OTHER INFORMATION
~A  DEPT         ROP     TGAS         GR         TT   
# ...
 1792.5000     0.7039     5.4310  -999.2500  -999.2500
 1793.0000     0.6396     5.4310  -999.2500  -999.2500
 1793.5000     0.5754     5.4310  -999.2500  -999.2500
 1794.0000     0.5222     5.4310  -999.2500  -999.2500
 1794.5000     0.4922     5.4310  -999.2500  -999.2500
 1795.0000     0.4855     5.4310  -999.2500  -999.2500
 1795.5000     0.4850     5.4310  -999.2500  -999.2500
 1796.0000     0.4846     5.4310  -999.2500  -999.2500
 1796.5000     0.4841     5.4310  -999.2500  -999.2500
 1797.0000     0.4837     5.4310  -999.2500  -999.2500
 1797.5000     0.4832     5.4310  -999.2500  -999.2500
 1798.0000     0.4906     5.4310  -999.2500  -999.2500
 1798.5000     0.5114     5.4310  -999.2500  -999.2500
 1799.0000     0.5442     5.4310  -999.2500  -999.2500
 1799.5000     0.6002     7.7767  -999.2500  -999.2500
 1800.0000     0.6538    15.7112  -999.2500  -999.2500
 1800.5000     0.6726    21.7485  -999.2500  -999.2500
 1801.0000     0.5935    26.6434  -999.2500  -999.2500
 1801.5000     0.5505    33.3758  -999.2500  -999.2500
 1802.0000     0.5173    38.9068  -999.2500  -999.2500
 1802.5000     0.5099    39.9569  -999.2500  -999.2500
 1803.0000     0.4882    39.9569  -999.2500  -999.2500
 1803.5000     0.4774    39.9569  -999.2500  -999.2500
 1804.0000     0.4899    39.5690  -999.2500  -999.2500
 1804.5000     0.4807    39.4359  -999.2500  -999.2500
 1805.0000     0.4759    38.6832  -999.2500  -999.2500
 1805.5000     0.4755    38.2520  -999.2500  -999.2500
 1806.0000     0.4750    37.6242  -999.2500  -999.2500
 1806.5000     0.4745    36.7618  -999.2500  -999.2500
 1807.0000     0.4799    35.8992  -999.2500  -999.2500
 1807.5000     0.5006    34.1379  -999.2500  -999.2500
 1808.0000     0.5313    32.9741  -999.2500  -999.2500
 1808.5000     0.5733    32.1479  -999.2500  -999.2500
 1809.0000     0.6153    31.2168  -999.2500  -999.2500
 1809.5000     0.6639    29.9229  -999.2500  -999.2500
 1810.0000     0.7211    28.6292  -999.2500  -999.2500
 1810.5000     0.7672    27.5339  -999.2500  -999.2500
 1811.0000     0.7026    26.4297  -999.2500  -999.2500
 1811.5000     0.6251    25.1359  -999.2500  -999.2500
 1812.0000     0.5826    23.8707  -999.2500  -999.2500
 1812.5000     0.5477    23.2759  -999.2500  -999.2500
 1813.0000     0.5264    23.2759  -999.2500  -999.2500
 1813.5000     0.5166    23.3000  -999.2500  -999.2500
 1814.0000     0.4895    23.3497  -999.2500  -999.2500
 1814.5000     0.4780    23.3994  -999.2500  -999.2500
 1815.0000     0.4586    23.4491  -999.2500  -999.2500
 1815.5000     0.4393    23.4988  -999.2500  -999.2500
 1816.0000     0.4371    23.5485  -999.2500  -999.2500
 1816.5000     0.4199    23.5983  -999.2500  -999.2500
 1817.0000     0.4137    23.6480  -999.2500  -999.2500
 1817.5000     0.4005    23.6977  -999.2500  -999.2500
 1818.0000     0.4004    23.7474  -999.2500  -999.2500
 1818.5000     0.4003    23.7971  -999.2500  -999.2500
 1819.0000     0.4002    23.8468  -999.2500  -999.2500
 1819.5000     0.3809    23.8965  -999.2500  -999.2500
 1820.0000     0.3808    23.9463  -999.2500  -999.2500
 1820.5000     0.3807    23.9960  -999.2500  -999.2500
 1821.0000     0.3832    24.0517  -999.2500  -999.2500
 1821.5000     0.4090    24.0517  -999.2500  -999.2500
 1822.0000     0.4513    24.0517  -999.2500  -999.2500
 1822.5000     0.4936    24.0517  -999.2500  -999.2500
 1823.0000     0.5254    24.0517  -999.2500  -999.2500
 1823.5000     0.5465    24.0517  -999.2500  -999.2500
 1824.0000     0.5676    24.0517  -999.2500  -999.2500
 1824.5000     0.5914    24.0517  -999.2500  -999.2500
 1825.0000     0.6106    24.0517  -999.2500  -999.2500
 1825.5000     0.5889    24.0517  -999.2500  -999.2500
 1826.0000     0.5464    24.0517  -999.2500  -999.2500
 1826.5000     0.5039    24.0517  -999.2500  -999.2500
 1827.0000     0.4827    24.0517  -999.2500  -999.2500
 1827.5000     0.5400    24.0517  -999.2500  -999.2500
 1828.0000     0.6349    24.0517  -999.2500  -999.2500
 1828.5000     0.6676    24.0517  -999.2500  -999.2500
 1829.0000     0.6675    24.0517  -999.2500  -999.2500
 1829.5000     0.6482    24.0517  -999.2500  -999.2500
 1830.0000     0.6481    24.0517  -999.2500  -999.2500
 1830.5000     0.6463    24.0517  -999.2500  -999.2500
 1831.0000     0.6287    24.0517  -999.2500  -999.2500
 1831.5000     0.6286    24.0517  -999.2500  -999.2500
 1832.0000     0.6285    24.0517  -999.2500  -999.2500
 1832.5000     0.6284    24.0517  -999.2500  -999.2500
 1833.0000     0.6513    24.0517  -999.2500  -999.2500
 1833.5000     0.7071    24.0517  -999.2500  -999.2500
 1834.0000     0.7434    24.0517  -999.2500  -999.2500
 1834.5000     0.7434    24.0517  -999.2500  -999.2500
 1835.0000     0.7433    24.0517  -999.2500  -999.2500
 1835.5000     0.7432    24.0517  -999.2500  -999.2500
 1836.0000     0.7431    24.0517  -999.2500  -999.2500
 1836.5000     0.7551    24.0517  -999.2500  -999.2500
 1837.0000     0.8055    24.0517  -999.2500  -999.2500
 1837.5000     0.8790    24.0517  -999.2500  -999.2500
 1838.0000     0.9397    24.0517  -999.2500  -999.2500
 1838.5000     0.9541    24.0517  -999.2500  -999.2500
 1839.0000     0.9348    24.0517  -999.2500  -999.2500
 1839.5000     0.8962    24.0517  -999.2500  -999.2500
 1840.0000     0.8179    24.0517  -999.2500  -999.2500
 1840.5000     0.7781    24.0517  -999.2500  -999.2500
 1841.0000     0.7568    24.0517  -999.2500  -999.2500
 1841.5000     0.7551    24.0517  -999.2500  -999.2500
 1842.0000     0.7974    24.0517  -999.2500  -999.2500
 1842.5000     0.8397    24.0517  -999.2500  -999.2500
 1843.0000     0.8820    24.0517  -999.2500  -999.2500
 1843.5000     0.9244    24.0517  -999.2500  -999.2500
 1844.0000     0.8954    24.0517  -999.2500  -999.2500
 1844.5000     0.8376    24.0517  -999.2500  -999.2500
 1845.0000     0.7753    24.0517  -999.2500  -999.2500
 1845.5000     0.6935    24.0517  -999.2500  -999.2500
 1846.0000     0.6298    24.0517  -999.2500  -999.2500
 1846.5000     0.5661    24.0517  -999.2500  -999.2500
 1847.0000     0.5114    24.0517  -999.2500  -999.2500
 1847.5000     0.4689    24.0517  -999.2500  -999.2500
 1848.0000     0.4264    24.0517  -999.2500  -999.2500
 1848.5000     0.3988    24.0517  -999.2500  -999.2500
 1849.0000     0.3752    24.0517  -999.2500  -999.2500
 1849.5000     0.3559    24.0517  -999.2500  -999.2500
 1850.0000     0.3558    24.0517  -999.2500  -999.2500
 1850.5000     0.3557    24.0517  -999.2500  -999.2500
 1851.0000     0.3611    24.0517  -999.2500  -999.2500
 1851.5000     0.3822    24.0517  -999.2500  -999.2500
 1852.0000     0.4128    23.7673  -999.2500  -999.2500
 1852.5000     0.4551    23.6638  -999.2500  -999.2500
 1853.0000     0.4974    23.6638  -999.2500  -999.2500
 1853.5000     0.5282    23.6509  -999.2500  -999.2500
 1854.0000     0.5665    23.2759  -999.2500  -999.2500
 1854.5000     0.5857    23.2759  -999.2500  -999.2500
 1855.0000     0.5856    23.2759  -999.2500  -999.2500
 1855.5000     0.5814    23.2759  -999.2500  -999.2500
 1856.0000     0.5601    23.2759  -999.2500  -999.2500
 1856.5000     0.5468    23.2759  -999.2500  -999.2500
 1857.0000     0.5467    23.2759  -999.2500  -999.2500
 1857.5000     0.5466    23.2759  -999.2500  -999.2500
 1858.0000     0.5465    23.2759  -999.2500  -999.2500
 1858.5000     0.5464    23.2759  -999.2500  -999.2500
 1859.0000     0.5656    23.2759  -999.2500  -999.2500
 1859.5000     0.5871    23.2759  -999.2500  -999.2500
 1860.0000     0.6667    23.2759  -999.2500  -999.2500
 1860.5000     0.7090    23.2759  -999.2500  -999.2500
 1861.0000     0.7383    23.2759  -999.2500  -999.2500
 1861.5000     0.7382    23.2759  -999.2500  -999.2500
 1862.0000     0.7381    23.2759  -999.2500  -999.2500
 1862.5000     0.7380    23.2759  -999.2500  -999.2500
 1863.0000     0.7523    23.2759  -999.2500  -999.2500
 1863.5000     0.7762    23.2759  -999.2500  -999.2500
 1864.0000     0.7954    23.2759  -999.2500  -999.2500
 1864.5000     0.8370    23.2759  -999.2500  -999.2500
 1865.0000     0.8914    23.2759  -999.2500  -999.2500
