~VERSION INFORMATION
 VERS.                2.0:   CWLS LOG ASCII STANDARD - VERSION 2.0
 WRAP.                 NO:   ONE LINE PER DEPTH STEP
~WELL INFORMATION
#MNEM.UNIT      DATA TYPE    INFORMATION
#----------   ------------   ------------------------------
 STRT.F          610.5000:   START DEPTH
 STOP.F         2311.0000:   STOP DEPTH
 STEP.F            0.5000:   STEP LENGTH
 NULL.          -999.2500:   NO VALUE
 COMP. BROWN JOHN E&C INC:   COMPANY
 WELL.  48-1SHX-34 #48-34:   WELL
 FLD .             TEAPOT:   FIELD
 LOC .      S34 T39N R78W:   LOCATION
 CNTY.            NATRONA:   COUNTY
 STAT.            WYOMING:   STATE
 CTRY. UNITED STATES OF AMERICA:   COUNTRY
 SRVC.            Unknown:   SERVICE COMPANY
 DATE.        16-SEP-1991:   LOGDATE
 API .       490251109000:   API NUMBER
~CURVE INFORMATION
#MNEM.UNIT       API CODE    CURVE DESCRIPTION
#----------   ------------   ------------------------------
 DEPT.F                  :   
 ROP .MIN/FT 91 810 01 00:   RAT OF DRILLING PENETRATION
 TGAS.UNITS  91 830 01 00:   TOTAL GAS FROM HOTWIRE
~PARAMETER INFORMATION
#MNEM.UNIT          VALUE    DESCRIPTION
#----------   ------------   ------------------------------
 EKB .F              5163:   KELLING BUSHING
 EGL .F              5152:   GROUND LEVEL
 DATE.            9-16-91:   RUN DATE
 DD  .F              2311:   DEPTH DRILLER
 TCS .HRS            0200:   TIME CURCULATED STOPPED
 TLAB.HRS            0115:   TIME LOGGER AT BOTTOM
 ENGI.             HENDRY:   RECORDING ENGINEER
 WITN.               HUSK:   WITNESSED BY
 CLNT.            A2DTECH:   CLIENT CODE
 ORIG.           5" PRINT:   ORIGIN OF DATA
 UWI .       490251109000:   UNIQUE WELL ID
 DICO. A2D Technologies, Inc.:   DIGITIZING COMPANY
~OTHER INFORMATION
~A   DEPT        ROP       TGAS 
# ...
 1825.5000     0.8103     5.0085
 1826.0000     0.8103     5.0308
 1826.5000     0.8103     5.0530
 1827.0000     0.8103     5.0753
 1827.5000     0.8103     5.0976
 1828.0000     0.8103     5.1198
 1828.5000     0.8103     5.1421
 1829.0000     0.8103     5.1644
 1829.5000     0.8103     5.1866
 1830.0000     0.8103     5.2089
 1830.5000     0.8103     5.2312
 1831.0000     0.8103     5.2535
 1831.5000     0.8103     5.2758
 1832.0000     0.8103     5.2950
 1832.5000     0.8103     5.2764
 1833.0000     0.8103     5.2533
 1833.5000     0.8103     5.2302
 1834.0000     0.8103     5.2071
 1834.5000     0.8103     5.1840
 1835.0000     0.8103     5.1609
 1835.5000     0.8103     5.1378
 1836.0000     0.8103     5.1147
 1836.5000     0.8103     5.0917
 1837.0000     0.8103     5.0686
 1837.5000     0.8103     5.0455
 1838.0000     0.8103     5.0224
 1838.5000     0.8104     4.9993
 1839.0000     0.8107     4.9762
 1839.5000     0.8081     4.9532
 1840.0000     0.7574     4.9301
 1840.5000     0.7068     4.9070
 1841.0000     0.6583     4.8839
 1841.5000     0.6150     4.8608
 1842.0000     0.5831     4.8377
 1842.5000     0.5703     4.8145
 1843.0000     0.5692     4.7910
 1843.5000     0.5678     4.7897
 1844.0000     0.5661     4.7899
 1844.5000     0.5644     4.7899
 1845.0000     0.5628     4.7899
 1845.5000     0.5611     4.7899
 1846.0000     0.5594     4.7899
 1846.5000     0.5577     4.7899
 1847.0000     0.5561     4.7899
 1847.5000     0.5544     4.7899
 1848.0000     0.5527     4.7899
 1848.5000     0.5510     4.7899
 1849.0000     0.5491     4.7899
 1849.5000     0.5479     4.7899
 1850.0000     0.5672     4.7899
 1850.5000     0.6522     4.7899
 1851.0000     0.7195     4.7899
 1851.5000     0.7536     4.7899
 1852.0000     0.7878     4.7899
 1852.5000     0.7976     4.7899
 1853.0000     0.7980     4.7899
 1853.5000     0.7990     4.7899
 1854.0000     0.7540     4.7899
 1854.5000     0.7045     4.7899
 1855.0000     0.6549     4.7899
 1855.5000     0.6068     4.7899
 1856.0000     0.6014     4.7899
 1856.5000     0.6460     4.7899
 1857.0000     0.6992     4.7899
 1857.5000     0.7515     4.7899
 1858.0000     0.8182     4.7899
 1858.5000     0.8851     4.7899
 1859.0000     0.9517     4.7899
 1859.5000     0.9805     4.7899
 1860.0000     1.0030     4.7899
 1860.5000     1.0235     4.7899
 1861.0000     1.0240     4.7899
 1861.5000     1.0239     4.7899
 1862.0000     1.0239     4.7899
 1862.5000     1.0239     4.7899
 1863.0000     1.0239     4.7899
 1863.5000     1.0239     4.7899
 1864.0000     1.0239     4.7899
 1864.5000     1.0239     4.7899
 1865.0000     1.0240     4.7899
 1865.5000     1.0250     4.7899
 1866.0000     0.9824     4.7899
 1866.5000     0.9328     4.7899
 1867.0000     0.8830     4.7899
 1867.5000     0.8331     4.7899
 1868.0000     0.7863     4.7899
 1868.5000     0.7849     4.7899
 1869.0000     0.7851     4.7899
 1869.5000     0.7852     4.7899
 1870.0000     0.7852     4.7899
 1870.5000     0.7852     4.7899
 1871.0000     0.7852     4.7899
 1871.5000     0.7852     4.7899
 1872.0000     0.7852     4.7899
 1872.5000     0.7852     4.7899
 1873.0000     0.7852     4.7899
 1873.5000     0.7852     4.7899
 1874.0000     0.7852     4.7899
 1874.5000     0.7852     4.7899
 1875.0000     0.7852     4.7899
 1875.5000     0.7852     4.7893
 1876.0000     0.7851     4.7991
 1876.5000     0.7851     4.8232
 1877.0000     0.7855     4.2989
 1877.5000     0.8052     4.2740
 1878.0000     0.8579     4.2552
 1878.5000     0.9102     4.2425
 1879.0000     0.9638     4.2290
 1879.5000     0.9646     4.2155
 1880.0000     0.9537     4.2020
 1880.5000     0.9086     4.1884
 1881.0000     0.8410     4.1749
 1881.5000     0.7963     4.1614
 1882.0000     0.7944     4.1478
 1882.5000     0.7918     4.1343
 1883.0000     0.7893     4.1208
 1883.5000     0.7868     4.1073
 1884.0000     0.7843     4.0937
 1884.5000     0.7818     4.0802
 1885.0000     0.7792     4.0667
 1885.5000     0.7767     4.0532
 1886.0000     0.7743     4.0396
 1886.5000     0.7742     4.0261
 1887.0000     0.7792     4.0126
 1887.5000     0.7841     3.9991
 1888.0000     0.7845     3.9855
 1888.5000     0.7837     3.9720
 1889.0000     0.7828     3.9585
 1889.5000     0.7819     3.9449
 1890.0000     0.7810     3.9314
 1890.5000     0.7802     3.9179
 1891.0000     0.7793     3.9044
 1891.5000     0.7784     3.8908
 1892.0000     0.7776     3.8773
 1892.5000     0.7767     3.8638
 1893.0000     0.7758     3.8503
 1893.5000     0.7750     3.8367
 1894.0000     0.7741     3.8232
 1894.5000     0.7731     3.8124
 1895.0000     0.7623     3.8050
 1895.5000     0.7286     3.6535
 1896.0000     0.6953     3.4321
 1896.5000     0.6620     3.6066
 1897.0000     0.6287     3.8024
 1897.5000     0.5951     3.9957
 1898.0000     0.5608     4.1873
 1898.5000     0.5588     4.2883
 1899.0000     0.5578     4.9170
 1899.5000     0.5566     5.6171
 1900.0000     0.5553     6.3123
 1900.5000     0.5540     7.1105
 1901.0000     0.5527     8.1353
 1901.5000     0.5514     9.1597
 1902.0000     0.5501    10.1822
 1902.5000     0.5488    11.2047
 1903.0000     0.5475    12.2270
 1903.5000     0.5462    13.2501
 1904.0000     0.5449    14.2792
 1904.5000     0.5436    15.3304
 1905.0000     0.5423    15.7241
 1905.5000     0.5410    16.0884
 1906.0000     0.5397    16.4568
 1906.5000     0.5384    16.8266
 1907.0000     0.5371    17.1962
 1907.5000     0.5358    17.5656
 1908.0000     0.5345    17.9363
 1908.5000     0.5332    18.3176
 1909.0000     0.5319    18.6364
 1909.5000     0.5306    19.0728
 1910.0000     0.5293    19.5073
 1910.5000     0.5280    19.9429
 1911.0000     0.5267    20.3784
 1911.5000     0.5254    20.8140
 1912.0000     0.5241    21.2495
 1912.5000     0.5226    21.6850
 1913.0000     0.5207    22.1205
 1913.5000     0.5456    22.5561
 1914.0000     0.5921    22.9927
 1914.5000     0.6371    23.4354
 1915.0000     0.6820    23.8230
 1915.5000     0.7268    24.2149
 1916.0000     0.7717    24.6077
 1916.5000     0.8166    25.0007
 1917.0000     0.8615    25.3936
 1917.5000     0.9063    25.7865
 1918.0000     0.9509    26.1799
 1918.5000     0.9858    26.5746
 1919.0000     0.9991    26.9558
 1919.5000     0.9989    27.1828
 1920.0000     0.9977    27.4444
 1920.5000     0.9552    27.7087
 1921.0000     0.8925    27.9731
 1921.5000     0.8218    28.2375
 1922.0000     0.7531    28.5018
 1922.5000     0.6842    28.7662
 1923.0000     0.6141    29.0305
 1923.5000     0.5694    29.2949
 1924.0000     0.5517    29.5592
 1924.5000     0.5411    29.8236
 1925.0000     0.5307    30.0879
 1925.5000     0.5211    30.3523
 1926.0000     0.5213    30.6166
 1926.5000     0.5212    30.8810
 1927.0000     0.5215    31.1451
 1927.5000     0.5320    31.4125
 1928.0000     0.5758    31.5576
 1928.5000     0.6177    31.6750
 1929.0000     0.7162    31.7896
 1929.5000     0.7448    31.9043
 1930.0000     0.7689    32.0191
 1930.5000     0.7929    32.1339
 1931.0000     0.8106    32.2490
 1931.5000     0.8099    32.3647
 1932.0000     0.7884    32.4790
 1932.5000     0.7435    32.4262
 1933.0000     0.6655    31.9487
 1933.5000     0.5823    31.4813
 1934.0000     0.5352    31.0149
 1934.5000     0.6026    30.5486
 1935.0000     0.6782    30.0822
 1935.5000     0.7542    29.6159
 1936.0000     0.7747    29.1495
 1936.5000     0.7783    28.6832
 1937.0000     0.7813    28.2168
 1937.5000     0.7845    27.7511
 1938.0000     0.7878    27.2869
 1938.5000     0.7910    26.8032
 1939.0000     0.7942    26.0760
 1939.5000     0.7975    25.4687
 1940.0000     0.8009    24.3950
 1940.5000     0.8043    23.3258
 1941.0000     0.8077    22.2503
 1941.5000     0.8220    21.1754
 1942.0000     0.8502    20.1005
 1942.5000     0.9006    19.0254
 1943.0000     0.9496    17.9501
 1943.5000     0.9775    16.8773
 1944.0000     0.9865    15.8571
 1944.5000     0.9952    15.0683
 1945.0000     1.0039    14.3090
 1945.5000     1.0096    13.5513
 1946.0000     0.9722    12.7936
 1946.5000     0.9360    12.0357
