~VERSION INFORMATION
 VERS.                2.0:   CWLS LOG ASCII STANDARD - VERSION 2.0
 WRAP.                 NO:   ONE LINE PER DEPTH STEP
~WELL INFORMATION
#MNEM.UNIT      DATA TYPE    INFORMATION
#----------   ------------   ------------------------------
 STRT.F           16.0000:   START DEPTH
 STOP.F          900.0000:   STOP DEPTH
 STEP.F            0.5000:   STEP LENGTH
 NULL.          -999.2500:   NO VALUE
 COMP. FENIX & SCISSON INC:   COMPANY
 WELL.    NPR-3 #65S15-15:   WELL
 FLD .             TEAPOT:   FIELD
 LOC .      S15 T38N R78W:   LOCATION
 CNTY.            NATRONA:   COUNTY
 STAT.            WYOMING:   STATE
 CTRY. UNITED STATES OF AMERICA:   COUNTRY
 SRVC.            Unknown:   SERVICE COMPANY
 DATE.        11-MAY-1978:   LOGDATE
 API .       490251062400:   API NUMBER
~CURVE INFORMATION
#MNEM.UNIT       API CODE    CURVE DESCRIPTION
#----------   ------------   ------------------------------
 DEPT.F                  :   
 RHOB.G/C3   45 350 01 00:   BULK DENSITY
 DPHI.DEC    45 890 12 00:   DENSITY POROSITY SANDSTONE
 CORR.G/C3   45 356 01 00:   DENSITY CORRECTION
 GRD .GAPI   45 310 01 00:   GAMMA RAY FROM DENSITY LOG
 CALD.IN     45 280 60 00:   CALIPER FROM DENSITY LOG
 SPR .MV     05 010 01 00:   SPONTANEOUS POTENTIAL FROM RES.
 SN  .OHMM   05 040 16 00:   SHORT NORMAL 16"
 IL  .OHMM   05 120 00 00:   INDUCTION LOG
~PARAMETER INFORMATION
#MNEM.UNIT          VALUE    DESCRIPTION
#----------   ------------   ------------------------------
 PD  .                 GL:   PERMANENT DATUM
 EPD .F              5289:   ELEVATION PERMANENT DATUM
 LMF .                 KB:   LOG MEASURED FROM
 DAPD.F                 4:   FEET ABOVE PERMANENT DATUM
 DMF .                 KB:   DRILLING MEASURED FROM
 EKB .F              5293:   KELLING BUSHING
 EDF .F                  :   DRILLING FLOOR
 EGL .F              5289:   GROUND LEVEL
 DATE.          5-11-1978:   RUN DATE
 RUN .                  1:   RUN NUMBER
 DD  .F               887:   DEPTH DRILLER
 DL  .F               889:   DEPTH LOGGER
 BLI .F               883:   BOTTOM LOG INTERVAL
 TLI .F                40:   TOP LOG INTERVAL
 CS  .IN            8.625:   CASING SIZE
 CBD .F                40:   CASING BOTTOM DRILLER
 CBL .F                40:   CASING BOTTOM LOGGER
 BS  .IN            7.875:   BIT SIZE
 BSD .F               887:   BIT SIZE AT DEPTH
 DFT .                KCL:   DRILLING FLUID TYPE
 DFD .                8.6:   DRILLING FLUID DENSITY
 DFV .                 30:   DRILLING FLUID VISCOSITY
 DFPH.                9.5:   DRILLING FLUID PH
 DFL .                  8:   DRILLING FLUID LOSS
 MSS .                   :   MUD SAMPLE SOURCE
 RMS .OHMM            .42:   RESISTIVITY MUD SAMPLE
 MST .F                68:   MUD SAMPLE TEMPERATURE
 RMF .OHMM            .38:   RESISTIVITY MUD FILTRATE SAMPLE
 MFST.F                68:   MUD FILTRATE SAMPLE TEMPERATURE
 RMC .OHMM            .68:   RESISTIVITY MUD CAKE
 MCST.F                66:   MUD CAKE SAMPLE TEMPERATURE
 MFSS.           MEASURED:   MUD FILTRATE SAMPLE SOURCE
 MCSS.                   :   MUD CAKE SAMPLE SOURCE
 RMB .OHMM               :   RESISTIVITY MUD AT BHT
 BHT .F                72:   BOTTOM HOLE TEMPERATURE
 TCS .HRS               2:   TIME CURCULATED STOPPED
 TLAB.HRS                :   TIME LOGGER AT BOTTOM
 MRT .F                72:   MAXIMUM RECORDED TEMPERATURE
 LUN .              CASP.:   LOGGING UNIT NUMBER
 LUL .               2958:   LOGGING UNIT LOCATION
 ENGI.             MILLER:   RECORDING ENGINEER
 WITN.           MCGINLEY:   WITNESSED BY
 CLNT.            A2DTECH:   CLIENT CODE
 ORIG.      2" & 5" PRINT:   ORIGIN OF DATA
 UWI .       490251062400:   UNIQUE WELL ID
 DICO. A2D Technologies, Inc.:   DIGITIZING COMPANY
 OS  .                   :   OTHER SERVICES
 PWI .                   :   PRIMARY WELL IDENTIFIER
 R1  .                   :   REMARKS 1
 R2  .                   :   REMARKS 2
~OTHER INFORMATION
~A   DEPT     RHOB       DPHI       CORR         GRD      CALD        SPR         SN         IL   
# ...
  583.0000     2.3297     0.2336     0.0841    77.3559     7.2570   -44.3521     2.6836     2.3746
  583.5000     2.2915     0.2453     0.0826    75.2738     7.2739   -43.8291     2.4380     2.3498
  584.0000     2.2688     0.2570     0.0924    75.3278     7.2114   -43.3039     2.5897     2.4057
  584.5000     2.2494     0.2320     0.1050    75.5259     7.0491   -42.7787     2.7353     2.4605
  585.0000     2.2488     0.1997     0.1135    76.3150     6.9725   -42.2387     2.8891     2.6655
  585.5000     2.3156     0.1814     0.0766    78.3168     6.9820   -42.1669     3.2095     2.9806
  586.0000     2.3664     0.1631     0.0480    80.2423     6.7600   -42.2124     3.7050     3.3591
  586.5000     2.4067     0.1448     0.0729    82.2152     6.8480   -42.2606     4.2770     3.7857
  587.0000     2.4344     0.1280     0.0785    82.6305     6.9599   -42.3076     4.8340     4.2664
  587.5000     2.4622     0.1291     0.0786    83.2314     7.0963   -42.3544     5.3092     4.6327
  588.0000     2.4689     0.1314     0.0870    83.8527     7.2484   -42.4012     5.3831     4.8202
  588.5000     2.4657     0.1310     0.0964    84.2121     7.3635   -42.4480     5.3831     4.7554
  589.0000     2.4643     0.1295     0.1113    84.1828     7.3406   -42.4948     5.3831     4.6647
  589.5000     2.4633     0.1280     0.1372    85.2381     7.3515   -42.5416     5.3831     4.4380
  590.0000     2.4681     0.1207     0.1628    85.1493     7.4694   -42.5884     5.3831     4.2224
  590.5000     2.4762     0.1116     0.1754    84.2576     7.5314   -42.6353     5.2085     4.0071
  591.0000     2.4845     0.1291     0.1481    85.4187     7.5471   -42.6827     4.9829     4.0097
  591.5000     2.4870     0.1509     0.1129    88.3829     7.5626   -42.7264     4.7671     4.0084
  592.0000     2.4506     0.1633     0.0917    91.3934     7.5405   -42.6817     4.6029     4.0089
  592.5000     2.4138     0.1508     0.0791    92.9278     7.5089   -42.6329     4.6029     4.0089
  593.0000     2.4099     0.1408     0.0662    91.8858     7.4766   -42.5845     4.7800     4.0089
  593.5000     2.4328     0.1308     0.0623    90.8030     7.4695   -42.5362     4.9993     4.0089
  594.0000     2.4486     0.1207     0.0578    90.2735     7.4760   -42.4879     5.2287     4.2551
  594.5000     2.4644     0.1107     0.0483    90.3427     7.4831   -42.4397     5.4668     4.4999
  595.0000     2.4804     0.1060     0.0389    91.0832     7.4779   -42.3914     5.6889     4.7589
  595.5000     2.4860     0.1160     0.0295    91.8220     7.4674   -42.3431     5.8762     5.0328
  596.0000     2.4883     0.1148     0.0202    92.5657     7.4709   -42.2948     6.0865     5.3224
  596.5000     2.4891     0.1124     0.0124    92.5186     7.4787   -42.2465     6.3043     5.6349
  597.0000     2.4902     0.1082     0.0130    92.3492     7.4867   -42.1982     6.5300     5.7291
  597.5000     2.4978     0.1040     0.0134    89.8526     7.4947   -42.1500     6.7635     5.8464
  598.0000     2.5057     0.1008     0.0139    85.8248     7.5026   -42.1017     7.0082     5.9674
  598.5000     2.5129     0.1065     0.0143    81.7839     7.5106   -42.0536     7.1648     6.0451
  599.0000     2.5117     0.1049     0.0137    80.4402     7.5185   -42.0053     7.1613     6.0973
  599.5000     2.5052     0.1089     0.0118    82.9079     7.5265   -41.9547     7.1174     6.1237
  600.0000     2.4987     0.1162     0.0099    84.4255     7.5344   -41.8144     7.0757     6.0285
  600.5000     2.4914     0.1208     0.0081    85.9305     7.5424   -41.5734     7.0312     5.9641
  601.0000     2.4805     0.1195     0.0062    87.4411     7.5504   -41.3344     6.9141     5.9007
  601.5000     2.4807     0.1182     0.0044    88.9482     7.5583   -41.1352     6.7899     5.8319
  602.0000     2.4819     0.1209     0.0025    89.3261     7.5626   -41.1744     6.6678     5.7352
  602.5000     2.4780     0.1248     0.0007    88.8721     7.5462   -41.2091     6.5480     5.6400
  603.0000     2.4742     0.1252    -0.0012    88.2983     7.5301   -41.2433     6.4303     5.5464
  603.5000     2.4711     0.1231    -0.0030    88.2946     7.5140   -41.2778     6.3149     5.4545
  604.0000     2.4709     0.1275    -0.0049    88.4082     7.4980   -41.3102     6.2007     5.3645
  604.5000     2.4690     0.1316    -0.0055    88.5202     7.4820   -41.2596     6.0603     5.2525
  605.0000     2.4606     0.1355    -0.0055    88.4848     7.4659   -40.9998     5.8585     4.9776
  605.5000     2.4535     0.1389    -0.0056    87.9547     7.4497   -40.7445     5.6635     4.7158
  606.0000     2.4490     0.1381    -0.0009    87.4449     7.4195   -40.6373     5.4750     4.4685
  606.5000     2.4465     0.1406     0.0044    86.9474     7.3828   -40.5364     5.2927     4.2367
  607.0000     2.4454     0.1488     0.0027    86.8421     7.3473   -40.4349     5.1163     4.2915
  607.5000     2.4379     0.1571     0.0010    87.5551     7.3772   -40.3362     4.9462     4.3463
  608.0000     2.4196     0.1654     0.0076    87.7557     7.4120   -40.2436     4.7815     4.4019
  608.5000     2.4070     0.1649     0.0191    87.1444     7.4424   -40.1534     4.7318     4.4581
  609.0000     2.4011     0.1472     0.0309    86.8978     7.3861   -40.0634     5.1317     4.5183
  609.5000     2.4200     0.1373     0.0251    86.6318     7.3260   -39.9733     5.4620     4.8093
  610.0000     2.4422     0.1300     0.0114    87.0385     7.2902   -39.8832     5.8135     5.1418
  610.5000     2.4646     0.1220     0.0034    87.5606     7.2666   -39.7942     6.1876     5.4972
  611.0000     2.4741     0.1239     0.0009    86.9864     7.2455   -39.7643     6.5858     5.8770
  611.5000     2.4730     0.1259    -0.0014    86.2867     7.2431   -39.8226     6.9182     6.1806
  612.0000     2.4716     0.1272    -0.0011    85.8060     7.2411   -39.8799     6.9810     6.1794
  612.5000     2.4702     0.1247    -0.0007    88.0527     7.2390   -39.9374     7.0443     6.1755
  613.0000     2.4691     0.1223    -0.0003    90.7364     7.2368   -39.9949     7.1082     6.1728
  613.5000     2.4728     0.1198     0.0001    93.5038     7.2347   -40.0523     7.1727     6.1705
  614.0000     2.4766     0.1173     0.0006    94.3498     7.2326   -40.1098     7.2378     6.1681
  614.5000     2.4804     0.1149     0.0024    92.0606     7.2305   -40.1673     7.3034     6.1657
  615.0000     2.4842     0.1124     0.0043    90.6253     7.2284   -40.2247     7.3696     6.1633
  615.5000     2.4880     0.1100     0.0061    90.5154     7.2263   -40.2822     7.4365     6.1609
  616.0000     2.4920     0.1075     0.0079    90.6733     7.2234   -40.3397     7.4995     6.1585
  616.5000     2.4962     0.1072     0.0098    90.3936     7.2203   -40.3972     7.4691     6.1562
  617.0000     2.4974     0.1085     0.0090    88.6124     7.2171   -40.4545     7.4408     6.1538
  617.5000     2.4980     0.1040     0.0063    87.7791     7.2139   -40.5121     7.4125     6.1514
  618.0000     2.4986     0.1068     0.0036    87.1792     7.2107   -40.5310     7.3844     6.1490
  618.5000     2.4982     0.1115     0.0008    86.5733     7.2076   -40.5128     7.3563     6.1466
  619.0000     2.4941     0.1133     0.0029    86.1189     7.2054   -40.4942     7.3284     6.1443
  619.5000     2.4901     0.1103     0.0057    89.7110     7.2041   -40.4756     7.3006     6.1419
  620.0000     2.4907     0.1074     0.0085    90.8526     7.2631   -40.4571     7.2729     6.1395
  620.5000     2.4963     0.1064     0.0091    88.5347     7.3350   -40.4385     7.2453     6.1371
  621.0000     2.4994     0.1122     0.0043    86.6321     7.3289   -40.4200     7.2178     6.1348
  621.5000     2.4946     0.1157    -0.0005    85.8662     7.3092   -40.4015     7.1904     6.1324
  622.0000     2.4897     0.1166    -0.0022    86.3680     7.2892   -40.3828     7.1620     6.1301
  622.5000     2.4851     0.1175    -0.0032    87.2119     7.2694   -40.3645     7.1159     6.1278
  623.0000     2.4850     0.1169    -0.0024    87.0825     7.2497   -40.3448     7.0681     6.1245
