~VERSION INFORMATION
 VERS.                2.0:   CWLS LOG ASCII STANDARD - VERSION 2.0
 WRAP.                 NO:   ONE LINE PER DEPTH STEP
~WELL INFORMATION
#MNEM.UNIT      DATA TYPE    INFORMATION
#----------   ------------   ------------------------------
 STRT.F            0.0000:   START DEPTH
 STOP.F         1027.0000:   STOP DEPTH
 STEP.F            0.1000:   STEP LENGTH
 NULL.          -999.2500:   NO VALUE
 COMP.       F D SERV INC:   COMPANY
 WELL.   77-1 X 27 #77-27:   WELL
 FLD .             TEAPOT:   FIELD
 LOC .      S27 T39N R78W:   LOCATION
 CNTY.            NATRONA:   COUNTY
 STAT.            WYOMING:   STATE
 CTRY. UNITED STATES OF AMERICA:   COUNTRY
 SRVC.      Western Atlas:   SERVICE COMPANY
 DATE.        04-NOV-1991:   LOGDATE
 API .       490252248600:   API NUMBER
~CURVE INFORMATION
#MNEM.UNIT       API CODE    CURVE DESCRIPTION
#----------   ------------   ------------------------------
 DEPT.F                  :   
 GRR .GAPI   07 310 01 00:   GAMMA RAY
 RILD.OHMM   07 120 46 00:   INDUCTION LOG DEEP RESISTIVITY
 RFOC.OHMM   07 220 04 00:   RESISTIVITY FOCUSED LOG
 RILM.OHMM   07 120 44 00:   INDUCTION LOG MEDIUM RESISTIVITY
 SPR .MV     07 010 01 00:   SPONTANEOUS POTENTIAL
~PARAMETER INFORMATION
#MNEM.UNIT          VALUE    DESCRIPTION
#----------   ------------   ------------------------------
 PD  .                 GL:   PERMANENT DATUM
 EPD .F              5077:   ELEVATION PERMANENT DATUM
 LMF .                 KB:   LOG MEASURED FROM
 DAPD.F                10:   FEET ABOVE PERMANENT DATUM
 DMF .                 KB:   DRILLING MEASURED FROM
 EKB .F              5087:   KELLING BUSHING
 EDF .F              5086:   DRILLING FLOOR
 EGL .F              5077:   GROUND LEVEL
 DATE.        04-NOV-1991:   RUN DATE
 RUN .                  1:   RUN NUMBER
 DD  .F              1030:   DEPTH DRILLER
 DL  .F              1030:   DEPTH LOGGER
 BLI .F              1027:   BOTTOM LOG INTERVAL
 CS  .IN            9.625:   CASING SIZE
 CBD .F                50:   CASING BOTTOM DRILLER
 CBL .F                52:   CASING BOTTOM LOGGER
 BS  .IN             8.75:   BIT SIZE
 BSD .F              1030:   BIT SIZE AT DEPTH
 DFT .          KCL WATER:   DRILLING FLUID TYPE
 MSS .           FLOWLINE:   MUD SAMPLE SOURCE
 RMS .OHMM            .24:   RESISTIVITY MUD SAMPLE
 MST .F                72:   MUD SAMPLE TEMPERATURE
 RMB .OHMM            .19:   RESISTIVITY MUD AT BHT
 BHT .F                90:   BOTTOM HOLE TEMPERATURE
 TCS .HRS               2:   TIME CURCULATED STOPPED
 MRT .F                90:   MAXIMUM RECORDED TEMPERATURE
 LUN .            HL-6274:   LOGGING UNIT NUMBER
 LUL .             CASPER:   LOGGING UNIT LOCATION
 ENGI.             RAUTIO:   RECORDING ENGINEER
 WITN.             STRONG:   WITNESSED BY
 CLNT.            A2DTECH:   CLIENT CODE
 ORIG.           5" PRINT:   ORIGIN OF DATA
 UWI .       490252248600:   UNIQUE WELL ID
 DICO. A2D Technologies, Inc.:   DIGITIZING COMPANY
~OTHER INFORMATION
~A    DEPT      GRR      RILD       RFOC       RILM        SPR   
# ...
  366.0000   100.8592     5.7393     5.5560     5.6395   -22.1617
  366.1000    99.9175     5.7393     5.5561     5.6372   -22.2069
  366.2000    99.1894     5.7393     5.5562     5.6348   -22.3300
  366.3000    98.4490     5.7393     5.5563     5.6324   -22.4583
  366.4000    97.9168     5.7393     5.5563     5.6301   -22.4575
  366.5000    97.5472     5.7393     5.5564     5.6277   -22.4566
  366.6000    97.2036     5.7393     5.5565     5.6254   -22.5227
  366.7000    97.0065     5.7393     5.5566     5.6230   -22.5632
  366.8000    96.8353     5.7393     5.5567     5.6206   -22.4539
  366.9000    96.7846     5.7335     5.5567     5.6183   -22.4529
  367.0000    96.7859     5.6997     5.5568     5.6159   -22.4521
  367.1000    96.7320     5.6997     5.5569     5.6136   -22.4512
  367.2000    96.5640     5.6751     5.5570     5.6112   -22.3257
  367.3000    96.5656     5.6603     5.5570     5.6088   -22.1135
  367.4000    96.4042     5.6603     5.5571     5.6081   -21.9886
  367.5000    96.3436     5.6603     5.5572     5.6256   -21.8487
  367.6000    96.3449     5.6603     5.5573     5.6469   -21.7389
  367.7000    96.4370     5.6603     5.5573     5.6467   -21.6141
  367.8000    96.8092     5.6377     5.5574     5.6466   -21.4317
  367.9000    97.2474     5.6056     5.5575     5.6464   -21.2147
  368.0000    97.5538     5.5823     5.5576     5.6463   -21.0898
  368.1000    97.9261     5.5823     5.5577     5.6461   -20.9451
  368.2000    98.2985     5.5823     5.5577     5.6459   -20.7359
  368.3000    98.7062     5.5823     5.5578     5.6458   -20.5656
  368.4000    99.2749     5.5823     5.5579     5.6456   -20.4407
  368.5000    99.6399     5.5687     5.5580     5.6455   -20.2889
  368.6000   100.0123     5.5437     5.5580     5.6453   -20.0413
  368.7000   100.3846     5.5437     5.5581     5.6452   -19.8917
  368.8000   100.8215     5.5437     5.5582     5.6450   -19.7916
  368.9000   101.3537     5.5437     5.5583     5.6449   -19.6668
  369.0000   101.7531     5.5437     5.5584     5.6447   -19.5419
  369.1000   102.4424     5.5437     5.5584     5.6445   -19.4392
  369.2000   103.3186     5.5387     5.5358     5.6444   -19.4383
  369.3000   104.0595     5.5054     5.5202     5.6442   -19.4374
  369.4000   104.6720     5.5054     5.5202     5.6441   -19.4365
  369.5000   105.3996     5.5054     5.5203     5.6439   -19.4356
  369.6000   106.0277     5.5054     5.5204     5.6438   -19.4347
  369.7000   106.1910     5.5054     5.5205     5.6436   -19.4338
  369.8000   106.3778     5.5054     5.5205     5.6434   -19.4329
  369.9000   106.5646     5.5054     5.5206     5.6433   -19.5476
  370.0000   106.7066     5.5054     5.5131     5.6431   -19.5808
  370.1000   106.7079     5.5054     5.4826     5.6430   -19.5799
  370.2000   106.7095     5.5054     5.4827     5.6428   -19.5790
  370.3000   106.5584     5.5054     5.4828     5.6427   -19.5907
  370.4000   106.3743     5.5054     5.4828     5.6425   -19.7269
  370.5000   106.1901     5.5054     5.4829     5.6423   -19.7261
  370.6000   105.9359     5.5054     5.4771     5.6422   -19.7251
  370.7000   105.3687     5.5054     5.4452     5.6420   -19.7242
  370.8000   105.0072     5.5054     5.4453     5.6419   -19.7234
  370.9000   104.6376     5.5054     5.4215     5.6191   -19.7225
  371.0000   104.2681     5.5054     5.4078     5.6025   -19.7214
  371.1000   103.8984     5.5054     5.3972     5.6024   -19.8266
  371.2000   103.5539     5.5054     5.3705     5.5999   -19.8695
  371.3000   103.3559     5.5231     5.3706     5.5633   -19.9231
  371.4000   103.1857     5.5437     5.3707     5.5632   -20.0174
  371.5000   103.1340     5.5437     5.3708     5.5630   -20.0165
  371.6000   103.3221     5.5437     5.3708     5.5629   -20.0154
  371.7000   103.7487     5.5437     5.3709     5.5627   -20.0147
  371.8000   104.3218     5.5437     5.3685     5.5626   -20.0138
  371.9000   105.1605     5.5437     5.3339     5.5624   -20.0129
  372.0000   105.6467     5.5530     5.3340     5.5622   -19.9880
  372.1000   106.3271     5.5823     5.3341     5.5621   -19.8614
  372.2000   106.9868     5.5823     5.3342     5.5619   -19.7383
  372.3000   107.5002     5.5823     5.3416     5.5681   -19.7099
  372.4000   107.8617     5.6033     5.3714     5.6004   -19.6383
  372.5000   107.8633     5.6212     5.3715     5.6002   -19.5584
  372.6000   107.7126     5.6287     5.3716     5.6001   -19.5383
  372.7000   107.6412     5.6603     5.3717     5.6183   -19.4068
  372.8000   107.5688     5.6603     5.3840     5.6387   -19.4060
  372.9000   107.3501     5.6866     5.4092     5.6386   -19.4051
  373.0000   106.9716     5.6997     5.4093     5.6384   -19.4042
  373.1000   106.4299     5.7123     5.4093     5.6689   -19.4033
  373.2000   106.1587     5.7393     5.4094     5.7014   -19.4024
  373.3000   105.9745     5.7393     5.4267     5.7168   -19.4014
  373.4000   105.7266     5.7393     5.4580     5.7166   -19.2880
  373.5000   105.3817     5.7641     5.4936     5.7200   -19.1632
  373.6000   105.1833     5.7972     5.5619     5.7561   -19.0994
  373.7000   105.0134     5.8195     5.5915     5.7858   -19.0985
  373.8000   104.8293     5.8234     5.6468     5.8422   -19.0880
  373.9000   104.6452     5.8600     5.7119     5.8767   -18.9469
  374.0000   104.5150     5.8905     5.7778     5.8952   -18.9461
  374.1000   104.5015     5.9243     5.8444     5.9608   -18.9452
  374.2000   104.2933     5.9583     5.9206     5.9999   -18.9443
  374.3000   104.2945     5.9925     5.9801     6.0293   -18.9129
  374.4000   104.1736     6.0269     6.0262     6.0413   -18.7928
  374.5000   103.9064     6.0668     6.0609     6.0718   -18.7918
  374.6000   103.5368     6.1260     6.0875     6.1336   -18.6880
  374.7000   103.1721     6.1739     6.0876     6.1687   -18.6404
  374.8000   102.9541     6.2246     6.0877     6.2107   -18.5880
  374.9000   102.6525     6.2885     6.0594     6.2396   -18.4889
  375.0000   102.2829     6.3246     6.0458     6.2973   -18.4880
  375.1000   101.9133     6.3609     6.0459     6.3553   -18.4871
  375.2000   101.5095     6.3974     6.0459     6.3987   -18.4862
  375.3000   100.9397     6.4555     6.0460     6.4739   -18.4853
  375.4000   100.0381     6.5298     6.0461     6.5102   -18.4844
  375.5000    98.5463     6.6050     6.0462     6.5475   -18.4626
  375.6000    96.9809     6.6854     6.0272     6.6064   -18.3329
  375.7000    95.7517     6.7215     6.0046     6.6689   -18.2129
  375.8000    95.0596     6.7601     6.0047     6.7071   -18.1814
  375.9000    94.6604     6.8193     6.0047     6.7481   -18.1805
  376.0000    94.4910     6.8856     6.0048     6.7843   -18.1377
  376.1000    94.3069     6.9289     6.0294     6.8231   -18.0129
  376.2000    94.1227     7.0180     6.0468     6.8828   -17.8784
  376.3000    93.9921     7.0536     6.0469     6.9620   -17.8775
  376.4000    93.9934     7.1216     6.0469     7.0381   -17.8766
  376.5000    93.9949     7.2035     6.0470     7.0828   -17.8757
  376.6000    93.9961     7.2864     6.0471     7.1557   -17.8748
  376.7000    93.8757     7.3686     6.0700     7.2381   -17.8739
  376.8000    93.7742     7.4183     6.1050     7.3015   -17.8729
  376.9000    93.7756     7.4889     6.1401     7.3546   -17.7626
  377.0000    93.7769     7.5752     6.1763     7.4369   -17.7216
  377.1000    93.7785     7.6446     6.2609     7.4860   -17.7207
  377.2000    93.7796     7.6970     6.2903     7.5224   -17.7198
  377.3000    93.7810     7.7874     6.3485     7.5934   -17.7189
  377.4000    93.8551     7.7874     6.4218     7.6618   -17.7178
  377.5000    94.0082     7.8563     6.4958     7.7057   -17.7171
  377.6000    94.0096     7.8962     6.5728     7.7505   -17.7162
  377.7000    94.0109     7.9118     6.6838     7.8574   -17.7153
  377.8000    93.8713     7.9571     6.7405     7.8936   -17.7144
  377.9000    93.7891     8.0064     6.8009     7.9388   -17.7135
  378.0000    93.7275     8.0064     6.8525     7.9843   -17.7124
  378.1000    93.5434     8.0064     6.8577     8.0301   -17.7117
