~VERSION INFORMATION
 VERS.                2.0:   CWLS LOG ASCII STANDARD - VERSION 2.0
 WRAP.                 NO:   ONE LINE PER DEPTH STEP
~WELL INFORMATION
#MNEM.UNIT      DATA TYPE    INFORMATION
#----------   ------------   ------------------------------
 STRT.F           38.0000:   START DEPTH
 STOP.F          637.0000:   STOP DEPTH
 STEP.F            0.5000:   STEP LENGTH
 NULL.          -999.2500:   NO VALUE
 COMP. FENIX & SCISSON INC:   COMPANY
 WELL.    NPR ##3 57-S-34:   WELL
 FLD .             TEAPOT:   FIELD
 LOC .      S34 T39N R78W:   LOCATION
 CNTY.            NATRONA:   COUNTY
 STAT.            WYOMING:   STATE
 CTRY. UNITED STATES OF AMERICA:   COUNTRY
 SRVC.              Welex:   SERVICE COMPANY
 DATE.        12-MAR-1977:   LOGDATE
 API .       490251030600:   API NUMBER
~CURVE INFORMATION
#MNEM.UNIT       API CODE    CURVE DESCRIPTION
#----------   ------------   ------------------------------
 DEPT.F                  :   
 SPR .MV     07 010 01 00:   SPONTANEOUS POTENTIAL
 ILM .OHMM   07 120 44 00:   INDUCTION LOG MEDIUM
 ILD .OHMM   07 120 46 00:   INDUCTION LOG DEEP
 SGRD.OHMM   07 221 05 00:   SHALLOW SHORT GUARD RESISTIVITY
 CALD.IN     45 280 60 00:   CALIPER FROM DENSITY LOG
 GRD .GAPI   45 310 01 00:   GAMMA RAY FROM DENSITY LOG
 CORR.G/C3   45 356 01 00:   DENSITY CORRECTION
 DPHI.DEC    45 890 12 00:   DENSITY POROSITY SANDSTONE
 RHOB.G/C3   45 350 01 00:   BULK DENSITY
~PARAMETER INFORMATION
#MNEM.UNIT          VALUE    DESCRIPTION
#----------   ------------   ------------------------------
 PD  .                 GL:   PERMANENT DATUM
 EPD .F              5107:   ELEVATION PERMANENT DATUM
 LMF .                 GL:   LOG MEASURED FROM
 DMF .                 GL:   DRILLING MEASURED FROM
 EGL .F              5107:   GROUND LEVEL
 DATE.          3-12-1977:   RUN DATE
 RUN .                  1:   RUN NUMBER
 DD  .F               650:   DEPTH DRILLER
 DL  .F               637:   DEPTH LOGGER
 BLI .F               636:   BOTTOM LOG INTERVAL
 TLI .F                46:   TOP LOG INTERVAL
 CS  .IN            8.625:   CASING SIZE
 CBD .F                45:   CASING BOTTOM DRILLER
 CBL .F                46:   CASING BOTTOM LOGGER
 BS  .IN            7.875:   BIT SIZE
 BSD .F               650:   BIT SIZE AT DEPTH
 DFT .            KCL MUD:   DRILLING FLUID TYPE
 DFD .                8.9:   DRILLING FLUID DENSITY
 DFV .                 35:   DRILLING FLUID VISCOSITY
 MSS .            MUD PIT:   MUD SAMPLE SOURCE
 RMS .OHMM            .53:   RESISTIVITY MUD SAMPLE
 MST .F                68:   MUD SAMPLE TEMPERATURE
 RMF .OHMM            .41:   RESISTIVITY MUD FILTRATE SAMPLE
 MFST.F                69:   MUD FILTRATE SAMPLE TEMPERATURE
 RMC .OHMM            .62:   RESISTIVITY MUD CAKE
 MCST.F                65:   MUD CAKE SAMPLE TEMPERATURE
 MFSS.           MEASURED:   MUD FILTRATE SAMPLE SOURCE
 MCSS.           MEASURED:   MUD CAKE SAMPLE SOURCE
 RMB .OHMM            .60:   RESISTIVITY MUD AT BHT
 BHT .F                60:   BOTTOM HOLE TEMPERATURE
 TCS .HRS               1:   TIME CURCULATED STOPPED
 MRT .F                60:   MAXIMUM RECORDED TEMPERATURE
 LUN .               0716:   LOGGING UNIT NUMBER
 LUL .             VERNAL:   LOGGING UNIT LOCATION
 ENGI.        E. CALLAHAN:   RECORDING ENGINEER
 WITN.         STUEBUNGER:   WITNESSED BY
 CLNT.            A2DTECH:   CLIENT CODE
 ORIG.           5" PRINT:   ORIGIN OF DATA
 UWI .       490251030600:   UNIQUE WELL ID
 DICO. A2D Technologies, Inc.:   DIGITIZING COMPANY
~OTHER INFORMATION
~A   DEPT      SPR        ILM        ILD       SGRD       CALD        GRD       CORR       DPHI       RHOB   
# ...
   74.5000  -999.2500     6.7844     6.4321  -999.2500     8.0900   144.1176     0.0721     0.1237     2.4369
   75.0000  -999.2500     6.7826     6.3848  -999.2500     8.0897   142.7245     0.0769     0.1197     2.4462
   75.5000  -999.2500     6.7341     6.3378  -999.2500     8.0894   143.1889     0.0751     0.1229     2.4421
   76.0000  -999.2500     6.7323     6.3348  -999.2500     8.0891   140.8359     0.0611     0.1271     2.4305
   76.5000  -999.2500     6.6841     6.2881  -999.2500     8.0734   140.4025     0.0673     0.1231     2.4400
   77.0000  -999.2500     6.6363     6.2412  -999.2500     8.0421   141.7957     0.0750     0.1207     2.4431
   77.5000  -999.2500     6.5889     6.1525  -999.2500     8.0395   142.8793     0.0812     0.1135     2.4586
   78.0000  -999.2500     6.5413     6.1496  -999.2500     8.0260   148.4520     0.0812     0.1173     2.4509
   78.5000  -999.2500     6.5396     6.1894  -999.2500     8.0257   149.5356     0.0858     0.1179     2.4478
   79.0000  -999.2500     6.5379     6.3170  -999.2500     8.0254   152.2601     0.0920     0.1161     2.4587
   79.5000  -999.2500     6.6271     6.4458  -999.2500     8.0406   154.4892     0.1013     0.1055     2.4757
   80.0000  -999.2500     6.7641     6.5355  -999.2500     8.0712   150.7740     0.1074     0.1003     2.4765
   80.5000  -999.2500     6.8092     6.6205  -999.2500     8.0864   146.5944     0.1074     0.1000     2.4788
   81.0000  -999.2500     6.8069     6.6633  -999.2500     8.0861   148.4520     0.1073     0.0947     2.4859
   81.5000  -999.2500     6.8051     6.6594  -999.2500     8.0702   152.6342     0.1007     0.1112     2.4815
   82.0000  -999.2500     6.7564     6.6104  -999.2500     8.0544   152.2601     0.0934     0.1161     2.4595
   82.5000  -999.2500     6.7546     6.6532  -999.2500     8.0387   151.2384     0.0919     0.1199     2.4471
   83.0000  -999.2500     6.8001     6.7896  -999.2500     8.0384   151.3932     0.0980     0.1152     2.4502
   83.5000  -999.2500     6.8450     6.8357  -999.2500     8.0226   150.7740     0.1058     0.1137     2.4618
   84.0000  -999.2500     6.9384     6.9736  -999.2500     8.0068   150.1548     0.1058     0.1118     2.4641
   84.5000  -999.2500     6.9846     7.0188  -999.2500     8.0065   146.5635     0.1057     0.1088     2.4765
   85.0000  -999.2500     7.1285     7.0147  -999.2500     8.0062   142.2601     0.1026     0.1068     2.4719
   85.5000  -999.2500     7.1765     7.0609  -999.2500     8.0058   141.3313     0.1011     0.1116     2.4634
   86.0000  -999.2500     7.3244     7.0081  -999.2500     8.0211   144.1176     0.0964     0.1182     2.4557
   86.5000  -999.2500     7.3732     7.0048  -999.2500     8.0363   144.2724     0.0917     0.1216     2.4433
   87.0000  -999.2500     7.4738     7.0015  -999.2500     8.0978   144.4272     0.0886     0.1283     2.4207
   87.5000  -999.2500     7.5237     6.9981  -999.2500     8.1285   142.1053     0.0886     0.1336     2.4102
   88.0000  -999.2500     7.5211     7.0436  -999.2500     8.1437   141.1765     0.0886     0.1457     2.3938
   88.5000  -999.2500     7.4674     7.0394  -999.2500     8.1279   142.1053     0.0994     0.1513     2.3930
   89.0000  -999.2500     7.4654     7.0858  -999.2500     8.1254   142.2601     0.1195     0.1467     2.3953
   89.5000  -999.2500     7.3610     7.0817  -999.2500     8.0962   142.5697     0.1505     0.1296     2.4217
   90.0000  -999.2500     7.3083     6.9811  -999.2500     8.0959   143.6532     0.1690     0.1262     2.4333
   90.5000  -999.2500     7.3064     6.9775  -999.2500     8.0801   144.5820     0.1891     0.1117     2.4581
   91.0000  -999.2500     7.2037     6.9263  -999.2500     8.0334   146.5944     0.1938     0.1009     2.4805
   91.5000  -999.2500     7.1030     6.9713  -999.2500     8.0022   146.4396     0.1690     0.1081     2.4774
   92.0000  -999.2500     7.1011     6.9192  -999.2500     7.9709   149.0459     0.1458     0.1123     2.4579
   92.5000  -999.2500     7.0503     6.8682  -999.2500     7.9551   151.8576     0.1334     0.1173     2.4620
   93.0000  -999.2500     6.9517     6.8650  -999.2500     7.9547   155.2632     0.1241     0.1108     2.4656
   93.5000  -999.2500     6.9496     6.8145  -999.2500     7.9700   156.8111     0.1132     0.1214     2.4500
   94.0000  -999.2500     6.9001     6.8113  -999.2500     7.9696   153.0960     0.1038     0.1220     2.4470
   94.5000  -999.2500     6.8979     6.7611  -999.2500     7.9693   150.0000     0.0975     0.1211     2.4485
   95.0000  -999.2500     6.8960     6.7572  -999.2500     7.9690   146.9814     0.0899     0.1205     2.4500
   95.5000  -999.2500     6.9425     6.7541  -999.2500     7.9842   145.5108     0.0868     0.1202     2.4515
   96.0000  -999.2500     7.0855     6.7509  -999.2500     8.0149   144.2724     0.0853     0.1221     2.4445
   96.5000  -999.2500     7.1327     6.7954  -999.2500     8.0146   142.8793     0.0883     0.1252     2.4367
   97.0000  -999.2500     7.1842     6.8869  -999.2500     8.0142   140.4025     0.0914     0.1248     2.4367
   97.5000  -999.2500     7.2281     6.9788  -999.2500     8.0139   139.7833     0.0883     0.1239     2.4406
   98.0000  -999.2500     7.2763     7.1218  -999.2500     8.0136   136.6873     0.0852     0.1227     2.4436
   98.5000  -999.2500     7.4262     7.1176  -999.2500     8.0133   134.8297     0.0852     0.1181     2.4475
   99.0000  -999.2500     7.4243     7.1143  -999.2500     7.9975   133.4365     0.0867     0.1125     2.4552
   99.5000  -999.2500     7.3712     7.1110  -999.2500     7.9817   133.2817     0.0898     0.1116     2.4683
  100.0000  -999.2500     7.3185     7.0547  -999.2500     8.0278   131.5784     0.0867     0.1169     2.4574
  100.5000  -999.2500     7.3656     7.0254  -999.2500     8.0329   129.2502     0.0773     0.1207     2.4466
  101.0000  -999.2500     7.4161     7.0072  -999.2500     8.0390   125.6837     0.0757     0.1172     2.4558
  101.5000  -999.2500     7.5173     7.0058  -999.2500     8.0451   121.0340     0.0679     0.1191     2.4526
  102.0000  -999.2500     7.6755     6.9561  -999.2500     8.0513   117.9318     0.0804     0.1136     2.4511
  102.5000  -999.2500     7.9398     6.8115  -999.2500     8.0557   118.0805     0.0864     0.1132     2.4627
  103.0000  -999.2500     8.1045     6.6703  -999.2500     8.0551   118.8482     0.0816     0.1142     2.4619
  103.5000  -999.2500     8.2715     6.4869  -999.2500     8.0700   120.0913     0.0646     0.1192     2.4502
  104.0000  -999.2500     8.2693     6.3523  -999.2500     8.0693   117.2878     0.0723     0.1130     2.4649
  104.5000  -999.2500     8.1536     6.2206  -999.2500     8.0687   118.9844     0.0799     0.1006     2.4750
  105.0000  -999.2500     7.8603     6.1338  -999.2500     8.0681   123.6221     0.0814     0.0991     2.4842
  105.5000  -999.2500     7.4487     6.0481  -999.2500     8.0520   125.6283     0.0829     0.1032     2.4764
  106.0000  -999.2500     7.2940     6.0051  -999.2500     8.0359   127.4797     0.0844     0.0967     2.4865
  106.5000  -999.2500     7.1920     6.0459  -999.2500     8.0198   126.6995     0.0843     0.1041     2.4849
  107.0000  -999.2500     7.1901     6.0444  -999.2500     8.0037   124.0617     0.0843     0.1007     2.4794
  107.5000  -999.2500     7.2380     6.0016  -999.2500     7.9876   119.8759     0.0827     0.1073     2.4709
  108.0000  -999.2500     7.2356     6.0003  -999.2500     7.9870   117.5477     0.0826     0.1132     2.4631
  108.5000  -999.2500     7.2337     5.9989  -999.2500     7.9864   116.6127     0.0810     0.1184     2.4561
  109.0000  -999.2500     7.2318     5.9977  -999.2500     8.0167   115.5229     0.0747     0.1172     2.4514
  109.5000  -999.2500     7.1307     5.9965  -999.2500     8.0471   120.4703     0.0576     0.1216     2.4398
  110.0000  -999.2500     7.0797     5.9953  -999.2500     8.0619   118.6065     0.0529     0.1225     2.4460
  110.5000  -999.2500     7.0235     5.9941  -999.2500     8.0768   117.6730     0.0668     0.1166     2.4663
