~VERSION INFORMATION
 VERS.                2.0:   CWLS LOG ASCII STANDARD - VERSION 2.0
 WRAP.                 NO:   ONE LINE PER DEPTH STEP
~WELL INFORMATION
#MNEM.UNIT      DATA TYPE    INFORMATION
#----------   ------------   ------------------------------
 STRT.F            0.0000:   START DEPTH
 STOP.F          553.0000:   STOP DEPTH
 STEP.F            0.5000:   STEP LENGTH
 NULL.          -999.2500:   NO VALUE
 COMP.   FLUOR DANIEL INC:   COMPANY
 WELL. NAVAL PETROLEUM RESERVE 3 SX-3 #1-3:   WELL
 FLD .             TEAPOT:   FIELD
 LOC .       S3 T38N R78W:   LOCATION
 CNTY.            NATRONA:   COUNTY
 STAT.            WYOMING:   STATE
 CTRY. UNITED STATES OF AMERICA:   COUNTRY
 SRVC.      Western Atlas:   SERVICE COMPANY
 DATE.        28-DEC-1994:   LOGDATE
 API .       490252267700:   API NUMBER
~CURVE INFORMATION
#MNEM.UNIT       API CODE    CURVE DESCRIPTION
#----------   ------------   ------------------------------
 DEPT.F                  :   
 GRR .GAPI   07 310 01 00:   GAMMA RAY FROM RES. LOG.
 RILD.OHMM   07 120 46 00:   INDUCTION LOG DEEP RESISTIVITY
 RILM.OHMM   07 120 44 00:   INDUCTION LOG MEDIUM RESISTIVITY
~PARAMETER INFORMATION
#MNEM.UNIT          VALUE    DESCRIPTION
#----------   ------------   ------------------------------
 PD  .                 GL:   PERMANENT DATUM
 EPD .F              5174:   ELEVATION PERMANENT DATUM
 LMF .                 KB:   LOG MEASURED FROM
 DAPD.F                10:   FEET ABOVE PERMANENT DATUM
 DMF .                 KB:   DRILLING MEASURED FROM
 EKB .F              5184:   KELLING BUSHING
 EDF .F              5183:   DRILLING FLOOR
 EGL .F              5174:   GROUND LEVEL
 DATE.        28-DEC-1994:   RUN DATE
 RUN .                  1:   RUN NUMBER
 DD  .F               561:   DEPTH DRILLER
 DL  .F               562:   DEPTH LOGGER
 BLI .F               553:   BOTTOM LOG INTERVAL
 CS  .IN            9.625:   CASING SIZE
 CBD .F                54:   CASING BOTTOM DRILLER
 CBL .F                54:   CASING BOTTOM LOGGER
 BS  .IN             8.75:   BIT SIZE
 BSD .F               561:   BIT SIZE AT DEPTH
 DFT .                AIR:   DRILLING FLUID TYPE
 MRT .F                89:   MAXIMUM RECORDED TEMPERATURE
 LUN .            HL 6530:   LOGGING UNIT NUMBER
 LUL .             CASPER:   LOGGING UNIT LOCATION
 ENGI.      PAT RASMUSSEN:   RECORDING ENGINEER
 WITN.        STEVE HARDY:   WITNESSED BY
 CLNT.            A2DTECH:   CLIENT CODE
 ORIG.           5" PRINT:   ORIGIN OF DATA
 UWI .       490252267700:   UNIQUE WELL ID
 DICO. A2D Technologies, Inc.:   DIGITIZING COMPANY
~OTHER INFORMATION
~A    DEPT      GRR      RILD       RILM   
    0.0000    15.4619  -999.2500  -999.2500
    0.5000    13.4538  -999.2500  -999.2500
    1.0000    14.3463  -999.2500  -999.2500
    1.5000    17.1285  -999.2500  -999.2500
    2.0000    25.2802  -999.2500  -999.2500
    2.5000    31.7962  -999.2500  -999.2500
    3.0000    28.1172  -999.2500  -999.2500
    3.5000    22.1182  -999.2500  -999.2500
    4.0000    16.0571  -999.2500  -999.2500
    4.5000    13.2809  -999.2500  -999.2500
    5.0000    14.1127  -999.2500  -999.2500
    5.5000    15.5278  -999.2500  -999.2500
    6.0000    16.2756  -999.2500  -999.2500
    6.5000    16.0300  -999.2500  -999.2500
    7.0000    16.7319  -999.2500  -999.2500
    7.5000    18.7990  -999.2500  -999.2500
    8.0000    20.8681  -999.2500  -999.2500
    8.5000    21.1826  -999.2500  -999.2500
    9.0000    20.6604  -999.2500  -999.2500
    9.5000    20.9135  -999.2500  -999.2500
   10.0000    23.2037  -999.2500  -999.2500
   10.5000    31.3564  -999.2500  -999.2500
   11.0000    39.4871  -999.2500  -999.2500
   11.5000    48.5343  -999.2500  -999.2500
   12.0000    59.8001  -999.2500  -999.2500
   12.5000    64.6676  -999.2500  -999.2500
   13.0000    68.2454  -999.2500  -999.2500
   13.5000    68.1395  -999.2500  -999.2500
   14.0000    65.6875  -999.2500  -999.2500
   14.5000    63.2260  -999.2500  -999.2500
   15.0000    60.8858  -999.2500  -999.2500
   15.5000    61.9293  -999.2500  -999.2500
   16.0000    63.4995  -999.2500  -999.2500
   16.5000    65.0762  -999.2500  -999.2500
   17.0000    66.5655  -999.2500  -999.2500
   17.5000    65.9936  -999.2500  -999.2500
   18.0000    64.6269  -999.2500  -999.2500
   18.5000    64.7192  -999.2500  -999.2500
   19.0000    65.8086  -999.2500  -999.2500
   19.5000    66.1803  -999.2500  -999.2500
   20.0000    65.4957  -999.2500  -999.2500
   20.5000    64.8040  -999.2500  -999.2500
   21.0000    63.4395  -999.2500  -999.2500
   21.5000    62.1076  -999.2500  -999.2500
   22.0000    62.2911  -999.2500  -999.2500
   22.5000    62.5689  -999.2500  -999.2500
   23.0000    62.8568  -999.2500  -999.2500
   23.5000    63.7526  -999.2500  -999.2500
   24.0000    66.3216  -999.2500  -999.2500
   24.5000    68.0549  -999.2500  -999.2500
   25.0000    69.3018  -999.2500  -999.2500
   25.5000    69.2822  -999.2500  -999.2500
   26.0000    69.1832  -999.2500  -999.2500
   26.5000    68.4901  -999.2500  -999.2500
   27.0000    67.7504  -999.2500  -999.2500
   27.5000    69.3111  -999.2500  -999.2500
   28.0000    71.3628  -999.2500  -999.2500
   28.5000    73.4629  -999.2500  -999.2500
   29.0000    76.0671  -999.2500  -999.2500
   29.5000    79.1121  -999.2500  -999.2500
   30.0000    79.9227  -999.2500  -999.2500
   30.5000    80.8279  -999.2500  -999.2500
   31.0000    81.6801  -999.2500  -999.2500
   31.5000    80.9552  -999.2500  -999.2500
   32.0000    80.1554  -999.2500  -999.2500
   32.5000    79.6742  -999.2500  -999.2500
   33.0000    81.4753  -999.2500  -999.2500
   33.5000    82.1798  -999.2500  -999.2500
   34.0000    79.4730  -999.2500  -999.2500
   34.5000    77.1719  -999.2500  -999.2500
   35.0000    77.7002  -999.2500  -999.2500
   35.5000    78.3815  -999.2500  -999.2500
   36.0000    77.2464  -999.2500  -999.2500
   36.5000    74.9242  -999.2500  -999.2500
   37.0000    73.8094  -999.2500  -999.2500
   37.5000    74.0773  -999.2500  -999.2500
   38.0000    75.3243  -999.2500  -999.2500
   38.5000    77.3222  -999.2500  -999.2500
   39.0000    74.6186  -999.2500  -999.2500
   39.5000    71.7800  -999.2500  -999.2500
   40.0000    69.9945  -999.2500  -999.2500
   40.5000    73.3959  -999.2500  -999.2500
   41.0000    77.5890  -999.2500  -999.2500
   41.5000    81.3308  -999.2500  -999.2500
   42.0000    79.3707  -999.2500  -999.2500
   42.5000    76.2277  -999.2500  -999.2500
   43.0000    76.5848  -999.2500  -999.2500
   43.5000    80.2977  -999.2500  -999.2500
   44.0000    80.8465  -999.2500  -999.2500
   44.5000    80.1592  -999.2500  -999.2500
   45.0000    80.5715  -999.2500  -999.2500
   45.5000    81.6880  -999.2500  -999.2500
   46.0000    82.8099  -999.2500  -999.2500
   46.5000    83.0231  -999.2500  -999.2500
   47.0000    80.6277  -999.2500  -999.2500
   47.5000    78.1416  -999.2500  -999.2500
   48.0000    78.4228  -999.2500  -999.2500
   48.5000    80.1228  -999.2500  -999.2500
   49.0000    80.4749  -999.2500  -999.2500
   49.5000    79.4790  -999.2500  -999.2500
   50.0000    78.5109  -999.2500  -999.2500
   50.5000    80.4733  -999.2500  -999.2500
   51.0000    83.4254  -999.2500  -999.2500
   51.5000    85.0667  -999.2500  -999.2500
   52.0000    84.2060  -999.2500  -999.2500
   52.5000    82.5613  -999.2500  -999.2500
   53.0000    81.2801  -999.2500  -999.2500
   53.5000    87.5493  -999.2500  -999.2500
   54.0000    99.1842 10009.8779  3061.9629
   54.5000   110.9301  9383.6689   851.7037
   55.0000   118.9590     3.7428 10970.7275
   55.5000   119.9853     3.8839     2.9690
   56.0000   118.5519     2.1335     2.8140
   56.5000   119.5457     2.4819     3.8897
   57.0000   124.3465     3.8525     4.5278
   57.5000   127.9073     6.7707     5.4737
   58.0000   129.7533     9.3405     7.2534
   58.5000   131.0472     7.1770     8.4388
   59.0000   131.1726     6.0331     7.1472
   59.5000   130.5322     5.8497     6.8527
   60.0000   129.8826     5.6718     6.4573
   60.5000   129.7307     5.4994     7.2774
   61.0000   133.3088     5.4689     8.0582
   61.5000   137.0989     6.1218     8.1439
   62.0000   138.8227     7.2702     7.4660
   62.5000   137.1069     8.2161     7.0192
   63.0000   134.2579     8.2861     7.0333
   63.5000   130.9875     7.7442     7.0510
   64.0000   127.1511     7.3132     7.0687
   64.5000   123.4681     7.0165     7.0844
   65.0000   122.7101     6.9479     7.0134
   65.5000   123.5770     7.0208     7.0862
   66.0000   126.2400     7.0847     7.1504
   66.5000   128.8239     7.1486     7.2148
   67.0000   129.3735     7.2128     7.2797
   67.5000   129.6475     7.2776     7.3451
   68.0000   129.9173     7.3487     7.4160
   68.5000   129.6295     7.3313     7.3986
   69.0000   129.5673     7.2996     7.3673
   69.5000   131.9340     7.2804     7.3522
   70.0000   134.2857     7.2135     7.2756
   70.5000   133.5753     7.0609     7.1264
   71.0000   131.0951     6.9343     6.9986
   71.5000   128.0554     6.8099     6.8730
   72.0000   125.0312     6.6878     6.7496
   72.5000   124.9063     6.5678     6.6276
   73.0000   126.8159     6.4573     6.5199
   73.5000   128.7571     6.3979     6.4540
   74.0000   129.7925     6.3980     6.4573
   74.5000   129.9123     6.3980     6.4573
   75.0000   130.0027     6.3980     6.4573
   75.5000   131.5121     6.3980     6.4574
   76.0000   132.5361     6.3980     6.4575
   76.5000   131.0400     6.3917     6.4581
   77.0000   130.0454     6.3278     6.3865
   77.5000   130.6882     6.2645     6.3225
   78.0000   130.0957     6.2019     6.2586
   78.5000   129.5035     6.1661     6.2232
   79.0000   128.2386     6.2498     6.3078
   79.5000   122.8896     6.3317     6.3904
   80.0000   117.3445     6.4146     6.4741
   80.5000   116.8483     6.4986     6.5589
   81.0000   121.2209     6.5837     6.6448
   81.5000   126.6145     6.6700     6.7318
   82.0000   132.1873     6.7573     6.8200
   82.5000   132.3189     6.8458     6.9093
   83.0000   131.1197     6.9355     6.9998
   83.5000   129.2781     7.0263     7.0920
   84.0000   127.1038     7.0816     7.1479
   84.5000   122.7250     7.0961     7.1622
   85.0000   124.0847     7.1139     7.1800
   85.5000   129.4737     7.1318     7.1979
   86.0000   132.0175     7.1472     7.2135
   86.5000   131.2776     7.0947     7.1605
   87.0000   128.6749     7.0492     7.1145
   87.5000   123.7079     7.0038     7.0687
   88.0000   119.4723     6.9588     7.0233
   88.5000   117.1102     6.9140     6.9781
   89.0000   119.5422     6.8691     6.9328
   89.5000   122.4611     6.8249     6.8884
   90.0000   125.9129     6.9057     6.9691
   90.5000   129.3424     6.9885     7.0533
