~VERSION INFORMATION
 VERS.                2.0:   CWLS LOG ASCII STANDARD - VERSION 2.0
 WRAP.                 NO:   ONE LINE PER DEPTH STEP
~WELL INFORMATION
#MNEM.UNIT      DATA TYPE    INFORMATION
#----------   ------------   ------------------------------
 STRT.F         1500.0000:   START DEPTH
 STOP.F         3480.0000:   STOP DEPTH
 STEP.F            0.5000:   STEP LENGTH
 NULL.          -999.2500:   NO VALUE
 COMP. FLUOR DANIEL (NOPSR). INC.:   COMPANY
 WELL.   22-STX-26 #22-26:   WELL
 FLD .             NPR #3:   FIELD
 LOC .      S26 T38N R78W:   LOCATION
 CNTY.            NATRONA:   COUNTY
 STAT.            WYOMING:   STATE
 CTRY. UNITED STATES OF AMERICA:   COUNTRY
 SRVC.            Unknown:   SERVICE COMPANY
 DATE.        14-JUN-1995:   LOGDATE
 API .       490252272400:   API NUMBER
~CURVE INFORMATION
#MNEM.UNIT       API CODE    CURVE DESCRIPTION
#----------   ------------   ------------------------------
 DEPT.F                  :   
 ROP .MIN/FT 91 810 01 00:   RATE OF DRILLING PENETRATION
 TGAS.UNITS  91 830 01 00:   TOTAL GAS FROM HOTWIRE
~PARAMETER INFORMATION
#MNEM.UNIT          VALUE    DESCRIPTION
#----------   ------------   ------------------------------
 EKB .F              5348:   KELLING BUSHING
 EGL .F              5338:   GROUND LEVEL
 DATE.            6-14-95:   RUN DATE
 DD  .F              3480:   DEPTH DRILLER
 BLI .F              3480:   BOTTOM LOG INTERVAL
 TLI .F              1500:   TOP LOG INTERVAL
 CS  .IN            9.625:   CASING SIZE
 CBD .F                87:   CASING BOTTOM DRILLER
 ENGI.               HUSK:   RECORDING ENGINEER
 WITN.              TOWER:   WITNESSED BY
 CLNT.            A2DTECH:   CLIENT CODE
 ORIG.           5" PRINT:   ORIGIN OF DATA
 UWI .       490252272400:   UNIQUE WELL ID
 DICO. A2D Technologies, Inc.:   DIGITIZING COMPANY
~OTHER INFORMATION
~A  DEPT         ROP       TGAS 
# ...
 1743.0000     0.7832     1.5316
 1743.5000     0.7834     1.5195
 1744.0000     0.7836     1.5074
 1744.5000     0.7839     1.4953
 1745.0000     0.7841     0.9882
 1745.5000     0.7843     0.6615
 1746.0000     1.0256     0.6596
 1746.5000     1.0258     0.6578
 1747.0000     1.0260     0.6559
 1747.5000     1.0262     0.6540
 1748.0000     1.2780     0.6522
 1748.5000     1.2782     0.6503
 1749.0000     1.2784     0.6485
 1749.5000     1.2786     0.6466
 1750.0000     0.9958     0.6447
 1750.5000     0.9960     0.6429
 1751.0000     0.9962     0.6410
 1751.5000     0.9964     0.6391
 1752.0000     0.9966     0.6373
 1752.5000     0.9969     0.6354
 1753.0000     0.9971     0.6335
 1753.5000     0.9973     0.6317
 1754.0000     0.9975     0.6298
 1754.5000     0.9977     0.6280
 1755.0000     0.9979     0.6261
 1755.5000     0.9981     0.6242
 1756.0000     0.9984     0.6224
 1756.5000     0.7855     0.6205
 1757.0000     0.7809     0.6186
 1757.5000     0.7763     0.6168
 1758.0000     0.7717     0.6149
 1758.5000     0.6220     0.6130
 1759.0000     0.6222     0.6112
 1759.5000     0.6212     0.6093
 1760.0000     0.6204     0.6075
 1760.5000     0.6195     0.6056
 1761.0000     0.6186     0.6037
 1761.5000     0.6178     0.6019
 1762.0000     0.6169     0.6000
 1762.5000     0.6161     0.5981
 1763.0000     0.6152     0.5963
 1763.5000     0.6144     0.5944
 1764.0000     0.7711     0.5925
 1764.5000     0.7713     0.5907
 1765.0000     0.7715     0.5888
 1765.5000     0.7717     0.5870
 1766.0000     0.7719     0.5851
 1766.5000     0.7721     0.5832
 1767.0000     0.7723     0.5814
 1767.5000     0.7725     0.5795
 1768.0000     0.7727     0.5776
 1768.5000     0.7730     0.5758
 1769.0000     0.7732     0.5739
 1769.5000     0.7734     0.5720
 1770.0000     0.6268     0.5702
 1770.5000     0.6166     0.5683
 1771.0000     0.6168     0.5665
 1771.5000     0.6170     0.5646
 1772.0000     0.6172     0.5627
 1772.5000     0.6174     0.5609
 1773.0000     0.6176     0.5590
 1773.5000     0.6179     0.5571
 1774.0000     0.6181     0.5553
 1774.5000     0.5134     0.5534
 1775.0000     0.5241     0.5515
 1775.5000     0.5228     0.5497
 1776.0000     0.5209     0.5478
 1776.5000     0.5189     0.5459
 1777.0000     0.5170     0.5441
 1777.5000     0.5151     0.5422
 1778.0000     0.5132     0.5404
 1778.5000     0.5113     0.5385
 1779.0000     0.5094     0.5366
 1779.5000     0.5075     0.5348
 1780.0000     0.5053     0.5329
 1780.5000     0.5051     0.5310
 1781.0000     0.5049     0.5292
 1781.5000     0.5047     0.5273
 1782.0000     0.5045     0.5254
 1782.5000     0.5043     0.5236
 1783.0000     0.5040     0.5217
 1783.5000     0.5038     0.5199
 1784.0000     0.5036     0.5180
 1784.5000     0.5034     0.5161
 1785.0000     0.5032     0.5143
 1785.5000     0.5030     0.5124
 1786.0000     0.5028     0.5105
 1786.5000     0.5025     0.5087
 1787.0000     0.5023     0.5068
 1787.5000     0.5021     0.5049
 1788.0000     0.5019     0.5031
 1788.5000     0.5017     0.5012
 1789.0000     0.5015     0.4994
 1789.5000     0.5013     0.4975
 1790.0000     0.5011     0.4956
 1790.5000     0.5008     0.4938
 1791.0000     0.5006     0.4919
 1791.5000     0.5004     0.4900
 1792.0000     0.5002     0.4882
 1792.5000     0.5000     0.4863
 1793.0000     0.4998     0.4844
 1793.5000     0.4996     0.4826
 1794.0000     0.4993     0.4807
 1794.5000     0.4991     0.4789
 1795.0000     0.4989     0.4770
 1795.5000     0.4987     0.4751
 1796.0000     0.4985     0.4733
 1796.5000     0.4983     0.4714
 1797.0000     0.4981     0.4695
 1797.5000     0.4979     0.4677
 1798.0000     0.4976     0.4658
 1798.5000     0.4974     0.4639
 1799.0000     0.4972     0.4621
 1799.5000     0.4970     0.4602
 1800.0000     0.4968     0.4584
 1800.5000     0.4966     0.4565
 1801.0000     0.4964     0.4546
 1801.5000     0.4962     0.4528
 1802.0000     0.4959     0.4509
 1802.5000     0.4957     0.4490
 1803.0000     0.4955     0.4472
 1803.5000     0.4953     0.4453
 1804.0000     0.4951     0.4434
 1804.5000     0.4949     0.4416
 1805.0000     0.4947     0.4397
 1805.5000     0.4944     0.4379
 1806.0000     0.4942     0.4360
 1806.5000     0.4940     0.4341
 1807.0000     0.4938     0.4323
 1807.5000     0.4936     0.4304
 1808.0000     0.4934     0.4285
 1808.5000     0.4932     0.4267
 1809.0000     0.4930     0.4248
 1809.5000     0.4927     0.4229
 1810.0000     0.4925     0.4211
 1810.5000     0.4923     0.4192
 1811.0000     0.4921     0.4174
 1811.5000     0.4919     0.4155
 1812.0000     0.4917     0.4136
 1812.5000     0.4915     0.4118
 1813.0000     0.4913     0.4099
 1813.5000     0.4910     0.4080
 1814.0000     0.4908     0.4062
 1814.5000     0.4906     0.4043
 1815.0000     0.4904     0.4024
 1815.5000     0.4902     0.4006
 1816.0000     0.4900     0.3987
 1816.5000     0.4898     0.3969
 1817.0000     0.4895     0.3950
 1817.5000     0.4893     0.3931
 1818.0000     0.4891     0.3913
 1818.5000     0.4889     0.3894
 1819.0000     0.4887     0.3875
 1819.5000     0.4885     0.3857
 1820.0000     0.4883     0.3838
 1820.5000     0.4881     0.3819
 1821.0000     0.4878     0.3801
 1821.5000     0.4876     0.3782
 1822.0000     0.4874     0.3764
 1822.5000     0.4872     0.3745
 1823.0000     0.4870     0.3726
 1823.5000     0.4868     0.3708
 1824.0000     0.4866     0.3689
 1824.5000     0.4864     0.3670
 1825.0000     0.4861     0.3654
 1825.5000     0.4859     0.3902
 1826.0000     0.4857     0.4123
 1826.5000     0.4855     0.4344
 1827.0000     0.4853     0.4565
 1827.5000     0.4851     0.4786
 1828.0000     0.4849     0.5007
 1828.5000     0.4846     0.5228
 1829.0000     0.4844     0.5449
 1829.5000     0.4842     0.5670
 1830.0000     0.4840     0.5891
 1830.5000     0.4838     0.6113
 1831.0000     0.4836     0.6334
 1831.5000     0.4834     0.6555
 1832.0000     0.4832     0.6776
 1832.5000     0.4829     0.6997
 1833.0000     0.4827     0.7218
 1833.5000     0.4825     0.7439
 1834.0000     0.4823     0.7660
 1834.5000     0.4821     0.7881
 1835.0000     0.4819     0.8102
 1835.5000     0.4817     0.8323
 1836.0000     0.4815     0.8544
 1836.5000     0.4812     0.8766
 1837.0000     0.4810     0.8987
 1837.5000     0.4808     0.9208
 1838.0000     0.4806     0.9429
 1838.5000     0.4804     0.9650
 1839.0000     0.4802     0.9871
 1839.5000     0.4800     1.0092
 1840.0000     0.4797     1.0313
 1840.5000     0.4795     1.0534
 1841.0000     0.4793     1.0755
 1841.5000     0.4791     1.0976
 1842.0000     0.4789     1.1198
 1842.5000     0.4263     1.1419
 1843.0000     0.4269     1.1640
 1843.5000     0.4275     1.1861
 1844.0000     0.4281     1.2082
 1844.5000     0.4287     1.2303
 1845.0000     0.4292     1.2524
 1845.5000     0.4298     1.2745
 1846.0000     0.4304     1.2966
 1846.5000     0.4310     1.3187
 1847.0000     0.4316     1.3408
 1847.5000     0.4321     1.3629
 1848.0000     0.4327     1.3851
 1848.5000     0.4333     1.4072
 1849.0000     0.4339     1.4293
 1849.5000     0.4344     1.6603
 1850.0000     0.4350     2.5136
 1850.5000     0.4356     3.3683
 1851.0000     0.4362     4.0123
 1851.5000     0.4367     5.2855
 1852.0000     0.4373     6.9760
 1852.5000     0.4379    10.9702
 1853.0000     0.4385    16.0095
 1853.5000     0.4390    24.6083
 1854.0000     0.4396    41.5779
 1854.5000     0.4402    63.1534
 1855.0000     0.4408    69.6579
 1855.5000     0.4414    73.0241
 1856.0000     0.4419    73.2495
 1856.5000     0.4425    72.4284
 1857.0000     0.4431    71.3966
 1857.5000     0.4437    69.1144
 1858.0000     0.4442    66.6189
 1858.5000     0.4448    63.9140
 1859.0000     0.4454    61.4185
 1859.5000     0.4460    58.9243
 1860.0000     0.4465    57.0580
 1860.5000     0.4471    54.9824
 1861.0000     0.4477    53.3240
 1861.5000     0.4483    52.0856
 1862.0000     0.4488    50.6339
 1862.5000     0.4494    48.7703
 1863.0000     0.4500    47.3199
 1863.5000     0.4506    46.4974
 1864.0000     0.4512    45.8843
