~VERSION INFORMATION
 VERS.                2.0:   CWLS LOG ASCII STANDARD - VERSION 2.0
 WRAP.                 NO:   ONE LINE PER DEPTH STEP
~WELL INFORMATION
#MNEM.UNIT      DATA TYPE    INFORMATION
#----------   ------------   ------------------------------
 STRT.F           14.0000:   START DEPTH
 STOP.F          608.0000:   STOP DEPTH
 STEP.F            0.1000:   STEP LENGTH
 NULL.          -999.2500:   NO VALUE
 COMP. FENIX & SCISSON INC:   COMPANY
 WELL. NAVAL PETROLEUM RESERVE 3 S-15 #72-15:   WELL
 FLD .             TEAPOT:   FIELD
 LOC .      S15 T38N R78W:   LOCATION
 CNTY.            NATRONA:   COUNTY
 STAT.            WYOMING:   STATE
 CTRY. UNITED STATES OF AMERICA:   COUNTRY
 SRVC.           BIRDWELL:   SERVICE COMPANY
 DATE.        21-JUL-1978:   LOGDATE
 API .       490251067300:   API NUMBER
~CURVE INFORMATION
#MNEM.UNIT       API CODE    CURVE DESCRIPTION
#----------   ------------   ------------------------------
 DEPT.F                  :   
 ILD .OHMM   05 120 46 00:   INDUCTION LOG DEEP
 SN  .OHMM   05 040 16 00:   SHORT NORMAL 16"
 SPR .MV     05 010 01 00:   SPONTANEOUS POTENTIAL FROM RES.
 CALD.IN     45 280 60 00:   CALIPER FROM DENSITY LOG
 DPHI.DEC    45 890 12 00:   DENSITY POROSITY SANDSTONE
 DRHO.G/C3   45 356 01 00:   DENSITY CORRECTION
 GRD .GAPI   45 310 01 00:   GAMMA RAY FROM DENSITY LOG
 RHOB.G/C3   45 350 01 00:   BULK DENSITY
~PARAMETER INFORMATION
#MNEM.UNIT          VALUE    DESCRIPTION
#----------   ------------   ------------------------------
 PD  .                 GL:   PERMANENT DATUM
 EPD .F              5238:   ELEVATION PERMANENT DATUM
 LMF .                 KB:   LOG MEASURED FROM
 DAPD.F                 4:   FEET ABOVE PERMANENT DATUM
 DMF .                 KB:   DRILLING MEASURED FROM
 EKB .F              5242:   KELLING BUSHING
 EGL .F              5238:   GROUND LEVEL
 DATE.        21-JUL-1978:   RUN DATE
 RUN .                  1:   RUN NUMBER
 DD  .F               597:   DEPTH DRILLER
 DL  .F               615:   DEPTH LOGGER
 BLI .F               608:   BOTTOM LOG INTERVAL
 TLI .F                35:   TOP LOG INTERVAL
 CS  .IN            8.625:   CASING SIZE
 CBD .F                40:   CASING BOTTOM DRILLER
 CBL .F                35:   CASING BOTTOM LOGGER
 BS  .IN            7.875:   BIT SIZE
 BSD .F               597:   BIT SIZE AT DEPTH
 DFT .                KCL:   DRILLING FLUID TYPE
 DFD .                8.6:   DRILLING FLUID DENSITY
 DFV .                 33:   DRILLING FLUID VISCOSITY
 DFPH.                9.0:   DRILLING FLUID PH
 MSS .            MUD PIT:   MUD SAMPLE SOURCE
 MFSS.               MEAS:   MUD FILTRATE SAMPLE SOURCE
 MCSS.               MEAS:   MUD CAKE SAMPLE SOURCE
 BHT .F                74:   BOTTOM HOLE TEMPERATURE
 TCS .HRS               2:   TIME CURCULATED STOPPED
 MRT .F                74:   MAXIMUM RECORDED TEMPERATURE
 LUN .               2958:   LOGGING UNIT NUMBER
 LUL .             CASPER:   LOGGING UNIT LOCATION
 ENGI.             MILLER:   RECORDING ENGINEER
 WITN.           MCGINLEY:   WITNESSED BY
 CLNT.            A2DTECH:   CLIENT CODE
 ORIG.           5" PRINT:   ORIGIN OF DATA
 UWI .       490251067300:   UNIQUE WELL ID
 DICO. A2D Technologies, Inc.:   DIGITIZING COMPANY
~OTHER INFORMATION
~A   DEPT      ILD         SN        SPR       CALD       DPHI       DRHO         GRD      RHOB   
# ...
  451.4000    15.8121    13.7756   -11.5568     7.8697     0.1661     0.0172    69.7747     2.4058
  451.5000    15.8006    13.7699   -11.5577     7.8696     0.1660     0.0172    69.7964     2.4059
  451.6000    15.7891    13.7643   -11.5586     7.8696     0.1662     0.0169    69.8181     2.4061
  451.7000    15.7777    13.7586   -11.5595     7.8696     0.1664     0.0163    69.8398     2.4062
  451.8000    15.7662    13.7529   -11.5604     7.8695     0.1669     0.0157    69.8616     2.4063
  451.9000    15.7547    13.7472   -11.5613     7.8695     0.1676     0.0157    69.8833     2.4063
  452.0000    15.7432    13.7416   -11.5622     7.8695     0.1684     0.0157    69.9064     2.4063
  452.1000    15.7318    13.7359   -11.5631     7.8695     0.1690     0.0157    69.9056     2.4063
  452.2000    15.7203    13.7302   -11.5640     7.8694     0.1701     0.0157    70.0780     2.4067
  452.3000    15.7088    13.7246   -11.5649     7.8700     0.1713     0.0155    70.3227     2.4071
  452.4000    15.6962    13.7189   -11.5658     7.8705     0.1727     0.0142    70.5062     2.4070
  452.5000    15.6958    13.7132   -11.5667     7.8711     0.1744     0.0142    70.5103     2.4063
  452.6000    15.6953    13.7076   -11.5677     7.8717     0.1763     0.0142    70.7550     2.4063
  452.7000    15.6949    13.7019   -11.5685     7.8722     0.1794     0.0136    70.9996     2.4059
  452.8000    15.6945    13.6962   -11.5694     7.8728     0.1808     0.0124    71.2443     2.4056
  452.9000    15.6940    13.6906   -11.5703     7.8733     0.1806     0.0112    71.4066     2.4053
  453.0000    15.6936    13.6849   -11.5712     7.8739     0.1803     0.0087    71.4188     2.4041
  453.1000    15.6932    13.6792   -11.5721     7.8745     0.1798     0.0063    71.5555     2.4026
  453.2000    15.6927    13.6736   -11.5732     7.8750     0.1792     0.0065    71.5547     2.4006
  453.3000    15.6923    13.6679   -11.5739     7.8756     0.1784     0.0089    71.3944     2.3979
  453.4000    15.6919    13.6622   -11.5748     7.8761     0.1777     0.0115    71.0446     2.3948
  453.5000    15.6914    13.6566   -11.5757     7.8767     0.1770     0.0156    70.4818     2.3917
  453.6000    15.6910    13.6509   -11.5766     7.8772     0.1762     0.0188    69.5903     2.3876
  453.7000    15.6906    13.6452   -11.5776     7.8778     0.1753     0.0217    68.6425     2.3855
  453.8000    15.7272    13.6395   -11.5784     7.8784     0.1746     0.0241    67.7498     2.3830
  453.9000    15.7985    13.6339   -11.6646     7.8789     0.1742     0.0264    67.0139     2.3806
  454.0000    15.7980    13.6282   -11.7301     7.8795     0.1737     0.0276    66.5359     2.3776
  454.1000    15.7975    13.6220   -11.7464     7.8800     0.1732     0.0288    66.4184     2.3719
  454.2000    15.7971    13.6219   -11.8086     7.8806     0.1727     0.0291    67.0207     2.3748
  454.3000    15.7967    13.6217   -11.8829     7.8811     0.1724     0.0285    67.7260     2.3774
  454.4000    15.7962    13.6215   -11.8837     7.8817     0.1719     0.0276    68.5116     2.3798
  454.5000    15.7958    13.6213   -11.8846     7.8823     0.1713     0.0275    69.2473     2.3822
  454.6000    15.7953    13.6211   -11.8855     7.8828     0.1711     0.0261    69.9663     2.3847
  454.7000    15.8699    13.6209   -11.8948     7.8834     0.1708     0.0251    70.6361     2.3871
  454.8000    15.9039    13.6207   -11.9570     7.8839     0.1704     0.0246    70.9695     2.3886
  454.9000    15.9035    13.6205   -12.0192     7.8845     0.1702     0.0244    71.4203     2.3898
  455.0000    15.9030    13.6204   -12.0390     7.8850     0.1701     0.0237    71.7999     2.3910
  455.1000    15.9026    13.6090   -12.0399     7.8856     0.1699     0.0231    72.0446     2.3922
  455.2000    15.9021    13.5262   -12.0712     7.8862     0.1699     0.0225    72.2908     2.3936
  455.3000    15.9017    13.5260   -12.1916     7.8867     0.1697     0.0219    72.5339     2.3936
  455.4000    15.9013    13.5258   -12.1925     7.8873     0.1694     0.0213    72.6846     2.3940
  455.5000    15.9008    13.5256   -12.1934     7.8878     0.1693     0.0207    72.8064     2.3946
  455.6000    15.9004    13.5254   -12.1943     7.8884     0.1692     0.0201    72.8905     2.3952
  455.7000    15.8999    13.5253   -12.1952     7.8890     0.1690     0.0201    72.8701     2.3959
  455.8000    15.8995    13.5250   -12.1961     7.8895     0.1690     0.0201    72.5869     2.3965
  455.9000    15.8991    13.5249   -12.1971     7.8901     0.1690     0.0201    72.3772     2.3966
  456.0000    15.8986    13.5017   -12.1979     7.8906     0.1690     0.0201    72.2072     2.3966
  456.1000    15.8982    13.4634   -12.1988     7.8912     0.1691     0.0201    72.0351     2.3968
  456.2000    15.8977    13.4312   -12.2571     7.8917     0.1693     0.0201    71.8090     2.3974
  456.3000    15.8973    13.4310   -12.3505     7.8923     0.1696     0.0201    71.6775     2.3980
  456.4000    15.8969    13.4308   -12.3514     7.8926     0.1698     0.0200    71.4465     2.3981
  456.5000    15.8964    13.4306   -12.3525     7.8924     0.1701     0.0200    71.2001     2.3981
  456.6000    15.8960    13.4305   -12.4514     7.8923     0.1702     0.0200    71.0126     2.3981
  456.7000    15.8956    13.4303   -12.5040     7.8922     0.1702     0.0200    70.8580     2.3982
  456.8000    15.8951    13.4301   -12.5485     7.8921     0.1702     0.0188    70.6144     2.3982
  456.9000    15.8600    13.4299   -12.6558     7.8920     0.1707     0.0185    70.4907     2.3982
  457.0000    15.8151    13.4297   -12.6568     7.8918     0.1704     0.0179    70.4646     2.3982
  457.1000    15.7702    13.4295   -12.7692     7.8917     0.1701     0.0170    70.4636     2.3982
  457.2000    15.7253    13.4293   -12.8084     7.8916     0.1698     0.0170    70.5456     2.3982
  457.3000    15.6749    13.4292   -12.8093     7.8948     0.1693     0.0170    70.7902     2.3982
  457.4000    15.6359    13.4290   -12.8102     7.8988     0.1687     0.0170    71.0641     2.3982
  457.5000    15.5914    13.4288   -12.8111     7.9027     0.1681     0.0178    71.4957     2.3982
  457.6000    15.5658    13.4286   -12.8120     7.9069     0.1677     0.0190    71.9859     2.3982
  457.7000    15.5610    13.4154   -12.8129     7.9130     0.1674     0.0205    72.3722     2.3982
  457.8000    15.5387    13.3900   -12.8138     7.9190     0.1671     0.0230    72.6408     2.3982
  457.9000    15.5164    13.3645   -12.8147     7.9210     0.1666     0.0230    73.0205     2.3982
  458.0000    15.4942    13.3354   -12.8156     7.9208     0.1662     0.0239    73.3756     2.3982
  458.1000    15.4719    13.3352   -12.8166     7.9207     0.1660     0.0251    73.8337     2.3982
  458.2000    15.4431    13.3350   -12.8174     7.9206     0.1666     0.0260    74.2613     2.3982
  458.3000    15.3993    13.3348   -12.8183     7.9205     0.1679     0.0261    74.6631     2.3982
  458.4000    15.3489    13.3347   -12.8192     7.9204     0.1699     0.0275    75.1404     2.3982
  458.5000    15.3486    13.3345   -12.8201     7.9202     0.1714     0.0275    75.4282     2.3984
  458.6000    15.3481    13.3343   -12.8210     7.9201     0.1725     0.0275    75.6297     2.3987
  458.7000    15.3477    13.2776   -12.8219     7.9200     0.1720     0.0275    75.8013     2.3989
  458.8000    15.3324    13.2421   -12.8228     7.9199     0.1704     0.0275    75.9232     2.3990
  458.9000    15.2412    13.2419   -12.8237     7.9198     0.1690     0.0275    76.0450     2.3997
  459.0000    15.2408    13.2417   -12.8246     7.9196     0.1678     0.0263    76.1779     2.3997
  459.1000    15.1786    13.2415   -12.8255     7.9195     0.1672     0.0260    76.1771     2.3997
  459.2000    15.1351    13.1765   -12.8265     7.9194     0.1660     0.0254    76.0088     2.4002
  459.3000    15.1117    13.1500   -12.8273     7.9193     0.1648     0.0245    75.7067     2.4015
  459.4000    15.0302    13.1181   -12.8282     7.9192     0.1642     0.0244    75.3099     2.4027
