~VERSION INFORMATION
 VERS.                2.0:   CWLS LOG ASCII STANDARD - VERSION 2.0
 WRAP.                 NO:   ONE LINE PER DEPTH STEP
~WELL INFORMATION
#MNEM.UNIT      DATA TYPE    INFORMATION
#----------   ------------   ------------------------------
 STRT.F           66.0000:   START DEPTH
 STOP.F          814.0000:   STOP DEPTH
 STEP.F            0.5000:   STEP LENGTH
 NULL.          -999.2500:   NO VALUE
 COMP.   FLUOR DANIEL INC:   COMPANY
 WELL. NAVAL PETROLEUM RESERVE 3 SX-2 #32-11-2:   WELL
 FLD .        N.P.R NO. 3:   FIELD
 LOC .       S2 T38N R78W:   LOCATION
 CNTY.            NATRONA:   COUNTY
 STAT.            WYOMING:   STATE
 CTRY. UNITED STATES OF AMERICA:   COUNTRY
 SRVC.      Dresser Atlas:   SERVICE COMPANY
 DATE.        15-AUG-1985:   LOGDATE
 API .       490251104000:   API NUMBER
~CURVE INFORMATION
#MNEM.UNIT       API CODE    CURVE DESCRIPTION
#----------   ------------   ------------------------------
 DEPT.F                  :   
 SPR .MV     07 010 01 00:   SPONTANEOUS POTENTIAL
 RILD.OHMM   07 120 46 00:   INDUCTION LOG DEEP RESISTIVITY
 RILM.OHMM   07 120 44 00:   INDUCTION LOG MEDIUM RESISTIVITY
 RFOC.OHMM   07 220 04 00:   RESISTIVITY FOCUSED LOG
 PORD.DEC    45 890 12 00:   POROSITY DENSITY SANDSTONE
 CNC .DEC    42 890 03 00:   NEUTRON POROSITY SANDSTONE
 GRD .GAPI   45 310 01 00:   GAMMA RAY FROM DENSITY LOG
 CALD.IN     45 280 60 00:   CALIPER FROM DENSITY LOG
 CORR.G/C3   45 356 01 00:   DENSITY CORRECTION
 DEN .G/C3   45 350 01 00:   COMPENSATED BULK DENSTIY
~PARAMETER INFORMATION
#MNEM.UNIT          VALUE    DESCRIPTION
#----------   ------------   ------------------------------
 PD  .                 GL:   PERMANENT DATUM
 EPD .F              5113:   ELEVATION PERMANENT DATUM
 LMF .                 GL:   LOG MEASURED FROM
 DMF .                 GL:   DRILLING MEASURED FROM
 EGL .F              5113:   GROUND LEVEL
 DATE.            8-15-85:   RUN DATE
 RUN .                  1:   RUN NUMBER
 DD  .F               817:   DEPTH DRILLER
 DL  .F               817:   DEPTH LOGGER
 BLI .F               814:   BOTTOM LOG INTERVAL
 CS  .IN            8.625:   CASING SIZE
 CBD .F                79:   CASING BOTTOM DRILLER
 CBL .F                79:   CASING BOTTOM LOGGER
 BS  .IN            7.875:   BIT SIZE
 BSD .F               817:   BIT SIZE AT DEPTH
 DFT .          KCL WATER:   DRILLING FLUID TYPE
 MSS .               TANK:   MUD SAMPLE SOURCE
 RMS .OHMM            .25:   RESISTIVITY MUD SAMPLE
 MST .F                70:   MUD SAMPLE TEMPERATURE
 BHT .F               100:   BOTTOM HOLE TEMPERATURE
 TCS .HRS               2:   TIME CURCULATED STOPPED
 MRT .F               100:   MAXIMUM RECORDED TEMPERATURE
 LUN .            HL-6274:   LOGGING UNIT NUMBER
 LUL .           GILLETTE:   LOGGING UNIT LOCATION
 ENGI.             RAUTIO:   RECORDING ENGINEER
 WITN.           JENNINGS:   WITNESSED BY
 CLNT.            A2DTECH:   CLIENT CODE
 ORIG.       2", 5" PRINT:   ORIGIN OF DATA
 UWI .       490251104000:   UNIQUE WELL ID
 DICO. A2D Technologies, Inc.:   DIGITIZING COMPANY
~OTHER INFORMATION
~A   DEPT      SPR       RILD       RILM       RFOC       PORD        CNC        GRD       CALD       CORR        DEN   
# ...
  669.0000   -29.8830    11.1495    11.1495    10.9151     0.1749     0.2703    76.6485     8.1307     0.0077     2.3846
  669.5000   -29.2836    11.1495    11.0722    10.9158     0.1773     0.2688    75.7363     8.1300     0.0032     2.3808
  670.0000   -28.8356    11.1391    11.0722    10.9929     0.1801     0.2591    78.7340     8.1446    -0.0148     2.3785
  670.5000   -28.3861    10.9954    11.1495    10.9936     0.1782     0.2548    81.1321     8.1439    -0.0240     2.3792
  671.0000   -27.9395    10.9954    11.1495    11.0710     0.1791     0.2554    79.8755     8.1434    -0.0237     2.3785
  671.5000   -27.9455    10.9954    11.1495    11.0718     0.1788     0.2588    78.3955     8.1428    -0.0148     2.3792
  672.0000   -27.9526    11.0722    11.1495    11.0725     0.1749     0.2607    76.5768     8.1421     0.0033     2.3844
  672.5000   -28.1097    11.0722    11.1495    11.0733     0.1725     0.2657    75.6617     8.1415     0.0439     2.3904
  673.0000   -28.4180    10.9954    11.1495    11.0742     0.1715     0.2690    75.6502     8.1409     0.0559     2.3919
  673.5000   -28.7264    10.9954    11.1495    11.2300     0.1713     0.2747    75.6185     8.1403     0.0402     2.3926
  674.0000   -28.8835    10.9954    11.1495    11.3879     0.1713     0.2735    73.8172     8.1398    -0.0057     2.3926
  674.5000   -29.0421    10.9954    11.0722    11.6287     0.1719     0.2665    71.6973     8.1391    -0.0207     2.3918
  675.0000   -29.1992    10.9192    11.0722    11.7923     0.1713     0.2653    75.6015     8.1385    -0.0177     2.3933
  675.5000   -29.3562    10.7683    10.9954    11.6302     0.1688     0.2623    77.1365     8.1379    -0.0116     2.3978
  676.0000   -29.5133    10.4728    10.6937    10.8380     0.1646     0.2562    74.3534     8.1373    -0.0071     2.4038
  676.5000   -29.6704    10.3281    10.4728    10.4801     0.1607     0.2516    73.4586     8.1367    -0.0116     2.4099
  677.0000   -29.6762    10.3281    10.3281    10.4082     0.1579     0.2477    78.5647     8.1360    -0.0146     2.4128
  677.5000   -29.8336    10.3281    10.3281    10.3367     0.1585     0.2473    80.0593     8.1355    -0.0101     2.4082
  678.0000   -29.9919    10.4002    10.4002    10.3376     0.1613     0.2534    78.8430     8.1349     0.0080     2.4059
  678.5000   -29.9977    10.4728    10.4002    10.3383     0.1628     0.2540    74.2932     8.1494     0.0292     2.4052
  679.0000   -30.0035    10.4728    10.4728    10.3390     0.1637     0.2525    73.9979     8.1337     0.0321     2.4059
  679.5000   -30.0093    10.4728    10.4728    10.4120     0.1615     0.2564    73.6852     8.1330     0.0170     2.4104
  680.0000   -30.0151    10.4728    10.5459    10.4127     0.1525     0.2612    74.8786     8.1325     0.0110     2.4261
  680.5000   -30.0224    10.4728    10.6195    10.4134     0.1416     0.2642    77.5779     8.1319     0.0156     2.4411
  681.0000   -30.0282    10.4728    10.6937    10.3419     0.1385     0.2597    80.3172     8.1313     0.0173     2.4471
  681.5000   -30.0340    10.5459    10.6937    10.3427     0.1376     0.2615    81.7690     8.1307     0.0246     2.4509
  682.0000   -29.8871    10.5459    10.6937    10.4155     0.1349     0.2666    81.4563     8.1300     0.0291     2.4516
  682.5000   -29.8943    10.5459    10.6937    10.4889     0.1340     0.2642    80.5412     8.1295     0.0337     2.4501
  683.0000   -29.7489    10.5459    10.6937    10.5627     0.1364     0.2611    80.4900     8.1289     0.0352     2.4470
  683.5000   -29.7561    10.5459    10.6937    10.6373     0.1376     0.2599    83.2691     8.1283     0.0351     2.4486
  684.0000   -29.6092    10.5459    10.6937    10.6380     0.1364     0.2584    87.1304     8.1276     0.0322     2.4440
  684.5000   -29.4637    10.5506    10.6937    10.7129     0.1361     0.2532    86.5165     8.1270     0.0262     2.4402
  685.0000   -29.3182    10.6937    10.7683    10.7136     0.1409     0.2486    83.7942     8.1264     0.0202     2.4379
  685.5000   -29.1728    10.7683    10.7683    10.7144     0.1434     0.2501    79.2647     8.1259     0.0172     2.4379
  686.0000   -28.8775    10.8435    10.8435    10.7151     0.1434     0.2522    76.2209     8.1253     0.0235     2.4386
  686.5000   -28.8835    10.6937    10.7683    10.7160     0.1437     0.2531    75.6244     8.1246     0.0338     2.4319
  687.0000   -29.0418    10.5459    10.5459    10.6423     0.1452     0.2513    76.2153     8.1392     0.0368     2.4183
  687.5000   -29.0476    10.4668    10.5459    10.5694     0.1497     0.2498    77.7099     8.1234     0.0218     2.4078
  688.0000   -29.0534    10.3281    10.5459    10.5701     0.1582     0.2488    80.4093     8.1229    -0.0203     2.4055
  688.5000   -29.0592    10.2565    10.5459    10.4976     0.1612     0.2482    81.3014     8.1223    -0.0278     2.4130
  689.0000   -29.2163    10.1148    10.5459    10.4203     0.1624     0.2507    78.5762     8.1216    -0.0082     2.4250
  689.5000   -29.3749    10.0447    10.4728    10.2113     0.1542     0.2538    76.1551     8.1210     0.0083     2.4355
  690.0000   -29.5320     9.9751    10.4728    10.1411     0.1488     0.2579    74.9388     8.1204     0.0219     2.4422
  690.5000   -29.6891     9.8988    10.4002    10.0019     0.1430     0.2624    78.2406     8.1199     0.0339     2.4414
  691.0000   -29.8462     9.7690    10.2456     9.9333     0.1403     0.2672    81.2811     8.1343     0.0401     2.4392
  691.5000   -29.8520     9.7690    10.0447     9.9339     0.1415     0.2645    83.9377     8.1336     0.0490     2.4407
  692.0000   -29.8578     9.7690     9.9751     9.8658     0.1439     0.2590    84.8327     8.1330     0.0520     2.4429
  692.5000   -29.7123     9.7690     9.9059     9.8666     0.1446     0.2569    82.1075     8.1325     0.0475     2.4436
  693.0000   -29.5668     9.7690     9.8372     9.7987     0.1406     0.2628    80.8912     8.1319     0.0415     2.4428
  693.5000   -29.4228     9.8372     9.7690     9.7996     0.1397     0.2672    84.2931     8.1313     0.0323     2.4391
  694.0000   -29.2773     9.9059     9.7690     9.8002     0.1429     0.2656    87.1907     8.1306     0.0175     2.4375
  694.5000   -29.2831     9.9751     9.8372     9.8009     0.1457     0.2586    85.6732     8.1300     0.0070     2.4353
  695.0000   -29.1377     9.9751     9.9059     9.8699     0.1469     0.2541    81.1436     8.1295     0.0040     2.4300
  695.5000   -28.9922     9.9751    10.0447     9.9396     0.1487     0.2510    81.1321     8.1138     0.0025     2.4214
  696.0000   -28.8482    10.0447    10.1148    10.1497     0.1560     0.2565    80.4980     8.1133     0.0010     2.4134
  696.5000   -28.7027    10.1854    10.2565    10.2925     0.1611     0.2671    78.9979     8.1125     0.0025     2.4096
  697.0000   -28.7085    10.4002    10.4002    10.5101     0.1639     0.2705    75.0708     8.1120    -0.0020     2.4066
  697.5000   -28.5616    10.7683    10.6195    10.8071     0.1651     0.2683    72.9537     8.1114    -0.0080     2.4066
  698.0000   -28.4175    11.3846    11.0722    11.1147     0.1648     0.2607    76.5538     8.1108    -0.0034     2.4035
  698.5000   -28.1222    12.2899    11.6247    11.8310     0.1663     0.2564    81.0604     8.1102     0.0102     2.3930
  699.0000   -27.5229    12.9933    12.3757    12.3357     0.1808     0.2611    76.8292     8.1095     0.0236     2.3719
  699.5000   -26.7723    14.2231    13.5124    13.1329     0.2031     0.2664    68.8235     8.1090     0.0297     2.3381
  700.0000   -26.2740    15.3046    14.5525    13.9817     0.2239     0.2651    62.2568     8.1056     0.0266     2.3088
  700.5000   -25.9689    17.1592    16.2329    15.9544     0.2200     0.2554    65.5472     8.0872     0.0167     2.3073
  701.0000   -25.6639    18.1388    16.9438    16.8657     0.2187     0.2603    66.4388     8.0688     0.0071     2.3103
  701.5000   -25.3589    19.0415    17.5238    17.2202     0.2230     0.2675    65.8194     8.0463     0.0100     2.3057
  702.0000   -25.1433    19.7128    17.8933    17.0998     0.2253     0.2718    62.7940     7.9855     0.0130     2.3050
