~VERSION INFORMATION
 VERS.                2.0:   CWLS LOG ASCII STANDARD - VERSION 2.0
 WRAP.                 NO:   ONE LINE PER DEPTH STEP
~WELL INFORMATION
#MNEM.UNIT      DATA TYPE    INFORMATION
#----------   ------------   ------------------------------
 STRT.F            8.0000:   START DEPTH
 STOP.F         3200.0000:   STOP DEPTH
 STEP.F            0.5000:   STEP LENGTH
 NULL.          -999.2500:   NO VALUE
 COMP. BROWN JOHN E&C INC:   COMPANY
 WELL.  62 x 15-17 #62-15:   WELL
 FLD .        N.P.R NO. 3:   FIELD
 LOC .      S15 T38N R78W:   LOCATION
 CNTY.            NATRONA:   COUNTY
 STAT.            WYOMING:   STATE
 CTRY. UNITED STATES OF AMERICA:   COUNTRY
 SRVC.      Western Atlas:   SERVICE COMPANY
 DATE.        17-JUN-1986:   LOGDATE
 API .       490251104300:   API NUMBER
~CURVE INFORMATION
#MNEM.UNIT       API CODE    CURVE DESCRIPTION
#----------   ------------   ------------------------------
 DEPT.F                  :   
 GRR .GAPI   07 310 01 00:   GAMMA RAY
 CALR.IN     07 280 01 00:   CALIPER FROM RESISTIVITY
 SPR .MV     07 010 01 00:   SPONTANEOUS POTENTIAL
 RILD.OHMM   07 120 46 00:   INDUCTION LOG DEEP RESISTIVITY
 RILM.OHMM   07 120 44 00:   INDUCTION LOG MEDIUM RESISTIVITY
 RFOC.OHMM   07 220 04 00:   RESISTIVITY FOCUSED LOG
 PORD.DEC    45 890 12 00:   POROSITY DENSITY SANDSTONE
 CNC .DEC    42 890 03 00:   NEUTRON POROSITY SANDSTONE
 CORR.G/C3   45 356 01 00:   DENSITY CORRECTION
 DEN .G/C3   45 350 01 00:   COMPENSATED BULK DENSTIY
~PARAMETER INFORMATION
#MNEM.UNIT          VALUE    DESCRIPTION
#----------   ------------   ------------------------------
 PD  .                 GL:   PERMANENT DATUM
 EPD .F              5242:   ELEVATION PERMANENT DATUM
 LMF .                 KB:   LOG MEASURED FROM
 DAPD.F                11:   FEET ABOVE PERMANENT DATUM
 DMF .                 KB:   DRILLING MEASURED FROM
 EKB .F              5253:   KELLING BUSHING
 EGL .F              5242:   GROUND LEVEL
 DATE.            6-17-86:   RUN DATE
 RUN .                  1:   RUN NUMBER
 DD  .F              3200:   DEPTH DRILLER
 DL  .F              3202:   DEPTH LOGGER
 BLI .F              3200:   BOTTOM LOG INTERVAL
 CS  .IN            8.625:   CASING SIZE
 CBD .F               573:   CASING BOTTOM DRILLER
 CBL .F               573:   CASING BOTTOM LOGGER
 BS  .IN            7.875:   BIT SIZE
 BSD .F              3200:   BIT SIZE AT DEPTH
 DFT .            KCL/GEL:   DRILLING FLUID TYPE
 DFD .                8.9:   DRILLING FLUID DENSITY
 DFV .                 37:   DRILLING FLUID VISCOSITY
 DFPH.                8.5:   DRILLING FLUID PH
 DFL .               10.2:   DRILLING FLUID LOSS
 MSS .           MUD TANK:   MUD SAMPLE SOURCE
 RMS .OHMM            .39:   RESISTIVITY MUD SAMPLE
 MST .F                80:   MUD SAMPLE TEMPERATURE
 RMF .OHMM            .29:   RESISTIVITY MUD FILTRATE SAMPLE
 MFST.F                80:   MUD FILTRATE SAMPLE TEMPERATURE
 RMC .OHMM            .49:   RESISTIVITY MUD CAKE
 MCST.F                80:   MUD CAKE SAMPLE TEMPERATURE
 MFSS.               CALC:   MUD FILTRATE SAMPLE SOURCE
 MCSS.               CALC:   MUD CAKE SAMPLE SOURCE
 RMB .OHMM            .24:   RESISTIVITY MUD AT BHT
 BHT .F               130:   BOTTOM HOLE TEMPERATURE
 TCS .HRS               5:   TIME CURCULATED STOPPED
 MRT .F               130:   MAXIMUM RECORDED TEMPERATURE
 LUN .            HL 6264:   LOGGING UNIT NUMBER
 LUL .           GILLETTE:   LOGGING UNIT LOCATION
 ENGI.      P.H. FAHLSING:   RECORDING ENGINEER
 WITN.             STRONG:   WITNESSED BY
 CLNT.            A2DTECH:   CLIENT CODE
 UWI .       490251104300:   UNIQUE WELL ID
 DICO. A2D Technologies, Inc.:   DIGITIZING COMPANY
~OTHER INFORMATION
~A    DEPT     GRR       CALR        SPR       RILD       RILM       RFOC       PORD        CNC       CORR        DEN   
# ...
 2118.5000   124.8803     8.6554   -59.6041    12.3484    12.7509    13.3420  -999.2500  -999.2500  -999.2500  -999.2500
 2119.0000   129.1173     8.6562   -59.4447    11.8563    12.1283    12.9778  -999.2500  -999.2500  -999.2500  -999.2500
 2119.5000   131.2162     8.6569   -59.1348    11.3752    11.3348    13.2500  -999.2500  -999.2500  -999.2500  -999.2500
 2120.0000   127.9306     8.6727   -58.9755    11.1424    10.9490    13.5280  -999.2500  -999.2500  -999.2500  -999.2500
 2120.5000   123.1404     8.6736   -58.8161    10.9899    10.7239    13.7165  -999.2500  -999.2500  -999.2500  -999.2500
 2121.0000   120.1483     8.6743   -58.6566    10.8399    10.6499    13.5657  -999.2500  -999.2500  -999.2500  -999.2500
 2121.5000   122.8692     8.6750   -58.6459    10.7659    10.7984    13.0679  -999.2500  -999.2500  -999.2500  -999.2500
 2122.0000   128.5895     8.6757   -59.3901    10.6925    10.9490    11.7795  -999.2500  -999.2500  -999.2500  -999.2500
 2122.5000   135.5109     8.6765   -60.4356    10.7724    11.1017    11.5375  -999.2500  -999.2500  -999.2500  -999.2500
 2123.0000   138.2282     8.6622   -61.4811    11.0703    11.3348    12.6235  -999.2500  -999.2500  -999.2500  -999.2500
 2123.5000   136.9637     8.6629   -62.9784    11.3031    11.4929    14.0042  -999.2500  -999.2500  -999.2500  -999.2500
 2124.0000   133.4562     8.6637   -64.6263    11.1486    11.1017    15.6730  -999.2500  -999.2500  -999.2500  -999.2500
 2124.5000   131.6689     8.6646   -65.5211    10.7705    10.6499    15.9720  -999.2500  -999.2500  -999.2500  -999.2500
 2125.0000   127.1790     8.6653   -65.6630    10.4052    10.2165    14.1994  -999.2500  -999.2500  -999.2500  -999.2500
 2125.5000   123.5900     8.6660   -65.6521    10.0522     9.9374    12.8883  -999.2500  -999.2500  -999.2500  -999.2500
 2126.0000   126.0069     8.6667   -65.6434     9.6444     9.6659    10.7661  -999.2500  -999.2500  -999.2500  -999.2500
 2126.5000   128.7242     8.6825   -65.4840     9.4470     9.5329     9.5053  -999.2500  -999.2500  -999.2500  -999.2500
 2127.0000   128.7388     8.6832   -65.3247     9.3179     9.4018     9.9770  -999.2500  -999.2500  -999.2500  -999.2500
 2127.5000   127.8524     8.6839   -65.0147     9.1905     9.2085    11.0683  -999.2500  -999.2500  -999.2500  -999.2500
 2128.0000   130.8736     8.6697   -65.0060     9.1278     9.2725    12.2169  -999.2500  -999.2500  -999.2500  -999.2500
 2128.5000   132.9903     8.6704   -64.9970     9.3199     9.3369    12.7112  -999.2500  -999.2500  -999.2500  -999.2500
 2129.0000   130.3022     8.6713   -64.9863     9.0663     9.1449    12.8883  -999.2500  -999.2500  -999.2500  -999.2500
 2129.5000   123.7101     8.6568   -64.9776     9.0043     9.1449    12.7112  -999.2500  -999.2500  -999.2500  -999.2500
 2130.0000   120.7180     8.6425   -64.8183     9.0675     9.2725    12.4500  -999.2500  -999.2500  -999.2500  -999.2500
 2130.5000   121.6372     8.6283   -64.5083     9.1944     9.3369    12.1942  -999.2500  -999.2500  -999.2500  -999.2500
 2131.0000   121.9520     8.6292   -64.3490     9.2657     9.4018    12.1101  -999.2500  -999.2500  -999.2500  -999.2500
 2131.5000   118.5096     8.6299   -64.0390     9.4537     9.5329    12.2846  -999.2500  -999.2500  -999.2500  -999.2500
 2132.0000   109.3722     8.6456   -64.0301     9.4543     9.6659    11.6176  -999.2500  -999.2500  -999.2500  -999.2500
 2132.5000   107.5813     8.6464   -64.4712     9.5866     9.7330    11.5375  -999.2500  -999.2500  -999.2500  -999.2500
 2133.0000   109.1010     8.6473   -64.9143     9.6538     9.8688    11.7795  -999.2500  -999.2500  -999.2500  -999.2500
 2133.5000   111.5180     8.6480   -65.5079     9.7214     9.8688    12.0266  -999.2500  -999.2500  -999.2500  -999.2500
 2134.0000   113.3344     8.6638   -65.9510     9.7895     9.8688    12.3642  -999.2500  -999.2500  -999.2500  -999.2500
 2134.5000   114.5501     8.6645   -65.9423     9.7902     9.8688    12.7112  -999.2500  -999.2500  -999.2500  -999.2500
 2135.0000   119.6698     8.6652   -65.9335     9.7908     9.8007    12.9778  -999.2500  -999.2500  -999.2500  -999.2500
 2135.5000   131.6139     8.6659   -65.7741     9.7916     9.7330    13.0679  -999.2500  -999.2500  -999.2500  -999.2500
 2136.0000   134.1133     8.6671   -65.6127     9.7247     9.8007    12.3642  -999.2500  -999.2500  -999.2500  -999.2500
 2136.5000   131.4288     8.6674   -65.4533     9.7255     9.8688    11.9437  -999.2500  -999.2500  -999.2500  -999.2500
 2137.0000   130.8428     8.6533   -65.2940     9.7261     9.8688    11.8613  -999.2500  -999.2500  -999.2500  -999.2500
 2137.5000   131.4580     8.6540   -64.9840     9.7268     9.8007    12.1942  -999.2500  -999.2500  -999.2500  -999.2500
 2138.0000   131.1686     8.6396   -64.8247     9.7274     9.5992    12.4500  -999.2500  -999.2500  -999.2500  -999.2500
 2138.5000   126.6823     8.6405   -64.7947     9.5945     9.4018    12.7112  -999.2500  -999.2500  -999.2500  -999.2500
 2139.0000   123.0933     8.6412   -64.8072     9.4161     9.2085    12.8943  -999.2500  -999.2500  -999.2500  -999.2500
 2139.5000   121.9066     8.6419   -64.7982     9.1425     9.0818    12.5365  -999.2500  -999.2500  -999.2500  -999.2500
 2140.0000   122.8257     8.6427   -64.7876     8.7715     8.9486    11.2225  -999.2500  -999.2500  -999.2500  -999.2500
 2140.5000   121.9382     8.6434   -64.7788     8.5920     8.8337    10.1161  -999.2500  -999.2500  -999.2500  -999.2500
 2141.0000   120.1510     8.6441   -64.7701     8.5334     8.7727     9.7720  -999.2500  -999.2500  -999.2500  -999.2500
 2141.5000   117.4628     8.6450   -64.7614     8.5340     8.7727    10.1161  -999.2500  -999.2500  -999.2500  -999.2500
 2142.0000   113.5397     8.6456   -64.7526     8.6582     8.8951    10.6919  -999.2500  -999.2500  -999.2500  -999.2500
 2142.5000   106.9239     8.6465   -65.0451     8.8968     9.0818    11.3789  -999.2500  -999.2500  -999.2500  -999.2500
 2143.0000    99.4921     8.6472   -65.3504     8.9591     9.2725    11.8836  -999.2500  -999.2500  -999.2500  -999.2500
 2143.5000    98.9025     8.6479   -65.7806     9.1475     9.4018    12.2789  -999.2500  -999.2500  -999.2500  -999.2500
 2144.0000   100.7225     8.6487   -66.0731     9.4047     9.4671    12.3642  -999.2500  -999.2500  -999.2500  -999.2500
 2144.5000   103.7400     8.6494   -66.2149     9.5363     9.4671    12.1101  -999.2500  -999.2500  -999.2500  -999.2500
 2145.0000   110.6615     8.6502   -66.0534     9.4712     9.4671    11.6983  -999.2500  -999.2500  -999.2500  -999.2500
 2145.5000   118.1836     8.6510   -66.0447     9.4719     9.4018    11.3005  -999.2500  -999.2500  -999.2500  -999.2500
 2146.0000   125.4181     8.6518   -65.8853     9.4046     9.3369    11.0683  -999.2500  -999.2500  -999.2500  -999.2500
 2146.5000   127.2222     8.6525   -65.7259     9.2685     9.2085    11.3005  -999.2500  -999.2500  -999.2500  -999.2500
 2147.0000   127.2399     8.6532   -65.7151     9.1520     9.1449    11.5375  -999.2500  -999.2500  -999.2500  -999.2500
 2147.5000   126.9542     8.6540   -65.4051     9.0894     9.0818    11.6176  -999.2500  -999.2500  -999.2500  -999.2500
 2148.0000   124.5664     8.6547   -65.2458     8.9652     9.0818    11.6176  -999.2500  -999.2500  -999.2500  -999.2500
 2148.5000   121.8782     8.6554   -65.0865     8.8428     8.8951    11.5375  -999.2500  -999.2500  -999.2500  -999.2500
 2149.0000   117.6886     8.6562   -64.6259     8.7219     8.7727    11.3789  -999.2500  -999.2500  -999.2500  -999.2500
 2149.5000   113.7992     8.6571   -64.4666     8.6027     8.6521    11.3005  -999.2500  -999.2500  -999.2500  -999.2500
 2150.0000   109.9099     8.6426   -64.4578     8.4266     8.4646    10.9789  -999.2500  -999.2500  -999.2500  -999.2500
 2150.5000   111.2318     8.6461   -64.3243     8.1973     8.4250    10.6099  -999.2500  -999.2500  -999.2500  -999.2500
 2151.0000   112.5536     8.6494   -64.1908     8.1980     8.3854    10.1863  -999.2500  -999.2500  -999.2500  -999.2500
 2151.5000   118.0724     8.6526   -64.1332     8.4284     8.3576     9.7047  -999.2500  -999.2500  -999.2500  -999.2500
