~VERSION INFORMATION
 VERS.                2.0:   CWLS LOG ASCII STANDARD - VERSION 2.0
 WRAP.                 NO:   ONE LINE PER DEPTH STEP
~WELL INFORMATION
#MNEM.UNIT      DATA TYPE    INFORMATION
#----------   ------------   ------------------------------
 STRT.F            0.0000:   START DEPTH
 STOP.F         2660.0000:   STOP DEPTH
 STEP.F            0.5000:   STEP LENGTH
 NULL.          -999.2500:   NO VALUE
 COMP. FENIX & SCISSON INC:   COMPANY
 WELL.     101-20 #101-20:   WELL
 FLD .        TEAPOT DOME:   FIELD
 LOC .      S20 T39N R78W:   LOCATION
 CNTY.            NATRONA:   COUNTY
 STAT.            WYOMING:   STATE
 CTRY. UNITED STATES OF AMERICA:   COUNTRY
 SRVC.      NL McCullough:   SERVICE COMPANY
 DATE.        19-SEP-1965:   LOGDATE
 API .       490251022100:   API NUMBER
~CURVE INFORMATION
#MNEM.UNIT       API CODE    CURVE DESCRIPTION
#----------   ------------   ------------------------------
 DEPT.F                  :   
 GR  .GAPI   30 310 01 00:   GAMMA RAY
 CALI.IN     30 280 01 00:   CALIPER
~PARAMETER INFORMATION
#MNEM.UNIT          VALUE    DESCRIPTION
#----------   ------------   ------------------------------
 PD  .                 GL:   PERMANENT DATUM
 LMF .                 GL:   LOG MEASURED FROM
 DMF .                 GL:   DRILLING MEASURED FROM
 DATE.          9-19-1965:   RUN DATE
 RUN .                  1:   RUN NUMBER
 DD  .F              2661:   DEPTH DRILLER
 DL  .F              2659:   DEPTH LOGGER
 BLI .F              2657:   BOTTOM LOG INTERVAL
 TLI .F              2000:   TOP LOG INTERVAL
 CS  .IN              6.5:   CASING SIZE
 CBD .F              2619:   CASING BOTTOM DRILLER
 BSD .F              2661:   BIT SIZE AT DEPTH
 DFT .              WATER:   DRILLING FLUID TYPE
 TCS .HRS               1:   TIME CURCULATED STOPPED
 ENGI.        FITZSIMMONS:   RECORDING ENGINEER
 WITN.          JORGENSEN:   WITNESSED BY
 CLNT.            A2DTECH:   CLIENT CODE
 ORIG.           5" PRINT:   ORIGIN OF DATA
 UWI .       490251022100:   UNIQUE WELL ID
 DICO. A2D Technologies, Inc.:   DIGITIZING COMPANY
~OTHER INFORMATION
~A    DEPT      GR         CALI 
    0.0000  -999.2500     6.6165
    0.5000  -999.2500     6.6165
    1.0000  -999.2500     6.6165
    1.5000  -999.2500     6.6165
    2.0000  -999.2500     6.6165
    2.5000  -999.2500     6.6165
    3.0000  -999.2500     6.6165
    3.5000  -999.2500     6.6176
    4.0000  -999.2500     6.6194
    4.5000  -999.2500     6.6212
    5.0000  -999.2500     6.6230
    5.5000  -999.2500     6.6249
    6.0000  -999.2500     6.6265
    6.5000  -999.2500     6.6180
    7.0000  -999.2500     6.5843
    7.5000  -999.2500     6.5779
    8.0000  -999.2500     6.5765
    8.5000  -999.2500     6.5794
    9.0000  -999.2500     6.5825
    9.5000  -999.2500     6.5856
   10.0000  -999.2500     6.5887
   10.5000  -999.2500     6.5917
   11.0000  -999.2500     6.5948
   11.5000  -999.2500     6.5979
   12.0000  -999.2500     6.6009
   12.5000  -999.2500     6.6040
   13.0000  -999.2500     6.6060
   13.5000  -999.2500     6.6025
   14.0000  -999.2500     6.5992
   14.5000  -999.2500     6.5958
   15.0000  -999.2500     6.5924
   15.5000  -999.2500     6.5890
   16.0000  -999.2500     6.5864
   16.5000  -999.2500     6.5865
   17.0000  -999.2500     6.5865
   17.5000  -999.2500     6.5865
   18.0000  -999.2500     6.5865
   18.5000  -999.2500     6.5868
   19.0000  -999.2500     6.5841
   19.5000  -999.2500     6.5368
   20.0000  -999.2500     6.5266
   20.5000  -999.2500     6.5775
   21.0000  -999.2500     6.5765
   21.5000  -999.2500     6.5765
   22.0000  -999.2500     6.5764
   22.5000  -999.2500     6.5764
   23.0000  -999.2500     6.5764
   23.5000  -999.2500     6.5764
   24.0000  -999.2500     6.5764
   24.5000  -999.2500     6.5764
   25.0000  -999.2500     6.5764
   25.5000  -999.2500     6.5764
   26.0000  -999.2500     6.5764
   26.5000  -999.2500     6.5768
   27.0000  -999.2500     6.5802
   27.5000  -999.2500     6.5835
   28.0000  -999.2500     6.5869
   28.5000  -999.2500     6.5902
   29.0000  -999.2500     6.5936
   29.5000  -999.2500     6.5969
   30.0000  -999.2500     6.6003
   30.5000  -999.2500     6.6036
   31.0000  -999.2500     6.6070
   31.5000  -999.2500     6.6103
   32.0000  -999.2500     6.6137
   32.5000  -999.2500     6.6170
   33.0000  -999.2500     6.6205
   33.5000  -999.2500     6.6238
   34.0000  -999.2500     6.6215
   34.5000  -999.2500     6.5875
   35.0000  -999.2500     6.5846
   35.5000  -999.2500     6.5831
   36.0000  -999.2500     6.5814
   36.5000  -999.2500     6.5797
   37.0000  -999.2500     6.5780
   37.5000  -999.2500     6.5766
   38.0000  -999.2500     6.5803
   38.5000  -999.2500     6.5841
   39.0000  -999.2500     6.5865
   39.5000  -999.2500     6.5865
   40.0000  -999.2500     6.5865
   40.5000  -999.2500     6.5864
   41.0000  -999.2500     6.5853
   41.5000  -999.2500     6.5842
   42.0000  -999.2500     6.5831
   42.5000  -999.2500     6.5820
   43.0000  -999.2500     6.5809
   43.5000  -999.2500     6.5798
   44.0000  -999.2500     6.5787
   44.5000  -999.2500     6.5777
   45.0000  -999.2500     6.5766
   45.5000  -999.2500     6.5764
   46.0000  -999.2500     6.5764
   46.5000  -999.2500     6.5764
   47.0000  -999.2500     6.5764
   47.5000  -999.2500     6.5764
   48.0000  -999.2500     6.5764
   48.5000  -999.2500     6.5764
   49.0000  -999.2500     6.5764
   49.5000  -999.2500     6.5764
   50.0000  -999.2500     6.5764
   50.5000  -999.2500     6.5764
   51.0000  -999.2500     6.5756
   51.5000  -999.2500     6.5730
   52.0000  -999.2500     6.5704
   52.5000  -999.2500     6.5681
   53.0000  -999.2500     6.5797
   53.5000  -999.2500     6.6128
   54.0000  -999.2500     6.6449
   54.5000  -999.2500     6.6084
   55.0000  -999.2500     6.5764
   55.5000  -999.2500     6.5764
   56.0000  -999.2500     6.5764
   56.5000  -999.2500     6.5764
   57.0000  -999.2500     6.5764
   57.5000  -999.2500     6.5764
   58.0000  -999.2500     6.5764
   58.5000  -999.2500     6.5764
   59.0000  -999.2500     6.5764
   59.5000  -999.2500     6.5769
   60.0000  -999.2500     6.5780
   60.5000  -999.2500     6.5790
   61.0000  -999.2500     6.5800
   61.5000  -999.2500     6.5810
   62.0000  -999.2500     6.5820
   62.5000  -999.2500     6.5831
   63.0000  -999.2500     6.5841
   63.5000  -999.2500     6.5851
   64.0000  -999.2500     6.5861
   64.5000  -999.2500     6.5865
   65.0000  -999.2500     6.5865
   65.5000  -999.2500     6.5865
   66.0000  -999.2500     6.5865
   66.5000  -999.2500     6.5865
   67.0000  -999.2500     6.5865
   67.5000  -999.2500     6.5865
   68.0000  -999.2500     6.5865
   68.5000  -999.2500     6.5865
   69.0000  -999.2500     6.5864
   69.5000  -999.2500     6.5889
   70.0000  -999.2500     6.5918
   70.5000  -999.2500     6.5946
   71.0000  -999.2500     6.5974
   71.5000  -999.2500     6.6003
   72.0000  -999.2500     6.6031
   72.5000  -999.2500     6.6058
   73.0000  -999.2500     6.6156
   73.5000  -999.2500     6.6270
   74.0000  -999.2500     6.6385
   74.5000  -999.2500     6.6470
   75.0000  -999.2500     6.6410
   75.5000  -999.2500     6.5890
   76.0000  -999.2500     6.5861
   76.5000  -999.2500     6.5864
   77.0000  -999.2500     6.5865
   77.5000  -999.2500     6.5865
   78.0000  -999.2500     6.5865
   78.5000  -999.2500     6.5865
   79.0000  -999.2500     6.5865
   79.5000  -999.2500     6.5865
   80.0000  -999.2500     6.5865
   80.5000  -999.2500     6.5865
   81.0000  -999.2500     6.5865
   81.5000  -999.2500     6.5865
   82.0000  -999.2500     6.5865
   82.5000  -999.2500     6.5865
   83.0000  -999.2500     6.5865
   83.5000  -999.2500     6.5865
   84.0000  -999.2500     6.5865
   84.5000  -999.2500     6.5865
   85.0000  -999.2500     6.5865
   85.5000  -999.2500     6.5865
   86.0000  -999.2500     6.5865
   86.5000  -999.2500     6.5865
   87.0000  -999.2500     6.5865
   87.5000  -999.2500     6.5865
   88.0000  -999.2500     6.5865
   88.5000  -999.2500     6.5865
   89.0000  -999.2500     6.5865
   89.5000  -999.2500     6.5865
   90.0000  -999.2500     6.5865
   90.5000  -999.2500     6.5865
   91.0000  -999.2500     6.5867
   91.5000  -999.2500     6.5886
   92.0000  -999.2500     6.5905
   92.5000  -999.2500     6.5924
   93.0000  -999.2500     6.5943
   93.5000  -999.2500     6.5957
   94.0000  -999.2500     6.6126
   94.5000  -999.2500     6.6318
   95.0000  -999.2500     6.6519
   95.5000  -999.2500     6.6363
   96.0000  -999.2500     6.5953
   96.5000  -999.2500     6.5859
   97.0000  -999.2500     6.5849
   97.5000  -999.2500     6.5842
   98.0000  -999.2500     6.5834
   98.5000  -999.2500     6.5826
   99.0000  -999.2500     6.5818
   99.5000  -999.2500     6.5810
  100.0000  -999.2500     6.5802
  100.5000  -999.2500     6.5794
  101.0000  -999.2500     6.5786
  101.5000  -999.2500     6.5778
  102.0000  -999.2500     6.5770
  102.5000  -999.2500     6.5759
  103.0000  -999.2500     6.5742
  103.5000  -999.2500     6.5724
  104.0000  -999.2500     6.5707
  104.5000  -999.2500     6.5690
  105.0000  -999.2500     6.5673
  105.5000  -999.2500     6.5655
  106.0000  -999.2500     6.5638
  106.5000  -999.2500     6.5621
  107.0000  -999.2500     6.5604
  107.5000  -999.2500     6.5587
  108.0000  -999.2500     6.5569
  108.5000  -999.2500     6.5572
  109.0000  -999.2500     6.5584
  109.5000  -999.2500     6.5597
  110.0000  -999.2500     6.5609
  110.5000  -999.2500     6.5621
  111.0000  -999.2500     6.5633
  111.5000  -999.2500     6.5645
  112.0000  -999.2500     6.5658
  112.5000  -999.2500     6.5707
  113.0000  -999.2500     6.5797
  113.5000  -999.2500     6.5887
  114.0000  -999.2500     6.5977
  114.5000  -999.2500     6.6068
  115.0000  -999.2500     6.6157
  115.5000  -999.2500     6.6253
  116.0000  -999.2500     6.5874
  116.5000  -999.2500     6.5633
  117.0000  -999.2500     6.5575
  117.5000  -999.2500     6.5569
  118.0000  -999.2500     6.5576
  118.5000  -999.2500     6.5584
  119.0000  -999.2500     6.5591
  119.5000  -999.2500     6.5598
  120.0000  -999.2500     6.5605
  120.5000  -999.2500     6.5612
  121.0000  -999.2500     6.5620
