~VERSION INFORMATION
 VERS.                2.0:   CWLS LOG ASCII STANDARD - VERSION 2.0
 WRAP.                 NO:   ONE LINE PER DEPTH STEP
~WELL INFORMATION
#MNEM.UNIT      DATA TYPE    INFORMATION
#----------   ------------   ------------------------------
 STRT.F            4.0000:   START DEPTH
 STOP.F          544.0000:   STOP DEPTH
 STEP.F            0.5000:   STEP LENGTH
 NULL.          -999.2500:   NO VALUE
 COMP. LAWRENCE/ALLISON INC:   COMPANY
 WELL.    72-15 SX #10-10:   WELL
 FLD .             NPR #3:   FIELD
 LOC .      S10 T38N R78W:   LOCATION
 CNTY.            NATRONA:   COUNTY
 STAT.            WYOMING:   STATE
 CTRY. UNITED STATES OF AMERICA:   COUNTRY
 SRVC.           Gearhart:   SERVICE COMPANY
 DATE.        09-JUN-1986:   LOGDATE
 API .       490251107600:   API NUMBER
~CURVE INFORMATION
#MNEM.UNIT       API CODE    CURVE DESCRIPTION
#----------   ------------   ------------------------------
 DEPT.F                  :   
 ILD .OHMM   07 120 46 00:   INDUCTION LOG DEEP
 ILM .OHMM   07 120 44 00:   INDUCTION LOG MEDIUM
 GRR .GAPI   07 310 01 00:   GAMMA RAY FROM RES. LOG.
~PARAMETER INFORMATION
#MNEM.UNIT          VALUE    DESCRIPTION
#----------   ------------   ------------------------------
 PD  .                 GL:   PERMANENT DATUM
 EPD .F              5172:   ELEVATION PERMANENT DATUM
 LMF .                 KB:   LOG MEASURED FROM
 DMF .                 KB:   DRILLING MEASURED FROM
 EGL .F              5172:   GROUND LEVEL
 DATE.             6-9-86:   RUN DATE
 RUN .                  1:   RUN NUMBER
 DD  .F               530:   DEPTH DRILLER
 DL  .F               552:   DEPTH LOGGER
 BLI .F               543:   BOTTOM LOG INTERVAL
 TLI .F                42:   TOP LOG INTERVAL
 CS  .IN            8.625:   CASING SIZE
 CBD .F                42:   CASING BOTTOM DRILLER
 CBL .F                42:   CASING BOTTOM LOGGER
 BS  .IN            7.875:   BIT SIZE
 BSD .F               530:   BIT SIZE AT DEPTH
 DFT .               FOAM:   DRILLING FLUID TYPE
 MSS .               TANK:   MUD SAMPLE SOURCE
 RMB .OHMM            .26:   RESISTIVITY MUD AT BHT
 BHT .F                70:   BOTTOM HOLE TEMPERATURE
 TCS .HRS            0200:   TIME CURCULATED STOPPED
 TLAB.HRS            0327:   TIME LOGGER AT BOTTOM
 MRT .F                70:   MAXIMUM RECORDED TEMPERATURE
 LUN .               7609:   LOGGING UNIT NUMBER
 LUL .           GILLETTE:   LOGGING UNIT LOCATION
 ENGI.         WEATHERMON:   RECORDING ENGINEER
 WITN.              FIVAS:   WITNESSED BY
 CLNT.            A2DTECH:   CLIENT CODE
 ORIG.       2", 5" PRINT:   ORIGIN OF DATA
 UWI .       490251107600:   UNIQUE WELL ID
 DICO. A2D Technologies, Inc.:   DIGITIZING COMPANY
~OTHER INFORMATION
~A    DEPT     ILD        ILM         GRR  
# ...
   95.0000    11.7797    11.3501   107.3894
   95.5000    11.7372    11.3147   104.7430
   96.0000    11.6949    11.2787   101.7649
   96.5000    11.5660    11.2238    99.2256
   97.0000    11.4239    11.0841    99.8111
   97.5000    11.2835    10.9461   100.5494
   98.0000    11.1553    10.8098   101.2127
   98.5000    11.0851    10.6752   101.5434
   99.0000    11.0202    10.5423   102.5482
   99.5000    10.9556    10.4421   102.7431
  100.0000    10.8914    10.4177   102.9872
  100.5000    10.8519    10.3933   103.2291
  101.0000    10.9131    10.3691   102.6936
  101.5000    10.9437    10.3449   102.0573
  102.0000    10.8516    10.3207   101.5955
  102.5000    10.8978    10.2966   101.1336
  103.0000    10.9442    10.2726   100.8096
  103.5000    10.8343    10.2557   101.0699
  104.0000    10.7086    10.2558   101.8824
  104.5000    10.5843    10.2558   102.3772
  105.0000    10.4614    10.2558   102.1606
  105.5000    10.3300    10.0054   101.9571
  106.0000    10.1097     9.6566   101.7564
  106.5000     9.8939     9.3202   101.7670
  107.0000     9.6827     8.9957   102.8655
  107.5000     9.4759     8.6825   105.2907
  108.0000     9.2558     8.3803   107.5704
  108.5000     9.2729     8.3256   108.8863
  109.0000     9.2935     8.2979   109.3268
  109.5000     9.3142     8.2758   109.7312
  110.0000     9.3349     8.4499   110.1325
  110.5000     9.4264     8.6139   109.9922
  111.0000     9.5495     8.7812   109.8337
  111.5000     9.6742     8.9517   107.3846
  112.0000     9.7948     9.1256   104.4061
  112.5000     9.8655     9.3027   101.5220
  113.0000     9.9366     9.4420   102.9544
  113.5000     9.9924     9.4863   105.6122
  114.0000    10.0592     9.5402   106.0858
  114.5000    10.1266     9.6169   106.7208
  115.0000    10.1944     9.6942   110.0761
  115.5000    10.2626     9.7721   113.3995
  116.0000    10.3313     9.8507   115.2857
  116.5000    10.4006     9.9301   114.0032
  117.0000    10.4705    10.0101   113.6180
  117.5000    10.5406    10.0583   113.2138
  118.0000    10.4592     9.9394   110.3712
  118.5000    10.3619     9.8432   107.6112
  119.0000    10.2653     9.7479   106.1874
  119.5000    10.1699     9.6539   106.5988
  120.0000    10.0754     9.5892   109.1584
  120.5000    10.0476     9.5339   111.7275
  121.0000    10.0271     9.5090   114.2880
  121.5000    10.0069     9.4974   116.5976
  122.0000     9.9866     9.4858   116.0229
  122.5000     9.9663     9.4741   113.2636
  123.0000     9.9461     9.4625   110.7720
  123.5000     9.9259     9.4509   108.4461
  124.0000     9.9058     9.4393   106.7990
  124.5000     9.8796     9.4289   105.8085
  125.0000     9.9028     9.4289   104.7681
  125.5000     9.9491     9.4287   107.3025
  126.0000     9.9957     9.4168   110.9905
  126.5000    10.0425     9.3769   115.6410
  127.0000    10.0660     9.3372   115.4354
  127.5000     9.9051     9.2976   114.1174
  128.0000     9.7831     9.2583   112.7732
  128.5000     9.6627     9.1947   113.5397
  129.0000     9.5437     9.1288   113.7188
  129.5000     9.4261     9.0635   108.9083
  130.0000     9.3101     8.9986   105.3132
  130.5000     9.1954     8.9341   104.0487
  131.0000     9.0822     8.7991   107.8853
  131.5000     8.9703     8.6362   112.0600
  132.0000     8.7860     8.4369   114.4427
  132.5000     8.5331     8.2257   112.8569
  133.0000     8.2876     8.0197   111.2721
  133.5000     8.0283     7.8190   110.6307
  134.0000     7.8692     7.6231   110.8269
  134.5000     7.7132     7.4322   112.6273
  135.0000     7.5974     7.2463   112.3539
  135.5000     7.5702     7.1487   110.2130
  136.0000     7.5430     7.0883   105.9665
  136.5000     7.5345     7.0582   101.7586
  137.0000     7.6953     7.2048    98.8797
  137.5000     7.8771     7.3407    99.3084
  138.0000     8.0632     7.4651   102.2618
  138.5000     8.2538     7.6900   105.1756
  139.0000     8.4489     7.9477   107.5903
  139.5000     8.6483     8.2141   109.2466
  140.0000     8.7860     8.3682   110.7180
  140.5000     8.8588     8.4270   111.3719
  141.0000     8.9321     8.4863   110.1918
  141.5000     8.9986     8.5459   109.7664
  142.0000     8.9986     8.5820   109.3770
  142.5000     8.8121     8.4586   107.9673
  143.0000     8.6713     8.3606   106.3393
  143.5000     8.5328     8.2634   104.7030
  144.0000     8.3965     8.1789   103.0895
  144.5000     8.2626     8.0069   104.0652
  145.0000     8.0856     7.8387   106.8018
  145.5000     7.8682     7.6594   109.2806
  146.0000     7.6364     7.4096   109.2715
  146.5000     7.2395     7.0057   111.9038
  147.0000     6.9204     6.7103   114.8936
  147.5000     6.6385     6.4571   116.3030
  148.0000     6.3685     6.2135   115.0364
  148.5000     6.1407     5.9790   106.6281
  149.0000     6.2034     5.8929    98.6167
  149.5000     6.2657     5.8580    91.3443
  150.0000     6.2657     5.9166    89.7196
  150.5000     6.6285     6.0414   100.3502
  151.0000     6.9156     6.3051   109.8514
  151.5000     7.2153     6.6701   116.4481
  152.0000     7.5280     6.8997   119.4546
  152.5000     7.8544     7.2267   120.5276
  153.0000     8.1925     7.5660   119.7327
  153.5000     8.5081     7.8221   117.9149
  154.0000     8.6067     8.0030   115.7069
  154.5000     8.7158     8.1592   114.0015
  155.0000     8.8263     8.3167   112.5242
  155.5000     8.9382     8.4774   111.8340
  156.0000     9.0516     8.6280   113.7544
  156.5000     9.1493     8.7532   115.5995
  157.0000     9.2415     8.8801   116.2731
  157.5000     9.3346     8.9867   116.9100
  158.0000     9.4287     9.0862   118.6193
  158.5000     9.5237     9.1878   120.4355
  159.0000     9.6122     9.2537   120.1538
  159.5000     9.6532     9.2257   118.1722
  160.0000     9.6943     9.2039   116.3886
  160.5000     9.7357     9.1824   115.8561
  161.0000     9.7772     9.1683   113.7686
  161.5000     9.8188     9.3746   109.2204
  162.0000     9.8607     9.6085   104.7229
  162.5000     9.9028     9.5969   103.0057
  163.0000     9.9450     9.5710   101.8213
  163.5000     9.9724     9.5447   101.2389
  164.0000     9.8298     9.5173   102.2922
  164.5000     9.7079     9.4534   106.7442
  165.0000     9.5969     9.3695   112.1227
  165.5000     9.5358     9.2863   114.9948
  166.0000     9.4752     9.2039   115.7870
  166.5000     9.4153     9.1612   115.0264
  167.0000     9.3543     9.1184   114.2435
  167.5000     9.2538     9.0830   113.7744
  168.0000     9.1022     8.8863   114.9235
  168.5000     8.9531     8.6374   116.6374
  169.0000     8.7532     8.3954   117.2630
  169.5000     8.3175     8.1602   118.1193
  170.0000     7.8955     7.9317   119.7672
  170.5000     7.4134     7.6529   121.0816
  171.0000     6.8723     7.1429   117.9602
  171.5000     6.3531     6.6669   114.2627
  172.0000     5.6617     6.2226   113.0709
  172.5000     5.0464     5.7002   113.7747
  173.0000     4.4980     5.0715   113.1737
  173.5000     4.0092     4.5109   112.1708
  174.0000     3.6374     4.0129   111.1915
  174.5000     3.3908     3.4879   108.6760
  175.0000     3.2578     3.1906   105.8401
  175.5000     3.1539     3.0447   102.9642
  176.0000     3.0736     2.9333   101.8847
  176.5000     3.0736     2.9060   102.1570
  177.0000     3.3154     3.0013   103.0238
  177.5000     3.4983     3.2487   104.9090
  178.0000     3.8261     3.5164   108.9137
  178.5000     4.2161     3.8298   113.7498
  179.0000     4.6465     4.2319   118.5086
  179.5000     5.1208     4.6762   119.1261
  180.0000     5.6435     5.0894   119.5257
  180.5000     6.1609     5.5532   120.7903
  181.0000     6.6735     5.9536   121.8824
  181.5000     6.9068     6.3561   121.5480
  182.0000     7.0582     6.5797   121.2135
  182.5000     7.1914     6.7671   122.8400
  183.0000     7.0162     6.7994   125.8819
  183.5000     6.8769     6.8010   127.1816
  184.0000     6.7403     6.5585   126.1050
  184.5000     6.6115     6.3966   124.7186
  185.0000     6.3259     6.1629   123.3863
  185.5000     6.0624     5.9684   124.4654
