~VERSION INFORMATION
 VERS.                2.0:   CWLS LOG ASCII STANDARD - VERSION 2.0
 WRAP.                 NO:   ONE LINE PER DEPTH STEP
~WELL INFORMATION
#MNEM.UNIT      DATA TYPE    INFORMATION
#----------   ------------   ------------------------------
 STRT.F           70.0000:   START DEPTH
 STOP.F         1043.0000:   STOP DEPTH
 STEP.F            0.5000:   STEP LENGTH
 NULL.          -999.2500:   NO VALUE
 COMP. U S NAVY/INTEX OIL CO:   COMPANY
 WELL.       NPR 3 #54S-2:   WELL
 FLD .             TEAPOT:   FIELD
 LOC .       S2 T38N R78W:   LOCATION
 CNTY.            NATRONA:   COUNTY
 STAT.            WYOMING:   STATE
 CTRY. UNITED STATES OF AMERICA:   COUNTRY
 SRVC.         Lane Wells:   SERVICE COMPANY
 DATE.        14-JUN-1960:   LOGDATE
 API .       490250643300:   API NUMBER
~CURVE INFORMATION
#MNEM.UNIT       API CODE    CURVE DESCRIPTION
#----------   ------------   ------------------------------
 DEPT.F                  :   
 CILD.MMHO   05 110 46 00:   CONDUCTIVITY INDUCTION LOG DEEP
 ILD .OHMM   05 120 46 00:   INDUCTION LOG DEEP
 ASN .OHMM   05 041 16 00:   AMPLIFIED SHORT NORMAL 16"
 SPR .MV     05 010 01 00:   SPONTANEOUS POTENTIAL FROM RES.
~PARAMETER INFORMATION
#MNEM.UNIT          VALUE    DESCRIPTION
#----------   ------------   ------------------------------
 PD  .                 GL:   PERMANENT DATUM
 EPD .F              6164:   ELEVATION PERMANENT DATUM
 LMF .                 KB:   LOG MEASURED FROM
 DAPD.F                 5:   FEET ABOVE PERMANENT DATUM
 DMF .                 KB:   DRILLING MEASURED FROM
 EKB .F              6169:   KELLING BUSHING
 EGL .F              6164:   GROUND LEVEL
 DATE.            6-14-60:   RUN DATE
 RUN .                  1:   RUN NUMBER
 DD  .F              1045:   DEPTH DRILLER
 DL  .F              1045:   DEPTH LOGGER
 BLI .F              1043:   BOTTOM LOG INTERVAL
 TLI .F                70:   TOP LOG INTERVAL
 CS  .IN            8.625:   CASING SIZE
 CBD .F                12:   CASING BOTTOM DRILLER
 BS  .IN            7.875:   BIT SIZE
 BSD .F              1045:   BIT SIZE AT DEPTH
 DFT .   GEL/OIL EMULSION:   DRILLING FLUID TYPE
 DFD .                9.7:   DRILLING FLUID DENSITY
 DFV .                 45:   DRILLING FLUID VISCOSITY
 DFPH.                  8:   DRILLING FLUID PH
 DFL .               11.6:   DRILLING FLUID LOSS
 MSS .          FLOW LINE:   MUD SAMPLE SOURCE
 RMS .OHMM            1.6:   RESISTIVITY MUD SAMPLE
 MST .F                62:   MUD SAMPLE TEMPERATURE
 RMF .OHMM            1.4:   RESISTIVITY MUD FILTRATE SAMPLE
 MFST.F                60:   MUD FILTRATE SAMPLE TEMPERATURE
 RMC .OHMM           1.75:   RESISTIVITY MUD CAKE
 MCST.F                60:   MUD CAKE SAMPLE TEMPERATURE
 MFSS.                MUD:   MUD FILTRATE SAMPLE SOURCE
 MCSS.              PRESS:   MUD CAKE SAMPLE SOURCE
 RMB .OHMM            1.4:   RESISTIVITY MUD AT BHT
 BHT .F                72:   BOTTOM HOLE TEMPERATURE
 MRT .F                72:   MAXIMUM RECORDED TEMPERATURE
 LUN .             C-4474:   LOGGING UNIT NUMBER
 LUL .             CASPER:   LOGGING UNIT LOCATION
 ENGI.      NELSON/GRIGGS:   RECORDING ENGINEER
 WITN.   JORGENSEN/HUDSON:   WITNESSED BY
 CLNT.            A2DTECH:   CLIENT CODE
 ORIG.       2", 5" PRINT:   ORIGIN OF DATA
 UWI .       490250643300:   UNIQUE WELL ID
 DICO. A2D Technologies, Inc.:   DIGITIZING COMPANY
~OTHER INFORMATION
~A   DEPT     CILD          ILD        ASN      SPR   
# ...
  727.0000   149.4324     7.7198     7.3005   -40.7758
  727.5000   149.4324     7.6220     7.2683   -40.8290
  728.0000   149.4324     7.4770     7.3632   -40.8854
  728.5000   149.4404     7.3495     7.4356   -40.9352
  729.0000   149.4545     7.2155     7.4996   -41.0020
  729.5000   149.4770     7.0823     7.4991   -41.1701
  730.0000   149.5026     6.9785     7.5050   -41.3365
  730.5000   149.5193     7.0094     7.5384   -41.4860
  731.0000   147.7179     7.0676     7.5684   -41.6640
  731.5000   147.6976     7.1172     7.6015   -41.5664
  732.0000   147.6685     7.1706     7.5976   -41.3054
  732.5000   147.6452     7.2217     7.5778   -41.1032
  733.0000   146.3557     7.2746     7.5570   -40.8644
  733.5000   145.3238     7.3256     7.5862   -40.6629
  734.0000   144.0490     7.3793     7.6673   -40.3990
  734.5000   144.0526     7.4282     7.7886   -40.3105
  735.0000   144.0520     7.4876     7.9205   -40.5329
  735.5000   144.0452     7.5189     8.0613   -40.7291
  736.0000   144.0396     7.5023     8.1013   -40.9388
  736.5000   144.0369     7.4925     8.1291   -41.1470
  737.0000   144.0374     7.4790     8.1209   -41.3446
  737.5000   144.0381     7.4676     8.0858   -41.5751
  738.0000   144.0390     7.4551     8.0156   -41.7093
  738.5000   144.0384     7.4431     7.8958   -41.6915
  739.0000   144.0374     7.4304     7.7539   -41.7011
  739.5000   144.0366     7.4286     7.6803   -41.6941
  740.0000   144.0358     7.4291     7.7147   -41.6752
  740.5000   144.0397     7.4288     7.7258   -41.5554
  741.0000   144.2038     7.4294     7.7171   -41.5574
  741.5000   144.6565     7.4241     7.7166   -41.7194
  742.0000   145.1093     7.3506     7.6193   -41.8449
  742.5000   145.5620     7.2611     7.7351   -41.8840
  743.0000   139.0047     7.2439     7.6990   -41.9039
  743.5000   139.3505     7.2502     7.6869   -41.5801
  744.0000   139.3602     7.2258     7.6334   -40.9878
  744.5000   139.5972     7.2137     7.5874   -40.9598
  745.0000   139.8341     7.2013     7.5607   -40.9688
  745.5000   140.0711     7.1897     7.5406   -40.9498
  746.0000   140.3081     7.1766     7.5171   -41.0857
  746.5000   140.5213     7.1664     7.4512   -41.4421
  747.0000   142.0853     7.1392     7.3731   -41.6030
  747.5000   143.5433     7.0745     7.2970   -41.3484
  748.0000   144.9620     7.0124     7.2195   -40.9812
  748.5000   145.9503     6.9442     7.1972   -41.0933
  749.0000   145.9370     6.8952     7.1803   -41.3690
  749.5000   145.9226     6.8621     7.1665   -41.5032
  750.0000   146.6420     6.8157     7.1344   -41.4707
  750.5000   149.0780     6.7720     7.0868   -41.3515
  751.0000   151.5060     6.7337     7.0143   -41.5942
  751.5000   153.9343     6.6490     6.9241   -41.9206
  752.0000   156.6184     6.5183     6.8359   -42.0383
  752.5000   158.7194     6.3926     6.7077   -41.8336
  753.0000   161.7439     6.2689     6.5487   -41.4419
  753.5000   164.7779     6.1349     6.3608   -41.3258
  754.0000   167.5050     6.0736     6.1546   -41.1149
  754.5000   167.7937     6.1123     5.9649   -40.6648
  755.0000   168.1799     6.1457     5.8176   -40.9098
  755.5000   168.6407     6.1842     5.7581   -41.2520
  756.0000   169.0500     6.2197     5.8542   -41.5982
  756.5000   171.1374     6.2573     5.9931   -41.9158
  757.0000   167.1754     6.2929     6.1668   -42.2893
  757.5000   163.5735     6.3314     6.3338   -42.2671
  758.0000   159.9716     6.3545     6.4390   -42.3243
  758.5000   156.7299     6.3661     6.5193   -42.5294
  759.0000   157.0300     6.3815     6.5591   -42.3428
  759.5000   157.3114     6.3945     6.6050   -42.2171
  760.0000   157.5670     6.4101     6.6347   -42.3636
  760.5000   157.8205     6.4219     6.6525   -42.4448
  761.0000   158.0840     6.4407     6.6342   -42.1694
  761.5000   158.3565     6.4094     6.6144   -42.1963
  762.0000   159.5197     6.3588     6.5880   -41.9524
  762.5000   162.9206     6.3080     6.5399   -41.8739
  763.0000   164.9573     6.2715     6.4622   -42.0668
  763.5000   166.9796     6.1909     6.3861   -42.1648
  764.0000   170.8298     6.0821     6.3018   -42.2290
  764.5000   175.6127     5.9596     6.1687   -41.9096
  765.0000   180.4004     5.9027     5.9980   -41.5379
  765.5000   185.1770     5.7835     5.8068   -41.8322
  766.0000   187.5471     5.5527     5.6675   -42.1699
  766.5000   194.7232     5.3741     5.5195   -42.3178
  767.0000   203.2329     5.1589     5.2686   -41.8777
  767.5000   212.8808     4.9393     4.9805   -42.0745
  768.0000   221.5640     4.6765     4.7267   -41.8558
  768.5000   221.1700     4.5410     4.4181   -41.3286
  769.0000   220.6072     4.5321     4.2472   -41.6937
  769.5000   220.0444     4.7570     4.2891   -41.9165
  770.0000   217.0616     5.0338     4.4772   -42.1924
  770.5000   208.0569     5.2363     4.8203   -42.4809
  771.0000   197.8515     5.4740     5.2873   -42.3385
  771.5000   184.8447     5.7021     5.7157   -42.2136
  772.0000   175.7346     5.8818     5.9774   -42.8272
  772.5000   170.5213     6.0606     6.2149   -43.1472
  773.0000   165.3081     6.2401     6.4007   -43.2678
  773.5000   160.0948     6.4239     6.4795   -43.3962
  774.0000   158.0396     6.5965     6.5230   -43.5470
  774.5000   156.4024     6.6638     6.5684   -43.4534
  775.0000   154.9289     6.7362     6.6469   -43.0419
  775.5000   152.0638     6.8027     6.7230   -42.9221
  776.0000   147.9707     6.8720     6.7961   -43.0290
  776.5000   145.9242     6.9391     6.8846   -43.0968
  777.0000   144.8815     7.0092     6.9899   -43.2023
  777.5000   143.9337     7.0654     7.0908   -43.2092
  778.0000   142.9858     7.0695     7.1997   -43.0590
  778.5000   142.3223     7.0689     7.3030   -42.9298
  779.0000   142.3223     7.0690     7.3335   -42.7745
  779.5000   142.3223     7.0690     7.3145   -42.6578
  780.0000   142.3223     7.0690     7.4193   -42.3024
  780.5000   142.3223     7.0691     7.5719   -41.6819
  781.0000   142.3223     7.0690     7.6074   -41.3950
  781.5000   142.3223     7.0692     7.6018   -41.1786
  782.0000   142.3223     7.0690     7.5534   -41.2323
  782.5000   142.3223     7.0698     7.6144   -41.4100
  783.0000   143.7230     7.0640     7.7218   -41.3879
  783.5000   145.7241     6.9825     7.6652   -41.1490
  784.0000   147.7251     6.8818     7.4901   -41.2214
  784.5000   150.4265     6.7837     7.3377   -41.3266
  785.0000   153.6908     6.6860     7.2475   -41.0080
  785.5000   157.0675     6.5856     7.1609   -40.4859
  786.0000   160.4443     6.4920     7.0649   -39.9353
  786.5000   163.8211     6.3539     6.9058   -39.9082
  787.0000   167.5356     6.1663     6.7650   -39.9643
  787.5000   172.1505     5.9928     6.5658   -39.7031
  788.0000   178.3412     5.8039     6.3327   -40.0687
  788.5000   189.5972     5.6398     6.0499   -39.8691
  789.0000   202.1037     5.3465     5.7178   -39.7184
  789.5000   214.6103     4.9309     5.3927   -39.7970
  790.0000   230.7128     4.5301     4.8849   -39.9180
  790.5000   255.4604     4.1413     4.4275   -40.0430
  791.0000   280.1137     3.8610     3.9401   -40.1617
  791.5000   304.8413     3.5686     3.5053   -40.2887
  792.0000   329.5737     3.2749     3.0885   -40.4030
  792.5000   354.9871     2.9901     2.7363   -40.5445
  793.0000   374.5376     2.8718     2.4934   -40.6080
  793.5000   384.6751     2.8110     2.3900   -40.4341
  794.0000   385.1547     2.7356     2.3283   -40.2876
  794.5000   381.0705     2.8315     2.3419   -40.1069
  795.0000   365.8827     2.9617     2.5223   -39.9897
  795.5000   339.5862     3.1951     2.7282   -39.6640
  796.0000   310.6780     3.5413     3.0544   -39.2664
  796.5000   291.8151     3.8018     3.5198   -38.8377
  797.0000   272.2745     4.1198     3.9731   -38.9632
  797.5000   253.2962     4.4590     4.4230   -39.7377
  798.0000   234.1706     4.7664     4.8668   -39.8074
  798.5000   214.3602     5.0804     5.1468   -39.5799
  799.0000   208.2820     5.2343     5.3349   -39.4285
  799.5000   201.5284     5.3261     5.4356   -39.6920
