~VERSION INFORMATION
 VERS.                2.0:   CWLS LOG ASCII STANDARD - VERSION 2.0
 WRAP.                 NO:   ONE LINE PER DEPTH STEP
~WELL INFORMATION
#MNEM.UNIT      DATA TYPE    INFORMATION
#----------   ------------   ------------------------------
 STRT.F           11.0000:   START DEPTH
 STOP.F          685.0000:   STOP DEPTH
 STEP.F            0.5000:   STEP LENGTH
 NULL.          -999.2500:   NO VALUE
 COMP. BROWN JOHN E&C INC:   COMPANY
 WELL. 78-1 STX-34 #78-34:   WELL
 FLD .             TEAPOT:   FIELD
 LOC .      S34 T39N R78W:   LOCATION
 CNTY.            NATRONA:   COUNTY
 STAT.            WYOMING:   STATE
 CTRY. UNITED STATES OF AMERICA:   COUNTRY
 SRVC.     Atlas Wireline:   SERVICE COMPANY
 DATE.        28-JAN-1992:   LOGDATE
 API .       490252250300:   API NUMBER
~CURVE INFORMATION
#MNEM.UNIT       API CODE    CURVE DESCRIPTION
#----------   ------------   ------------------------------
 DEPT.F                  :   
 GRR .GAPI   07 310 01 00:   GAMMA RAY
 RILD.OHMM   07 120 46 00:   INDUCTION LOG DEEP RESISTIVITY
 RILM.OHMM   07 120 44 00:   INDUCTION LOG MEDIUM RESISTIVITY
~PARAMETER INFORMATION
#MNEM.UNIT          VALUE    DESCRIPTION
#----------   ------------   ------------------------------
 PD  .                 GL:   PERMANENT DATUM
 EPD .F              5077:   ELEVATION PERMANENT DATUM
 LMF .                 KB:   LOG MEASURED FROM
 DAPD.F                10:   FEET ABOVE PERMANENT DATUM
 DMF .                 KB:   DRILLING MEASURED FROM
 EKB .F              5087:   KELLING BUSHING
 EDF .F              5086:   DRILLING FLOOR
 EGL .F              5077:   GROUND LEVEL
 DATE.        28-JAN-1992:   RUN DATE
 RUN .                  1:   RUN NUMBER
 DD  .F               693:   DEPTH DRILLER
 DL  .F               693:   DEPTH LOGGER
 BLI .F               691:   BOTTOM LOG INTERVAL
 CS  .IN            9.625:   CASING SIZE
 CBD .F                50:   CASING BOTTOM DRILLER
 CBL .F                60:   CASING BOTTOM LOGGER
 BS  .IN             8.75:   BIT SIZE
 BSD .F               693:   BIT SIZE AT DEPTH
 DFT .                AIR:   DRILLING FLUID TYPE
 MRT .F                90:   MAXIMUM RECORDED TEMPERATURE
 LUN .           HL- 6274:   LOGGING UNIT NUMBER
 LUL .             CASPER:   LOGGING UNIT LOCATION
 ENGI.             RAUTIO:   RECORDING ENGINEER
 WITN.        GARY STRONG:   WITNESSED BY
 CLNT.            A2DTECH:   CLIENT CODE
 ORIG.           5" PRINT:   ORIGIN OF DATA
 UWI .       490252250300:   UNIQUE WELL ID
 DICO. A2D Technologies, Inc.:   DIGITIZING COMPANY
~OTHER INFORMATION
~A   DEPT       GRR      RILD       RILM   
# ...
  375.0000   131.3728     7.6578     7.7271
  375.5000   132.2748     7.6027     7.6729
  376.0000   131.9694     7.4436     7.5137
  376.5000   131.0615     7.2352     7.4610
  377.0000   130.1535     6.8383     7.1054
  377.5000   128.0390     6.5829     6.7182
  378.0000   124.7178     6.1963     6.3503
  378.5000   121.6982     5.8834     5.9535
  379.0000   121.3936     5.6261     5.6444
  379.5000   122.2956     5.3201     5.4507
  380.0000   122.2926     5.3558     5.3750
  380.5000   120.0370     5.4672     5.5265
  381.0000   114.1016     5.6199     5.7220
  381.5000   115.9481     5.7399     5.9658
  382.0000   126.5032     5.9443     6.3959
  382.5000   130.4218     6.4084     7.0507
  383.0000   130.7213     6.9644     7.4543
  383.5000   130.1142     7.5686     7.7180
  384.0000   129.8096     7.8344     7.9356
  384.5000   129.8066     8.1094     8.1627
  385.0000   131.0103     8.3360     8.3893
  385.5000   135.8339     8.5688     8.6256
  386.0000   137.3400     8.7478     8.7460
  386.5000   134.6213     8.9292     8.8683
  387.0000   134.2966     8.9892     8.9920
  387.5000   135.5204     9.0493     9.0544
  388.0000   134.5721     9.0469     9.0536
  388.5000   131.2107     9.0444     9.0530
  389.0000   128.8742     9.0418     9.0524
  389.5000   131.2845     8.9139     8.9889
  390.0000   136.1081     8.3707     8.6203
  390.5000   137.0108     8.0263     8.2094
  391.0000   134.5939     7.6427     7.6537
  391.5000   128.5577     6.6946     7.1278
  392.0000   126.4431     6.0296     6.2140
  392.5000   128.5518     5.3557     5.2913
  393.0000   130.0579     4.2264     4.6674
  393.5000   129.7525     3.9966     4.2040
  394.0000   128.5429     4.0234     4.1167
  394.5000   127.9366     4.0786     4.1452
  395.0000   129.7436     4.1346     4.1740
  395.5000   135.5728     4.3130     4.3518
  396.0000   138.1841     4.6293     4.7973
  396.5000   137.2754     5.0671     5.3254
  397.0000   137.2725     5.4929     5.7894
  397.5000   138.7778     6.1379     6.2067
  398.0000   140.2831     6.5783     6.6116
  398.5000   140.8835     6.9528     6.9917
  399.0000   140.8805     7.0488     7.1331
  399.5000   140.8775     7.0961     7.1826
  400.0000   142.0807     7.0797     7.1320
  400.5000   142.3757     7.0424     7.1804
  401.0000   142.3647     7.0901     7.1282
  401.5000   141.4508     7.0386     7.0767
  402.0000   141.1403     6.8436     6.9265
  402.5000   140.1962     6.6078     6.5847
  403.0000   139.3104     6.3360     6.2371
  403.5000   140.8099     5.9498     5.8974
  404.0000   148.3425     5.7764     5.6152
  404.5000   156.7801     5.4700     5.4594
  405.0000   161.5977     5.2449     5.2344
  405.5000   161.5889     5.1352     5.0539
  406.0000   156.7535     5.0281     5.0177
  406.5000   145.5833     5.3141     5.3406
  407.0000   137.4296     5.3126     5.3021
  407.5000   137.4006     5.2744     5.3377
  408.0000   142.6362     5.4596     5.5056
  408.5000   150.5427     5.7705     5.9221
  409.0000   154.2849     6.1084     6.3036
  409.5000   154.8815     6.5067     6.7566
  410.0000   148.8373     6.9566     7.0923
  410.5000   141.2870     7.3527     7.4448
  411.0000   140.6748     7.6109     7.7066
  411.5000   140.6659     7.8241     7.8677
  412.0000   140.9609     7.9310     7.9755
  412.5000   136.7266     7.9288     7.9732
  413.0000   135.7888     7.8717     7.8607
  413.5000   138.8244     7.8150     7.8581
  414.0000   140.9512     7.7566     7.8014
  414.5000   141.8733     7.5964     7.6380
  415.0000   144.5233     7.4890     7.5829
  415.5000   145.7210     7.3835     7.3725
  416.0000   146.9210     7.1291     7.1181
  416.5000   146.3066     6.7414     6.6837
  417.0000   145.6945     6.2431     6.2758
  417.5000   146.2889     5.7816     5.8518
  418.0000   147.4867     5.4293     5.3056
  418.5000   150.7961     5.2059     5.1192
  419.0000   152.5972     5.0264     5.0158
  419.5000   151.9708     4.9904     5.0498
  420.0000   145.0982     5.0238     5.0838
  420.5000   130.8490     5.1280     5.1179
  421.0000   132.9517     5.3452     5.3346
  421.5000   138.3727     5.7287     6.0037
  422.0000   143.1904     6.2257     6.6170
  422.5000   146.1981     6.6724     6.8976
  423.0000   148.9042     7.0524     7.1901
  423.5000   150.4036     7.3510     7.4977
  424.0000   150.0931     7.5563     7.7125
  424.5000   149.7826     7.7136     7.8106
  425.0000   150.6787     7.7114     7.8080
  425.5000   151.6007     7.7632     7.8058
  426.0000   150.3067     7.7606     7.8037
  426.5000   147.9350     7.7585     7.8016
  427.0000   147.0212     7.7563     7.7995
  427.5000   149.7272     7.7542     7.7973
  428.0000   149.1151     7.7521     7.7952
  428.5000   147.8996     7.7500     7.7931
  429.0000   149.3990     7.7479     7.7910
  429.5000   155.1217     7.7458     7.7888
  430.0000   159.6377     7.7436     7.7862
  430.5000   153.8973     7.7411     7.7841
  431.0000   150.5702     7.6321     7.7279
  431.5000   153.0508     7.4724     7.5660
  432.0000   154.7757     7.4704     7.5115
  432.5000   154.4630     7.4683     7.5094
  433.0000   151.4375     7.4663     7.5074
  433.5000   147.2055     7.3101     7.5053
  434.0000   144.1800     6.9608     7.1448
  434.5000   147.1878     6.3568     6.7420
  435.0000   150.7988     5.7939     6.1269
  435.5000   152.2982     5.2654     5.6733
  436.0000   152.3177     5.0488     5.2901
  436.5000   152.5822     4.9431     4.7308
  437.0000   153.7800     4.9075     4.9659
  437.5000   154.1227     4.9749     5.3974
  438.0000   154.3656     5.0785     5.5488
  438.5000   153.7512     5.2204     5.7037
  439.0000   152.5357     5.2921     5.8633
  439.5000   151.3202     5.2539     5.8177
  440.0000   149.5014     5.2161     5.4887
  440.5000   147.3809     5.1367     5.1676
  441.0000   146.4671     4.9307     4.9894
  441.5000   146.5007     4.8613     4.8848
  442.0000   144.6394     4.8600     4.8159
  442.5000   137.9738     4.8929     4.8486
  443.0000   140.5432     4.9598     4.9493
  443.5000   146.4206     5.2422     5.5701
  444.0000   148.5255     5.6970     6.0965
  444.5000   146.4028     6.1913     6.4442
  445.0000   143.9807     6.5911     6.6739
  445.5000   141.5586     6.8270     6.8174
  446.0000   139.1365     6.9629     7.0489
  446.5000   138.8259     7.0585     7.0967
  447.0000   141.8337     6.8625     6.8038
  447.5000   145.7464     6.4892     6.4782
  448.0000   147.8530     6.0938     6.2547
  448.5000   146.0301     5.6827     5.8322
  449.0000   146.1177     5.2994     5.3630
  449.5000   149.3286     5.0462     5.0357
  450.0000   153.5435     5.0448     4.9993
  450.5000   153.2359     5.0857     5.1097
  451.0000   150.8168     5.2205     5.5065
  451.5000   145.3810     5.2919     6.0681
  452.0000   143.5652     5.4020     6.2371
  452.5000   144.7659     5.8300     6.4555
  453.0000   146.2683     6.3358     6.8705
  453.5000   146.2624     6.8856     7.3632
  454.0000   146.2080     7.4311     7.7280
  454.5000   140.5588     7.7998     7.9987
  455.0000   135.0819     8.1301     8.2214
  455.5000   131.7577     8.1903     8.2755
  456.0000   131.1485     8.2964     8.2720
  456.5000   133.5559     8.3527     8.2105
  457.0000   135.9633     8.4081     8.2072
  457.5000   139.2756     8.5236     8.2038
  458.0000   140.4766     8.5808     8.2586
  458.5000   138.3589     8.5784     8.4288
  459.0000   138.6585     8.5167     8.4253
  459.5000   141.4278     8.4553     8.4219
  460.0000   143.1677     8.2784     8.2443
  460.5000   141.3504     8.2130     8.0705
  461.0000   140.4395     8.1025     8.0111
  461.5000   139.8303     8.1569     8.0639
  462.0000   140.1261     8.2116     8.2876
  462.5000   140.7250     8.3825     8.5183
  463.0000   141.0207     8.6768     8.6956
  463.5000   141.3152     8.8574     8.9367
  464.0000   138.8958     8.9796     8.9965
  464.5000   135.2093     8.4907     8.8675
  465.0000   130.3972     8.0849     8.4419
  465.5000   128.6203     7.3636     7.7617
