~VERSION INFORMATION
 VERS.                2.0:   CWLS LOG ASCII STANDARD - VERSION 2.0
 WRAP.                 NO:   ONE LINE PER DEPTH STEP
~WELL INFORMATION
#MNEM.UNIT      DATA TYPE    INFORMATION
#----------   ------------   ------------------------------
 STRT.F           36.0000:   START DEPTH
 STOP.F         2324.5000:   STOP DEPTH
 STEP.F            0.5000:   STEP LENGTH
 NULL.          -999.2500:   NO VALUE
 COMP. FENIX & SCISSON INC:   COMPANY
 WELL.           SX #57-3:   WELL
 FLD .             TEAPOT:   FIELD
 LOC .       S3 T38N R78W:   LOCATION
 CNTY.            NATRONA:   COUNTY
 STAT.            WYOMING:   STATE
 CTRY. UNITED STATES OF AMERICA:   COUNTRY
 SRVC.           BIRDWELL:   SERVICE COMPANY
 DATE.        15-JUN-1978:   LOGDATE
 API .       490251028800:   API NUMBER
~CURVE INFORMATION
#MNEM.UNIT       API CODE    CURVE DESCRIPTION
#----------   ------------   ------------------------------
 DEPT.F                  :   
 CALD.IN     45 280 60 00:   CALIPER FROM DENSITY LOG
 GRD .GAPI   45 310 01 00:   GAMMA RAY FROM DENSITY LOG
 CORR.G/C3   45 356 01 00:   DENSITY CORRECTION
 RHOB.G/C3   45 350 01 00:   BULK DENSITY
 DPHI.DEC    45 890 12 00:   DENSITY POROSITY SANDSTONE
 SPR .MV     07 010 01 00:   SPONTANEOUS POTENTIAL
 ILD .OHMM   07 120 46 00:   INDUCTION LOG DEEP
 ILM .OHMM   07 120 44 00:   INDUCTION LOG MEDIUM
 SGRD.OHMM   07 220 05 00:   SHALLOW GUARD RESISTIVITY
~PARAMETER INFORMATION
#MNEM.UNIT          VALUE    DESCRIPTION
#----------   ------------   ------------------------------
 PD  .                 GL:   PERMANENT DATUM
 EPD .F              5184:   ELEVATION PERMANENT DATUM
 LMF .                 KB:   LOG MEASURED FROM
 DAPD.F                10:   FEET ABOVE PERMANENT DATUM
 DMF .                 KB:   DRILLING MEASURED FROM
 EKB .F              5184:   KELLING BUSHING
 EGL .F              5184:   GROUND LEVEL
 DATE.            6-15-78:   RUN DATE
 RUN .                  1:   RUN NUMBER
 DD  .F              2340:   DEPTH DRILLER
 DL  .F              2324:   DEPTH LOGGER
 BLI .F              2324:   BOTTOM LOG INTERVAL
 TLI .F                50:   TOP LOG INTERVAL
 CS  .IN            9.625:   CASING SIZE
 CBD .F               600:   CASING BOTTOM DRILLER
 CBL .F               601:   CASING BOTTOM LOGGER
 BS  .IN             8.75:   BIT SIZE
 BSD .F              2340:   BIT SIZE AT DEPTH
 DFT .           AIR MIST:   DRILLING FLUID TYPE
 BHT .F                68:   BOTTOM HOLE TEMPERATURE
 MRT .F                68:   MAXIMUM RECORDED TEMPERATURE
 LUN .               2958:   LOGGING UNIT NUMBER
 LUL .               CASP:   LOGGING UNIT LOCATION
 ENGI.           REYNOLDS:   RECORDING ENGINEER
 WITN.           MCGINLEY:   WITNESSED BY
 CLNT.            A2DTECH:   CLIENT CODE
 ORIG.   2" 2.5" 5" PRINT:   ORIGIN OF DATA
 UWI .       490251028800:   UNIQUE WELL ID
 DICO. A2D Technologies, Inc.:   DIGITIZING COMPANY
~OTHER INFORMATION
~A   DEPT       CALD      GRD        CORR      RHOB         DPHI      SPR        ILD        ILM       SGRD   
# ...
 1751.5000     8.3180   146.6884     0.0295     2.5204     0.0263  -999.2500  -999.2500  -999.2500  -999.2500
 1752.0000     8.3279   144.0652     0.0291     2.5144     0.0285  -999.2500  -999.2500  -999.2500  -999.2500
 1752.5000     8.3386   146.7235     0.0287     2.5082     0.0296  -999.2500  -999.2500  -999.2500  -999.2500
 1753.0000     8.3487   149.2053     0.0284     2.5031     0.0285  -999.2500  -999.2500  -999.2500  -999.2500
 1753.5000     8.3590   160.8439     0.0280     2.5049     0.0274  -999.2500  -999.2500  -999.2500  -999.2500
 1754.0000     8.3694   170.8412     0.0276     2.5075     0.0269  -999.2500  -999.2500  -999.2500  -999.2500
 1754.5000     8.3798   175.2270     0.0272     2.5082     0.0290  -999.2500  -999.2500  -999.2500  -999.2500
 1755.0000     8.3916   169.7286     0.0268     2.5058     0.0317  -999.2500  -999.2500  -999.2500  -999.2500
 1755.5000     8.4204   173.1779     0.0265     2.5041     0.0344  -999.2500  -999.2500  -999.2500  -999.2500
 1756.0000     8.4564   180.3906     0.0261     2.5023     0.0361  -999.2500  -999.2500  -999.2500  -999.2500
 1756.5000     8.4913   177.6846     0.0257     2.5004     0.0371  -999.2500  -999.2500  -999.2500  -999.2500
 1757.0000     8.5303   174.5662     0.0253     2.4987     0.0381  -999.2500  -999.2500  -999.2500  -999.2500
 1757.5000     8.5460   171.9836     0.0249     2.4968     0.0391  -999.2500  -999.2500  -999.2500  -999.2500
 1758.0000     8.5269   170.4182     0.0246     2.4951     0.0395  -999.2500  -999.2500  -999.2500  -999.2500
 1758.5000     8.5196   169.8191     0.0242     2.4932     0.0395  -999.2500  -999.2500  -999.2500  -999.2500
 1759.0000     8.4785   170.6981     0.0238     2.4931     0.0395  -999.2500  -999.2500  -999.2500  -999.2500
 1759.5000     8.5062   171.5463     0.0241     2.4931     0.0398  -999.2500  -999.2500  -999.2500  -999.2500
 1760.0000     8.5512   167.7783     0.0246     2.4928     0.0405  -999.2500  -999.2500  -999.2500  -999.2500
 1760.5000     8.5981   163.1536     0.0250     2.4904     0.0412  -999.2500  -999.2500  -999.2500  -999.2500
 1761.0000     8.6415   164.9235     0.0256     2.4890     0.0419  -999.2500  -999.2500  -999.2500  -999.2500
 1761.5000     8.6898   167.6598     0.0260     2.4873     0.0419  -999.2500  -999.2500  -999.2500  -999.2500
 1762.0000     8.6993   170.8605     0.0265     2.4857     0.0427  -999.2500  -999.2500  -999.2500  -999.2500
 1762.5000     8.6837   171.5204     0.0271     2.4857     0.0427  -999.2500  -999.2500  -999.2500  -999.2500
 1763.0000     8.6698   168.1862     0.0272     2.4866     0.0427  -999.2500  -999.2500  -999.2500  -999.2500
 1763.5000     8.7256   168.4788     0.0310     2.4863     0.0427  -999.2500  -999.2500  -999.2500  -999.2500
 1764.0000     8.7796   170.3463     0.0367     2.4830     0.0404  -999.2500  -999.2500  -999.2500  -999.2500
 1764.5000     8.7486   173.4900     0.0420     2.4856     0.0378  -999.2500  -999.2500  -999.2500  -999.2500
 1765.0000     8.7195   180.2140     0.0472     2.4887     0.0414  -999.2500  -999.2500  -999.2500  -999.2500
 1765.5000     8.6894   178.8319     0.0527     2.4928     0.0479  -999.2500  -999.2500  -999.2500  -999.2500
 1766.0000     8.6740   172.7985     0.0561     2.4860     0.0478  -999.2500  -999.2500  -999.2500  -999.2500
 1766.5000     8.7235   171.1149     0.0501     2.4735     0.0548  -999.2500  -999.2500  -999.2500  -999.2500
 1767.0000     8.7782   169.4711     0.0410     2.4739     0.0640  -999.2500  -999.2500  -999.2500  -999.2500
 1767.5000     8.7144   164.1786     0.0320     2.4529     0.0551  -999.2500  -999.2500  -999.2500  -999.2500
 1768.0000     8.7408   162.4795     0.0269     2.4665     0.0506  -999.2500  -999.2500  -999.2500  -999.2500
 1768.5000     8.7681   165.2439     0.0316     2.4757     0.0514  -999.2500  -999.2500  -999.2500  -999.2500
 1769.0000     8.8100   166.9315     0.0386     2.4713     0.0459  -999.2500  -999.2500  -999.2500  -999.2500
 1769.5000     8.7879   172.6828     0.0433     2.4726     0.0509  -999.2500  -999.2500  -999.2500  -999.2500
 1770.0000     8.6854   177.8969     0.0407     2.4809     0.0585  -999.2500  -999.2500  -999.2500  -999.2500
 1770.5000     8.5873   174.7706     0.0373     2.4634     0.0468  -999.2500  -999.2500  -999.2500  -999.2500
 1771.0000     8.5372   172.7549     0.0353     2.4713     0.0347  -999.2500  -999.2500  -999.2500  -999.2500
 1771.5000     8.5229   172.8104     0.0347     2.4908     0.0300  -999.2500  -999.2500  -999.2500  -999.2500
 1772.0000     8.5111   172.1245     0.0338     2.5052     0.0327  -999.2500  -999.2500  -999.2500  -999.2500
 1772.5000     8.5205   170.8872     0.0328     2.5053     0.0364  -999.2500  -999.2500  -999.2500  -999.2500
 1773.0000     8.5295   175.7471     0.0319     2.4974     0.0372  -999.2500  -999.2500  -999.2500  -999.2500
 1773.5000     8.5378   183.8450     0.0318     2.4972     0.0395  -999.2500  -999.2500  -999.2500  -999.2500
 1774.0000     8.5478   191.9537     0.0327     2.4957     0.0469  -999.2500  -999.2500  -999.2500  -999.2500
 1774.5000     8.5316   196.8448     0.0336     2.4861     0.0499  -999.2500  -999.2500  -999.2500  -999.2500
 1775.0000     8.5102   195.7929     0.0346     2.4767     0.0493  -999.2500  -999.2500  -999.2500  -999.2500
 1775.5000     8.4875   194.1649     0.0354     2.4733     0.0465  -999.2500  -999.2500  -999.2500  -999.2500
 1776.0000     8.4696   186.8724     0.0412     2.4731     0.0423  -999.2500  -999.2500  -999.2500  -999.2500
 1776.5000     8.4537   179.4838     0.0481     2.4821     0.0381  -999.2500  -999.2500  -999.2500  -999.2500
 1777.0000     8.4394   178.9485     0.0549     2.4963     0.0371  -999.2500  -999.2500  -999.2500  -999.2500
 1777.5000     8.4289   179.4610     0.0551     2.4980     0.0413  -999.2500  -999.2500  -999.2500  -999.2500
 1778.0000     8.4472   180.0268     0.0513     2.4904     0.0455  -999.2500  -999.2500  -999.2500  -999.2500
 1778.5000     8.4755   180.0142     0.0545     2.4841     0.0496  -999.2500  -999.2500  -999.2500  -999.2500
 1779.0000     8.5076   176.0893     0.0608     2.4775     0.0538  -999.2500  -999.2500  -999.2500  -999.2500
 1779.5000     8.5063   172.1722     0.0666     2.4709     0.0604  -999.2500  -999.2500  -999.2500  -999.2500
 1780.0000     8.4990   171.0981     0.0725     2.4644     0.0648  -999.2500  -999.2500  -999.2500  -999.2500
 1780.5000     8.4899   171.6887     0.0761     2.4572     0.0640  -999.2500  -999.2500  -999.2500  -999.2500
 1781.0000     8.4819   173.0048     0.0678     2.4535     0.0588  -999.2500  -999.2500  -999.2500  -999.2500
 1781.5000     8.4749   178.3518     0.0520     2.4516     0.0464  -999.2500  -999.2500  -999.2500  -999.2500
 1782.0000     8.4571   176.8212     0.0366     2.4625     0.0332  -999.2500  -999.2500  -999.2500  -999.2500
 1782.5000     8.4314   172.9818     0.0360     2.4859     0.0341  -999.2500  -999.2500  -999.2500  -999.2500
 1783.0000     8.4060   169.9665     0.0382     2.4997     0.0351  -999.2500  -999.2500  -999.2500  -999.2500
 1783.5000     8.3838   167.3662     0.0409     2.4958     0.0356  -999.2500  -999.2500  -999.2500  -999.2500
 1784.0000     8.3550   167.0428     0.0432     2.4939     0.0338  -999.2500  -999.2500  -999.2500  -999.2500
 1784.5000     8.3797   165.2953     0.0461     2.4951     0.0315  -999.2500  -999.2500  -999.2500  -999.2500
 1785.0000     8.3946   159.8748     0.0464     2.4993     0.0343  -999.2500  -999.2500  -999.2500  -999.2500
 1785.5000     8.4116   160.8686     0.0427     2.5030     0.0463  -999.2500  -999.2500  -999.2500  -999.2500
 1786.0000     8.4291   161.6933     0.0324     2.4932     0.0419  -999.2500  -999.2500  -999.2500  -999.2500
 1786.5000     8.4187   161.8486     0.0227     2.4789     0.0330  -999.2500  -999.2500  -999.2500  -999.2500
 1787.0000     8.4012   163.3988     0.0201     2.4930     0.0269  -999.2500  -999.2500  -999.2500  -999.2500
 1787.5000     8.3911   166.6452     0.0224     2.5042     0.0288  -999.2500  -999.2500  -999.2500  -999.2500
