~VERSION INFORMATION
 VERS.                2.0:   CWLS LOG ASCII STANDARD - VERSION 2.0
 WRAP.                 NO:   ONE LINE PER DEPTH STEP
~WELL INFORMATION
#MNEM.UNIT      DATA TYPE    INFORMATION
#----------   ------------   ------------------------------
 STRT.F           13.0000:   START DEPTH
 STOP.F          508.0000:   STOP DEPTH
 STEP.F            0.5000:   STEP LENGTH
 NULL.          -999.2500:   NO VALUE
 COMP. LAWRENCE/ALLISON INC:   COMPANY
 WELL.    51-35 SX #10-10:   WELL
 FLD .             TEAPOT:   FIELD
 LOC .      S10 T38N R78W:   LOCATION
 CNTY.            NATRONA:   COUNTY
 STAT.            WYOMING:   STATE
 CTRY. UNITED STATES OF AMERICA:   COUNTRY
 SRVC.       Schlumberger:   SERVICE COMPANY
 DATE.        26-FEB-1988:   LOGDATE
 API .       490251115500:   API NUMBER
~CURVE INFORMATION
#MNEM.UNIT       API CODE    CURVE DESCRIPTION
#----------   ------------   ------------------------------
 DEPT.F                  :   
 GRR .GAPI   07 310 01 00:   GAMMA RAY
 RILD.OHMM   07 120 46 00:   INDUCTION LOG DEEP RESISTIVITY
 RILM.OHMM   07 120 44 00:   RESITIVITY LONG MEDIUM
~PARAMETER INFORMATION
#MNEM.UNIT          VALUE    DESCRIPTION
#----------   ------------   ------------------------------
 PD  .                 GL:   PERMANENT DATUM
 EPD .F              5181:   ELEVATION PERMANENT DATUM
 LMF .                 KB:   LOG MEASURED FROM
 DAPD.F                 8:   FEET ABOVE PERMANENT DATUM
 DMF .                 KB:   DRILLING MEASURED FROM
 EKB .F              5189:   KELLING BUSHING
 EDF .F              5188:   DRILLING FLOOR
 EGL .F              5181:   GROUND LEVEL
 DATE.        26-FEB-1988:   RUN DATE
 RUN .                  1:   RUN NUMBER
 DD  .F               458:   DEPTH DRILLER
 DL  .F               440:   DEPTH LOGGER
 BLI .F               430:   BOTTOM LOG INTERVAL
 TLI .F               140:   TOP LOG INTERVAL
 CS  .IN            8.625:   CASING SIZE
 CBD .F                46:   CASING BOTTOM DRILLER
 CBL .F                46:   CASING BOTTOM LOGGER
 BSD .F               458:   BIT SIZE AT DEPTH
 DFT .          WATER/AIR:   DRILLING FLUID TYPE
 BHT .F               172:   BOTTOM HOLE TEMPERATURE
 TLAB.HRS            0830:   TIME LOGGER AT BOTTOM
 MRT .F               172:   MAXIMUM RECORDED TEMPERATURE
 LUN .               8256:   LOGGING UNIT NUMBER
 LUL .             CASPER:   LOGGING UNIT LOCATION
 ENGI.      PREISLER/FINK:   RECORDING ENGINEER
 WITN.               LOWE:   WITNESSED BY
 CLNT.            A2DTECH:   CLIENT CODE
 ORIG.           5" PRINT:   ORIGIN OF DATA
 UWI .       490251115500:   UNIQUE WELL ID
 DICO. A2D Technologies, Inc.:   DIGITIZING COMPANY
~OTHER INFORMATION
~A   DEPT       GRR      RILD       RILM   
# ...
  195.0000   121.2505     7.9014     7.9733
  195.5000   116.9912     7.7382     7.9165
  196.0000   113.6465     7.5784     7.7408
  196.5000   110.5731     7.3703     7.3273
  197.0000   107.5285     7.1680     7.0248
  197.5000   106.0513     6.9711     6.7821
  198.0000   117.9528     6.7326     6.5938
  198.5000   122.2300     6.5002     6.4558
  199.0000   121.9341     6.3175     6.2766
  199.5000   119.8089     6.1073     6.0175
  200.0000   121.9520     5.9397     5.8096
  200.5000   126.5341     5.8170     5.5265
  201.0000   130.5064     5.8174     5.2286
  201.5000   134.1739     5.8178     5.0835
  202.0000   136.9431     5.8590     4.9424
  202.5000   132.4186     5.9417     4.8729
  203.0000   124.4469     6.0678     5.0107
  203.5000   119.8827     6.2404     5.3360
  204.0000   119.2796     6.4716     5.6428
  204.5000   118.3762     6.8335     5.8858
  205.0000   116.8607     7.0766     6.1416
  205.5000   114.4306     7.3796     6.4431
  206.0000   113.2178     7.8038     6.8614
  206.5000   117.1924     8.0814     7.1549
  207.0000   125.0610     8.1955     7.4610
  207.5000   131.2828     8.3113     7.6719
  208.0000   132.8160     8.4287     7.7251
  208.5000   124.5991     8.4882     7.8327
  209.0000   118.5133     8.4888     7.8867
  209.5000   112.4276     8.4821     7.8941
  210.0000   112.7443     8.3371     7.9959
  210.5000   120.6829     8.3392     8.1104
  211.0000   124.7317     8.3993     8.2265
  211.5000   126.1973     8.3426     8.2281
  212.0000   125.5994     8.3447     8.1723
  212.5000   122.8673     8.3464     8.1740
  213.0000   120.7450     8.3481     8.1758
  213.5000   118.0129     8.3497     8.1778
  214.0000   116.1951     8.3514     8.1794
  214.5000   114.0711     8.3531     8.1811
  215.0000   112.8252     8.3491     8.1828
  215.5000   111.6607     8.1834     8.1844
  216.0000   108.9286     8.1281     8.1861
  216.5000   101.6234     8.0733     8.1306
  217.0000    95.5376     7.9630     8.0755
  217.5000    94.6319     7.9092     8.0212
  218.0000   111.7198     7.9112     7.9668
  218.5000   120.8780     7.7459     7.8576
  219.0000   117.1788     7.4851     7.8039
  219.5000   111.1485     7.3829     7.6436
  220.0000   108.7213     7.2817     7.4340
  220.5000   111.4770     7.1326     7.1730
  221.0000   121.8547     6.9863     6.8859
  221.5000   130.7080     6.8430     6.6502
  222.0000   131.0813     6.6085     6.4227
  222.5000   118.6387     6.3778     6.2029
  223.0000   107.2806     6.1667     6.0752
  223.5000   101.7948     5.9154     5.7857
  224.0000   101.8066     5.7940     5.2759
  224.5000   114.0136     5.8358     4.9617
  225.0000   119.8181     5.8369     4.8256
  225.5000   116.1713     5.8381     4.8266
  226.0000   114.0490     5.8802     5.0702
  226.5000   113.4511     6.0061     5.5159
  227.0000   113.8211     6.1773     6.0429
  227.5000   116.5265     6.3535     6.2596
  228.0000   126.2944     6.5346     6.3049
  228.5000   129.0501     6.7680     6.3954
  229.0000   126.9278     6.9125     6.6712
  229.5000   118.4030     6.9140     6.7667
  230.0000   114.1465     6.8676     6.6740
  230.5000   114.8599     6.6799     6.4909
  231.0000   123.0146     6.4974     6.4469
  231.5000   126.3801     6.2759     6.2614
  232.0000   118.1602     6.1044     5.6859
  232.5000   110.2452     5.8963     5.3396
  233.0000   106.9034     5.8149     5.1929
  233.5000   109.3542     5.8170     5.1577
  234.0000   115.1587     6.0250     5.3429
  234.5000   116.3900     6.2838     5.4958
  235.0000   113.9658     6.5538     5.6928
  235.5000   110.6239     6.8833     5.9440
  236.0000   109.1114     7.1291     6.1516
  236.5000   106.9891     7.4874     6.5074
  237.0000   105.4765     7.8154     6.9322
  237.5000   104.5732     8.1451     7.2821
  238.0000   106.7196     8.2038     7.5961
  238.5000   108.8659     8.4377     7.8685
  239.0000   108.8804     8.5580     7.9849
  239.5000   109.1971     8.6196     8.1526
  240.0000   109.8186     8.6817     8.2693
  240.5000   118.3671     8.6835     8.3292
  241.0000   130.2691     8.6857     8.3894
  241.5000   134.5492     8.6266     8.3911
  242.0000   131.5123     8.6892     8.3928
  242.5000   122.5608     8.6910     8.3945
  243.0000   117.2096     8.6927     8.3963
  243.5000   118.1361     8.6945     8.3984
  244.0000   123.3308     8.6963     8.4001
  244.5000   124.2573     8.6981     8.4018
  245.0000   123.0496     8.7002     8.5220
  245.5000   116.6590     8.7020     8.5837
  246.0000   109.6586     8.7037     8.6458
  246.5000   107.1281     8.6450     8.5832
  247.0000   105.7188     8.5268     8.4103
  247.5000   111.8311     8.4693     8.1800
  248.0000   117.3308     8.3467     8.0679
  248.5000   120.3914     8.0132     7.9017
  249.0000   117.6593     7.6327     7.6314
  249.5000   109.1345     7.2704     7.3702
  250.0000    98.7805     6.9737     6.9214
  250.5000    95.1338     6.6891     6.1550
  251.0000   100.6364     6.5977     5.3813
  251.5000   111.3189     6.5991     5.2334
  252.0000   117.1234     6.7876     5.2347
  252.5000   117.1352     7.1787     5.3846
  253.0000   116.8392     7.5923     5.7764
  253.5000   116.8540     8.0860     6.4627
  254.0000   115.6179     8.8556     7.6618
  254.5000   109.4330     9.8347     8.8613
  255.0000   106.2217    10.7033     9.4398
  255.5000   103.4896    11.6883    10.3417
  256.0000   100.7575    12.9189    11.4897
  256.5000    98.9401    13.4740    12.3258
  257.0000   100.1714    13.7618    12.7677
  257.5000   104.7564    14.1542    12.9505
  258.0000   110.0001    14.8657    13.4400
  258.5000   114.8882    16.0548    14.0924
  259.0000   115.4626    16.8156    15.1179
  259.5000   108.4652    17.5783    16.2180
  260.0000    99.9404    18.6003    17.5205
  260.5000    90.5010    19.5353    19.0606
  261.0000    81.6714    21.3946    20.9887
  261.5000    71.0122    23.1364    22.4402
  262.0000    66.0366    24.4387    23.4292
  262.5000    60.9778    24.7871    24.5915
  263.0000    56.7213    25.1406    25.2971
  263.5000    52.1600    25.3217    25.8414
  264.0000    48.2084    25.3269    26.0301
  264.5000    48.5251    25.3321    25.8537
  265.0000    50.3661    25.3372    25.8622
  265.5000    51.2927    25.1661    25.8695
  266.0000    50.0366    25.1715    25.8767
  266.5000    48.8801    25.3540    26.0673
  267.0000    48.8920    25.5367    26.0744
  267.5000    49.2086    25.9008    26.4494
  268.0000    50.1351    26.0874    26.6426
  268.5000    54.1103    26.6447    26.8371
  269.0000    62.6587    27.0246    27.4145
  269.5000    66.3291    27.4126    27.8088
  270.0000    58.4170    28.2186    28.4070
  270.5000    51.1117    29.1998    29.4761
  271.0000    52.0382    30.0323    30.7009
  271.5000    60.2817    30.6739    31.3614
  272.0000    67.6106    30.8949    32.2612
  272.5000    66.0980    30.4730    32.9552
  273.0000    59.0976    30.0568    33.4292
  273.5000    50.1678    29.8538    32.2876
  274.0000    51.1974    29.4461    31.1849
  274.5000    53.3433    29.2473    30.5342
  275.0000    53.6571    28.6487    29.9178
  275.5000    51.8426    27.8659    29.3057
  276.0000    50.3300    27.1044    29.1071
  276.5000    50.6467    26.7342    28.5097
  277.0000    52.7988    26.5524    27.9263
  277.5000    55.3354    26.3743    26.9726
  278.0000    59.2216    26.1964    26.2346
  278.5000    62.2822    25.9884    25.5167
  279.0000    63.5136    25.1338    24.8185
  279.5000    62.6107    24.1082    24.1411
  280.0000    59.8786    23.4494    23.6455
  280.5000    56.5368    23.2899    22.8380
  281.0000    52.8354    22.8121    22.5249
  281.5000    51.6824    22.3452    22.2176
  282.0000    56.8801    21.8847    21.7631
  282.5000    59.6358    21.5878    21.4662
  283.0000    60.5622    21.4421    21.0256
  283.5000    60.2662    21.0032    21.0315
  284.0000    62.7200    20.8614    21.0384
  284.5000    71.8781    20.4334    21.0442
  285.0000    69.6646    20.0142    21.0499
  285.5000    65.5023    19.7409    20.7628
