~VERSION INFORMATION
 VERS.                2.0:   CWLS LOG ASCII STANDARD - VERSION 2.0
 WRAP.                 NO:   ONE LINE PER DEPTH STEP
~WELL INFORMATION
#MNEM.UNIT      DATA TYPE    INFORMATION
#----------   ------------   ------------------------------
 STRT.F           90.0000:   START DEPTH
 STOP.F          928.0000:   STOP DEPTH
 STEP.F            0.5000:   STEP LENGTH
 NULL.          -999.2500:   NO VALUE
 COMP.  UNITED STATE NAVY:   COMPANY
 WELL.      NPR 3 #58-S-2:   WELL
 FLD .             TEAPOT:   FIELD
 LOC .       S2 T38N R78W:   LOCATION
 CNTY.            NATRONA:   COUNTY
 STAT.            WYOMING:   STATE
 CTRY. UNITED STATES OF AMERICA:   COUNTRY
 SRVC.       Schlumberger:   SERVICE COMPANY
 DATE.        26-JUN-1962:   LOGDATE
 API .       490250639500:   API NUMBER
~CURVE INFORMATION
#MNEM.UNIT       API CODE    CURVE DESCRIPTION
#----------   ------------   ------------------------------
 DEPT.F                  :   
 ASN .OHMM   05 041 16 00:   AMPLIFIED SHORT NORMAL 16"
 ILD .OHMM   05 120 46 00:   INDUCTION LOG DEEP
 CILD.MMHO   05 110 46 00:   CONDUCTIVITY INDUCTION LOG DEEP
 SPR .MV     05 010 01 00:   SPONTANEOUS POTENTIAL FROM RES.
 GR  .GAPI   30 310 01 00:   GAMMA RAY
~PARAMETER INFORMATION
#MNEM.UNIT          VALUE    DESCRIPTION
#----------   ------------   ------------------------------
 PD  .                 KB:   PERMANENT DATUM
 EKB .F              5189:   KELLING BUSHING
 EGL .F              5184:   GROUND LEVEL
 DATE.        26-JUN-1962:   RUN DATE
 RUN .                  1:   RUN NUMBER
 DD  .F               925:   DEPTH DRILLER
 DL  .F               929:   DEPTH LOGGER
 BLI .F               928:   BOTTOM LOG INTERVAL
 TLI .F                90:   TOP LOG INTERVAL
 BS  .IN             6.75:   BIT SIZE
 BSD .F               925:   BIT SIZE AT DEPTH
 DFT .       OIL EMULSION:   DRILLING FLUID TYPE
 DFD .                 10:   DRILLING FLUID DENSITY
 DFV .                 50:   DRILLING FLUID VISCOSITY
 DFL .                3.7:   DRILLING FLUID LOSS
 RMS .OHMM            4.7:   RESISTIVITY MUD SAMPLE
 MST .F                83:   MUD SAMPLE TEMPERATURE
 RMF .OHMM            3.8:   RESISTIVITY MUD FILTRATE SAMPLE
 MFST.F                83:   MUD FILTRATE SAMPLE TEMPERATURE
 RMC .OHMM            4.4:   RESISTIVITY MUD CAKE
 MCST.F                83:   MUD CAKE SAMPLE TEMPERATURE
 TCS .HRS               1:   TIME CURCULATED STOPPED
 LUN .               2503:   LOGGING UNIT NUMBER
 LUL .               CSPR:   LOGGING UNIT LOCATION
 ENGI.             DANNER:   RECORDING ENGINEER
 WITN.          JORGENSEN:   WITNESSED BY
 CLNT.            A2DTECH:   CLIENT CODE
 ORIG.      2" & 5" PRINT:   ORIGIN OF DATA
 UWI .       490250639500:   UNIQUE WELL ID
 DICO. A2D Technologies, Inc.:   DIGITIZING COMPANY
~OTHER INFORMATION
~A   DEPT        ASN        ILD      CILD       SPR         GR   
# ...
  273.0000     3.1691     3.1864   379.0632   -51.2976  -999.2500
  273.5000     3.6793     3.5700   337.8355   -52.0364  -999.2500
  274.0000     4.3244     4.1749   282.7654   -52.7752  -999.2500
  274.5000     4.5048     4.6946   248.9903   -52.9188  -999.2500
  275.0000     4.5802     5.0849   219.5451   -52.9095  -999.2500
  275.5000     4.5357     5.6606   203.7258   -52.7528  -999.2500
  276.0000     4.6269     5.6613   200.6884   -52.5961  -999.2500
  276.5000     4.6415     5.5869   203.6660   -52.5886  -999.2500
  277.0000     4.6120     5.5127   208.1473   -52.4319  -999.2500
  277.5000     4.6464     5.4387   213.3806   -52.4245  -999.2500
  278.0000     4.7478     5.2145   217.1176   -52.5681  -999.2500
  278.5000     4.6827     4.9904   216.3283   -52.4096  -999.2500
  279.0000     4.5539     4.9160   216.2984   -52.4021  -999.2500
  279.5000     4.4615     4.9919   221.4189   -52.3946  -999.2500
  280.0000     4.3449     4.8427   232.0281   -52.3872  -999.2500
  280.5000     4.2254     4.5436   247.0358   -52.3797  -999.2500
  281.0000     4.0759     4.0196   271.8179   -52.2230  -999.2500
  281.5000     3.8814     3.7952   292.8406   -52.2156  -999.2500
  282.0000     3.6720     3.4963   330.4047   -52.0589  -999.2500
  282.5000     3.5525     3.2722   371.5480   -52.0514  -999.2500
  283.0000     3.3131     3.1230   408.9724   -51.8947  -999.2500
  283.5000     3.0886     3.0486   446.0995   -51.2902  -999.2500
  284.0000     2.9841     3.0495   454.3403   -50.6857  -999.2500
  284.5000     3.0445     3.0503   446.7916   -50.5290  -999.2500
  285.0000     3.2699     3.0510   427.9647   -50.2231  -999.2500
  285.5000     3.2735     3.1267   413.1409   -50.2156  -999.2500
  286.0000     3.0459     3.1275   389.5590   -50.5067  -999.2500
  286.5000     2.9856     3.2781   354.9427   -51.0962  -999.2500
  287.0000     3.5565     4.1035   313.0890   -52.2828  -999.2500
  287.5000     4.5465     4.7039   268.0163   -52.5757  -999.2500
  288.0000     4.7276     5.3793   222.5221   -52.5664  -999.2500
  288.5000     4.8796     5.9798   191.6652   -52.4097  -999.2500
  289.0000     5.0300     6.2809   180.3571   -52.2530  -999.2500
  289.5000     5.0896     6.5060   178.0790   -52.2455  -999.2500
  290.0000     5.1054     6.4318   184.8085   -52.2381  -999.2500
  290.5000     5.1189     6.2004   189.2899   -52.2306  -999.2500
  291.0000     5.1193     5.9646   191.5157   -52.2231  -999.2500
  291.5000     4.9999     5.4361   201.2602   -52.2157  -999.2500
  292.0000     4.7905     4.8185   226.0423   -52.2082  -999.2500
  292.5000     4.4311     4.0369   258.3432   -52.2008  -999.2500
  293.0000     4.1617     3.8127   290.6442   -52.0441  -999.2500
  293.5000     3.7873     3.6636   325.2007   -51.5889  -999.2500
  294.0000     3.4430     3.5142   350.7347   -50.9844  -999.2500
  294.5000     3.3534     3.5151   363.4943   -50.3799  -999.2500
  295.0000     3.6238     3.5159   366.0288   -50.0739  -999.2500
  295.5000     3.6541     3.4416   367.6486   -50.0665  -999.2500
  296.0000     3.3848     3.4424   365.6502   -50.2083  -999.2500
  296.5000     3.2803     3.5181   354.3421   -50.7978  -999.2500
  297.0000     3.6255     3.8936   338.5228   -51.9844  -999.2500
  297.5000     4.0758     4.3442   294.1320   -51.9770  -999.2500
  298.0000     4.1512     4.6448   255.7562   -51.8202  -999.2500
  298.5000     4.2416     4.9454   233.9218   -51.8128  -999.2500
  299.0000     4.3874     5.0211   220.3581   -51.8053  -999.2500
  299.5000     4.5873     5.0968   216.5688   -51.7979  -999.2500
  300.0000     4.7423     5.0975   215.7945   -52.0000  -999.2500
  300.5000     4.7991     5.3258   217.2707   -52.3800  -999.2500
  301.0000     4.8282     5.3288   214.9925   -52.5237  -999.2500
  301.5000     4.8285     5.2561   215.7441   -52.5143  -999.2500
  302.0000     4.7664     5.0350   217.9850   -52.0591  -999.2500
  302.5000     4.6472     4.9622   221.7296   -51.9024  -999.2500
  303.0000     4.5247     4.6661   224.0607   -51.7457  -999.2500
  303.5000     4.3255     4.3693   235.4426   -51.7383  -999.2500
  304.0000     4.1853     4.1466   252.0010   -51.1338  -999.2500
  304.5000     4.0507     3.9255   268.7584   -50.9771  -999.2500
  305.0000     3.9310     3.9285   295.1147   -51.1208  -999.2500
  305.5000     3.8114     3.8558   309.6089   -51.4118  -999.2500
  306.0000     3.6768     3.8595   311.7601   -51.5536  -999.2500
  306.5000     3.6447     3.7868   309.4812   -51.0966  -999.2500
  307.0000     3.7223     3.7148   311.2787   -50.7906  -999.2500
  307.5000     3.6627     3.6436   321.8046   -50.6339  -999.2500
  308.0000     3.3931     3.6466   333.3244   -50.9250  -999.2500
  308.5000     3.2735     3.5739   344.2332   -51.3671  -999.2500
  309.0000     3.3937     3.5776   346.2115   -51.3578  -999.2500
  309.5000     3.4090     3.5806   345.4361   -51.3504  -999.2500
  310.0000     3.3343     3.5086   346.1609   -51.0444  -999.2500
  310.5000     3.2297     3.4359   356.6647   -50.5892  -999.2500
  311.0000     3.1850     3.2897   378.4467   -50.4325  -999.2500
  311.5000     3.0804     3.0679   412.2588   -50.2758  -999.2500
  312.0000     2.8558     2.9209   449.0784   -50.2683  -999.2500
  312.5000     2.6762     2.8482   476.8755   -50.2609  -999.2500
  313.0000     2.6015     2.8519   482.8680   -50.2534  -999.2500
  313.5000     2.6930     3.0049   460.2891   -50.2460  -999.2500
  314.0000     2.9973     3.1578   428.1943   -50.2385  -999.2500
  314.5000     3.3970     3.3857   396.3362   -50.2311  -999.2500
  315.0000     3.3053     3.6135   380.5243   -50.2236  -999.2500
  315.5000     3.2327     3.7657   344.4115   -50.2162  -999.2500
  316.0000     3.3498     3.6937   312.8101   -50.5072  -999.2500
  316.5000     3.8930     3.9973   279.7049   -51.3955  -999.2500
  317.0000     4.1631     4.8999   254.8703   -51.3879  -999.2500
  317.5000     4.2684     5.3526   218.7576   -51.3804  -999.2500
  318.0000     4.3137     5.5805   211.2163   -51.0745  -999.2500
  318.5000     4.2990     5.2837   216.4570   -50.6192  -999.2500
  319.0000     4.2693     4.8369   228.4646   -50.6118  -999.2500
  319.5000     4.2396     4.3901   247.2390   -50.6043  -999.2500
  320.0000     4.1799     4.2424   263.7579   -50.5969  -999.2500
  320.5000     4.0753     4.0962   279.5249   -50.5894  -999.2500
  321.0000     3.8957     4.0235   311.8332   -50.5820  -999.2500
  321.5000     3.7310     3.8024   339.6302   -50.5745  -999.2500
  322.0000     3.5364     3.5805   374.9461   -50.4178  -999.2500
  322.5000     3.4168     3.3586   417.0288   -50.1119  -999.2500
  323.0000     3.2822     3.1367   438.8109   -49.9552  -999.2500
  323.5000     3.1625     3.1397   453.8260   -49.7985  -999.2500
  324.0000     3.1029     3.1427   440.2696   -49.6418  -999.2500
  324.5000     3.2831     3.1457   418.4426   -49.6343  -999.2500
  325.0000     3.3883     3.1487   401.1269   -49.6269  -999.2500
  325.5000     3.2379     3.3016   383.8112   -49.9179  -999.2500
  326.0000     3.1640     3.4545   358.2247   -50.9590  -999.2500
  326.5000     3.9073     3.6824   315.2172   -51.3986  -999.2500
  327.0000     4.3972     4.5849   257.4241   -51.6866  -999.2500
  327.5000     4.5612     5.2626   238.6046   -51.6791  -999.2500
  328.0000     4.6819     5.4155   212.2663   -51.6716  -999.2500
  328.5000     4.8475     5.4935   201.7175   -51.6642  -999.2500
  329.0000     4.9831     5.5714   200.9431   -51.6487  -999.2500
  329.5000     5.0720     5.6494   200.9206   -51.5000  -999.2500
  330.0000     5.1474     5.8023   196.3868   -51.4926  -999.2500
  330.5000     5.3516     5.9552   191.1012   -51.4851  -999.2500
  331.0000     5.5904     6.1831   185.0637   -51.6270  -999.2500
  331.5000     5.8164     6.4110   178.2742   -51.6196  -999.2500
  332.0000     6.0096     6.7888   170.7329   -51.7614  -999.2500
  332.5000     6.1965     7.0167   165.4473   -51.9180  -999.2500
  333.0000     6.3467     7.1696   162.4173   -52.3435  -999.2500
  333.5000     6.4519     7.0969   161.6429   -52.0373  -999.2500
