~VERSION INFORMATION
 VERS.                2.0:   CWLS LOG ASCII STANDARD - VERSION 2.0
 WRAP.                 NO:   ONE LINE PER DEPTH STEP
~WELL INFORMATION
#MNEM.UNIT      DATA TYPE    INFORMATION
#----------   ------------   ------------------------------
 STRT.F          100.0000:   START DEPTH
 STOP.F          780.0000:   STOP DEPTH
 STEP.F            0.5000:   STEP LENGTH
 NULL.          -999.2500:   NO VALUE
 COMP. U S NAVY-INTEX OIL:   COMPANY
 WELL.        NPR #34-S-2:   WELL
 FLD .             TEAPOT:   FIELD
 LOC .       S2 T38N R78W:   LOCATION
 CNTY.            NATRONA:   COUNTY
 STAT.            WYOMING:   STATE
 CTRY. UNITED STATES OF AMERICA:   COUNTRY
 SRVC.       Schlumberger:   SERVICE COMPANY
 DATE.        16-JUL-1962:   LOGDATE
 API .       490250644000:   API NUMBER
~CURVE INFORMATION
#MNEM.UNIT       API CODE    CURVE DESCRIPTION
#----------   ------------   ------------------------------
 DEPT.F                  :   
 ASN .OHMM   05 041 16 00:   AMPLIFIED SHORT NORMAL 16"
 CILD.MMHO   05 110 46 00:   CONDUCTIVITY INDUCTION LOG DEEP
 ILD .OHMM   05 120 46 00:   INDUCTION LOG DEEP
 SPR .MV     05 010 01 00:   SPONTANEOUS POTENTIAL FROM RES.
 CALM.IN     15 280 01 00:   CALIPER FROM MICRO LOG
 GR  .GAPI   30 310 01 00:   GAMMA RAY
~PARAMETER INFORMATION
#MNEM.UNIT          VALUE    DESCRIPTION
#----------   ------------   ------------------------------
 LMF .                 KB:   LOG MEASURED FROM
 DMF .                 KB:   DRILLING MEASURED FROM
 EKB .F              5130:   KELLING BUSHING
 EGL .F              5125:   GROUND LEVEL
 DATE.        16-JUL-1962:   RUN DATE
 RUN .                  1:   RUN NUMBER
 DD  .F               780:   DEPTH DRILLER
 DL  .F               781:   DEPTH LOGGER
 BLI .F               780:   BOTTOM LOG INTERVAL
 TLI .F               100:   TOP LOG INTERVAL
 CBD .F                10:   CASING BOTTOM DRILLER
 BS  .IN             6.75:   BIT SIZE
 BSD .F               780:   BIT SIZE AT DEPTH
 DFT .       OIL EMULSION:   DRILLING FLUID TYPE
 DFD .               10.3:   DRILLING FLUID DENSITY
 DFV .                 43:   DRILLING FLUID VISCOSITY
 DFL .                4.6:   DRILLING FLUID LOSS
 RMS .OHMM              4:   RESISTIVITY MUD SAMPLE
 MST .F                82:   MUD SAMPLE TEMPERATURE
 RMF .OHMM            3.1:   RESISTIVITY MUD FILTRATE SAMPLE
 MFST.F                82:   MUD FILTRATE SAMPLE TEMPERATURE
 RMC .OHMM            4.3:   RESISTIVITY MUD CAKE
 MCST.F                82:   MUD CAKE SAMPLE TEMPERATURE
 TCS .HRS             0.5:   TIME CURCULATED STOPPED
 LUN .               2503:   LOGGING UNIT NUMBER
 LUL .               CSPR:   LOGGING UNIT LOCATION
 ENGI.           ELLERMAN:   RECORDING ENGINEER
 WITN.          JORGENSON:   WITNESSED BY
 CLNT.            A2DTECH:   CLIENT CODE
 ORIG.           5" PRINT:   ORIGIN OF DATA
 UWI .       490250644000:   UNIQUE WELL ID
 DICO. A2D Technologies, Inc.:   DIGITIZING COMPANY
~OTHER INFORMATION
~A   DEPT       ASN       CILD         ILD      SPR       CALM         GR   
  100.0000    13.2287   120.1201     7.8947   -61.6067  -999.2500  -999.2500
  100.5000    13.6773   111.1111     8.6539   -59.6663  -999.2500  -999.2500
  101.0000    11.5848   118.6186     8.7985   -59.3433  -999.2500  -999.2500
  101.5000    10.6133   136.6366     8.6490   -59.6548  -999.2500  -999.2500
  102.0000     9.5671   146.6967     8.4242   -60.5516  -999.2500  -999.2500
  102.5000     8.4910   155.7807     7.9738   -61.0069  -999.2500  -999.2500
  103.0000     7.4897   165.4653     7.4482   -61.1254  -999.2500  -999.2500
  103.5000     6.7873   171.3965     6.8474   -60.5229  -999.2500  -999.2500
  104.0000     6.4885   177.2773     6.5474   -59.9218  -999.2500  -999.2500
  104.5000     6.2794   181.6817     6.2472   -59.9160  -999.2500  -999.2500
  105.0000     6.0852   184.6847     5.9474   -60.8031  -999.2500  -999.2500
  105.5000     5.8872   191.4414     5.6474   -61.2452  -999.2500  -999.2500
  106.0000     5.6921   198.1982     5.3474   -61.5357  -999.2500  -999.2500
  106.5000     5.4280   208.7087     5.1130   -61.5297  -999.2500  -999.2500
  107.0000     5.2189   218.4685     4.8227   -61.3750  -999.2500  -999.2500
  107.5000     5.0247   238.7387     4.5979   -61.1954  -999.2500  -999.2500
  108.0000     4.7707   265.0150     4.5232   -60.6180  -999.2500  -999.2500
  108.5000     4.5317   269.5195     4.4311   -60.0169  -999.2500  -999.2500
  109.0000     4.1432   271.7718     4.3743   -59.2671  -999.2500  -999.2500
  109.5000     4.1732   272.5225     4.2999   -58.0708  -999.2500  -999.2500
  110.0000     4.5620   271.7718     4.3760   -57.0233  -999.2500  -999.2500
  110.5000     4.2918   269.5195     4.5271   -56.5725  -999.2500  -999.2500
  111.0000     4.2036   267.2673     4.6030   -57.1605  -999.2500  -999.2500
  111.5000     4.5027   256.7567     4.8293   -57.3036  -999.2500  -999.2500
  112.0000     4.6822   235.7357     5.1368   -56.8413  -999.2500  -999.2500
  112.5000     4.7870   215.4655     5.4449   -56.5476  -999.2500  -999.2500
  113.0000     4.8619   199.6997     5.6588   -56.0942  -999.2500  -999.2500
  113.5000     4.9069   190.6907     5.7347   -55.3443  -999.2500  -999.2500
  114.0000     4.9519   186.1862     5.7354   -54.7433  -999.2500  -999.2500
  114.5000     4.9670   184.6847     5.7362   -54.5887  -999.2500  -999.2500
  115.0000     4.9073   189.1892     5.6615   -55.0293  -999.2500  -999.2500
  115.5000     4.8327   194.4444     5.5871   -55.7675  -999.2500  -999.2500
  116.0000     4.7717   199.6997     5.5126   -56.0595  -999.2500  -999.2500
  116.5000     4.7284   202.5970     5.3632   -55.9047  -999.2500  -999.2500
  117.0000     4.6688   207.0807     5.1384   -55.7401  -999.2500  -999.2500
  117.5000     4.5792   213.1611     4.9110   -55.2976  -999.2500  -999.2500
  118.0000     4.4748   224.9103     4.6045   -54.8442  -999.2500  -999.2500
  118.5000     4.3404   269.9312     4.1633   -54.2431  -999.2500  -999.2500
  119.0000     4.1761   317.0795     3.7129   -53.6421  -999.2500  -999.2500
  119.5000     3.7727   391.9225     3.4129   -53.3387  -999.2500  -999.2500
  120.0000     3.1151   435.3284     3.1129   -53.4831  -999.2500  -999.2500
  120.5000     2.8312   469.0037     2.9632   -53.3270  -999.2500  -999.2500
  121.0000     2.8640   477.2299     2.8136   -53.0236  -999.2500  -999.2500
  121.5000     3.0282   475.7256     2.8143   -52.7202  -999.2500  -999.2500
  122.0000     2.7869   467.4847     2.8151   -52.5225  -999.2500  -999.2500
  122.5000     2.7720   459.2438     2.8910   -52.8819  -999.2500  -999.2500
  123.0000     2.8021   442.0209     3.1173   -53.4468  -999.2500  -999.2500
  123.5000     3.1461   392.3728     3.4995   -53.7372  -999.2500  -999.2500
  124.0000     3.6544   334.8203     3.8827   -53.8816  -999.2500  -999.2500
  124.5000     3.9236   291.5480     4.3227   -53.5768  -999.2500  -999.2500
  125.0000     3.9985   239.8940     4.4738   -53.1245  -999.2500  -999.2500
  125.5000     4.0435   219.6771     4.5497   -52.8211  -999.2500  -999.2500
  126.0000     4.0889   212.1847     4.4751   -53.1129  -999.2500  -999.2500
  126.5000     4.1353   215.9199     4.4908   -53.8511  -999.2500  -999.2500
  127.0000     4.1636   220.4036     4.5519   -54.1430  -999.2500  -999.2500
  127.5000     4.1786   225.6358     4.5527   -53.9633  -999.2500  -999.2500
  128.0000     4.1788   228.6228     4.4782   -53.6647  -999.2500  -999.2500
  128.5000     4.1490   227.1181     4.4038   -53.3800  -999.2500  -999.2500
  129.0000     4.1043   226.3623     4.2541   -53.2254  -999.2500  -999.2500
  129.5000     4.0298   232.5974     4.1754   -53.0293  -999.2500  -999.2500
  130.0000     3.9402   250.2979     3.9550   -52.7674  -999.2500  -999.2500
  130.5000     3.8208   269.0032     3.8054   -52.4639  -999.2500  -999.2500
  131.0000     3.6715   295.9420     3.6558   -52.3093  -999.2500  -999.2500
  131.5000     3.5194   319.1382     3.4309   -52.0059  -999.2500  -999.2500
  132.0000     3.3280   369.2806     3.2061   -51.6925  -999.2500  -999.2500
  132.5000     3.1787   413.4349     3.0565   -51.5228  -999.2500  -999.2500
  133.0000     3.0144   440.3737     2.9818   -51.3918  -999.2500  -999.2500
  133.5000     2.8800   460.5760     2.9827   -51.6836  -999.2500  -999.2500
  134.0000     2.8652   451.5866     2.9083   -51.9754  -999.2500  -999.2500
  134.5000     3.0597   435.1122     2.9842   -52.4160  -999.2500  -999.2500
  135.0000     3.1345   411.6021     3.0602   -52.7093  -999.2500  -999.2500
  135.5000     3.0450   383.0518     3.1361   -52.5532  -999.2500  -999.2500
  136.0000     3.0152   343.7711     3.2874   -52.2498  -999.2500  -999.2500
  136.5000     3.1891   314.5721     3.5888   -52.0952  -999.2500  -999.2500
  137.0000     3.8410   262.9181     4.0407   -52.8433  -999.2500  -999.2500
  137.5000     4.3012   236.7132     5.4700   -53.1252  -999.2500  -999.2500
  138.0000     4.4508   198.5322     5.9219   -52.9692  -999.2500  -999.2500
  138.5000     4.5407   186.5488     5.9978   -52.6657  -999.2500  -999.2500
  139.0000     4.6006   184.2960     5.9985   -52.2135  -999.2500  -999.2500
  139.5000     4.6307   185.0374     5.9241   -51.6125  -999.2500  -999.2500
  140.0000     4.6457   188.0238     5.8496   -52.0531  -999.2500  -999.2500
  140.5000     4.6309   193.2859     5.6985   -52.6425  -999.2500  -999.2500
  141.0000     4.6012   201.8811     5.3920   -52.7857  -999.2500  -999.2500
  141.5000     4.5106   225.4252     5.0250   -52.9286  -999.2500  -999.2500
  142.0000     4.2936   256.1065     4.5746   -52.8433  -999.2500  -999.2500
  142.5000     3.8842   287.5363     4.1242   -52.6190  -999.2500  -999.2500
  143.0000     3.7349   328.6966     3.7490   -52.1656  -999.2500  -999.2500
  143.5000     3.4360   361.6234     3.5240   -52.0110  -999.2500  -999.2500
  144.0000     3.2269   366.1071     3.3745   -51.7076  -999.2500  -999.2500
  144.5000     3.2719   368.3471     3.2999   -51.7018  -999.2500  -999.2500
  145.0000     3.3767   369.0883     3.3008   -51.6959  -999.2500  -999.2500
  145.5000     3.3469   369.0791     3.3015   -51.8404  -999.2500  -999.2500
  146.0000     3.2425   364.5808     3.4526   -52.1308  -999.2500  -999.2500
  146.5000     3.2725   343.2560     3.6038   -52.2738  -999.2500  -999.2500
  147.0000     3.6216   316.2225     3.8411   -52.7242  -999.2500  -999.2500
  147.5000     3.8259   282.9702     4.1317   -53.3284  -999.2500  -999.2500
  148.0000     3.9307   256.7652     4.5084   -53.7444  -999.2500  -999.2500
  148.5000     4.0354   235.7998     4.7347   -54.0348  -999.2500  -999.2500
  149.0000     4.1552   226.8104     4.8858   -54.1792  -999.2500  -999.2500
  149.5000     4.2899   223.0606     5.0369   -54.3223  -999.2500  -999.2500
  150.0000     4.3946   221.5563     5.1128   -54.4653  -999.2500  -999.2500
  150.5000     4.4396   220.8004     5.1888   -54.3092  -999.2500  -999.2500
  151.0000     4.4547   219.2961     5.1895   -54.0058  -999.2500  -999.2500
  151.5000     4.4549   219.2888     5.1902   -53.8511  -999.2500  -999.2500
