~VERSION INFORMATION
 VERS.                2.0:   CWLS LOG ASCII STANDARD - VERSION 2.0
 WRAP.                 NO:   ONE LINE PER DEPTH STEP
~WELL INFORMATION
#MNEM.UNIT      DATA TYPE    INFORMATION
#----------   ------------   ------------------------------
 STRT.F           20.0000:   START DEPTH
 STOP.F          546.0000:   STOP DEPTH
 STEP.F            0.5000:   STEP LENGTH
 NULL.          -999.2500:   NO VALUE
 COMP. LAWRENCE/ALLISON INC:   COMPANY
 WELL.   83-61 STX #10-10:   WELL
 FLD .             TEAPOT:   FIELD
 LOC .      S10 T38N R78W:   LOCATION
 CNTY.            NATRONA:   COUNTY
 STAT.            WYOMING:   STATE
 CTRY. UNITED STATES OF AMERICA:   COUNTRY
 SRVC.           Gearhart:   SERVICE COMPANY
 DATE.        09-JUN-1987:   LOGDATE
 API .       490251113100:   API NUMBER
~CURVE INFORMATION
#MNEM.UNIT       API CODE    CURVE DESCRIPTION
#----------   ------------   ------------------------------
 DEPT.F                  :   
 GRR .GAPI   07 310 01 00:   GAMMA RAY FROM RES. LOG.
 RILD.OHMM   07 120 46 00:   INDUCTION LOG DEEP RESISTIVITY
 RILM.OHMM   07 120 44 00:   INDUCTION LOG MEDIUM RESISTIVITY
 RLL .OHMM   07 220 00 00:   LATEROLOG RESISTIVITY
~PARAMETER INFORMATION
#MNEM.UNIT          VALUE    DESCRIPTION
#----------   ------------   ------------------------------
 PD  .                 GL:   PERMANENT DATUM
 EPD .F              5163:   ELEVATION PERMANENT DATUM
 LMF .                 KB:   LOG MEASURED FROM
 DAPD.F                 8:   FEET ABOVE PERMANENT DATUM
 DMF .                 KB:   DRILLING MEASURED FROM
 EKB .F              5171:   KELLING BUSHING
 EDF .F              5169:   DRILLING FLOOR
 EGL .F              5163:   GROUND LEVEL
 DATE.             6-9-87:   RUN DATE
 RUN .                  1:   RUN NUMBER
 DD  .F             552.5:   DEPTH DRILLER
 DL  .F               549:   DEPTH LOGGER
 BLI .F               546:   BOTTOM LOG INTERVAL
 TLI .F                49:   TOP LOG INTERVAL
 CS  .IN             8.62:   CASING SIZE
 CBD .F                50:   CASING BOTTOM DRILLER
 CBL .F                46:   CASING BOTTOM LOGGER
 BS  .IN             7.87:   BIT SIZE
 BSD .F             552.5:   BIT SIZE AT DEPTH
 DFT .                MUD:   DRILLING FLUID TYPE
 TCS .HRS            0300:   TIME CURCULATED STOPPED
 TLAB.HRS            0400:   TIME LOGGER AT BOTTOM
 LUN .               7597:   LOGGING UNIT NUMBER
 LUL .           GILLETTE:   LOGGING UNIT LOCATION
 ENGI.           JOHNSTON:   RECORDING ENGINEER
 WITN.             STRONG:   WITNESSED BY
 CLNT.            A2DTECH:   CLIENT CODE
 ORIG.       2", 5" PRINT:   ORIGIN OF DATA
 UWI .       490251113100:   UNIQUE WELL ID
 DICO. A2D Technologies, Inc.:   DIGITIZING COMPANY
~OTHER INFORMATION
~A   DEPT       GRR      RILD       RILM        RLL   
# ...
  385.0000    71.9837    29.5312    24.9658    21.2704
  385.5000    72.0930    29.9373    24.8123    21.1145
  386.0000    72.2071    30.3491    24.6597    20.9714
  386.5000    72.3068    30.7664    24.5081    21.0743
  387.0000    72.8726    31.1896    24.3573    21.1705
  387.5000    73.4786    31.2352    24.2076    21.2671
  388.0000    74.0882    30.9404    24.0587    21.3642
  388.5000    74.2764    31.4216    23.9107    21.4617
  389.0000    73.9326    32.1119    23.7236    21.5596
  389.5000    73.5853    32.8173    24.1390    21.6580
  390.0000    73.1934    33.5423    24.7221    21.7568
  390.5000    74.9695    34.1912    25.3207    22.1102
  391.0000    77.4270    34.7108    25.9341    22.5597
  391.5000    78.4138    35.2322    26.5605    23.0184
  392.0000    76.0744    35.7622    27.3482    23.4996
  392.5000    73.5597    36.3005    27.1479    23.4996
  393.0000    71.4085    36.8469    26.8921    23.4398
  393.5000    71.1280    37.4011    26.6351    23.1218
  394.0000    72.2138    36.9422    26.3817    22.8084
  394.5000    73.5166    36.4771    26.1306    22.4988
  395.0000    73.2905    36.0201    25.8820    22.1935
  395.5000    73.0002    35.5698    25.7618    21.8925
  396.0000    72.7187    35.1251    25.6696    21.5954
  396.5000    72.4217    34.6857    25.5777    21.3025
  397.0000    73.0716    34.2543    25.4862    21.0135
  397.5000    74.1855    33.8172    25.3950    20.7213
  398.0000    75.1026    33.3863    25.3041    20.4320
  398.5000    73.2062    32.9588    25.2135    20.1467
  399.0000    71.2553    32.5368    25.1233    19.7443
  399.5000    71.5164    32.1202    24.6479    19.2222
  400.0000    72.6759    31.7089    24.1328    18.7139
  400.5000    72.2906    31.3029    23.6284    18.2171
  401.0000    71.7625    30.9020    23.1346    17.7390
  401.5000    72.1714    30.5063    22.6511    17.5074
  402.0000    73.4132    30.1157    22.1777    17.9556
  402.5000    73.9640    29.7301    21.7824    18.2967
  403.0000    73.9730    29.3494    21.9974    18.6443
  403.5000    73.9476    28.9736    22.1864    18.9985
  404.0000    75.3783    28.6026    22.3770    19.4389
  404.5000    76.8793    28.2363    22.5692    19.2264
  405.0000    76.7128    27.8748    22.8403    18.8680
  405.5000    75.9319    26.8268    22.7086    18.5162
  406.0000    75.1673    25.8182    22.4921    18.1710
  406.5000    74.4163    24.8475    21.9294    17.8323
  407.0000    74.3302    23.9134    21.1786    17.5129
  407.5000    75.1506    23.0143    20.4535    16.8377
  408.0000    74.8456    22.1491    19.7532    16.2129
  408.5000    73.1255    21.3164    19.0769    15.6112
  409.0000    71.4364    20.5149    18.4237    15.1903
  409.5000    69.8820    19.7437    17.8483    14.7543
  410.0000    71.3898    19.0014    17.2382    14.4867
  410.5000    74.0547    18.2870    16.6964    14.4106
  411.0000    76.5038    17.5995    16.1716    14.3279
  411.5000    75.8011    16.9378    15.6932    14.1443
  412.0000    74.5867    16.2331    15.2552    13.9631
  412.5000    73.8940    16.2674    14.8295    13.7842
  413.0000    76.4114    16.3040    14.4156    13.6075
  413.5000    78.6049    16.3407    14.0802    13.3013
  414.0000    78.2175    16.3774    14.0802    13.4145
  414.5000    76.3340    16.4142    14.1965    13.5626
  415.0000    74.9220    16.4511    14.3466    13.7123
  415.5000    74.3883    16.4881    14.4982    13.8636
  416.0000    74.7959    16.5251    14.6515    14.0167
  416.5000    74.7960    16.5623    14.8063    14.1714
  417.0000    75.0469    16.5994    14.9629    14.3278
  417.5000    76.2963    16.6367    15.1210    14.4859
  418.0000    77.5351    16.6733    15.2809    14.6458
  418.5000    76.5548    16.7000    15.3350    14.7641
  419.0000    75.2644    16.3289    14.9760    14.4346
  419.5000    73.9266    16.0413    14.6989    14.1806
  420.0000    74.6134    15.7585    14.4265    13.9303
  420.5000    76.0816    15.4806    14.1593    13.6847
  421.0000    77.5785    15.2075    13.8971    13.4433
  421.5000    76.7120    14.9370    13.6397    13.2063
  422.0000    75.6815    14.7650    13.3871    13.0363
  422.5000    76.7972    14.7997    13.1623    12.9918
  423.0000    78.0851    14.8278    13.0728    12.9474
  423.5000    79.8583    14.8549    12.9830    12.9032
  424.0000    82.5235    14.8902    12.8931    12.8591
  424.5000    85.2262    14.7590    12.8061    12.8061
  425.0000    84.5159    15.4049    13.2174    13.0824
  425.5000    81.6578    16.2568    13.6463    13.4378
  426.0000    78.7409    17.1614    14.0891    13.8073
  426.5000    77.2805    18.7774    14.9854    14.4471
  427.0000    76.6946    20.9979    16.5912    15.3223
  427.5000    73.2509    23.4811    19.3953    17.4503
  428.0000    68.4054    26.3127    22.9066    20.7705
  428.5000    63.5430    29.5184    27.0535    24.6899
  429.0000    62.2481    33.1147    31.5329    28.9699
  429.5000    62.5298    37.1491    32.9429    30.7168
  430.0000    64.3214    41.6751    34.3055    32.4431
  430.5000    66.1907    43.9782    35.5585    33.7597
  431.0000    65.1931    45.2244    36.6524    33.9625
  431.5000    63.2464    46.1313    37.7959    34.1668
  432.0000    61.2619    46.2840    38.9712    34.5201
  432.5000    59.3169    46.4357    40.7371    35.8532
  433.0000    59.9349    46.5212    40.3525    37.2360
  433.5000    60.3886    44.5324    40.9183    38.6711
  434.0000    59.9621    43.1158    41.5173    39.5942
  434.5000    59.5524    41.7452    40.1570    36.8398
  435.0000    59.5159    40.4191    37.9311    34.9594
  435.5000    61.2584    39.1352    35.8286    33.1749
  436.0000    62.9721    37.8920    33.8426    31.4816
  436.5000    64.6815    36.6877    32.3008    29.8746
  437.0000    65.7298    35.5211    31.2680    28.4086
  437.5000    64.9842    34.5521    30.2687    28.0166
  438.0000    64.1918    34.0823    29.3003    27.6445
  438.5000    63.3971    33.6202    28.3639    27.2774
  439.0000    64.0022    33.1632    27.3509    26.9152
  439.5000    64.7902    32.7523    27.3727    26.5578
  440.0000    65.5820    32.5945    27.3964    26.2052
  440.5000    66.3799    32.4502    27.4221    25.8572
  441.0000    67.8303    32.3066    27.4471    25.5138
  441.5000    69.5546    32.1637    27.4719    25.3169
  442.0000    71.2835    32.0213    27.4967    25.2496
  442.5000    72.9666    31.8796    27.5216    25.1825
  443.0000    73.8910    31.7385    27.5464    25.1156
  443.5000    73.0876    31.5981    27.5715    25.0488
  444.0000    71.7531    31.4582    27.5940    24.9824
  444.5000    70.0312    31.3190    27.6116    24.9173
  445.0000    68.3661    31.0153    27.0752    24.7507
  445.5000    66.9854    30.4667    26.6947    24.4394
  446.0000    65.5627    29.9278    26.3196    24.1314
  446.5000    66.5465    29.3985    25.9497    23.8274
  447.0000    67.9696    28.8785    25.5851    23.5272
  447.5000    69.0279    28.3677    25.2255    23.2307
  448.0000    68.7189    27.8660    24.8710    22.9380
  448.5000    69.6212    27.3731    24.5215    22.5430
  449.0000    71.0538    26.8889    24.0767    21.9324
  449.5000    72.1742    26.4133    23.5839    21.3329
  450.0000    69.3870    25.9047    23.1049    20.7412
  450.5000    67.6576    25.3100    22.6354    20.4190
  451.0000    70.1405    24.7290    22.1755    20.1887
  451.5000    72.6233    24.1613    21.7249    19.9647
  452.0000    75.0838    23.6062    21.2834    19.7432
  452.5000    74.3385    23.0650    21.0586    19.5247
  453.0000    73.3258    22.4049    20.9078    19.3066
  453.5000    74.4590    22.5084    20.7582    19.0120
  454.0000    76.1565    22.7708    20.5786    18.5882
  454.5000    77.8491    23.0376    20.9806    18.1720
  455.0000    78.3574    23.3076    21.5054    17.8598
  455.5000    76.7126    23.5808    22.0456    17.8197
  456.0000    71.4928    23.8571    22.6002    23.9456
  456.5000    66.1430    24.1368    23.1719    28.3561
  457.0000    61.3749    24.4084    23.7194    29.3230
  457.5000    59.8108    23.7194    22.8318    30.0723
