~VERSION INFORMATION
 VERS.                2.0:   CWLS LOG ASCII STANDARD - VERSION 2.0
 WRAP.                 NO:   ONE LINE PER DEPTH STEP
~WELL INFORMATION
#MNEM.UNIT      DATA TYPE    INFORMATION
#----------   ------------   ------------------------------
 STRT.F           29.0000:   START DEPTH
 STOP.F          720.0000:   STOP DEPTH
 STEP.F            0.5000:   STEP LENGTH
 NULL.          -999.2500:   NO VALUE
 COMP.    FENIX & SCISSON:   COMPANY
 WELL. RES 3 TEAPOT DOM #21-S-14:   WELL
 FLD .        TEAPOT DOME:   FIELD
 LOC .      S14 T38N R78W:   LOCATION
 CNTY.            NATRONA:   COUNTY
 STAT.            WYOMING:   STATE
 CTRY. UNITED STATES OF AMERICA:   COUNTRY
 SRVC.            Unknown:   SERVICE COMPANY
 DATE.        25-MAY-1978:   LOGDATE
 API .       490251063300:   API NUMBER
~CURVE INFORMATION
#MNEM.UNIT       API CODE    CURVE DESCRIPTION
#----------   ------------   ------------------------------
 DEPT.F                  :   
 CALD.IN     45 280 60 00:   CALIPER FROM DENSITY LOG
 CORR.G/C3   45 356 01 00:   DENSITY CORRECTION
 DPHI.DEC    45 890 12 00:   DENSITY POROSITY SANDSTONE
 GRD .GAPI   45 310 01 00:   GAMMA RAY FROM DENSITY LOG
 RHOB.G/C3   45 350 01 00:   BULK DENSITY
 ILD .OHMM   05 120 46 00:   INDUCTION LOG DEEP
 SN  .OHMM   05 040 16 00:   SHORT NORMAL 16"
 SPR .MV     05 010 01 00:   SPONTANEOUS POTENTIAL FROM RES.
~PARAMETER INFORMATION
#MNEM.UNIT          VALUE    DESCRIPTION
#----------   ------------   ------------------------------
 PD  .                 GL:   PERMANENT DATUM
 EPD .F              5232:   ELEVATION PERMANENT DATUM
 LMF .                 KB:   LOG MEASURED FROM
 DAPD.F                 4:   FEET ABOVE PERMANENT DATUM
 DMF .                 KB:   DRILLING MEASURED FROM
 EKB .F              5236:   KELLING BUSHING
 EGL .F              5232:   GROUND LEVEL
 DATE.        25-MAY-1978:   RUN DATE
 RUN .                  1:   RUN NUMBER
 DD  .F               716:   DEPTH DRILLER
 DL  .F               727:   DEPTH LOGGER
 BLI .F               720:   BOTTOM LOG INTERVAL
 TLI .F                44:   TOP LOG INTERVAL
 CS  .IN            8.625:   CASING SIZE
 CBD .F                40:   CASING BOTTOM DRILLER
 CBL .F                44:   CASING BOTTOM LOGGER
 BS  .IN            7.875:   BIT SIZE
 BSD .F               716:   BIT SIZE AT DEPTH
 DFT .                KCL:   DRILLING FLUID TYPE
 DFD .                8.6:   DRILLING FLUID DENSITY
 DFV .                 31:   DRILLING FLUID VISCOSITY
 DFPH.                9.5:   DRILLING FLUID PH
 DFL .               10.8:   DRILLING FLUID LOSS
 MSS .            MUD PIT:   MUD SAMPLE SOURCE
 RMS .OHMM           0.32:   RESISTIVITY MUD SAMPLE
 MST .F                82:   MUD SAMPLE TEMPERATURE
 RMF .OHMM           0.34:   RESISTIVITY MUD FILTRATE SAMPLE
 MFST.F                72:   MUD FILTRATE SAMPLE TEMPERATURE
 RMC .OHMM            0.8:   RESISTIVITY MUD CAKE
 MCST.F                72:   MUD CAKE SAMPLE TEMPERATURE
 MFSS.               MEAS:   MUD FILTRATE SAMPLE SOURCE
 RMB .OHMM           0.35:   RESISTIVITY MUD AT BHT
 BHT .F                74:   BOTTOM HOLE TEMPERATURE
 TCS .HRS               1:   TIME CURCULATED STOPPED
 MRT .F                74:   MAXIMUM RECORDED TEMPERATURE
 LUN .               2958:   LOGGING UNIT NUMBER
 LUL .               CASP:   LOGGING UNIT LOCATION
 ENGI.             MILLER:   RECORDING ENGINEER
 WITN.           MCGINLEY:   WITNESSED BY
 CLNT.            A2DTECH:   CLIENT CODE
 ORIG.           5" PRINT:   ORIGIN OF DATA
 UWI .       490251063300:   UNIQUE WELL ID
 DICO. A2D Technologies, Inc.:   DIGITIZING COMPANY
~OTHER INFORMATION
~A   DEPT     CALD       CORR       DPHI         GRD      RHOB        ILD         SN        SPR   
# ...
  272.0000     7.6519    -0.0058     0.1288    84.3055     2.4598     8.9359     8.8093   -26.6580
  272.5000     7.6085    -0.0010     0.1281    83.1273     2.4606     8.8821     8.8174   -26.6421
  273.0000     7.5648     0.0037     0.1254    82.9938     2.4615     8.8902     8.8239   -26.6262
  273.5000     7.5516     0.0069     0.1202    82.7151     2.4646     8.8364     8.7680   -26.6103
  274.0000     7.5531     0.0101     0.1143    86.6115     2.4692     8.8460     8.7761   -26.5943
  274.5000     7.5246     0.0058     0.1124    87.2204     2.4767     8.7324     8.7826   -26.5784
  275.0000     7.5264    -0.0045     0.1244    86.7924     2.4813     8.7400     8.7285   -26.5625
  275.5000     7.4979    -0.0102     0.1285    86.6550     2.4754     8.6277     8.7351   -26.9930
  276.0000     7.4841    -0.0100     0.1279    82.3464     2.4658     8.6352     8.6812   -26.9731
  276.5000     7.4706    -0.0098     0.1260    81.6159     2.4583     8.5243     8.6278   -26.9572
  277.0000     7.4574    -0.0126     0.1242    84.7700     2.4623     8.5317     8.5747   -26.9413
  277.5000     7.4738    -0.0155     0.1140    85.9799     2.4653     8.4221     8.5826   -26.9254
  278.0000     7.4756    -0.0032     0.1122    85.8425     2.4677     8.4302     8.5889   -26.9094
  278.5000     7.4771     0.0120     0.1139    85.5637     2.4760     8.4386     8.5360   -27.0463
  279.0000     7.4785     0.0152     0.1193    85.5795     2.4866     8.4459     8.5424   -27.1752
  279.5000     7.4949     0.0019     0.1240    87.1577     2.4829     8.3933     8.4898   -27.3081
  280.0000     7.5113    -0.0039     0.1273    89.4917     2.4657     8.3446     8.4976   -27.4410
  280.5000     7.5127    -0.0022     0.1257    86.6757     2.4614     8.3521     8.3871   -27.4211
  281.0000     7.5142    -0.0005     0.1251    85.6467     2.4630     8.3610     8.3933   -27.4052
  281.5000     7.5160     0.0013     0.1257    84.7670     2.4631     8.3683     8.2827   -27.3893
  282.0000     7.5174     0.0030     0.1253    83.8873     2.4640     8.3162     8.2333   -27.2245
  282.5000     7.5189     0.0077     0.1235    83.6046     2.4648     8.2680     8.1824   -27.2086
  283.0000     7.5203     0.0093     0.1196    84.3253     2.4672     8.2752     8.1886   -27.1927
  283.5000     7.4619     0.0080     0.1183    85.4312     2.4733     8.1671     8.0822   -27.3256
  284.0000     7.4484     0.0053     0.1249    87.2381     2.4756     8.0640     8.0325   -27.4585
  284.5000     7.4499    -0.0005     0.1272    89.0449     2.4667     8.0116     7.9830   -27.4420
  285.0000     7.4517    -0.0033     0.1320    89.8070     2.4616     7.9142     7.9354   -27.4227
  285.5000     7.4681    -0.0061     0.1364    93.5542     2.4557     7.8126     7.8851   -27.2579
  286.0000     7.5293    -0.0088     0.1370    92.9730     2.4498     7.7122     7.7304   -27.2420
  286.5000     7.6201    -0.0086     0.1375    92.6942     2.4469     7.5088     7.5252   -27.2261
  287.0000     7.5321    -0.0084     0.1356    91.6653     2.4462     7.3108     7.3763   -27.2102
  287.5000     7.4888    -0.0067     0.1324    90.0393     2.4480     7.2666     7.3820   -27.1943
  288.0000     7.5052     0.0044     0.1210    86.4730     2.4509     7.5284     7.5956   -27.1784
  288.5000     7.5219     0.0102     0.1182    84.6978     2.4712     7.6973     7.7070   -27.1622
  289.0000     7.5234     0.0074     0.1173    80.0867     2.4766     7.8620     7.8200   -27.1458
  289.5000     7.4650     0.0046     0.1158    79.1736     2.4796     7.9781     7.9346   -27.1266
  290.0000     7.4067     0.0018     0.1220    74.0029     2.4790     8.0404     8.0510   -27.2635
  290.5000     7.3931     0.0080     0.1213    73.2685     2.4746     8.1592     8.2256   -27.2436
  291.0000     7.3946     0.0082     0.1189    74.3330     2.4739     8.2228     8.2318   -27.2277
  291.5000     7.3964     0.0114     0.1156    81.5130     2.4770     8.1731     8.1810   -27.2118
  292.0000     7.3979     0.0206     0.1135    82.8721     2.4891     8.1242     8.1886   -27.3452
  292.5000     7.4142     0.0223     0.1125    83.0472     2.4952     8.0754     8.1946   -27.3287
  293.0000     7.4306     0.0210     0.1116    86.3405     2.4968     8.0842     8.2007   -27.1637
  293.5000     7.4321     0.0197     0.1110    87.4011     2.4924     8.0912     8.2067   -27.1441
  294.0000     7.4335     0.0140     0.1100    83.9841     2.4910     8.0408     8.2127   -27.1282
  294.5000     7.4350     0.0082     0.1091    82.0596     2.4902     8.0495     8.1060   -27.1123
  295.0000     7.4517     0.0084     0.1079    81.9222     2.4882     7.9994     8.1120   -27.0964
  295.5000     7.4681     0.0026     0.1075    82.8375     2.4868     8.0636     8.0065   -27.0804
  296.0000     7.4695    -0.0046     0.1072    83.1518     2.4876     8.2964     8.1254   -27.0645
  296.5000     7.4710    -0.0014     0.1077    80.7835     2.4885     8.4775     8.3017   -27.0486
  297.0000     7.4874     0.0017     0.1086    76.9187     2.4901     8.6044     8.4235   -27.0327
  297.5000     7.5038    -0.0010     0.1089    76.7813     2.4909     8.6119     8.4881   -27.1656
  298.0000     7.5052    -0.0008     0.1118    80.5324     2.4918     8.5601     8.4944   -27.2985
  298.5000     7.5070    -0.0006     0.1148    80.2498     2.4874     8.5086     8.4421   -27.2786
  299.0000     7.5084     0.0026     0.1165    80.2657     2.4815     8.5160     8.3901   -27.2627
  299.5000     7.5099     0.0058     0.1171    81.4794     2.4778     8.5234     8.3979   -27.2467
  300.0000     7.5137     0.0060     0.1173    84.2213     2.4755     8.4722     8.4025   -27.2348
  300.5000     7.5279     0.0062     0.1166    86.4762     2.4742     8.4792     8.3744   -27.2625
  301.0000     7.4996     0.0065     0.1143    86.6022     2.4751     8.4290     8.3025   -27.2864
  301.5000     7.4414     0.0037     0.1205    84.8331     2.4760     8.2629     8.2503   -27.3102
  302.0000     7.4430     0.0009     0.1175    83.6565     2.4753     8.2110     8.2000   -27.3227
  302.5000     7.4619     0.0026     0.1192    81.7337     2.4739     8.2191     8.1514   -27.3049
  303.0000     7.4915     0.0013     0.1201    81.9005     2.4732     8.2257     8.1582   -27.2906
  303.5000     7.5379     0.0000     0.1194    82.2122     2.4725     8.1772     8.1662   -27.4256
  304.0000     7.5844    -0.0012     0.1242    80.7415     2.4704     8.1837     8.0589   -27.4107
  304.5000     7.6009    -0.0040     0.1250    80.4562     2.4675     8.0779     7.9547   -27.3931
  305.0000     7.5726    -0.0067     0.1295    83.0154     2.4638     8.0288     7.9077   -27.3788
  305.5000     7.5440    -0.0065     0.1297    84.0777     2.4601     7.9797     7.8594   -27.3646
  306.0000     7.5309    -0.0046     0.1279    84.4060     2.4595     7.9862     7.8659   -27.3503
  306.5000     7.5176     0.0015     0.1195    84.7105     2.4611     7.8830     7.8736   -27.4851
  307.0000     7.4293     0.0107     0.1153    84.4331     2.4634     7.8909     7.8240   -27.4702
  307.5000     7.4013     0.0123     0.1125    83.5551     2.4769     7.8971     7.8318   -27.4527
  308.0000     7.4183     0.0036     0.1068    84.4681     2.4875     7.9034     7.8380   -27.4385
  308.5000     7.4348     0.0128     0.1026    85.6797     2.4921     7.9097     7.8443   -27.4242
  309.0000     7.4514     0.0175     0.1001    85.1002     2.4981     7.9161     7.8507   -27.4100
  309.5000     7.4679     0.0073     0.0992    82.2819     2.5049     7.9238     7.8583   -27.3957
  310.0000     7.4845    -0.0045     0.1159    80.5083     2.4871     7.9301     7.8646   -27.3810
  310.5000     7.4861    -0.0043     0.1203    81.4214     2.4826     7.9364     7.8708   -27.2148
  311.0000     7.4723     0.0109     0.1218    83.9762     2.4812     7.8865     7.8213   -27.2005
  311.5000     7.4444     0.0052     0.1248    81.4253     2.4776     7.8400     7.8291   -27.1863
  312.0000     7.4759     0.0009     0.1184    80.2567     2.4698     7.8465     7.8355   -27.1720
