~VERSION INFORMATION
 VERS.                2.0:   CWLS LOG ASCII STANDARD - VERSION 2.0
 WRAP.                 NO:   ONE LINE PER DEPTH STEP
~WELL INFORMATION
#MNEM.UNIT      DATA TYPE    INFORMATION
#----------   ------------   ------------------------------
 STRT.F           10.0000:   START DEPTH
 STOP.F         2599.5000:   STOP DEPTH
 STEP.F            0.5000:   STEP LENGTH
 NULL.          -999.2500:   NO VALUE
 COMP. FENIX & SCISSON INC:   COMPANY
 WELL.   34-SHX-33 #34-33:   WELL
 FLD .             TEAPOT:   FIELD
 LOC .      S33 T39N R78W:   LOCATION
 CNTY.            NATRONA:   COUNTY
 STAT.            WYOMING:   STATE
 CTRY. UNITED STATES OF AMERICA:   COUNTRY
 SRVC.           BIRDWELL:   SERVICE COMPANY
 DATE.        20-FEB-1978:   LOGDATE
 API .       490251058400:   API NUMBER
~CURVE INFORMATION
#MNEM.UNIT       API CODE    CURVE DESCRIPTION
#----------   ------------   ------------------------------
 DEPT.F                  :   
 GR  .GAPI   30 310 01 00:   GAMMA RAY
 CALI.IN     70 280 01 00:   CALIPER
~PARAMETER INFORMATION
#MNEM.UNIT          VALUE    DESCRIPTION
#----------   ------------   ------------------------------
 PD  .                 GL:   PERMANENT DATUM
 EPD .F              5174:   ELEVATION PERMANENT DATUM
 LMF .                 KB:   LOG MEASURED FROM
 DAPD.F                10:   FEET ABOVE PERMANENT DATUM
 DMF .                 KB:   DRILLING MEASURED FROM
 EKB .F              5184:   KELLING BUSHING
 EGL .F              5174:   GROUND LEVEL
 DATE.            2-20-78:   RUN DATE
 RUN .                  1:   RUN NUMBER
 DD  .F              2590:   DEPTH DRILLER
 DL  .F              2600:   DEPTH LOGGER
 BLI .F              2600:   BOTTOM LOG INTERVAL
 CS  .IN            8.625:   CASING SIZE
 CBD .F               737:   CASING BOTTOM DRILLER
 BS  .IN            8.625:   BIT SIZE
 BSD .F              2590:   BIT SIZE AT DEPTH
 TCS .HRS               2:   TIME CURCULATED STOPPED
 LUL .             CASPER:   LOGGING UNIT LOCATION
 ENGI.             MILLER:   RECORDING ENGINEER
 WITN.           MCGINLEY:   WITNESSED BY
 CLNT.            A2DTECH:   CLIENT CODE
 ORIG.           5" PRINT:   ORIGIN OF DATA
 UWI .       490251058400:   UNIQUE WELL ID
 DICO. A2D Technologies, Inc.:   DIGITIZING COMPANY
~OTHER INFORMATION
~A   DEPT        GR      CALI   
# ...
 1954.0000   183.3522     8.8918
 1954.5000   179.9561     8.8888
 1955.0000   176.2600     8.8857
 1955.5000   172.5029     8.8827
 1956.0000   168.7425     8.8796
 1956.5000   168.0665     8.8766
 1957.0000   169.6517     8.8735
 1957.5000   173.1450     8.8705
 1958.0000   176.7783     8.8674
 1958.5000   178.2735     8.8644
 1959.0000   180.1878     8.8629
 1959.5000   185.5359     8.8643
 1960.0000   187.1232     8.8529
 1960.5000   184.3024     8.5434
 1961.0000   179.9595     8.7152
 1961.5000   174.4646     8.9367
 1962.0000   170.8618     9.0838
 1962.5000   173.8294     9.0815
 1963.0000   179.8639     9.0816
 1963.5000   185.8804     9.0817
 1964.0000   191.0496     9.0817
 1964.5000   189.3496     9.0821
 1965.0000   182.7439     9.0821
 1965.5000   174.4748     9.0746
 1966.0000   166.7854     9.4368
 1966.5000   161.9938     9.1659
 1967.0000   162.2496     9.0409
 1967.5000   167.9405     9.4671
 1968.0000   174.8946     8.9852
 1968.5000   179.6526     8.8756
 1969.0000   183.8276     8.8989
 1969.5000   184.5742     8.9199
 1970.0000   186.2392     8.9118
 1970.5000   193.3802     8.8964
 1971.0000   193.3770     8.8807
 1971.5000   183.2426     8.8641
 1972.0000   172.3532     8.9143
 1972.5000   163.5298     8.9434
 1973.0000   164.7916     8.9461
 1973.5000   167.1996     8.9486
 1974.0000   170.5334     8.9510
 1974.5000   172.9418     8.9534
 1975.0000   174.5260     8.9558
 1975.5000   178.6060     8.9583
 1976.0000   181.7288     8.9610
 1976.5000   181.0821     8.9653
 1977.0000   179.6167     8.9460
 1977.5000   181.1416     8.8193
 1978.0000   183.1035     8.8718
 1978.5000   183.8117     8.8698
 1979.0000   183.4754     8.8477
 1979.5000   182.0489     8.8398
 1980.0000   174.8978     8.8167
 1980.5000   166.3974     8.7794
 1981.0000   165.7254     8.7012
 1981.5000   165.9491     8.7018
 1982.0000   166.1347     8.8226
 1982.5000   166.0632     8.8325
 1983.0000   165.7499     8.8420
 1983.5000   164.4583     8.8278
 1984.0000   164.2971     8.8113
 1984.5000   167.4145     8.7891
 1985.0000   170.7551     8.7624
 1985.5000   172.0863     8.7259
 1986.0000   171.7409     8.5605
 1986.5000   170.2055     8.6442
 1987.0000   168.4960     8.8123
 1987.5000   166.7994     8.8593
 1988.0000   166.2495     8.8588
 1988.5000   166.2520     8.8560
 1989.0000   166.4298     8.8533
 1989.5000   166.6606     8.8507
 1990.0000   167.3748     8.8482
 1990.5000   169.5129     8.8456
 1991.0000   171.6953     8.8429
 1991.5000   172.0019     8.8491
 1992.0000   169.7256     8.8569
 1992.5000   167.6258     8.8648
 1993.0000   173.6769     8.8728
 1993.5000   182.1128     8.8812
 1994.0000   187.3675     8.8690
 1994.5000   185.0730     8.8519
 1995.0000   180.9310     8.8345
 1995.5000   176.7379     8.8166
 1996.0000   174.8152     8.8047
 1996.5000   176.5984     8.9464
 1997.0000   177.9934     8.9789
 1997.5000   175.5268     8.9772
 1998.0000   172.1440     8.9740
 1998.5000   168.6529     8.9709
 1999.0000   168.5002     8.9680
 1999.5000   170.0530     8.9646
 2000.0000   174.3108     8.9522
 2000.5000   179.1012     8.9447
 2001.0000   180.0304     8.9471
 2001.5000   178.7796     8.9498
 2002.0000   177.5128     8.9524
 2002.5000   176.7988     8.9551
 2003.0000   179.0507     8.9578
 2003.5000   182.2827     8.9598
 2004.0000   184.8077     8.9422
 2004.5000   183.5239     8.8527
 2005.0000   179.7515     8.8259
 2005.5000   174.6752     8.8322
 2006.0000   169.5506     8.8388
 2006.5000   168.2507     8.8455
 2007.0000   174.3177     8.8520
 2007.5000   180.4988     8.8584
 2008.0000   181.4663     8.8493
 2008.5000   177.8218     8.8158
 2009.0000   174.0213     8.7814
 2009.5000   171.6437     8.8622
 2010.0000   171.7313     8.9586
 2010.5000   173.6049     8.9558
 2011.0000   176.0735     8.9482
 2011.5000   179.4544     8.9424
 2012.0000   183.8737     8.9613
 2012.5000   190.3478     8.9815
 2013.0000   196.0967     8.9826
 2013.5000   193.7718     8.9808
 2014.0000   183.5346     8.9389
 2014.5000   179.1969     8.7881
 2015.0000   175.7923     8.7553
 2015.5000   168.5174     8.7434
 2016.0000   171.7606     8.7784
 2016.5000   174.4670     8.8171
 2017.0000   174.4182     8.8560
 2017.5000   175.0928     8.8944
 2018.0000   176.4929     8.9212
 2018.5000   181.9788     8.9131
 2019.0000   184.0606     8.9060
 2019.5000   180.1081     8.8839
 2020.0000   175.6833     8.8445
 2020.5000   173.3706     8.8229
 2021.0000   176.4880     8.8228
 2021.5000   183.7651     8.8227
 2022.0000   190.6212     8.8227
 2022.5000   192.6683     8.8227
 2023.0000   192.1915     8.8227
 2023.5000   191.5637     8.8227
 2024.0000   188.9399     8.8227
 2024.5000   184.6231     8.8227
 2025.0000   181.8735     8.8227
 2025.5000   181.6974     8.8228
 2026.0000   178.3007     8.8231
 2026.5000   174.1991     8.8215
 2027.0000   172.0065     8.7622
 2027.5000   173.6886     8.6390
 2028.0000   177.4642     8.6137
 2028.5000   181.0643     8.7999
 2029.0000   184.7507     8.8816
 2029.5000   191.8298     8.8822
 2030.0000   195.9979     8.8826
 2030.5000   193.1358     8.8825
 2031.0000   187.4338     8.8825
 2031.5000   182.5815     8.8825
 2032.0000   178.4424     8.8826
 2032.5000   176.0646     8.8840
 2033.0000   179.2554     8.8853
 2033.5000   183.6205     8.8867
 2034.0000   187.7018     8.8881
 2034.5000   185.5212     8.8894
 2035.0000   180.6026     8.8908
 2035.5000   176.4795     8.8921
 2036.0000   173.0320     8.8935
 2036.5000   172.6827     8.8948
 2037.0000   176.4388     8.8962
 2037.5000   180.2817     8.8975
 2038.0000   179.1139     8.8989
 2038.5000   177.1601     8.9003
 2039.0000   181.8160     8.9016
 2039.5000   194.7885     8.9066
 2040.0000   209.2513     8.9166
 2040.5000   212.5160     8.9262
 2041.0000   209.2043     8.9352
 2041.5000   201.2250     8.8967
 2042.0000   193.2166     8.8101
 2042.5000   187.4590     8.8711
 2043.0000   185.4158     8.8826
 2043.5000   183.3148     8.8827
 2044.0000   180.5115     8.8808
 2044.5000   174.4734     8.9592
 2045.0000   168.3390     8.9503
 2045.5000   166.5948     8.7543
 2046.0000   169.5203     8.9445
 2046.5000   174.0690     9.0459
 2047.0000   173.6078     9.0577
 2047.5000   168.8901     9.0427
 2048.0000   163.8187     8.8751
 2048.5000   164.6850     9.0959
 2049.0000   173.6643     8.8638
 2049.5000   175.9404     8.9584
 2050.0000   178.8308     8.9735
 2050.5000   182.7610     8.8655
 2051.0000   185.6024     8.8208
 2051.5000   182.7054     8.8140
 2052.0000   178.9261     9.7489
 2052.5000   177.0022     9.0328
 2053.0000   181.2541     9.0604
 2053.5000   181.6572     9.0754
 2054.0000   181.1710     9.0938
 2054.5000   182.2418     9.0720
 2055.0000   182.8537     9.0570
 2055.5000   183.1220     9.0912
 2056.0000   185.4621     8.8846
 2056.5000   194.7230     8.8799
 2057.0000   198.2426     8.8757
 2057.5000   194.7232     8.8726
 2058.0000   186.4547     8.8696
 2058.5000   178.4271     8.8676
 2059.0000   178.7281     8.8646
 2059.5000   178.6320     8.9305
 2060.0000   176.4191     8.9973
 2060.5000   180.1590     8.8391
 2061.0000   187.6343     8.8413
 2061.5000   189.7684     8.8427
 2062.0000   187.3988     8.8426
 2062.5000   185.9328     8.8426
 2063.0000   186.6659     8.8426
 2063.5000   187.5359     8.8443
 2064.0000   187.7057     8.7883
 2064.5000   186.4059     8.7460
 2065.0000   185.4017     8.7579
 2065.5000   184.9479     8.7851
 2066.0000   184.7266     8.9563
 2066.5000   181.9525     9.0412
 2067.0000   176.6397     9.0412
 2067.5000   176.5063     9.0011
 2068.0000   179.3802     8.9550
 2068.5000   188.6140     8.9088
 2069.0000   192.0939     8.9207
 2069.5000   192.3893     8.9474
 2070.0000   187.2410     8.9001
 2070.5000   182.7684     8.8412
 2071.0000   179.9967     8.8342
 2071.5000   180.1007     8.8224
 2072.0000   183.5364     8.8226
 2072.5000   187.4117     8.8226
 2073.0000   194.1627     8.8116
 2073.5000   203.1302     8.7921
 2074.0000   208.9268     8.7830
 2074.5000   209.7940     8.7831
 2075.0000   208.5965     8.7837
