~VERSION INFORMATION
 VERS.                2.0:   CWLS LOG ASCII STANDARD - VERSION 2.0
 WRAP.                 NO:   ONE LINE PER DEPTH STEP
~WELL INFORMATION
#MNEM.UNIT      DATA TYPE    INFORMATION
#----------   ------------   ------------------------------
 STRT.F           16.0000:   START DEPTH
 STOP.F         2438.0000:   STOP DEPTH
 STEP.F            0.5000:   STEP LENGTH
 NULL.          -999.2500:   NO VALUE
 COMP. FENIX & SCISSON INC:   COMPANY
 WELL.      15 SHX #27-27:   WELL
 FLD .             TEAPOT:   FIELD
 LOC .      S27 T39N R78W:   LOCATION
 CNTY.            NATRONA:   COUNTY
 STAT.            WYOMING:   STATE
 CTRY. UNITED STATES OF AMERICA:   COUNTRY
 SRVC.            Unknown:   SERVICE COMPANY
 DATE.        09-JUN-1978:   LOGDATE
 API .       490251064100:   API NUMBER
~CURVE INFORMATION
#MNEM.UNIT       API CODE    CURVE DESCRIPTION
#----------   ------------   ------------------------------
 DEPT.F                  :   
 CALD.IN     45 280 60 00:   CALIPER FROM DENSITY LOG
 GRD .GAPI   45 310 01 00:   GAMMA RAY FROM DENSITY LOG
 CORR.G/C3   45 356 01 00:   DENSITY CORRECTION
 RHOB.G/C3   45 350 01 00:   BULK DENSITY
 DPHI.DEC    45 890 10 00:   DENSITY POROSITY LIMESTONE
~PARAMETER INFORMATION
#MNEM.UNIT          VALUE    DESCRIPTION
#----------   ------------   ------------------------------
 PD  .                 GL:   PERMANENT DATUM
 EPD .F              5062:   ELEVATION PERMANENT DATUM
 LMF .                 KB:   LOG MEASURED FROM
 DAPD.F                10:   FEET ABOVE PERMANENT DATUM
 DMF .                 KB:   DRILLING MEASURED FROM
 EKB .F              5072:   KELLING BUSHING
 EGL .F              5062:   GROUND LEVEL
 DATE.        09-JUN-1978:   RUN DATE
 RUN .                  1:   RUN NUMBER
 DD  .F              2450:   DEPTH DRILLER
 DL  .F              2445:   DEPTH LOGGER
 BLI .F              2438:   BOTTOM LOG INTERVAL
 TLI .F                10:   TOP LOG INTERVAL
 CS  .IN            9.625:   CASING SIZE
 CBD .F               688:   CASING BOTTOM DRILLER
 CBL .F               694:   CASING BOTTOM LOGGER
 BS  .IN             8.75:   BIT SIZE
 BSD .F              2450:   BIT SIZE AT DEPTH
 DFT .           AIR MIST:   DRILLING FLUID TYPE
 TCS .HRS               1:   TIME CURCULATED STOPPED
 LUN .               2958:   LOGGING UNIT NUMBER
 LUL .                CPR:   LOGGING UNIT LOCATION
 ENGI.             MILLER:   RECORDING ENGINEER
 WITN.           MCGINLEY:   WITNESSED BY
 CLNT.            A2DTECH:   CLIENT CODE
 ORIG.           5" PRINT:   ORIGIN OF DATA
 UWI .       490251064100:   UNIQUE WELL ID
 DICO. A2D Technologies, Inc.:   DIGITIZING COMPANY
~OTHER INFORMATION
~A   DEPT     CALD         GRD      CORR       RHOB       DPHI   
# ...
 2029.0000     9.1625   126.0496    -0.0047     2.4685     0.0498
 2029.5000     9.0414   127.9095    -0.0077     2.4631     0.0585
 2030.0000     9.1504   126.9336    -0.0075     2.4624     0.0571
 2030.5000     9.1981   123.7951    -0.0075     2.4702     0.0488
 2031.0000     9.1537   123.8157    -0.0058     2.4718     0.0469
 2031.5000     9.0480   123.0642    -0.0057     2.4695     0.0487
 2032.0000     9.0497   116.3219    -0.0056     2.4665     0.0515
 2032.5000     9.0670   115.4126    -0.0055     2.4642     0.0536
 2033.0000     9.0993   122.1921    -0.0055     2.4612     0.0573
 2033.5000     9.1623   120.8261    -0.0038     2.4574     0.0600
 2034.0000     9.2253   114.6983    -0.0037     2.4567     0.0609
 2034.5000     9.2270   104.2693     0.0025     2.4567     0.0587
 2035.0000     9.1979    94.7620     0.0134     2.4737     0.0409
 2035.5000     9.0922    92.6280     0.0212     2.4861     0.0396
 2036.0000     9.0632    92.8213     0.0198     2.4792     0.0525
 2036.5000     9.0802    95.4302    -0.0063     2.4608     0.0762
 2037.0000     9.0822   102.5128    -0.0247     2.4377     0.0728
 2037.5000     9.0839   107.1376    -0.0169     2.4447     0.0592
 2038.0000     9.0855   108.2294    -0.0152     2.4479     0.0675
 2038.5000     9.0871   109.7820    -0.0229     2.4425     0.0691
 2039.0000     9.0888   115.9429    -0.0244     2.4380     0.0709
 2039.5000     9.0904   120.2605    -0.0227     2.4311     0.0756
 2040.0000     9.0767   131.8349    -0.0196     2.4234     0.0838
 2040.5000     9.0937   148.0970    -0.0148     2.4235     0.0788
 2041.0000     9.0800   151.9537    -0.0055     2.4282     0.0702
 2041.5000     9.0663   147.4663     0.0038     2.4498     0.0554
 2042.0000     9.0991   131.2536     0.0147     2.4622     0.0621
 2042.5000     9.1621   127.1226     0.0163     2.4566     0.0717
 2043.0000     9.2097   116.3865    -0.0082     2.4378     0.0763
 2043.5000     9.2267   107.8381    -0.0143     2.4330     0.0759
 2044.0000     9.2130    96.4516    -0.0142     2.4346     0.0725
 2044.5000     9.1840    98.7723    -0.0141     2.4424     0.0700
 2045.0000     9.1549   112.4601    -0.0186     2.4455     0.0660
 2045.5000     9.0952   116.4705    -0.0216     2.4471     0.0644
 2046.0000     9.0815   111.4179    -0.0263     2.4402     0.0786
 2046.5000     9.0836    95.9198    -0.0307     2.4210     0.0897
 2047.0000     9.0695    91.9383    -0.0290     2.4072     0.0884
 2047.5000     9.0869    92.2662    -0.0166     2.4112     0.0677
 2048.0000     9.0885    96.1230     0.0112     2.4567     0.0560
 2048.5000     9.0744   101.4958     0.0036     2.4552     0.0662
 2049.0000     9.0765   108.0079    -0.0086     2.4390     0.0785
 2049.5000     9.0781   119.6790    -0.0117     2.4314     0.0794
 2050.0000     9.0798   123.9925    -0.0038     2.4299     0.0729
 2050.5000     9.0654   123.7078     0.0117     2.4316     0.0639
 2051.0000     9.1436   116.6599     0.0134     2.4412     0.0617
 2051.5000     9.1602   117.7533     0.0135     2.4609     0.0589
 2052.0000     9.1614   117.6179     0.0105     2.4687     0.0478
 2052.5000     9.1319   113.1813     0.0014     2.4711     0.0496
 2053.0000     9.1024   102.1395    -0.0062     2.4712     0.0508
 2053.5000     9.1671    94.7844    -0.0091     2.4681     0.0514
 2054.0000     9.2125   103.0975    -0.0090     2.4644     0.0523
 2054.5000     9.2291   113.4075    -0.0089     2.4613     0.0572
 2055.0000     9.2303   114.1937    -0.0088     2.4583     0.0606
 2055.5000     9.2315   116.9818    -0.0086     2.4561     0.0603
 2056.0000     9.2170   117.1486    -0.0085     2.4562     0.0560
 2056.5000     9.1419   112.3906    -0.0084     2.4616     0.0543
 2057.0000     9.0971   105.3615    -0.0114     2.4625     0.0617
 2057.5000     9.0983   100.4641    -0.0174     2.4517     0.0654
 2058.0000     9.1148    95.1059    -0.0204     2.4503     0.0641
 2058.5000     9.1774    91.5910    -0.0249     2.4526     0.0616
 2059.0000     9.2246    89.4586    -0.0279     2.4527     0.0619
 2059.5000     9.2411    88.5551    -0.0292     2.4466     0.0637
 2060.0000     9.2423    88.2615    -0.0276     2.4336     0.0810
 2060.5000     9.1812    88.8986    -0.0244     2.4321     0.0763
 2061.0000     9.1200    91.9890    -0.0243     2.4361     0.0757
 2061.5000     9.0772    92.3143    -0.0241     2.4384     0.0750
 2062.0000     9.0481    96.1727    -0.0240     2.4385     0.0744
 2062.5000     9.0493   105.7177    -0.0239     2.4393     0.0721
 2063.0000     9.0505   102.6636    -0.0237     2.4425     0.0700
 2063.5000     9.0517   101.9092    -0.0236     2.4449     0.0687
 2064.0000     9.0529   103.3144    -0.0235     2.4465     0.0681
 2064.5000     9.0541   105.6367    -0.0234     2.4458     0.0687
 2065.0000     9.0553   105.1940    -0.0233     2.4420     0.0727
 2065.5000     9.0565   104.1323    -0.0231     2.4382     0.0754
 2066.0000     9.0884   104.1550    -0.0230     2.4367     0.0757
 2066.5000     9.1356   104.4804    -0.0198     2.4360     0.0750
 2067.0000     9.1675   100.9655    -0.0150     2.4384     0.0732
 2067.5000     9.1687    97.4506    -0.0070     2.4485     0.0704
 2068.0000     9.1699   102.3843    -0.0025     2.4563     0.0623
 2068.5000     9.1732   100.5485    -0.0008     2.4602     0.0583
 2069.0000     9.1880    94.6164    -0.0023     2.4618     0.0549
 2069.5000     9.1738    88.4252    -0.0037     2.4642     0.0533
 2070.0000     9.1750    83.4138    -0.0051     2.4666     0.0511
 2070.5000     9.1606    82.5057    -0.0049     2.4697     0.0499
 2071.0000     9.1311    82.8356    -0.0064     2.4736     0.0480
 2071.5000     9.1170    82.7002    -0.0062     2.4776     0.0433
 2072.0000     9.1339    76.4203    -0.0077     2.4799     0.0421
 2072.5000     9.1504    75.8195    -0.0075     2.4808     0.0424
 2073.0000     9.1823    78.2999    -0.0074     2.4793     0.0494
 2073.5000     9.2142    83.8480    -0.0058     2.4678     0.0559
 2074.0000     9.2307    93.2364    -0.0056     2.4617     0.0592
 2074.5000     9.2319   104.4680    -0.0024     2.4587     0.0604
 2075.0000     9.2331   110.6306     0.0008     2.4588     0.0604
 2075.5000     9.1720   111.8776     0.0025     2.4581     0.0604
 2076.0000     9.1415   108.2091     0.0041     2.4597     0.0597
 2076.5000     9.0990   102.5255     0.0042     2.4675     0.0563
 2077.0000     9.0849    97.1855     0.0028     2.4745     0.0487
 2077.5000     9.1014   101.3518    -0.0001     2.4769     0.0445
 2078.0000     9.1640    97.5335    -0.0046     2.4769     0.0479
 2078.5000     9.2112    96.1692    -0.0076     2.4747     0.0510
 2079.0000     9.2277    94.1904    -0.0090     2.4617     0.0543
 2079.5000     9.2290    87.2961    -0.0089     2.4532     0.0632
 2080.0000     9.2302    82.2406    -0.0088     2.4502     0.0660
 2080.5000     9.2004    83.4921    -0.0071     2.4495     0.0666
 2081.0000     9.1709    93.8021    -0.0039     2.4496     0.0622
 2081.5000     9.1724   104.1122    -0.0022     2.4520     0.0613
 2082.0000     9.1736   104.4330    -0.0021     2.4591     0.0545
 2082.5000     9.1595   100.7690    -0.0036     2.4669     0.0541
 2083.0000     9.1291   100.9408    -0.0049     2.4693     0.0516
 2083.5000     9.1139   100.6517    -0.0064     2.4700     0.0504
 2084.0000     9.1018    96.3688    -0.0078     2.4662     0.0514
 2084.5000     9.1033    89.8916    -0.0092     2.4639     0.0537
 2085.0000     9.1505    86.3898    -0.0091     2.4640     0.0543
 2085.5000     9.2284    85.5169    -0.0090     2.4641     0.0583
 2086.0000     9.2603    91.0696    -0.0088     2.4642     0.0564
 2086.5000     9.2615    93.6991    -0.0087     2.4665     0.0551
 2087.0000     9.2317    96.6358    -0.0086     2.4674     0.0533
 2087.5000     9.1719    98.0364    -0.0177     2.4682     0.0523
 2088.0000     9.1421    96.8257    -0.0191     2.4652     0.0569
 2088.5000     9.1126    89.4706    -0.0190     2.4614     0.0593
 2089.0000     9.1142    87.9526    -0.0189     2.4584     0.0602
 2089.5000     9.1307    86.5883    -0.0188     2.4585     0.0618
