~VERSION INFORMATION
 VERS.                2.0:   CWLS LOG ASCII STANDARD - VERSION 2.0
 WRAP.                 NO:   ONE LINE PER DEPTH STEP
~WELL INFORMATION
#MNEM.UNIT      DATA TYPE    INFORMATION
#----------   ------------   ------------------------------
 STRT.F           50.0000:   START DEPTH
 STOP.F         1020.0000:   STOP DEPTH
 STEP.F            0.5000:   STEP LENGTH
 NULL.          -999.2500:   NO VALUE
 COMP. LAWRENCE/ALLISON INC:   COMPANY
 WELL.      28 STX #14-14:   WELL
 FLD .             TEAPOT:   FIELD
 LOC .      S14 T38N R78W:   LOCATION
 CNTY.            NATRONA:   COUNTY
 STAT.            WYOMING:   STATE
 CTRY. UNITED STATES OF AMERICA:   COUNTRY
 SRVC.            Unknown:   SERVICE COMPANY
 DATE.        22-OCT-1984:   LOGDATE
 API .       490251099000:   API NUMBER
~CURVE INFORMATION
#MNEM.UNIT       API CODE    CURVE DESCRIPTION
#----------   ------------   ------------------------------
 DEPT.F                  :   
 SPR .MV     07 010 01 00:   SPONTANEOUS POTENTIAL
 RILD.OHMM   07 120 46 00:   INDUCTION LOG DEEP RESISTIVITY
 RILM.OHMM   07 120 44 00:   INDUCTION LOG MEDIUM RESISTIVITY
 RFOC.OHMM   07 220 04 00:   RESISTIVITY FOCUSED LOG
 GRD .GAPI   45 310 01 00:   GAMMA RAY FROM DENSITY LOG
 CALD.IN     45 280 60 00:   CALIPER
 DEN .G/C3   45 350 01 00:   COMPENSATED BULK DENSTIY
 CORR.G/C3   45 356 01 00:   DENSITY CORRECTION
 PORD.DEC    45 890 12 00:   POROSITY DENSITY SANDSTONE
 CNC .DEC    42 890 03 00:   NEUTRON POROSITY SANDSTONE
 AC  .US/F   60 520 00 00:   ACOUSTIC SONIC
~PARAMETER INFORMATION
#MNEM.UNIT          VALUE    DESCRIPTION
#----------   ------------   ------------------------------
 PD  .                 GL:   PERMANENT DATUM
 EPD .F              5257:   ELEVATION PERMANENT DATUM
 LMF .                 KB:   LOG MEASURED FROM
 DAPD.F                12:   FEET ABOVE PERMANENT DATUM
 DMF .                 KB:   DRILLING MEASURED FROM
 EKB .F              5269:   KELLING BUSHING
 EGL .F              5257:   GROUND LEVEL
 DATE.           10-22-84:   RUN DATE
 RUN .                  1:   RUN NUMBER
 DD  .F              1020:   DEPTH DRILLER
 DL  .F              1019:   DEPTH LOGGER
 BLI .F              1017:   BOTTOM LOG INTERVAL
 TLI .F                52:   TOP LOG INTERVAL
 CS  .IN               16:   CASING SIZE
 CBD .F                40:   CASING BOTTOM DRILLER
 CBL .F                52:   CASING BOTTOM LOGGER
 BS  .IN            12.25:   BIT SIZE
 BSD .F              1020:   BIT SIZE AT DEPTH
 DFT .          GEL/WATER:   DRILLING FLUID TYPE
 DFD .                9.1:   DRILLING FLUID DENSITY
 DFV .                 35:   DRILLING FLUID VISCOSITY
 MSS .           FLOWLINE:   MUD SAMPLE SOURCE
 RMS .OHMM           2.04:   RESISTIVITY MUD SAMPLE
 MST .F                76:   MUD SAMPLE TEMPERATURE
 RMF .OHMM           1.53:   RESISTIVITY MUD FILTRATE SAMPLE
 MFST.F                76:   MUD FILTRATE SAMPLE TEMPERATURE
 RMC .OHMM           2.55:   RESISTIVITY MUD CAKE
 MCST.F                76:   MUD CAKE SAMPLE TEMPERATURE
 MFSS.               CALC:   MUD FILTRATE SAMPLE SOURCE
 MCSS.               CALC:   MUD CAKE SAMPLE SOURCE
 TCS .HRS               3:   TIME CURCULATED STOPPED
 MRT .F               100:   MAXIMUM RECORDED TEMPERATURE
 LUN .            HL 6307:   LOGGING UNIT NUMBER
 LUL .           GILLETTE:   LOGGING UNIT LOCATION
 ENGI.          CROSSBERG:   RECORDING ENGINEER
 WITN.            JOHNSON:   WITNESSED BY
 CLNT.            A2DTECH:   CLIENT CODE
 ORIG.       2", 5" PRINT:   ORIGIN OF DATA
 UWI .       490251099000:   UNIQUE WELL ID
 DICO. A2D Technologies, Inc.:   DIGITIZING COMPANY
~OTHER INFORMATION
~A   DEPT      SPR       RILD       RILM       RFOC        GRD        CALD       DEN       CORR       PORD          CNC       AC   
# ...
  873.5000   -59.7240    12.3438     9.0723     8.3137    76.2976    12.1982     2.4595     0.0192     0.1336     0.2481    89.0519
  874.0000   -59.4220    12.2941     9.1141     8.2688    78.7458    12.1975     2.4537     0.0149     0.1383     0.2445    89.4904
  874.5000   -59.2913    12.2494     9.0989     8.2194    76.8136    12.1968     2.4407     0.0144     0.1438     0.2457    89.9316
  875.0000   -59.1816    12.2048     9.0687     8.1702    73.5520    12.1961     2.4286     0.0184     0.1494     0.2501    90.3728
  875.5000   -59.0751    12.1602     9.0385     8.1211    70.2769    12.1954     2.4216     0.0240     0.1546     0.2567    90.6240
  876.0000   -58.9679    12.1158     9.0084     8.0875    69.0032    12.1947     2.4152     0.0296     0.1589     0.2557    90.7490
  876.5000   -58.8603    12.0716     8.9785     8.1414    70.4870    12.1940     2.4088     0.0317     0.1630     0.2530    90.8740
  877.0000   -58.7520    12.0275     8.9487     8.1831    72.0393    12.1934     2.4039     0.0303     0.1643     0.2515    90.9990
  877.5000   -58.6423    11.9836     8.9189     8.2373    73.5815    12.1927     2.4031     0.0290     0.1657     0.2501    91.1240
  878.0000   -58.5619    11.9399     8.8892     8.1940    74.6413    12.1920     2.4017     0.0199     0.1674     0.2475    91.4889
  878.5000   -58.8604    11.8963     8.8597     8.1313    73.5984    12.1913     2.3961     0.0078     0.1725     0.2448    91.9100
  879.0000   -59.1506    11.8529     8.8302     8.0691    72.8246    12.1906     2.3876    -0.0042     0.1775     0.2452    92.3310
  879.5000   -59.4376    11.8097     8.8009     8.0074    73.5962    12.1899     2.3768    -0.0075     0.1824     0.2452    92.7445
  880.0000   -59.7243    11.7666     8.7715     7.9402    74.3762    12.1892     2.3716    -0.0068     0.1824     0.2434    92.5235
  880.5000   -60.0111    11.7236     8.7423     7.9517    75.1478    12.1885     2.3795    -0.0061     0.1761     0.2420    92.1664
  881.0000   -60.2978    11.6809     8.7048     7.9644    75.4620    12.1878     2.3941    -0.0057     0.1712     0.2465    91.8092
  881.5000   -60.5847    11.6382     8.7163     7.9773    74.8072    12.1872     2.4018     0.0048     0.1662     0.2558    91.4521
  882.0000   -60.8716    11.5957     8.7333     7.9900    72.7449    12.1865     2.4063     0.0193     0.1634     0.2650    91.2742
  882.5000   -61.1592    11.5580     8.7504     8.0028    69.4768    12.1858     2.4094     0.0328     0.1609     0.2692    91.3367
  883.0000   -61.4524    11.5248     8.7674     8.0157    66.2181    12.1851     2.4127     0.0377     0.1584     0.2675    91.5469
  883.5000   -61.4407    11.4917     8.7845     8.0285    65.8895    12.1844     2.4172     0.0424     0.1558     0.2606    92.3495
  884.0000   -60.8824    11.4588     8.8016     8.0414    67.3485    12.1837     2.4217     0.0472     0.1533     0.2544    92.8852
  884.5000   -60.2403    11.4259     8.8187     8.0543    68.7153    12.1830     2.4263     0.0518     0.1512     0.2631    92.3067
  885.0000   -59.5937    11.3932     8.8358     8.0673    69.8735    12.1823     2.4307     0.0473     0.1502     0.2686    91.6638
  885.5000   -58.9182    11.3643     8.8530     8.0802    70.0211    12.1816     2.4298     0.0327     0.1509     0.2654    91.0210
  886.0000   -58.0980    11.4553     8.8702     8.0932    71.3993    12.1809     2.4253     0.0094     0.1526     0.2568    90.3781
  886.5000   -57.2934    11.5385     8.8875     8.1061    73.4606    12.1805     2.4202    -0.0137     0.1543     0.2516    89.9395
  887.0000   -56.4927    11.6224     8.9047     8.1192    75.5443    12.1806     2.4202    -0.0199     0.1542     0.2480    89.6134
  887.5000   -55.7453    11.6815     8.9220     8.1322    77.6265    12.1806     2.4244    -0.0004     0.1523     0.2454    89.2873
  888.0000   -55.1309    11.6534     8.9392     8.1453    78.6252    12.1806     2.4290     0.0189     0.1503     0.2445    88.9612
  888.5000   -54.5296    11.6279     8.9533     8.1584    77.6616    12.1806     2.4328     0.0302     0.1482     0.2480    88.6527
  889.0000   -54.4072    11.6025     8.9717     8.1663    74.3626    12.1806     2.4295     0.0250     0.1490     0.2514    88.6704
  889.5000   -54.4635    11.5747     8.9899     8.1719    71.1535    12.1806     2.4261     0.0142     0.1518     0.2590    88.6891
  890.0000   -54.5308    11.6878     9.0081     8.1776    67.9174    12.1806     2.4227     0.0034     0.1545     0.2666    88.7073
  890.5000   -54.7114    11.8147     9.0264     8.1833    66.8565    12.1806     2.4192    -0.0074     0.1565     0.2678    88.7252
  891.0000   -55.2399    11.9430     9.0447     8.1890    68.0964    12.1805     2.4183    -0.0182     0.1548     0.2587    88.7429
  891.5000   -55.7529    12.0081     9.0631     8.1947    70.5778    12.1805     2.4262    -0.0162     0.1500     0.2475    88.6913
  892.0000   -56.2657    11.9842     9.0815     8.2004    74.6430    12.1806     2.4345    -0.0017     0.1453     0.2425    88.5597
  892.5000   -56.7786    11.9658     9.0999     8.2061    76.6577    12.1818     2.4382     0.0076     0.1446     0.2471    88.4281
  893.0000   -57.2951    11.9475     9.1184     8.2118    76.4211    12.1830     2.4382     0.0035     0.1443     0.2606    88.2966
  893.5000   -57.7719    11.9292     9.1369     8.2176    76.8957    12.1842     2.4382    -0.0004     0.1424     0.2608    88.1904
  894.0000   -57.5572    11.9106     9.1554     8.2233    76.9059    12.1854     2.4451     0.0071     0.1382     0.2499    88.0967
  894.5000   -57.3960    11.8990     9.1740     8.2290    71.5452    12.1866     2.4530     0.0245     0.1352     0.2544    88.0029
  895.0000   -57.2043    11.9457     9.1982     8.2347    70.3947    12.1877     2.4527     0.0419     0.1365     0.2565    87.9701
  895.5000   -56.9468    11.9823     9.1911     8.2370    71.9446    12.1889     2.4493     0.0521     0.1383     0.2554    88.0032
  896.0000   -56.5280    12.0081     9.1769     8.2329    74.7946    12.1901     2.4462     0.0347     0.1395     0.2513    88.0369
  896.5000   -56.1110    11.8891     9.1628     8.2298    77.2689    12.1913     2.4457     0.0183     0.1401     0.2474    88.0462
  897.0000   -55.6923    11.7984     9.1487     8.2266    79.1127    12.1925     2.4454     0.0162     0.1407     0.2470    88.0307
  897.5000   -55.2738    11.6815     9.1346     8.2235    80.7848    12.1937     2.4453     0.0144     0.1407     0.2527    88.0151
  898.0000   -54.8550    11.7151     9.1205     8.2204    81.4706    12.1948     2.4460     0.0049     0.1405     0.2642    87.9994
  898.5000   -54.4337    11.7826     9.1064     8.2172    81.3734    12.1960     2.4427    -0.0057     0.1428     0.2652    87.9837
  899.0000   -53.9919    11.8504     9.0924     8.2141    78.9330    12.1972     2.4389    -0.0164     0.1454     0.2568    87.9678
  899.5000   -53.6051    11.8982     9.0784     8.2109    76.6306    12.1984     2.4351    -0.0186     0.1471     0.2493    87.9545
  900.0000   -53.1988    11.7953     9.0644     8.2078    76.1540    12.1996     2.4334    -0.0113     0.1464     0.2474    88.0201
  900.5000   -52.7898    11.7168     9.0504     8.2047    79.3524    12.2002     2.4352    -0.0071     0.1458     0.2461    88.0810
  901.0000   -52.3793    11.6388     9.0364     8.2016    81.3733    12.1994     2.4370    -0.0058     0.1452     0.2444    88.1415
  901.5000   -51.9680    11.5613     9.0225     8.1984    79.3580    12.1987     2.4378    -0.0033     0.1459     0.2445    88.2020
  902.0000   -51.5974    11.4843     9.0086     8.1953    77.6114    12.1980     2.4363     0.0011     0.1481     0.2481    88.2625
  902.5000   -51.7213    11.4078     8.9947     8.1922    80.8613    12.1973     2.4326     0.0054     0.1496     0.2508    88.3230
  903.0000   -52.2962    11.3317     8.9808     8.1891    81.7155    12.1965     2.4302     0.0066     0.1493     0.2457    88.3711
  903.5000   -52.8567    11.2597     8.9670     8.1860    78.8458    12.1958     2.4302    -0.0002     0.1489     0.2401    88.4068
