~VERSION INFORMATION
 VERS.                2.0:   CWLS LOG ASCII STANDARD - VERSION 2.0
 WRAP.                 NO:   ONE LINE PER DEPTH STEP
~WELL INFORMATION
#MNEM.UNIT      DATA TYPE    INFORMATION
#----------   ------------   ------------------------------
 STRT.F            2.0000:   START DEPTH
 STOP.F          508.0000:   STOP DEPTH
 STEP.F            0.1000:   STEP LENGTH
 NULL.          -999.2500:   NO VALUE
 COMP. LAWRENCE/ALLISON INC:   COMPANY
 WELL.      48-41 SX #3-3:   WELL
 FLD .             TEAPOT:   FIELD
 LOC .       S3 T38N R78W:   LOCATION
 CNTY.            NATRONA:   COUNTY
 STAT.            WYOMING:   STATE
 CTRY. UNITED STATES OF AMERICA:   COUNTRY
 SRVC.           Gearhart:   SERVICE COMPANY
 DATE.        09-JUL-1988:   LOGDATE
 API .       490251123300:   API NUMBER
~CURVE INFORMATION
#MNEM.UNIT       API CODE    CURVE DESCRIPTION
#----------   ------------   ------------------------------
 DEPT.F                  :   
 GRR .GAPI   07 310 01 00:   GAMMA RAY
 RILD.OHMM   07 120 46 00:   INDUCTION LOG DEEP RESISTIVITY
 RILM.OHMM   07 120 44 00:   INDUCTION LOG MEDIUM RESISTIVITY
~PARAMETER INFORMATION
#MNEM.UNIT          VALUE    DESCRIPTION
#----------   ------------   ------------------------------
 PD  .                 GL:   PERMANENT DATUM
 EPD .F              5200:   ELEVATION PERMANENT DATUM
 LMF .                 KB:   LOG MEASURED FROM
 DAPD.F                 5:   FEET ABOVE PERMANENT DATUM
 DMF .                 KB:   DRILLING MEASURED FROM
 EKB .F              5205:   KELLING BUSHING
 EDF .F              5204:   DRILLING FLOOR
 EGL .F              5200:   GROUND LEVEL
 DATE.        09-JUL-1988:   RUN DATE
 RUN .                  1:   RUN NUMBER
 DD  .F               510:   DEPTH DRILLER
 DL  .F               516:   DEPTH LOGGER
 BLI .F               508:   BOTTOM LOG INTERVAL
 TLI .F               1.5:   TOP LOG INTERVAL
 CS  .IN            9.625:   CASING SIZE
 CBD .F                40:   CASING BOTTOM DRILLER
 CBL .F                45:   CASING BOTTOM LOGGER
 BS  .IN             8.75:   BIT SIZE
 BSD .F               510:   BIT SIZE AT DEPTH
 DFT .                AIR:   DRILLING FLUID TYPE
 TCS .HRS            1800:   TIME CURCULATED STOPPED
 TLAB.HRS            1843:   TIME LOGGER AT BOTTOM
 MRT .F                70:   MAXIMUM RECORDED TEMPERATURE
 LUN .               7597:   LOGGING UNIT NUMBER
 LUL .           GILLETTE:   LOGGING UNIT LOCATION
 ENGI.         WEATHERMON:   RECORDING ENGINEER
 WITN.              FIVAS:   WITNESSED BY
 CLNT.            A2DTECH:   CLIENT CODE
 ORIG.           5" PRINT:   ORIGIN OF DATA
 UWI .       490251123300:   UNIQUE WELL ID
 DICO. A2D Technologies, Inc.:   DIGITIZING COMPANY
~OTHER INFORMATION
~A    DEPT      GRR      RILD       RILM   
# ...
   93.0000   119.2098     9.0038     8.8766
   93.1000   119.7103     8.9826     8.8760
   93.2000   120.1151     8.9629     8.8587
   93.3000   120.3216     8.9205     8.8135
   93.4000   120.3222     8.9205     8.8129
   93.5000   120.8075     8.8710     8.8123
   93.6000   120.9267     8.8589     8.8117
   93.7000   121.0663     8.8589     8.8111
   93.8000   121.3168     8.8589     8.8105
   93.9000   121.5318     8.8517     8.8098
   94.0000   121.5325     8.7977     8.8092
   94.1000   121.5330     8.7977     8.8087
   94.2000   121.3515     8.7977     8.8080
   94.3000   121.2326     8.7977     8.8074
   94.4000   121.1544     8.7977     8.8068
   94.5000   120.9321     8.7977     8.8063
   94.6000   120.9328     8.7977     8.8055
   94.7000   120.9333     8.7977     8.7617
   94.8000   120.9339     8.7977     8.7436
   94.9000   120.8124     8.7977     8.7430
   95.0000   120.6335     8.7977     8.7424
   95.1000   120.6341     8.7977     8.7418
   95.2000   120.6348     8.7977     8.7411
   95.3000   120.6353     8.7977     8.7406
   95.4000   120.6359     8.7977     8.7400
   95.5000   120.6365     8.7977     8.7394
   95.6000   120.6991     8.8103     8.7388
   95.7000   120.9496     8.8589     8.7382
   95.8000   121.2417     8.8589     8.7375
   95.9000   121.4508     8.8589     8.7370
   96.0000   121.7014     8.8589     8.7364
   96.1000   122.0572     8.8589     8.7358
   96.2000   122.4506     8.8589     8.7352
   96.3000   122.4548     8.8589     8.7345
   96.4000   123.0553     8.8589     8.7339
   96.5000   123.2559     8.8998     8.7334
   96.6000   123.5065     8.9205     8.7327
   96.7000   123.7571     8.9205     8.7321
   96.8000   123.9626     8.9205     8.7315
   96.9000   123.9632     8.9205     8.7309
   97.0000   124.2072     8.9205     8.7303
   97.1000   124.2660     8.9600     8.7297
   97.2000   124.4066     8.9826     8.7291
   97.3000   124.5689     8.9826     8.7451
   97.4000   124.5695     8.9902     8.7886
   97.5000   124.5702     9.0450     8.7879
   97.6000   124.8057     9.0450     8.7874
   97.7000   124.8730     9.0450     8.7867
   97.8000   124.8736     9.0724     8.7861
   97.9000   124.7146     9.1079     8.7855
   98.0000   124.2150     9.1079     8.7849
   98.1000   123.6688     9.1079     8.7842
   98.2000   122.7636     9.1555     8.7837
   98.3000   121.7645     9.1713     8.7831
   98.4000   120.5189     9.1973     8.7825
   98.5000   119.0191     9.2351     8.7957
   98.6000   117.5399     9.2393     8.8423
   98.7000   116.1310     9.2993     8.8416
   98.8000   115.2598     9.2993     8.8850
   98.9000   114.4265     9.3349     8.9355
   99.0000   113.6769     9.3639     8.9863
   99.1000   112.8648     9.3775     9.0248
   99.2000   111.8882     9.4291     9.0262
   99.3000   111.3081     9.4291     9.0861
   99.4000   110.8894     9.4746     9.1292
   99.5000   110.3900     9.4946     9.1811
   99.6000   109.8907     9.5179     9.2110
   99.7000   109.4460     9.5727     9.2218
   99.8000   109.1911     9.6272     9.2743
   99.9000   108.2951     9.6272     9.3374
  100.0000   108.5973     9.6272     9.3801
  100.1000   108.2978     9.6603     9.4335
  100.2000   108.5020     9.6941     9.4953
  100.3000   109.0624     9.7044     9.5699
  100.4000   109.7168     9.7615     9.6444
  100.5000   110.2230     9.8165     9.7323
  100.6000   110.7341     9.9406     9.7786
  100.7000   111.6269    10.1087     9.8353
  100.8000   112.0435    10.1582     9.9172
  100.9000   112.5497    10.2177    10.0052
  101.0000   112.9472    10.2510    10.0073
  101.1000   113.2602    10.2664    10.0744
  101.2000   113.7568    10.3231    10.1237
  101.3000   114.0510    10.3236    10.1441
  101.4000   114.0525    10.3759    10.1708
  101.5000   114.0543    10.3963    10.2144
  101.6000   114.0561    10.4254    10.2180
  101.7000   114.0579    10.4694    10.2850
  101.8000   114.0597    10.4698    10.2849
  101.9000   114.0618    10.4703    10.3250
  102.0000   114.0634    10.5251    10.3561
  102.1000   114.0652    10.5440    10.3730
  102.2000   114.0670    10.5444    10.4278
  102.3000   114.0688    10.5448    10.4276
  102.4000   114.0705    10.5523    10.4816
  102.5000   114.0726    10.6191    10.4998
  102.6000   114.0742    10.6195    10.5303
  102.7000   114.0761    10.6648    10.5724
  102.8000   114.2010    10.6942    10.5792
  102.9000   114.4550    10.6947    10.6456
  103.0000   114.7090    10.7041    10.6454
  103.1000   114.9884    10.7700    10.6453
  103.2000   115.2168    10.7704    10.6778
  103.3000   115.4708    10.7709    10.7190
  103.4000   115.7249    10.8065    10.7273
  103.5000   115.9789    10.8467    10.7932
  103.6000   116.2329    10.8471    10.8520
  103.7000   116.5075    10.8476    10.8679
  103.8000   116.7408    10.9098    10.9025
  103.9000   116.8127    10.9738    10.9431
  104.0000   117.0798    11.0003    10.9430
  104.1000   116.4208    11.0261    10.9428
  104.2000   113.4635    11.0778    11.0040
  104.3000   110.7868    11.0786    11.0186
  104.4000   109.3689    11.1558    11.0184
  104.5000   108.0446    11.1562    11.0182
  104.6000   106.9235    11.1968    11.0298
  104.7000   106.0930    11.2624    11.0945
  104.8000   105.5904    11.3284    11.1581
  104.9000   105.0661    11.3924    11.1713
  105.0000   104.8265    11.3930    11.2099
  105.1000   104.5760    11.4492    11.2749
  105.2000   104.3258    11.4731    11.3267
  105.3000   104.0755    11.4736    11.3273
  105.4000   103.8682    11.4914    11.4050
  105.5000   104.1720    11.5586    11.4591
  105.6000   104.6661    11.6353    11.4840
  105.7000   105.1724    11.6945    11.5123
  105.8000   105.6786    11.7170    11.5790
  105.9000   106.1847    11.7504    11.6460
  106.0000   106.6906    11.7995    11.7244
  106.1000   107.1994    11.8064    11.7815
  106.2000   107.7031    11.8826    11.8498
  106.3000   108.2094    11.9453    11.9185
  106.4000   108.7157    11.9663    11.9699
  106.5000   109.2219    12.0023    11.9781
  106.6000   109.6749    12.0505    12.1364
  106.7000   109.9323    12.0595    12.1363
  106.8000   110.5306    12.1353    12.1833
  106.9000   110.7385    12.1358    12.2540
  107.0000   110.8356    12.1880    12.3051
  107.1000   110.9448    12.2595    12.3109
  107.2000   111.1989    12.3067    12.3902
  107.3000   111.4444    12.3072    12.4540
  107.4000   111.4464    12.3077    12.5263
  107.5000   111.4479    12.3766    12.5625
  107.6000   111.2881    12.3943    12.5623
  107.7000   110.9255    12.4358    12.5621
  107.8000   110.2972    12.4816    12.5619
  107.9000   109.2902    12.4821    12.6284
  108.0000   108.1390    12.4826    12.6489
  108.1000   107.4929    12.5546    12.6487
  108.2000   106.9045    12.5705    12.6485
  108.3000   106.4019    12.5710    12.6484
  108.4000   105.8992    12.6009    12.6482
  108.5000   105.3966    12.6594    12.7169
  108.6000   104.8316    12.6600    12.7358
  108.7000   104.6124    12.6606    12.7356
  108.8000   104.3621    12.6610    12.7353
  108.9000   103.9898    12.6615    12.7352
  109.0000   103.5596    12.6621    12.7350
  109.1000   103.3092    12.6626    12.6642
  109.2000   103.0325    12.6631    12.6468
  109.3000   102.8084    12.6637    12.6466
  109.4000   102.5581    12.6642    12.6464
  109.5000   102.3078    12.6647    12.6463
  109.6000   102.0574    12.6652    12.6461
  109.7000   101.8070    12.6657    12.6459
  109.8000   101.5350    12.6662    12.6458
  109.9000   101.3061    12.6669    12.6456
  110.0000   101.0557    12.6673    12.6454
  110.1000   100.9370    12.6678    12.6452
  110.2000   100.8568    12.6684    12.6450
  110.3000   100.6387    12.6689    12.6448
  110.4000   100.6408    12.6694    12.6447
  110.5000   100.4072    12.6700    12.6445
  110.6000   100.3427    12.6705    12.6443
  110.7000   100.3445    12.6711    12.6442
  110.8000   100.5202    12.6716    12.6440
  110.9000   101.0261    12.6721    12.6438
  111.0000   101.5566    12.6726    12.6437
  111.1000   102.5188    12.6732    12.6435
