~VERSION INFORMATION
 VERS.                2.0:   CWLS LOG ASCII STANDARD - VERSION 2.0
 WRAP.                 NO:   ONE LINE PER DEPTH STEP
~WELL INFORMATION
#MNEM.UNIT      DATA TYPE    INFORMATION
#----------   ------------   ------------------------------
 STRT.F           20.0000:   START DEPTH
 STOP.F          677.0000:   STOP DEPTH
 STEP.F            0.5000:   STEP LENGTH
 NULL.          -999.2500:   NO VALUE
 COMP. FENIX & SCISSON INC:   COMPANY
 WELL. 11 WI NPR 3 #36-26 SX:   WELL
 FLD .             TEAPOT:   FIELD
 LOC .      S11 T38N R78W:   LOCATION
 CNTY.            NATRONA:   COUNTY
 STAT.            WYOMING:   STATE
 CTRY. UNITED STATES OF AMERICA:   COUNTRY
 SRVC.      Dresser Atlas:   SERVICE COMPANY
 DATE.        06-AUG-1980:   LOGDATE
 API .       490251084100:   API NUMBER
~CURVE INFORMATION
#MNEM.UNIT       API CODE    CURVE DESCRIPTION
#----------   ------------   ------------------------------
 DEPT.F                  :   
 SPR .MV     07 010 01 00:   SPONTANEOUS POTENTIAL
 SFL .OHMM   07 220 01 00:   SHALLOW FOCUSED LOG RESISTIVITY
 ILD .OHMM   07 120 46 00:   INDUCTION LOG DEEP
 ILM .OHMM   07 120 44 00:   INDUCTION LOG MEDIUM
 GRD .GAPI   45 310 01 00:   GAMMA RAY FROM DENSITY LOG
 RHOB.G/C3   45 350 01 00:   BULK DENSITY
 CALD.IN     45 280 60 00:   CALIPER
 CORR.G/C3   45 356 01 00:   DENSITY CORRECTION
 DPOR.DEC    45 890 12 00:   DENSITY POROSITY SANDSTONE
 NPOR.DEC    42 890 03 00:   NEUTRON POROSITY SANDSTONE
~PARAMETER INFORMATION
#MNEM.UNIT          VALUE    DESCRIPTION
#----------   ------------   ------------------------------
 PD  .                 GL:   PERMANENT DATUM
 EPD .F              5191:   ELEVATION PERMANENT DATUM
 LMF .                 KB:   LOG MEASURED FROM
 DAPD.F                 5:   FEET ABOVE PERMANENT DATUM
 DMF .                 KB:   DRILLING MEASURED FROM
 EKB .F              5196:   KELLING BUSHING
 EGL .F              5191:   GROUND LEVEL
 DATE.             8-6-80:   RUN DATE
 RUN .                  1:   RUN NUMBER
 DD  .F               680:   DEPTH DRILLER
 DL  .F               679:   DEPTH LOGGER
 BLI .F               676:   BOTTOM LOG INTERVAL
 TLI .F                20:   TOP LOG INTERVAL
 BS  .IN            7.875:   BIT SIZE
 BSD .F               680:   BIT SIZE AT DEPTH
 DFT .                KCL:   DRILLING FLUID TYPE
 DFD .                9.4:   DRILLING FLUID DENSITY
 DFV .                 45:   DRILLING FLUID VISCOSITY
 DFPH.                 12:   DRILLING FLUID PH
 MSS .           FLOWLINE:   MUD SAMPLE SOURCE
 RMS .OHMM            .11:   RESISTIVITY MUD SAMPLE
 MST .F                65:   MUD SAMPLE TEMPERATURE
 RMF .OHMM             .1:   RESISTIVITY MUD FILTRATE SAMPLE
 MFST.F                60:   MUD FILTRATE SAMPLE TEMPERATURE
 RMC .OHMM            .17:   RESISTIVITY MUD CAKE
 MCST.F                65:   MUD CAKE SAMPLE TEMPERATURE
 MFSS.               MEAS:   MUD FILTRATE SAMPLE SOURCE
 MCSS.              CHART:   MUD CAKE SAMPLE SOURCE
 TCS .HRS              .5:   TIME CURCULATED STOPPED
 MRT .F               100:   MAXIMUM RECORDED TEMPERATURE
 LUN .               6240:   LOGGING UNIT NUMBER
 LUL .               RVTN:   LOGGING UNIT LOCATION
 ENGI.            K. RALL:   RECORDING ENGINEER
 WITN.     AMAND/MCINTYRE:   WITNESSED BY
 CLNT.            A2DTECH:   CLIENT CODE
 ORIG.        2" 5" PRINT:   ORIGIN OF DATA
 UWI .       490251084100:   UNIQUE WELL ID
 DICO. A2D Technologies, Inc.:   DIGITIZING COMPANY
~OTHER INFORMATION
~A   DEPT       SPR       SFL         ILD         ILM      GRD       RHOB       CALD       CORR       DPOR       NPOR   
# ...
  388.5000   -70.2094     7.8241     7.1364     6.7557   112.8420     2.4525     8.1079     0.0201     0.1176     0.2515
  389.0000   -70.2462     7.8241     7.1364     6.7412   110.3402     2.4709     8.1079     0.0295     0.1097     0.2526
  389.5000   -70.2834     7.8247     7.1364     6.7268   109.5030     2.4948     8.1079     0.0505     0.1198     0.2535
  390.0000   -70.3199     7.8253     7.1364     6.7122   110.2066     2.4928     8.1079     0.0404     0.1337     0.2742
  390.5000   -70.3588     7.7387     7.1364     6.6978   112.9564     2.4680     8.1079     0.0254     0.1341     0.3029
  391.0000   -70.5145     7.6732     7.1368     6.6912   116.8040     2.4575     8.1079     0.0281     0.1287     0.3376
  391.5000   -70.9165     7.6082     7.0634     6.6064   118.5098     2.4649     8.1079     0.0314     0.1242     0.3397
  392.0000   -70.8614     7.5437     6.9882     6.5194   115.8968     2.4725     8.1079     0.0371     0.1177     0.2879
  392.5000   -70.7067     7.4798     6.9138     6.4334   112.6184     2.4796     8.1079     0.0466     0.1105     0.2782
  393.0000   -70.5488     7.4165     6.8404     6.3495   110.0916     2.4952     8.1079     0.0553     0.1130     0.2827
  393.5000   -70.3892     7.3537     6.7672     6.2733   110.4645     2.4883     8.1079     0.0520     0.1145     0.2944
  394.0000   -70.4249     7.2716     6.6933     6.0915   111.1454     2.4939     8.1079     0.0461     0.1058     0.3126
  394.5000   -70.4756     7.1828     6.4189     5.8972   111.8233     2.5005     8.1079     0.0449     0.1058     0.3118
  395.0000   -70.5255     7.0951     6.0725     5.7077   112.5114     2.4807     8.1079     0.0380     0.1337     0.2887
  395.5000   -70.5843     7.0085     5.7440     5.4717   113.1207     2.4340     8.1079     0.0128     0.1658     0.2814
  396.0000   -70.2144     6.9229     5.4332     5.0533   112.5125     2.3945     8.1079    -0.0017     0.1693     0.2984
  396.5000   -69.9722     6.7531     5.1399     4.6701   112.6713     2.4232     8.1080     0.0131     0.1497     0.3057
  397.0000   -70.5077     5.8458     4.8803     4.3155   114.5951     2.4344     8.1105     0.0209     0.1457     0.3136
  397.5000   -71.2525     5.1194     4.7605     4.2238   114.7185     2.4042     8.1131     0.0189     0.1682     0.3255
  398.0000   -71.2097     4.5885     4.7581     4.4964   110.9926     2.3896     8.1157     0.0232     0.1741     0.3449
  398.5000   -70.2502     4.8470     4.9429     4.7112   108.3640     2.4165     8.1183     0.0552     0.1558     0.3335
  399.0000   -69.2891     5.7949     5.1843     4.9363   106.2456     2.4342     8.1209     0.0547     0.1462     0.3146
  399.5000   -68.5534     6.9281     5.4383     5.1722   104.6368     2.4350     8.1235     0.0353     0.1463     0.3138
  400.0000   -68.9567     7.3406     5.7045     5.4193   104.0469     2.4352     8.1260     0.0210     0.1467     0.3228
  400.5000   -69.5054     7.2690     5.9837     5.6782   109.3605     2.4355     8.1288     0.0213     0.1462     0.3262
  401.0000   -70.0589     7.2676     6.2765     5.9497   115.2406     2.4399     8.1320     0.0215     0.1441     0.3150
  401.5000   -70.3838     7.4356     6.5837     6.2345   118.7503     2.4470     8.1353     0.0281     0.1389     0.2979
  402.0000   -70.3816     7.7529     6.9058     6.4759   117.6447     2.4595     8.1386     0.0281     0.1275     0.2944
  402.5000   -70.3823     7.6666     7.0254     6.5739   117.0557     2.4677     8.1419     0.0243     0.1255     0.2908
  403.0000   -70.3586     7.5442     7.0865     6.6736   118.4464     2.4596     8.1452     0.0178     0.1301     0.2874
  403.5000   -70.2163     7.4039     7.1482     6.7747   120.1887     2.4569     8.1485     0.0118     0.1329     0.2877
  404.0000   -70.0758     7.5317     7.2104     6.8773   119.3539     2.4804     8.1487     0.0247     0.1161     0.2908
  404.5000   -69.9353     7.6878     7.2731     6.9815   115.7153     2.5192     8.1482     0.0505     0.0955     0.2950
  405.0000   -69.7949     7.8303     7.3364     7.0747   112.0999     2.5268     8.1471     0.0623     0.0911     0.2994
  405.5000   -69.6557     7.8613     7.4002     7.0986   109.8489     2.5295     8.1459     0.0681     0.0892     0.2994
  406.0000   -69.6068     7.8939     7.4646     7.1226   109.9884     2.5318     8.1448     0.0722     0.0873     0.2994
  406.5000   -69.6711     7.9266     7.5295     7.1467   111.7007     2.5247     8.1437     0.0643     0.0915     0.2978
  407.0000   -69.7346     7.9593     7.6111     7.1709   110.9039     2.4973     8.1425     0.0465     0.1059     0.2919
  407.5000   -69.7986     7.9922     7.6067     7.1951   110.5139     2.4606     8.1414     0.0270     0.1246     0.2889
  408.0000   -69.8626     8.0253     7.5990     7.2195   110.6822     2.4393     8.1402     0.0071     0.1433     0.2870
  408.5000   -69.9265     8.0523     7.5912     7.2439   113.2223     2.4463     8.1391     0.0108     0.1437     0.2880
  409.0000   -69.9769     8.0722     7.5834     7.2684   112.8447     2.4545     8.1379     0.0083     0.1349     0.2893
  409.5000   -69.9443     8.0921     7.5757     7.2930   112.5721     2.4472     8.1368     0.0042     0.1372     0.2866
  410.0000   -69.9132     8.1121     7.5679     7.3176   113.3887     2.4386     8.1356     0.0001     0.1402     0.2776
  410.5000   -69.8822     8.1322     7.5601     7.3360   116.0348     2.4407     8.1345    -0.0037     0.1425     0.2707
  411.0000   -69.8512     8.1523     7.5524     7.3236   117.0696     2.4463     8.1334    -0.0075     0.1425     0.2778
  411.5000   -69.8205     8.1724     7.5419     7.3119   116.0584     2.4663     8.1322    -0.0049     0.1373     0.2889
  412.0000   -69.7881     8.1925     7.5470     7.3001   114.5093     2.4934     8.1311     0.0033     0.1251     0.2973
  412.5000   -69.8482     8.0524     7.5565     7.2884   112.6575     2.4920     8.1299     0.0336     0.1109     0.2981
  413.0000   -69.9486     7.9152     7.5661     7.2766   112.6107     2.4788     8.1288     0.0408     0.1138     0.2954
  413.5000   -70.0507     7.8242     7.5757     7.2608   112.6735     2.4785     8.1276     0.0465     0.1184     0.2903
  414.0000   -70.1526     7.8242     7.5853     7.2011   112.7254     2.4850     8.1265     0.0483     0.1194     0.2819
  414.5000   -70.2545     7.8242     7.5949     7.1420   112.7932     2.4957     8.1253     0.0478     0.1161     0.2720
  415.0000   -70.3595     7.8242     7.6046     7.0833   111.9828     2.5074     8.1242     0.0551     0.1117     0.2620
  415.5000   -70.3817     7.8240     7.6114     7.0251   110.7302     2.5230     8.1230     0.0627     0.1038     0.2599
  416.0000   -70.3818     7.8252     7.5658     6.9674   107.1374     2.5240     8.1219     0.0459     0.0950     0.2706
  416.5000   -70.3816     7.7508     7.5175     6.9101   104.7653     2.4740     8.1208     0.0230     0.0930     0.2845
  417.0000   -70.3815     7.6270     7.4724     6.8220   106.6539     2.4247     8.1196    -0.0114     0.1283     0.3083
  417.5000   -70.3808     7.5057     7.3047     6.6029   111.3430     2.4226     8.1185    -0.0066     0.1537     0.3133
  418.0000   -70.3751     7.3862     7.1501     6.3907   115.0585     2.4569     8.1173     0.0227     0.1541     0.3044
  418.5000   -70.4157     7.2689     6.9988     6.1854   114.4042     2.4870     8.1162     0.0411     0.1354     0.2645
  419.0000   -71.2051     7.0564     6.8832     5.9867   113.5499     2.4846     8.1150     0.0341     0.1143     0.2459
  419.5000   -71.9849     6.8505     6.6653     5.7944   112.7063     2.4606     8.1139     0.0107     0.1146     0.2546
  420.0000   -72.7587     6.5439     6.1574     5.4875   110.4465     2.4294     8.1128    -0.0013     0.1334     0.2694
  420.5000   -73.5322     6.1569     5.6883     5.1841   107.8675     2.4346     8.1116     0.0112     0.1482     0.2846
  421.0000   -74.3059     5.7928     5.2676     4.5268   107.6438     2.4423     8.1105     0.0297     0.1444     0.2869
  421.5000   -75.0782     5.6180     4.4723     3.8737   109.3187     2.4302     8.1093     0.0324     0.1405     0.2828
