~VERSION INFORMATION
 VERS.                2.0:   CWLS LOG ASCII STANDARD - VERSION 2.0
 WRAP.                 NO:   ONE LINE PER DEPTH STEP
~WELL INFORMATION
#MNEM.UNIT      DATA TYPE    INFORMATION
#----------   ------------   ------------------------------
 STRT.F           38.0000:   START DEPTH
 STOP.F         1202.0000:   STOP DEPTH
 STEP.F            0.5000:   STEP LENGTH
 NULL.          -999.2500:   NO VALUE
 COMP.       INTEX OIL CO:   COMPANY
 WELL.     72 S 14 #72-14:   WELL
 FLD .            WILDCAT:   FIELD
 LOC .      S14 T38N R78W:   LOCATION
 CNTY.            NATRONA:   COUNTY
 STAT.            WYOMING:   STATE
 CTRY. UNITED STATES OF AMERICA:   COUNTRY
 SRVC.       Schlumberger:   SERVICE COMPANY
 DATE.        26-AUG-1966:   LOGDATE
 API .       490250970800:   API NUMBER
~CURVE INFORMATION
#MNEM.UNIT       API CODE    CURVE DESCRIPTION
#----------   ------------   ------------------------------
 DEPT.F                  :   
 SPR .MV     05 010 01 00:   SPONTANEOUS POTENTIAL FROM RES.
 ASN .OHMM   05 041 16 00:   AMPLIFIED SHORT NORMAL 16"
 ILD .OHMM   05 120 46 00:   INDUCTION LOG DEEP
 CILD.MMHO   05 110 46 00:   CONDUCTIVITY INDUCTION LOG DEEP
 CORR.G/C3   45 356 01 00:   DENSITY CORRECTION
 GRD .GAPI   45 310 01 00:   GAMMA RAY FROM DENSITY LOG
 CALD.IN     45 280 60 00:   CALIPER FROM DENSITY LOG
 DPHI.DEC    45 890 12 00:   DENSITY POROSITY SANDSTONE
 RHOB.G/C3   45 350 01 00:   BULK DENSITY
~PARAMETER INFORMATION
#MNEM.UNIT          VALUE    DESCRIPTION
#----------   ------------   ------------------------------
 PD  .                 GL:   PERMANENT DATUM
 EPD .F              5265:   ELEVATION PERMANENT DATUM
 LMF .                 KB:   LOG MEASURED FROM
 DAPD.F                 5:   FEET ABOVE PERMANENT DATUM
 DMF .                 KB:   DRILLING MEASURED FROM
 EKB .F              5270:   KELLING BUSHING
 DATE.        26-AUG-1966:   RUN DATE
 RUN .                  1:   RUN NUMBER
 DD  .F              1201:   DEPTH DRILLER
 DL  .F              1203:   DEPTH LOGGER
 BLI .F              1202:   BOTTOM LOG INTERVAL
 TLI .F                46:   TOP LOG INTERVAL
 CS  .IN            8.625:   CASING SIZE
 BS  .IN             6.75:   BIT SIZE
 BSD .F              1201:   BIT SIZE AT DEPTH
 DFT .     CHEM- GEL- OIL:   DRILLING FLUID TYPE
 DFD .                9.4:   DRILLING FLUID DENSITY
 MRT .F                94:   MAXIMUM RECORDED TEMPERATURE
 LUN .               3527:   LOGGING UNIT NUMBER
 LUL .             CASPER:   LOGGING UNIT LOCATION
 ENGI.             KNOBEL:   RECORDING ENGINEER
 WITN.                MAY:   WITNESSED BY
 CLNT.            A2DTECH:   CLIENT CODE
 ORIG.       2", 5" PRINT:   ORIGIN OF DATA
 UWI .       490250970800:   UNIQUE WELL ID
 DICO. A2D Technologies, Inc.:   DIGITIZING COMPANY
~OTHER INFORMATION
~A   DEPT      SPR        ASN        ILD       CILD       CORR        GRD       CALD       DPHI       RHOB   
# ...
  877.5000   -22.1687     8.3851     7.3422   146.8099     0.0143   114.6478     7.0031     0.1030     2.4971
  878.0000   -22.1758     8.2949     7.3383   147.5679     0.0166   112.6476     7.0040     0.0857     2.5166
  878.5000   -22.1815     8.2047     7.2607   147.5751     0.0264   113.5613     7.0049     0.0979     2.5069
  879.0000   -22.1873     8.1594     7.1828   148.3337     0.0300   112.9063     7.0207     0.1015     2.4920
  879.5000   -22.1930     8.1443     7.1799   149.0928     0.0340   110.2393     7.0216     0.1036     2.4905
  880.0000   -22.0482     8.2042     7.1020   149.1001     0.0391   108.9097     7.0225     0.0904     2.5077
  880.5000   -21.9033     8.2941     7.0991   149.1073     0.0361   110.0470     7.0234     0.0940     2.5002
  881.0000   -21.9106     8.3841     7.0955   149.1145     0.0281   108.4978     7.0243     0.1047     2.4861
  881.5000   -21.9163     8.4440     7.0927   148.3709     0.0166   106.9485     7.0252     0.1020     2.4921
  882.0000   -21.9221     8.4739     7.0898   148.3784     0.0137   107.4112     7.0261     0.0999     2.4898
  882.5000   -21.9278     8.4587     7.0869   148.3872     0.0121   108.0975     7.0270     0.1053     2.4861
  883.0000   -21.9337     8.3835     7.0841   149.1451     0.0121   107.2189     7.0278     0.1055     2.4854
  883.5000   -22.2420     8.3233     7.0805   149.1524     0.0121   106.7835     7.0287     0.1016     2.4959
  884.0000   -22.3984     8.2631     7.0776   149.1596     0.0129   115.2978     7.0296     0.0962     2.5109
  884.5000   -22.5547     8.2178     6.9997   149.9175     0.0234   117.5489     7.0154     0.0920     2.5102
  885.0000   -22.7111     8.1877     6.9968   150.6757     0.0286   119.1293     7.0165     0.0968     2.4950
  885.5000   -22.5662     8.1725     6.9940   152.1860     0.0286   116.6859     7.0174     0.0977     2.5094
  886.0000   -22.5734     8.1423     6.9904   152.9440     0.0287   114.6896     7.0183     0.0902     2.5162
  886.5000   -22.2766     8.0787     6.9125   153.7019     0.0287   113.1404     7.0192     0.0860     2.5043
  887.0000   -22.1317     8.0069     6.9096   155.2106     0.0287   110.0264     7.0201     0.0957     2.4946
  887.5000   -22.1389     7.9617     6.8317   156.7194     0.0287   109.3674     7.0210     0.0951     2.4923
  888.0000   -22.1447     7.9015     6.7537   158.2282     0.0287   108.2692     7.0219     0.1047     2.4834
  888.5000   -22.1681     7.8713     6.6757   158.9878     0.0253   110.2967     7.0228     0.1071     2.4804
  889.0000   -22.3082     7.8111     6.6722   158.2443     0.0137   111.8772     7.0088     0.1061     2.4920
  889.5000   -22.3140     7.7509     6.8195   155.9993     0.0194   111.6692     7.0096     0.0990     2.5093
  890.0000   -22.0171     7.7357     6.8924   153.7542     0.0302   110.3436     7.0105     0.0845     2.5197
  890.5000   -21.8735     7.9308     6.8888   152.2597     0.0278   104.7705     6.9963     0.0889     2.5231
  891.0000   -22.0301     8.4261     6.7262   153.8138     0.0257   104.5625     6.9974     0.0927     2.5208
  891.5000   -22.1879     9.0773     6.4319   162.0359     0.0302   100.5543     7.0132     0.0780     2.5194
  892.0000   -22.3442     9.4619     6.1288   170.3014     0.0341    93.1929     7.0141     0.0843     2.5225
  892.5000   -22.5006     9.0112     5.9007   177.8161     0.0416    83.4313     7.0150     0.0743     2.5434
  893.0000   -22.8076     8.5006     5.7477   183.8293     0.0452    90.2154     7.0159     0.0647     2.5539
  893.5000   -22.8133     7.7497     5.5864   188.3411     0.0376   103.3019     6.9572     0.0848     2.5218
  894.0000   -22.6685     6.9213     5.4409   192.1322     0.0385   107.7885     6.9131     0.0992     2.4979
  894.5000   -22.2239     6.3830     5.3630   195.8648     0.0431   107.5766     7.0335     0.1051     2.4851
  895.0000   -21.7778     6.2778     5.2851   198.8750     0.0475   108.7139     7.0344     0.1036     2.4878
  895.5000   -21.4809     6.2025     5.3574   200.3837     0.0469   108.5059     7.0353     0.0979     2.4949
  896.0000   -21.1867     6.2324     5.5115   201.8924     0.0301   106.9567     7.0362     0.1176     2.4528
  896.5000   -21.5015     6.3224     5.7262   199.6474     0.0228   105.1840     7.0370     0.1191     2.4699
  897.0000   -22.1035     6.7126     5.8742   192.1174     0.0243   103.6347     7.0228     0.1000     2.5010
  897.5000   -22.4105     6.9076     6.0959   182.3964     0.0341   103.1993     7.0388     0.0883     2.4980
  898.0000   -22.4162     7.0276     6.3182   174.8961     0.0329   110.5959     7.0397     0.1002     2.4936
  898.5000   -22.2700     7.1025     6.4713   170.3988     0.0317   111.5057     7.0406     0.0942     2.4988
  899.0000   -22.1265     7.1474     6.7622   167.4030     0.0311   112.8587     7.0264     0.0984     2.5108
  899.5000   -21.8311     7.2416     6.8352   165.9084     0.0382   111.5369     7.0275     0.0768     2.5378
  900.0000   -21.8383     7.3723     6.9130   165.1652     0.0528   110.4016     7.0301     0.0681     2.5497
  900.5000   -21.8420     7.4471     6.9481   164.7618     0.0558   106.8762     7.0420     0.0639     2.5415
  901.0000   -21.8471     7.4769     6.9778   164.4594     0.0577   104.6585     7.0538     0.0723     2.5281
  901.5000   -21.8515     7.4616     6.9751   162.9797     0.0589   103.5585     7.0459     0.0783     2.5431
  902.0000   -21.8558     7.4612     6.9729   160.7545     0.0479   108.0472     7.0468     0.0720     2.5356
  902.5000   -21.7085     7.4459     6.8956   160.0200     0.0401   111.6417     7.0626     0.0866     2.5177
  903.0000   -21.4127     7.4306     6.8930   161.5486     0.0375   111.6595     7.0635     0.0833     2.5178
  903.5000   -21.0944     7.4303     6.8157   163.8225     0.0361   110.7831     7.0644     0.0854     2.5140
  904.0000   -20.9695     7.3850     6.7385   166.8471     0.0297   110.8008     7.0653     0.0962     2.5029
  904.5000   -21.2762     7.2031     6.6613   170.6231     0.0202   109.9244     7.0512     0.1057     2.4902
  905.0000   -21.4311     7.0390     6.5089   175.1541     0.0117   109.2671     7.0522     0.1105     2.4820
  905.5000   -21.4355     6.9186     6.3566   177.4280     0.0090   111.5248     7.0531     0.1165     2.4580
  906.0000   -21.5904     6.7982     6.1287   180.4527     0.0118   109.7541     7.0541     0.1154     2.4592
  906.5000   -21.5948     6.6627     5.9764   184.9788     0.0177   105.3010     7.0550     0.1120     2.4723
  907.0000   -21.4485     6.5273     5.6739   192.5080     0.0205   104.6437     7.0410     0.1142     2.4667
  907.5000   -21.4539     6.3468     5.3714   204.7954     0.0245   105.3365     7.0419     0.1217     2.4454
  908.0000   -21.4583     6.1104     5.0690   224.0883     0.0291   108.2604     7.0428     0.1185     2.4590
  908.5000   -21.3109     5.6705     4.7665   245.1310     0.0243   110.0665     7.0436     0.1143     2.4672
  909.0000   -21.3163     5.3699     4.5320   262.4199     0.0170   109.6372     7.0594     0.1191     2.4523
  909.5000   -21.3051     5.0844     4.3112   271.4505     0.0195   108.0901     7.0452     0.1268     2.4471
  910.0000   -21.0238     4.8288     4.1588   275.9767     0.0253   105.8724     7.0463     0.1262     2.4434
  910.5000   -20.7269     4.7084     4.1567   272.9558     0.0306   107.4550     7.0472     0.1334     2.4352
  911.0000   -20.4301     4.6631     4.2296   268.5179     0.0363   107.4728     7.0481     0.1376     2.4292
  911.5000   -20.4355     4.8279     4.3026   264.7858     0.0461   107.0312     7.0489     0.1292     2.4405
  912.0000   -20.4398     5.0828     4.5265   259.5522     0.0588   111.7557     7.0498     0.1008     2.4906
  912.5000   -20.4443     5.5180     4.8361   248.3126     0.0695   111.1028     7.0507     0.0846     2.5153
  913.0000   -20.4496     5.9081     5.1963   234.0700     0.0608   108.4263     7.0516     0.0837     2.5056
  913.5000   -20.6046     6.2081     5.4945   217.5751     0.0488   109.9051     7.0525     0.1019     2.4974
