~VERSION INFORMATION
 VERS.                2.0:   CWLS LOG ASCII STANDARD - VERSION 2.0
 WRAP.                 NO:   ONE LINE PER DEPTH STEP
~WELL INFORMATION
#MNEM.UNIT      DATA TYPE    INFORMATION
#----------   ------------   ------------------------------
 STRT.F           32.0000:   START DEPTH
 STOP.F          571.0000:   STOP DEPTH
 STEP.F            0.5000:   STEP LENGTH
 NULL.          -999.2500:   NO VALUE
 COMP. FENIX & SCISSON INCORP.:   COMPANY
 WELL.      NPR-3 #21-S-3:   WELL
 FLD .             TEAPOT:   FIELD
 LOC .       S3 T38N R78W:   LOCATION
 CNTY.            NATRONA:   COUNTY
 STAT.            WYOMING:   STATE
 CTRY. UNITED STATES OF AMERICA:   COUNTRY
 SRVC.           BIRDWELL:   SERVICE COMPANY
 DATE.        25-JUL-1978:   LOGDATE
 API .       490251067100:   API NUMBER
~CURVE INFORMATION
#MNEM.UNIT       API CODE    CURVE DESCRIPTION
#----------   ------------   ------------------------------
 DEPT.F                  :   
 CALD.IN     45 280 60 00:   CALIPER FROM DENSITY LOG
 CORR.G/C3   45 356 01 00:   DENSITY CORRECTION
 DPHI.DEC    45 890 10 00:   DENSITY POROSITY LIMESTONE
 GRD .GAPI   45 310 01 00:   GAMMA RAY FROM DENSITY LOG
 RHOB.G/C3   45 350 01 00:   BULK DENSITY
 ILD .OHMM   05 120 46 00:   INDUCTION LOG DEEP
 SN  .OHMM   05 040 16 00:   SHORT NORMAL 16"
 SPR .MV     05 010 01 00:   SPONTANEOUS POTENTIAL FROM RES.
 NPHI.DEC    42 890 01 00:   NEUTRON POROSITY LIMESTONE
~PARAMETER INFORMATION
#MNEM.UNIT          VALUE    DESCRIPTION
#----------   ------------   ------------------------------
 PD  .                 GL:   PERMANENT DATUM
 EPD .F              5203:   ELEVATION PERMANENT DATUM
 LMF .                 KB:   LOG MEASURED FROM
 DAPD.F                 4:   FEET ABOVE PERMANENT DATUM
 DMF .                 KB:   DRILLING MEASURED FROM
 EKB .F              5207:   KELLING BUSHING
 EGL .F              5203:   GROUND LEVEL
 DATE.        25-JUL-1978:   RUN DATE
 RUN .                  1:   RUN NUMBER
 DD  .F               565:   DEPTH DRILLER
 DL  .F               573:   DEPTH LOGGER
 BLI .F               566:   BOTTOM LOG INTERVAL
 TLI .F                46:   TOP LOG INTERVAL
 CS  .IN            8.625:   CASING SIZE
 CBD .F                40:   CASING BOTTOM DRILLER
 CBL .F                48:   CASING BOTTOM LOGGER
 BS  .IN            7.875:   BIT SIZE
 BSD .F               565:   BIT SIZE AT DEPTH
 DFT .                KCL:   DRILLING FLUID TYPE
 DFD .                8.6:   DRILLING FLUID DENSITY
 DFV .                 30:   DRILLING FLUID VISCOSITY
 DFPH.                  9:   DRILLING FLUID PH
 MSS .           FLOWLINE:   MUD SAMPLE SOURCE
 LUN .               2958:   LOGGING UNIT NUMBER
 LUL .               CASP:   LOGGING UNIT LOCATION
 WITN.           MCGINLEY:   WITNESSED BY
 CLNT.            A2DTECH:   CLIENT CODE
 ORIG.           5" PRINT:   ORIGIN OF DATA
 UWI .       490251067100:   UNIQUE WELL ID
 DICO. A2D Technologies, Inc.:   DIGITIZING COMPANY
~OTHER INFORMATION
~A   DEPT     CALD       CORR       DPHI         GRD      RHOB        ILD         SN        SPR       NPHI   
# ...
  214.5000     7.3431    -0.0004     0.1486   100.0414     2.4350     8.5606     8.4596   -45.5022  -999.2500
  215.0000     7.4336     0.0011     0.1456    99.8945     2.4417     8.5653     8.4660   -45.6326  -999.2500
  215.5000     7.5446     0.0040     0.1409    99.2995     2.4448     8.5709     8.4736   -45.7625  -999.2500
  216.0000     7.5849     0.0070     0.1370    96.0006     2.4492     8.5755     8.4798   -46.1895  -999.2500
  216.5000     7.5708     0.0116     0.1367    94.9540     2.4507     8.5200     8.5447   -46.1661  -999.2500
  217.0000     7.5717     0.0178     0.1391    96.4599     2.4537     8.4671     8.4907   -46.1474  -999.2500
  217.5000     7.5275     0.0280     0.1406    99.6175     2.4537     8.4135     8.4985   -46.1287  -999.2500
  218.0000     7.4539     0.0445     0.1469   100.5217     2.4522     8.4180     8.4461   -46.1100  -999.2500
  218.5000     7.3651     0.0565     0.1508    99.4762     2.4469     8.3647     8.2795   -46.0906  -999.2500
  219.0000     7.1268     0.0700     0.1505    98.7299     2.4424     8.1979     8.0602   -46.2165  -999.2500
  219.5000     6.8885     0.0775     0.1487    97.9836     2.4387     7.9804     7.7407   -46.6482  -999.2500
  220.0000     6.7230     0.0775     0.1445    97.2372     2.4387     7.7677     7.7463   -46.4763  -999.2500
  220.5000     6.5486     0.0730     0.1378    96.9314     2.4439     7.7718     7.7520   -46.6108  -999.2500
  221.0000     6.3532     0.0564     0.1306    96.4755     2.4589     7.7759     7.8114   -46.5874  -999.2500
  221.5000     6.3389     0.0159     0.1550    96.2006     2.4701     7.7801     7.8171   -46.5687  -999.2500
  222.0000     6.3251     0.0038     0.1691    96.9558     2.4654     7.7843     7.8770   -46.4012  -999.2500
  222.5000     6.3409     0.0070     0.1736   102.2154     2.4273     7.7885     7.8911   -46.5313  -999.2500
  223.0000     6.3867     0.0098     0.1754   104.7724     2.4071     7.7936     7.9995   -46.5079  -999.2500
  223.5000     6.3875     0.0098     0.1766   104.1763     2.4011     7.7977     8.0607   -46.6378  -999.2500
  224.0000     6.4034     0.0098     0.1778   100.8774     2.3966     7.8019     8.0667   -46.7724  -999.2500
  224.5000     6.4491     0.0098     0.1793    99.0789     2.3906     7.8600     8.0171   -46.4518  -999.2500
  225.0000     6.4799     0.0083     0.1814    99.9854     2.3876     7.9733     7.9676   -46.4331  -999.2500
  225.5000     6.5106     0.0067     0.1817    99.0889     2.3884     7.9775     7.9737   -46.4144  -999.2500
  226.0000     6.6012     0.0037     0.1811    97.8921     2.3876     7.9819     7.9797   -46.5443  -999.2500
  226.5000     6.6787     0.0007     0.1732    97.7462     2.3869     7.9871     7.9869   -46.9666  -999.2500
  227.0000     6.7845     0.0007     0.1644    98.2013     2.3966     7.9914     7.9927   -47.3984  -999.2500
  227.5000     6.8881     0.0007     0.1580   100.0075     2.4063     7.9956     8.0539   -47.2264  -999.2500
  228.0000     6.9936    -0.0023     0.1553   101.2132     2.4206     7.9439     8.0599   -46.7666  -999.2500
  228.5000     7.0841    -0.0024     0.1535   100.8974     2.4355     7.9492     8.1216   -46.8965  -999.2500
  229.0000     7.1747    -0.0024     0.1502   100.4724     2.4332     7.9535     8.1275   -46.4273  -999.2500
  229.5000     7.3101    -0.0024     0.1467   101.8281     2.4333     8.0128     8.1336   -46.2600  -999.2500
  230.0000     7.3857    -0.0024     0.1365   103.9347     2.4437     8.0180     8.1409   -46.6871  -999.2500
  230.5000     7.4464     0.0036     0.1347   104.3895     2.4422     8.0223     8.2033   -46.8170  -999.2500
  231.0000     7.4921     0.0081     0.1338   104.3940     2.4587     8.0821     8.2093   -46.7936  -999.2500
  231.5000     7.5678     0.0096     0.1332   103.7978     2.4602     8.0864     8.1028   -46.6263  -999.2500
  232.0000     7.5836     0.0095     0.1332   101.5500     2.4624     8.0907     8.1088   -46.1618  -999.2500
  232.5000     7.5845     0.0140     0.1344    99.3022     2.4624     8.1510     8.1147   -46.2917  -999.2500
  233.0000     7.5704     0.0185     0.1372    97.9553     2.4624     8.2128     8.0649   -46.4216  -999.2500
  233.5000     7.5244     0.0305     0.1395   100.3621     2.4609     8.2730     8.0153   -46.4029  -999.2500
  234.0000     7.4378     0.0410     0.1338   103.9701     2.4579     8.3356     8.0227   -46.6813  -999.2500
  234.5000     7.3341     0.0456     0.1332   105.2157     2.4594     8.3977     7.9720   -46.2122  -999.2500
  235.0000     7.0659     0.0455     0.1338   103.0781     2.4617     8.4022     7.9230   -46.1935  -999.2500
  235.5000     6.9323     0.0425     0.1350   102.7822     2.4662     8.4066     7.9303   -46.3280  -999.2500
  236.0000     6.7687     0.0380     0.1356   104.4785     2.4684     8.4111     7.8813   -46.3047  -999.2500
  236.5000     6.5304     0.0334     0.1368   105.4938     2.4631     8.4156     7.8331   -46.2859  -999.2500
  237.0000     6.4267     0.0244     0.1378   104.2981     2.4601     8.4784     7.8933   -46.5644  -999.2500
  237.5000     6.3678     0.0154     0.1395   103.7008     2.4594     8.5426     7.9004   -46.8549  -999.2500
  238.0000     6.3537     0.0049     0.1539   103.8565     2.4564     8.6062     7.8518   -46.9728  -999.2500
  238.5000     6.3695    -0.0012     0.1659   104.1612     2.4391     8.6108     7.8576   -47.1026  -999.2500
  239.0000     6.4153    -0.0027     0.1716   103.5651     2.4166     8.4964     7.8079   -47.0793  -999.2500
  239.5000     6.4776     0.0018     0.1821   102.3683     2.4047     8.1578     7.8151   -47.2138  -999.2500
  240.0000     6.5745     0.0048     0.1887   101.3217     2.3904     7.8858     7.8749   -46.5874  -999.2500
  240.5000     6.6722     0.0047     0.1896   103.2781     2.3814     7.7286     7.8808   -46.4257  -999.2500
  241.0000     6.7329     0.0003     0.1863   104.7840     2.3777     7.7338     7.9425   -46.5602  -999.2500
  241.5000     6.7936    -0.0028     0.1824   104.4881     2.3754     7.6320     7.8937   -46.8387  -999.2500
  242.0000     6.8692    -0.0073     0.1791   103.7418     2.3816     7.5306     7.7378   -47.2611  -999.2500
  242.5000     6.9299    -0.0088     0.1742   102.6952     2.3874     7.4315     7.6903   -47.5442  -999.2500
  243.0000     7.0204    -0.0058     0.1686   102.3993     2.3904     7.3844     7.5384   -47.0751  -999.2500
  243.5000     7.1110    -0.0058     0.1629   102.5741     2.4106     7.2882     7.4404   -46.9078  -999.2500
  244.0000     7.1717    -0.0058     0.1587   104.2111     2.4248     7.2408     7.4461   -46.8886  -999.2500
  244.5000     7.2323    -0.0058     0.1548   106.4678     2.4248     7.1468     7.3495   -47.1675  -999.2500
  245.0000     7.2631    -0.0044     0.1518   106.7725     2.4255     7.1015     7.2056   -47.0002  -999.2500
  245.5000     7.3088    -0.0029     0.1470   106.7769     2.4293     7.1062     7.1109   -47.4273  -999.2500
  246.0000     7.3404    -0.0044     0.1441   106.6312     2.4368     6.9646     6.9238   -47.8497  -999.2500
  246.5000     7.3873    -0.0043     0.1405   106.0350     2.4413     6.7789     6.8328   -47.8310  -999.2500
  247.0000     7.4313    -0.0029     0.1381   105.4389     2.4457     6.5982     6.6990   -47.9614  -999.2500
  247.5000     7.4620    -0.0059     0.1402   104.9929     2.4502     6.5563     6.6579   -48.0931  -999.2500
  248.0000     7.4928    -0.0074     0.1507   105.1474     2.4510     6.5148     6.6629   -48.3692  -999.2500
  248.5000     7.5684    -0.0045     0.1568   105.3020     2.4423     6.5192     6.6219   -48.4991  -999.2500
  249.0000     7.5843    -0.0030     0.1595   105.0062     2.4305     6.5226     6.6738   -48.4757  -999.2500
  249.5000     7.5700     0.0000     0.1630   104.4100     2.4262     6.5712     6.7249   -48.1598  -999.2500
  250.0000     7.4216     0.0030     0.1591   101.2617     2.4232     6.7125     6.6827   -48.4427  -999.2500
  250.5000     7.2873     0.0255     0.1519   100.6655     2.4165     6.9051     6.8757   -47.9754  -999.2500
