~VERSION INFORMATION
 VERS.                2.0:   CWLS LOG ASCII STANDARD - VERSION 2.0
 WRAP.                 NO:   ONE LINE PER DEPTH STEP
~WELL INFORMATION
#MNEM.UNIT      DATA TYPE    INFORMATION
#----------   ------------   ------------------------------
 STRT.F            0.0000:   START DEPTH
 STOP.F          743.0000:   STOP DEPTH
 STEP.F            0.5000:   STEP LENGTH
 NULL.          -999.2500:   NO VALUE
 COMP. LAWRENCE/ALLISON INC:   COMPANY
 WELL.   NPR 3 #33-16SX11:   WELL
 FLD .                NPR:   FIELD
 LOC .      S11 T38N R78W:   LOCATION
 CNTY.            NATRONA:   COUNTY
 STAT.            WYOMING:   STATE
 CTRY. UNITED STATES OF AMERICA:   COUNTRY
 SRVC.           Gearhart:   SERVICE COMPANY
 DATE.        05-JUN-1986:   LOGDATE
 API .       490251107500:   API NUMBER
~CURVE INFORMATION
#MNEM.UNIT       API CODE    CURVE DESCRIPTION
#----------   ------------   ------------------------------
 DEPT.F                  :   
 GRR .GAPI   07 310 01 00:   GAMMA RAY
 RILD.OHMM   07 120 46 00:   INDUCTION LOG DEEP RESISTIVITY
 RILM.OHMM   07 120 44 00:   INDUCTION LOG MEDIUM RESISTIVITY
 RLL .OHMM   07 220 00 00:   LATEROLOG RESISTIVITY
 SPR .MV     07 010 01 00:   SPONTANEOUS POTENTIAL
~PARAMETER INFORMATION
#MNEM.UNIT          VALUE    DESCRIPTION
#----------   ------------   ------------------------------
 PD  .                 GL:   PERMANENT DATUM
 EPD .F              5175:   ELEVATION PERMANENT DATUM
 LMF .                 KB:   LOG MEASURED FROM
 DMF .                 KB:   DRILLING MEASURED FROM
 EKB .F              5175:   KELLING BUSHING
 EGL .F              5175:   GROUND LEVEL
 DATE.        05-JUN-1986:   RUN DATE
 RUN .                  1:   RUN NUMBER
 DD  .F               736:   DEPTH DRILLER
 DL  .F               744:   DEPTH LOGGER
 BLI .F               743:   BOTTOM LOG INTERVAL
 TLI .F                42:   TOP LOG INTERVAL
 CS  .IN            8.625:   CASING SIZE
 CBD .F                42:   CASING BOTTOM DRILLER
 CBL .F                42:   CASING BOTTOM LOGGER
 BS  .IN            7.875:   BIT SIZE
 BSD .F               736:   BIT SIZE AT DEPTH
 DFT .           KCL- GEL:   DRILLING FLUID TYPE
 DFD .                9.2:   DRILLING FLUID DENSITY
 DFV .                 42:   DRILLING FLUID VISCOSITY
 DFPH.                 11:   DRILLING FLUID PH
 MSS .           FLOWLINE:   MUD SAMPLE SOURCE
 RMS .OHMM            .51:   RESISTIVITY MUD SAMPLE
 MST .F                81:   MUD SAMPLE TEMPERATURE
 RMF .OHMM            .48:   RESISTIVITY MUD FILTRATE SAMPLE
 MFST.F                65:   MUD FILTRATE SAMPLE TEMPERATURE
 RMC .OHMM            .81:   RESISTIVITY MUD CAKE
 MCST.F                66:   MUD CAKE SAMPLE TEMPERATURE
 MFSS.               MEAS:   MUD FILTRATE SAMPLE SOURCE
 MCSS.               MEAS:   MUD CAKE SAMPLE SOURCE
 RMB .OHMM            .47:   RESISTIVITY MUD AT BHT
 BHT .F                90:   BOTTOM HOLE TEMPERATURE
 TCS .HRS            1930:   TIME CURCULATED STOPPED
 TLAB.HRS            2114:   TIME LOGGER AT BOTTOM
 LUN .               7609:   LOGGING UNIT NUMBER
 LUL .           GILLETTE:   LOGGING UNIT LOCATION
 ENGI. WEATHERMON/ JOHNSTON:   RECORDING ENGINEER
 WITN.           LENNINGS:   WITNESSED BY
 CLNT.            A2DTECH:   CLIENT CODE
 ORIG.           5" PRINT:   ORIGIN OF DATA
 UWI .       490251107500:   UNIQUE WELL ID
 DICO. A2D Technologies, Inc.:   DIGITIZING COMPANY
~OTHER INFORMATION
~A    DEPT     GRR       RILD       RILM        RLL        SPR   
# ...
  122.0000    82.7190    12.0726    12.1327    14.4145   -32.0850
  122.5000    86.0545    12.2466    12.3797    13.8264   -30.7207
  123.0000    86.4219    12.3365    12.4698    13.4492   -33.3022
  123.5000    80.8467    12.5143    12.5606    13.1743   -34.8212
  124.0000    78.1542    12.6062    12.7407    12.9955   -34.9740
  124.5000    76.6338    12.7878    12.8334    13.2769   -34.2167
  125.0000    74.8100    12.8818    12.9268    13.5632   -34.8256
  125.5000    72.9861    12.9766    13.0211    13.8556   -34.8270
  126.0000    71.7692    13.0729    13.1166    14.0557   -34.5250
  126.5000    73.2837    13.1689    13.3047    14.0605   -35.1338
  127.0000    76.9894    13.3587    13.4954    14.0652   -35.5905
  127.5000    80.8644    13.5511    13.6889    14.2717   -34.5298
  128.0000    82.0761    13.6507    13.8852    14.6796   -32.7103
  128.5000    81.1620    13.8473    14.0842    14.7864   -32.0800
  129.0000    79.9451    14.1453    14.2983    14.5858   -32.8650
  129.5000    77.8177    14.4508    14.6958    14.7977   -33.3217
  130.0000    75.6904    14.6590    14.9065    15.1168   -32.5648
  130.5000    73.4932    14.9744    15.1202    15.5512   -31.5040
  131.0000    71.4349    15.1901    15.3370    16.2267   -31.0499
  131.5000    72.3425    15.4089    15.5569    16.7081   -32.2657
  132.0000    74.1605    15.7404    15.6701    17.0512   -32.2913
  132.5000    75.9785    15.8561    15.8949    17.4189   -32.7238
  133.0000    77.4930    15.9877    16.0116    16.8256   -33.6551
  133.5000    78.4006    16.2041    16.1281    16.3666   -34.0928
  134.0000    79.0288    16.3231    16.3593    16.4871   -33.4873
  134.5000    79.3052    16.3286    16.4784    16.8426   -33.4888
  135.0000    78.6945    16.3342    16.5984    17.6208   -32.7315
  135.5000    75.6567    16.3397    16.6028    18.7212   -32.8847
  136.0000    72.3154    16.3452    16.6074    19.1249   -33.7967
  136.5000    69.5810    16.3508    16.4962    19.2657   -34.7284
  137.0000    67.1502    16.0185    16.3859    18.4797   -35.4692
  137.5000    65.3263    15.8017    16.1630    16.9968   -35.9259
  138.0000    66.2331    15.4794    15.7231    15.8533   -35.6238
  138.5000    69.2651    15.0581    15.2941    14.8789   -34.7145
  139.0000    73.5110    14.6483    14.7733    14.4856   -34.7163
  139.5000    78.3639    14.2496    14.1651    14.4905   -34.1108
  140.0000    80.7889    13.8618    13.5941    14.8029   -33.8088
  140.5000    78.3581    13.5665    13.2232    15.0167   -34.1141
  141.0000    74.9641    13.3020    13.2268    14.9170   -33.6599
  141.5000    71.9782    13.2139    13.2304    14.0111   -35.0275
  142.0000    70.7613    13.2195    13.3267    13.8210   -35.9394
  142.5000    70.1521    13.0405    13.3303    14.3193   -35.6374
  143.0000    73.7903    12.5974    13.3339    14.4247   -34.7284
  143.5000    77.7328    11.9170    12.5259    14.6330   -35.9439
  144.0000    80.4613    11.1067    11.6842    14.8443   -35.6421
  144.5000    80.1001    10.2994    10.7480    14.6429   -34.7328
  145.0000    78.0268     9.2137     9.6144    13.0961   -36.1003
  145.5000    80.7552     8.3003     8.7213    11.0526   -37.1640
  146.0000    88.0361     7.9070     8.0225     9.7682   -38.2277
  146.5000    93.7994     7.6383     7.4814     9.1110   -38.5326
  147.0000    97.1349     7.3274     7.0709     8.8006   -38.6858
  147.5000    98.6646     6.9802     6.7906     8.8654   -37.9286
  148.0000    95.2231     6.7368     6.6053     9.1202   -38.3856
  148.5000    91.9661     6.4690     6.4701     9.1874   -38.9941
  149.0000    90.4457     6.3809     6.4264     9.2551   -38.9956
  149.5000    89.2288     6.2945     6.4286     9.3895   -38.9970
  150.0000    88.1635     6.2528     6.3856     9.4578   -38.6950
  150.5000    87.0948     6.3420     6.3423     9.0713   -39.0019
  151.0000    91.3378     6.3431     6.3439     8.5192   -39.1566
  151.5000    93.4564     6.3439     6.3452     8.0008   -39.3112
  152.0000    94.6645     6.3448     6.3465     7.7272   -39.4659
  152.5000    95.8877     6.3901     6.3478     8.1806   -39.4537
  153.0000    97.6862     6.4357     6.4386     8.4671   -39.3200
  153.5000    99.5013     6.4368     6.4399     9.0194   -39.0202
  154.0000    97.6745     6.4826     6.4864     9.2126   -39.0231
  154.5000    94.3303     6.4837     6.4877     9.0230   -39.1777
  155.0000    92.2000     6.4394     6.5344     8.8994   -39.4842
  155.5000    90.9801     6.4403     6.4903     9.0901   -39.7906
  156.0000    90.3672     6.3961     6.4919     8.7797   -39.6418
  156.5000    89.4495     6.3527     6.4477     8.4203   -39.0384
  157.0000    88.8367     6.3535     6.4493     8.1891   -38.5861
  157.5000    87.9203     6.3102     6.3609     7.9095   -38.1338
  158.0000    88.5215     6.2671     6.3182     7.9022   -38.2885
  158.5000    90.0330     6.2682     6.2755     8.0242   -38.4431
  159.0000    91.5448     6.2252     6.2331     8.3207   -38.9155
  159.5000    93.3768     6.1829     6.2346     8.6703   -39.5119
  160.0000    93.9608     6.1837     6.2796     8.9183   -39.8176
  160.5000    92.4361     6.1846     6.2809     8.6738   -38.4556
  161.0000    91.2162     6.1921     6.3261     8.3188   -37.0928
  161.5000    90.6034     6.3174     6.3718     8.3205   -35.4265
  162.0000    91.2060     6.4071     6.4630     8.3807   -34.3652
  162.5000    92.7161     6.5436     6.5096     8.3828   -34.2184
  163.0000    93.9424     6.5904     6.6025     8.3256   -35.2843
  163.5000    93.3099     6.6840     6.6501     8.3277   -35.5907
  164.0000    92.0901     6.7789     6.7922     8.1563   -34.8349
  164.5000    94.2087     6.8348     6.8891     8.0445   -34.6853
  165.0000    99.0586     6.9245     6.9940     8.3347   -35.1442
  165.5000   102.6947     7.0228     7.0875     8.7533   -35.4507
  166.0000   100.8679     7.1226     7.1386     9.1947   -35.6060
  166.5000    97.7693     7.2743     7.1901     9.7261   -35.6089
  167.0000    95.0884     7.3776     7.2419    10.0043   -35.4594
  167.5000    95.0825     7.4312     7.3452    10.0766   -35.4630
  168.0000    96.8976     7.4834     7.4501    10.4376   -35.4660
  168.5000    97.5002     7.5371     7.5041    10.3575   -35.7734
  169.0000    93.5475     7.4854     7.5056    10.1535   -36.5828
  169.5000    89.5962     7.4343     7.4549    10.0847   -38.3586
  170.0000    88.0728     7.3836     7.4564     9.8777   -37.6028
  170.5000    88.6726     7.3334     7.3545     9.5399   -36.3918
  171.0000    88.9717     7.2327     7.3048     9.4753   -35.4835
  171.5000    87.4469     7.1334     7.2053     9.6976   -35.9424
  172.0000    85.9236     7.0356     7.1562     9.5462   -36.7162
  172.5000    85.0073     6.9390     7.0584     9.2845   -37.0112
  173.0000    88.6433     6.8916     6.9623     8.9671   -36.7106
  173.5000    94.4887     6.8444     6.9152     8.5401   -36.2583
  174.0000   101.0732     6.8455     6.9166     8.0204   -36.4130
  174.5000   102.2828     6.8464     6.9183     7.8553   -36.8711
  175.0000    96.9271     6.8474     6.9682     8.0331   -37.4810
  175.5000    92.5579     6.8965     6.9696     8.4878   -37.7875
  176.0000    89.5171     6.8974     6.9710     8.8536   -37.6386
  176.5000    87.9938     6.9467     7.0213     9.2352   -38.5527
  177.0000    88.0101     6.9476     7.0227     9.4993   -39.1627
  177.5000    89.1961     6.9973     7.0242     9.6351   -39.0138
  178.0000    88.5818     6.9982     7.0751     9.2988   -38.8528
  178.5000    87.0584     6.9992     7.0765     9.0506   -39.1714
  179.0000    86.4456     7.0494     7.0780     9.1805   -39.3268
  179.5000    86.4398     7.0503     7.0794     9.2468   -39.4815
  180.0000    90.0758     7.1007     7.1304     9.1202   -39.1809
  180.5000    92.5442     7.1514     7.1319     9.1220   -38.8803
  181.0000    91.5800     7.2530     7.2340     9.1238   -38.8833
  181.5000    89.4497     7.3575     7.2862     8.7509   -38.8862
  182.0000    87.6229     7.5130     7.3387     8.5703   -38.5411
  182.5000    86.7066     7.5666     7.4434     8.6327   -37.3753
