~VERSION INFORMATION
 VERS.                2.0:   CWLS LOG ASCII STANDARD - VERSION 2.0
 WRAP.                 NO:   ONE LINE PER DEPTH STEP
~WELL INFORMATION
#MNEM.UNIT      DATA TYPE    INFORMATION
#----------   ------------   ------------------------------
 STRT.F           86.5000:   START DEPTH
 STOP.F         1282.0000:   STOP DEPTH
 STEP.F            0.5000:   STEP LENGTH
 NULL.          -999.2500:   NO VALUE
 COMP.      UNITED STATES:   COMPANY
 WELL.             NPR #3:   WELL
 FLD .        TEAPOT DOME:   FIELD
 LOC .      S14 T38N R78W:   LOCATION
 CNTY.            NATRONA:   COUNTY
 STAT.            WYOMING:   STATE
 CTRY. UNITED STATES OF AMERICA:   COUNTRY
 SRVC.       Schlumberger:   SERVICE COMPANY
 DATE.        06-JUL-1962:   LOGDATE
 API .       490250631800:   API NUMBER
~CURVE INFORMATION
#MNEM.UNIT       API CODE    CURVE DESCRIPTION
#----------   ------------   ------------------------------
 DEPT.F                  :   
 SPR .MV     05 010 01 00:   SPONTANEOUS POTENTIAL FROM RES.
 CILD.MMHO   05 110 00 00:   CONDUCTIVITY INDUCTION LOG
 ASN .OHMM   05 041 16 00:   AMPLIFIED SHORT NORMAL 16"
 ILD .OHMM   05 120 46 00:   INDUCTION LOG DEEP
 GR  .GAPI   30 310 01 00:   GAMMA RAY
~PARAMETER INFORMATION
#MNEM.UNIT          VALUE    DESCRIPTION
#----------   ------------   ------------------------------
 PD  .                 GL:   PERMANENT DATUM
 EPD .F              5288:   ELEVATION PERMANENT DATUM
 LMF .                 KB:   LOG MEASURED FROM
 DAPD.F                 5:   FEET ABOVE PERMANENT DATUM
 DMF .                 KB:   DRILLING MEASURED FROM
 EKB .F              5293:   KELLING BUSHING
 EGL .F              5288:   GROUND LEVEL
 DATE.             7-6-62:   RUN DATE
 RUN .                  1:   RUN NUMBER
 DD  .F              1286:   DEPTH DRILLER
 DL  .F              1283:   DEPTH LOGGER
 BLI .F              1282:   BOTTOM LOG INTERVAL
 TLI .F                87:   TOP LOG INTERVAL
 CBD .F                10:   CASING BOTTOM DRILLER
 BS  .IN             6.75:   BIT SIZE
 BSD .F              1286:   BIT SIZE AT DEPTH
 DFT .            GEL-OIL:   DRILLING FLUID TYPE
 DFD .               10.3:   DRILLING FLUID DENSITY
 DFV .                 53:   DRILLING FLUID VISCOSITY
 DFL .                3.6:   DRILLING FLUID LOSS
 MSS .           FLOWLINE:   MUD SAMPLE SOURCE
 RMS .OHMM           5.66:   RESISTIVITY MUD SAMPLE
 MST .F                78:   MUD SAMPLE TEMPERATURE
 RMF .OHMM           5.59:   RESISTIVITY MUD FILTRATE SAMPLE
 MFST.F                78:   MUD FILTRATE SAMPLE TEMPERATURE
 RMC .OHMM           4.47:   RESISTIVITY MUD CAKE
 MCST.F                78:   MUD CAKE SAMPLE TEMPERATURE
 MFSS.                  M:   MUD FILTRATE SAMPLE SOURCE
 MCSS.                  M:   MUD CAKE SAMPLE SOURCE
 RMB .OHMM           5.08:   RESISTIVITY MUD AT BHT
 BHT .F                88:   BOTTOM HOLE TEMPERATURE
 TCS .HRS               1:   TIME CURCULATED STOPPED
 MRT .F                88:   MAXIMUM RECORDED TEMPERATURE
 LUN .               2503:   LOGGING UNIT NUMBER
 LUL .               CSPR:   LOGGING UNIT LOCATION
 ENGI.             KNOBEL:   RECORDING ENGINEER
 WITN.          JORGENSEN:   WITNESSED BY
 CLNT.            A2DTECH:   CLIENT CODE
 ORIG.       2", 5" PRINT:   ORIGIN OF DATA
 UWI .       490250631800:   UNIQUE WELL ID
 DICO. A2D Technologies, Inc.:   DIGITIZING COMPANY
~OTHER INFORMATION
~A   DEPT      SPR       CILD        ASN        ILD         GR   
# ...
  574.5000   -36.3546   177.8575     6.1117     5.7535  -999.2500
  575.0000   -36.3548   179.6613     5.8775     5.6841  -999.2500
  575.5000   -36.3546   181.4652     5.7358     5.6147  -999.2500
  576.0000   -36.3539   183.2690     5.8343     5.5452  -999.2500
  576.5000   -36.2837   185.0729     5.8136     5.4756  -999.2500
  577.0000   -36.1051   186.8767     5.7151     5.4067  -999.2500
  577.5000   -35.9280   188.6986     5.6147     5.3484  -999.2500
  578.0000   -35.7505   188.6986     5.6058     5.3509  -999.2500
  578.5000   -35.5730   188.6986     5.6659     5.3317  -999.2500
  579.0000   -35.3955   187.9409     5.7258     5.3080  -999.2500
  579.5000   -35.2179   187.1724     5.7750     5.2838  -999.2500
  580.0000   -35.0411   187.5074     5.7621     5.2597  -999.2500
  580.5000   -34.8654   192.0031     5.7435     5.1797  -999.2500
  581.0000   -34.7617   196.4988     5.6768     5.0614  -999.2500
  581.5000   -34.7615   200.9946     5.6137     4.9423  -999.2500
  582.0000   -34.7607   205.4903     5.4332     4.8228  -999.2500
  582.5000   -34.7585   209.9860     5.2267     4.7033  -999.2500
  583.0000   -34.8302   214.4818     5.0647     4.5838  -999.2500
  583.5000   -34.9119   219.0082     4.9893     4.4642  -999.2500
  584.0000   -34.9593   223.1792     4.9128     4.3448  -999.2500
  584.5000   -34.9056   225.6621     4.8743     4.2259  -999.2500
  585.0000   -34.7805   226.7448     4.8742     4.1478  -999.2500
  585.5000   -34.6566   226.7455     4.8739     4.1491  -999.2500
  586.0000   -34.5589   226.7505     4.8742     4.1488  -999.2500
  586.5000   -34.5617   225.4120     4.8743     4.1497  -999.2500
  587.0000   -34.5588   223.6375     4.8965     4.1870  -999.2500
  587.5000   -34.7315   221.8638     4.9361     4.2271  -999.2500
  588.0000   -34.9910   220.0946     4.9543     4.2672  -999.2500
  588.5000   -35.2494   218.3254     4.9686     4.3075  -999.2500
  589.0000   -35.5064   216.5563     5.0181     4.3478  -999.2500
  589.5000   -35.7993   214.7871     5.0652     4.3490  -999.2500
  590.0000   -36.1128   213.0180     5.1125     4.3509  -999.2500
  590.5000   -36.1554   211.2488     5.1341     4.4533  -999.2500
  591.0000   -35.9660   209.5206     5.1344     4.5647  -999.2500
  591.5000   -35.7812   208.0513     5.1346     4.6750  -999.2500
  592.0000   -35.7567   206.5822     5.1491     4.7507  -999.2500
  592.5000   -35.7566   205.1130     5.1761     4.6791  -999.2500
  593.0000   -35.7569   204.7155     5.1953     4.6503  -999.2500
  593.5000   -35.7571   204.4948     5.1745     4.6813  -999.2500
  594.0000   -35.7569   202.7464     5.1471     4.7159  -999.2500
  594.5000   -35.7567   200.9981     5.1357     4.7505  -999.2500
  595.0000   -35.7214   199.2497     5.2144     4.7851  -999.2500
  595.5000   -35.6475   197.7081     5.2692     4.8195  -999.2500
  596.0000   -35.5738   199.4274     5.2159     4.8475  -999.2500
  596.5000   -35.4998   200.7113     5.1632     4.8294  -999.2500
  597.0000   -35.4258   199.5234     5.1100     4.8108  -999.2500
  597.5000   -35.3519   197.7081     5.0573     4.7925  -999.2500
  598.0000   -35.2780   198.7978     5.0536     4.7735  -999.2500
  598.5000   -35.2040   201.0296     5.0490     4.7541  -999.2500
  599.0000   -35.1302   205.0530     5.0292     4.6413  -999.2500
  599.5000   -35.0562   217.8979     5.0068     4.4078  -999.2500
  600.0000   -34.9800   235.7650     4.9192     4.0165  -999.2500
  600.5000   -34.9609   265.7647     4.6235     3.6218  -999.2500
  601.0000   -34.9619   300.0468     4.3207     3.2278  -999.2500
  601.5000   -34.9567   334.3310     3.9870     2.8344  -999.2500
  602.0000   -34.5966   367.3467     3.5557     2.4409  -999.2500
  602.5000   -34.1960   389.5749     3.1109     2.1494  -999.2500
  603.0000   -33.7951   408.9838     3.1699     1.9538  -999.2500
  603.5000   -33.3911   418.9410     3.2288     1.7534  -999.2500
  604.0000   -32.9796   412.4842     3.1492     1.7473  -999.2500
  604.5000   -33.0926   397.4304     3.1449     1.8301  -999.2500
  605.0000   -33.2685   371.4350     3.4094     2.1171  -999.2500
  605.5000   -33.4441   341.5439     3.6130     2.4090  -999.2500
  606.0000   -33.6169   311.6529     3.7034     2.7588  -999.2500
  606.5000   -33.7693   281.7618     3.9518     3.1602  -999.2500
  607.0000   -33.7666   251.8707     4.1922     3.5788  -999.2500
  607.5000   -33.7844   226.7887     4.4328     4.0120  -999.2500
  608.0000   -33.5698   211.7429     4.6398     4.4467  -999.2500
  608.5000   -33.7476   202.2857     4.7876     4.7081  -999.2500
  609.0000   -33.9307   197.7263     4.9326     4.8203  -999.2500
  609.5000   -34.1169   192.0904     5.0790     4.9319  -999.2500
  610.0000   -34.3032   184.3395     5.2247     5.0429  -999.2500
  610.5000   -34.4893   177.1617     5.3901     5.1594  -999.2500
  611.0000   -34.6756   173.4548     5.4591     5.3324  -999.2500
  611.5000   -34.8615   169.7478     5.5254     5.4327  -999.2500
  612.0000   -35.0467   166.0409     5.6339     5.5729  -999.2500
  612.5000   -35.1614   162.3339     5.7744     5.7149  -999.2500
  613.0000   -35.0859   160.6691     5.9150     5.8578  -999.2500
  613.5000   -34.9654   160.6691     6.0103     5.9528  -999.2500
  614.0000   -34.8442   161.9678     6.0981     5.9512  -999.2500
  614.5000   -34.7228   164.3083     6.0632     5.9504  -999.2500
  615.0000   -34.6014   166.6487     5.9682     5.8870  -999.2500
  615.5000   -34.4797   170.4895     5.8745     5.7010  -999.2500
  616.0000   -34.3649   175.5047     5.7618     5.5172  -999.2500
  616.5000   -34.3624   181.8421     5.6129     5.3335  -999.2500
  617.0000   -34.3250   189.1978     5.4646     5.1495  -999.2500
  617.5000   -34.2667   196.5536     5.3164     4.9647  -999.2500
  618.0000   -34.2075   207.8221     5.1698     4.7048  -999.2500
  618.5000   -34.1339   222.0320     4.9958     4.3067  -999.2500
  619.0000   -34.0075   237.3676     4.8172     3.9107  -999.2500
  619.5000   -33.8825   257.9860     4.6342     3.5126  -999.2500
  620.0000   -33.7573   275.5400     4.4047     3.2513  -999.2500
  620.5000   -33.6319   285.8008     4.1698     3.1291  -999.2500
  621.0000   -33.5074   285.8008     3.9366     3.0851  -999.2500
  621.5000   -33.3842   287.2674     3.9404     3.0464  -999.2500
  622.0000   -33.5669   289.8568     3.9689     3.0474  -999.2500
  622.5000   -33.9871   288.6871     3.7677     3.0478  -999.2500
  623.0000   -34.4071   282.2720     3.9404     3.0494  -999.2500
  623.5000   -34.8535   263.5204     4.2467     3.2030  -999.2500
  624.0000   -34.4359   241.5688     4.5432     3.6073  -999.2500
  624.5000   -33.7731   223.7655     4.5954     4.0034  -999.2500
  625.0000   -33.7627   211.8341     4.6441     4.3962  -999.2500
  625.5000   -33.7643   204.5898     4.6939     4.5481  -999.2500
  626.0000   -33.7639   201.7123     4.7353     4.5497  -999.2500
  626.5000   -33.7667   203.3908     4.7341     4.5500  -999.2500
  627.0000   -33.9356   205.0625     4.7333     4.5496  -999.2500
  627.5000   -34.1223   206.7176     4.7112     4.5497  -999.2500
  628.0000   -34.3139   206.7176     4.6883     4.5492  -999.2500
  628.5000   -34.2098   207.9017     4.6653     4.5501  -999.2500
  629.0000   -33.9657   210.7218     4.6440     4.5630  -999.2500
  629.5000   -34.0525   220.9125     4.5095     4.1680  -999.2500
  630.0000   -34.1281   242.5059     4.3098     3.7056  -999.2500
  630.5000   -33.9949   280.8178     4.1091     3.2381  -999.2500
  631.0000   -33.8717   328.7947     3.8854     2.7710  -999.2500
  631.5000   -33.7615   377.7225     3.5835     2.3073  -999.2500
  632.0000   -33.7633   410.0566     3.2921     1.8994  -999.2500
  632.5000   -33.6217   426.9039     3.0463     1.7496  -999.2500
  633.0000   -33.2052   422.3446     3.0313     1.7457  -999.2500
  633.5000   -32.7902   417.9399     3.1097     1.7457  -999.2500
  634.0000   -32.3741   411.9336     3.1166     1.7437  -999.2500
  634.5000   -32.6287   397.2131     3.0412     1.7576  -999.2500
  635.0000   -32.7685   373.8936     3.1147     2.1056  -999.2500
