~VERSION INFORMATION
 VERS.                2.0:   CWLS LOG ASCII STANDARD - VERSION 2.0
 WRAP.                 NO:   ONE LINE PER DEPTH STEP
~WELL INFORMATION
#MNEM.UNIT      DATA TYPE    INFORMATION
#----------   ------------   ------------------------------
 STRT.F            0.0000:   START DEPTH
 STOP.F          675.0000:   STOP DEPTH
 STEP.F            0.5000:   STEP LENGTH
 NULL.          -999.2500:   NO VALUE
 COMP.       F D SERV INC:   COMPANY
 WELL. NAVEL PETROLEUM RESERVE 3 SX-2 #18-1-2:   WELL
 FLD .             TEAPOT:   FIELD
 LOC .       S2 T38N R78W:   LOCATION
 CNTY.            NATRONA:   COUNTY
 STAT.            WYOMING:   STATE
 CTRY. UNITED STATES OF AMERICA:   COUNTRY
 SRVC.     Atlas Wireline:   SERVICE COMPANY
 DATE.        23-DEC-1991:   LOGDATE
 API .       490252247200:   API NUMBER
~CURVE INFORMATION
#MNEM.UNIT       API CODE    CURVE DESCRIPTION
#----------   ------------   ------------------------------
 DEPT.F                  :   
 GRR .GAPI   07 310 01 00:   GAMMA RAY FROM RES. LOG.
 SPR .MV     07 010 01 00:   SPONTANEOUS POTENTIAL
 SFL .OHMM   07 220 01 00:   SHALLOW FOCUSED LOG RESISTIVITY
 ILD .OHMM   07 120 46 00:   INDUCTION LOG DEEP
 ILM .OHMM   07 120 44 00:   INDUCTION LOG MEDIUM
~PARAMETER INFORMATION
#MNEM.UNIT          VALUE    DESCRIPTION
#----------   ------------   ------------------------------
 PD  .                 GL:   PERMANENT DATUM
 EPD .F              5148:   ELEVATION PERMANENT DATUM
 LMF .                 KB:   LOG MEASURED FROM
 DAPD.F                10:   FEET ABOVE PERMANENT DATUM
 DMF .                 KB:   DRILLING MEASURED FROM
 EKB .F              5158:   KELLING BUSHING
 EGL .F              5148:   GROUND LEVEL
 DATE.        23-DEC-1991:   RUN DATE
 RUN .                  1:   RUN NUMBER
 DD  .F               630:   DEPTH DRILLER
 DL  .F               678:   DEPTH LOGGER
 BLI .F               675:   BOTTOM LOG INTERVAL
 CS  .IN            9.625:   CASING SIZE
 CBD .F                44:   CASING BOTTOM DRILLER
 CBL .F                48:   CASING BOTTOM LOGGER
 BS  .IN             8.75:   BIT SIZE
 BSD .F               680:   BIT SIZE AT DEPTH
 DFT .           CHEM GEL:   DRILLING FLUID TYPE
 DFD .                9.7:   DRILLING FLUID DENSITY
 DFV .                 79:   DRILLING FLUID VISCOSITY
 DFPH.                  9:   DRILLING FLUID PH
 DFL .                 10:   DRILLING FLUID LOSS
 MSS .           MUD TANK:   MUD SAMPLE SOURCE
 RMS .OHMM            .82:   RESISTIVITY MUD SAMPLE
 MST .F                54:   MUD SAMPLE TEMPERATURE
 RMF .OHMM           1.02:   RESISTIVITY MUD FILTRATE SAMPLE
 MFST.F                54:   MUD FILTRATE SAMPLE TEMPERATURE
 RMC .OHMM            .51:   RESISTIVITY MUD CAKE
 MCST.F                54:   MUD CAKE SAMPLE TEMPERATURE
 MFSS.               CALC:   MUD FILTRATE SAMPLE SOURCE
 MCSS.               CALC:   MUD CAKE SAMPLE SOURCE
 RMB .OHMM            .43:   RESISTIVITY MUD AT BHT
 BHT .F               102:   BOTTOM HOLE TEMPERATURE
 TCS .HRS               2:   TIME CURCULATED STOPPED
 MRT .F               102:   MAXIMUM RECORDED TEMPERATURE
 LUN .            HL-6307:   LOGGING UNIT NUMBER
 LUL .             CASPER:   LOGGING UNIT LOCATION
 ENGI.            WADDELL:   RECORDING ENGINEER
 WITN.              FJVAS:   WITNESSED BY
 CLNT.            A2DTECH:   CLIENT CODE
 ORIG.      2" & 5" PRINT:   ORIGIN OF DATA
 UWI .       490252247200:   UNIQUE WELL ID
 DICO. A2D Technologies, Inc.:   DIGITIZING COMPANY
~OTHER INFORMATION
~A    DEPT      GRR       SPR        SFL        ILD        ILM   
# ...
  549.0000    75.6020   -68.4979    22.9281    17.1979    20.6677
  549.5000    75.8135   -68.8641    23.3039    17.1702    20.3766
  550.0000    76.2785   -69.1890    23.0533    17.0457    20.0898
  550.5000    75.9257   -69.1678    22.6972    16.8718    19.8053
  551.0000    76.3565   -69.1426    22.3466    16.7013    19.6194
  551.5000    78.7690   -69.1187    21.8056    16.5326    19.4169
  552.0000    81.7727   -69.0950    21.0457    16.3657    19.2164
  552.5000    82.9565   -69.0714    21.1361    16.2003    19.0180
  553.0000    81.2562   -69.0480    21.2598    16.0367    18.8217
  553.5000    78.3933   -69.0240    21.4393    15.8747    18.6277
  554.0000    75.5656   -69.0018    21.1610    15.7144    18.4335
  554.5000    76.3914   -68.7932    20.6726    15.5020    18.2610
  555.0000    78.2934   -68.4381    20.1955    15.2522    17.9312
  555.5000    79.3396   -68.0837    19.7294    15.0064    17.6100
  556.0000    78.9065   -67.7232    19.3179    14.7647    17.2945
  556.5000    79.5490   -67.7884    19.0937    14.5277    16.9842
  557.0000    80.2589   -68.1486    18.8720    14.4887    16.6786
  557.5000    79.4331   -68.5256    18.6573    14.4405    16.3884
  558.0000    78.4736   -68.2503    18.1317    14.3924    16.5424
  558.5000    79.9006   -67.8342    17.6307    14.3444    16.6991
  559.0000    82.1407   -67.7276    17.1645    14.2967    16.8568
  559.5000    81.5225   -68.1208    17.8331    14.2491    17.0144
  560.0000    79.9785   -68.5077    18.4544    14.2016    17.1645
  560.5000    79.9712   -68.8957    19.0974    14.1543    16.7207
  561.0000    80.3123   -69.1985    19.3618    13.9745    16.3124
  561.5000    80.0446   -69.0518    18.4144    13.6520    15.9140
  562.0000    79.7188   -68.3532    17.0090    13.3369    15.5124
  562.5000    81.4811   -67.6847    15.9593    13.1199    15.1143
  563.0000    83.8874   -67.3058    15.5012    12.8344    14.7298
  563.5000    84.0094   -67.2235    15.4075    12.5801    14.3962
  564.0000    82.8307   -67.2160    15.3582    12.3308    14.2680
  564.5000    83.4891   -67.3071    15.3582    12.0702    14.0929
  565.0000    83.6596   -67.3995    15.3582    12.0243    13.9208
  565.5000    81.9815   -67.4923    15.3582    11.9621    13.7421
  566.0000    78.1417   -67.5741    15.3582    11.9002    13.7169
  566.5000    75.3986   -67.5542    15.3224    11.8386    13.6920
  567.0000    74.3062   -67.5333    15.1038    11.7774    13.6669
  567.5000    76.1535   -67.5129    14.8890    11.7163    13.6332
  568.0000    77.5159   -67.4926    14.7537    11.6557    13.6263
  568.5000    76.9759   -67.4723    14.6784    11.5414    13.3651
  569.0000    76.4744   -67.4520    14.6031    11.3916    13.2019
  569.5000    77.7160   -67.4317    14.5271    11.2435    13.0438
  570.0000    80.1973   -67.4116    14.2916    11.0973    12.8875
  570.5000    78.9412   -67.3912    14.0606    10.9533    12.7331
  571.0000    78.7744   -67.3518    13.8341    10.8242    12.5806
  571.5000    79.2360   -67.2009    13.6112    10.6498    12.4294
  572.0000    79.7061   -67.0500    13.4460    10.4782    12.2799
  572.5000    80.0574   -66.8993    13.3496    10.3092    12.1321
  573.0000    81.5248   -66.7485    13.2559    10.1426    11.9861
  573.5000    82.9971   -66.5946    13.0924    10.1217    11.8418
  574.0000    82.3010   -66.5654    12.9223    10.1217    11.7393
  574.5000    82.7116   -66.5658    12.7545    10.1217    11.8479
  575.0000    83.6447   -66.5615    12.5869    10.1217    11.9333
  575.5000    83.4970   -66.9140    12.4068    10.1217    12.0194
  576.0000    81.4249   -67.4815    13.0367    10.1217    12.1060
  576.5000    77.5726   -68.0497    13.9848    10.1217    12.1826
  577.0000    74.8294   -68.3498    14.5422    10.1217    11.7393
  577.5000    73.6793   -68.2509    14.2798    10.1217    11.7606
  578.0000    75.8712   -68.0738    13.4516    10.1217    11.7833
  578.5000    80.2031   -67.5885    12.5260    10.1217    11.8066
  579.0000    81.4313   -67.4876    12.6044    10.1217    11.8294
  579.5000    81.7857   -67.3914    12.7087    10.1217    11.8484
  580.0000    82.6759   -67.2382    12.8139    10.1217    11.7493
  580.5000    83.4491   -67.0795    12.8790    10.1217    11.6652
  581.0000    83.7498   -66.9205    12.7454    10.1217    11.5817
  581.5000    84.9511   -66.7619    12.6497    10.1218    11.4988
  582.0000    85.4745   -66.6029    12.5548    10.1220    11.4174
  582.5000    83.8039   -66.4414    12.4606    10.1236    11.4459
  583.0000    84.8951   -66.2093    12.3671    10.0514    11.4740
  583.5000    88.6121   -65.8929    12.2955     9.9664    11.5023
  584.0000    92.9215   -65.5723    12.2960     9.8821    11.5237
  584.5000    92.7184   -65.6040    12.2960     9.7986    11.2875
  585.0000    90.8304   -65.6625    12.2615     9.7157    11.1008
  585.5000    91.3280   -65.7198    12.1864     9.6336    11.0020
  586.0000    93.6464   -65.8137    12.1118     9.5521    11.0372
  586.5000    94.1649   -65.9891    12.0376     9.4714    11.0651
  587.0000    93.9738   -66.1634    11.9638     9.3986    11.0931
  587.5000    93.7977   -66.3377    11.8905     9.3986    11.1211
  588.0000    93.4448   -66.5120    11.8177     9.3986    11.1493
  588.5000    92.5352   -66.6862    11.7393     9.3986    11.1777
  589.0000    91.0528   -66.8589    11.9484     9.3986    11.2072
  589.5000    89.5983   -66.9712    12.2457     9.3986    11.1763
  590.0000    89.9977   -66.9695    12.5504     9.3986    11.1423
  590.5000    90.9755   -66.9698    12.8790     9.3986    11.1084
  591.0000    92.2551   -66.9698    12.5413     9.3987    11.0746
  591.5000    92.0596   -66.9698    12.1947     9.4001    11.0410
  592.0000    91.6130   -66.9690    11.8486     9.3681    11.0074
  592.5000    91.1818   -66.9268    11.8115     9.2859    10.9740
  593.0000    90.2098   -66.8189    11.7735     9.2044    10.9407
  593.5000    88.9468   -66.7124    11.7357     9.1237    10.9073
  594.0000    88.1810   -66.6033    11.6980     9.0436    10.7995
  594.5000    90.1859   -66.6338    11.6602     8.9643    10.6742
  595.0000    92.8575   -66.7380    11.6125     8.8857    10.5503
  595.5000    94.9654   -66.8439    11.5256     8.8077    10.4276
  596.0000    95.4645   -66.9499    11.4398     8.7304    10.3551
  596.5000    95.6827   -67.0558    11.3547     8.6538    10.2929
  597.0000    95.8896   -67.1616    11.2701     8.5780    10.2311
  597.5000    95.3201   -67.2675    11.2078     8.5308    10.1697
  598.0000    94.5044   -67.3736    11.0785     8.4892    10.1086
  598.5000    94.6383   -67.4800    10.9005     8.4475    10.0465
  599.0000    95.1842   -67.5724    10.7916     8.4095     9.8856
  599.5000    94.7690   -67.5214    10.7004     8.2958     9.6744
  600.0000    94.3879   -67.4700    10.7024     8.1922     9.4696
  600.5000    95.7898   -67.4192    10.4326     8.0898     9.2691
  601.0000    96.8566   -67.3422    10.2564     7.9886     9.0566
  601.5000    98.2244   -67.0892    10.0836     7.8823     8.9159
  602.0000    99.1533   -66.8335     9.9138     7.6925     8.7237
  602.5000    98.4777   -66.5783     9.7463     7.4936     8.5357
  603.0000    98.4860   -66.3232     9.5744     7.2986     8.1216
  603.5000   100.0332   -66.0680     9.4634     6.7388     7.6529
  604.0000   101.9734   -65.8123     9.3478     6.1119     6.8642
  604.5000   103.9155   -65.5600     9.2337     5.5433     6.1577
  605.0000   105.8258   -65.4219     9.1409     5.0276     5.5180
  605.5000   108.8922   -65.2902     8.1790     4.7345     4.9840
  606.0000   114.8814   -65.0437     6.6314     4.7345     4.6476
  606.5000   121.2205   -65.1607     5.3631     4.7960     4.9683
  607.0000   124.4230   -65.6357     5.0988     4.8829     5.4019
  607.5000   116.9833   -66.1287     6.8948     4.9692     5.8734
  608.0000   106.4638   -66.6212     9.0275     5.0014     6.3859
  608.5000    98.2565   -67.1081    10.5191     5.4634     6.9225
  609.0000    97.6109   -67.2846    10.5121     5.9541     7.4856
  609.5000    97.1547   -67.4456    10.0638     6.4864     8.2185
