~VERSION INFORMATION
 VERS.                2.0:   CWLS LOG ASCII STANDARD - VERSION 2.0
 WRAP.                 NO:   ONE LINE PER DEPTH STEP
~WELL INFORMATION
#MNEM.UNIT      DATA TYPE    INFORMATION
#----------   ------------   ------------------------------
 STRT.F           68.0000:   START DEPTH
 STOP.F          560.0000:   STOP DEPTH
 STEP.F            0.5000:   STEP LENGTH
 NULL.          -999.2500:   NO VALUE
 COMP.               NAVY:   COMPANY
 WELL. RES 3 TEAPOT DOM #24S-11:   WELL
 FLD .             TEAPOT:   FIELD
 LOC .      S11 T38N R78W:   LOCATION
 CNTY.            NATRONA:   COUNTY
 STAT.            WYOMING:   STATE
 CTRY. UNITED STATES OF AMERICA:   COUNTRY
 SRVC.       Schlumberger:   SERVICE COMPANY
 DATE.        16-JUL-1963:   LOGDATE
 API .       490250634300:   API NUMBER
~CURVE INFORMATION
#MNEM.UNIT       API CODE    CURVE DESCRIPTION
#----------   ------------   ------------------------------
 DEPT.F                  :   
 GR  .GAPI   30 310 01 00:   GAMMA RAY
 CALS.IN     60 280 50 00:   CALIPER FROM SONIC LOG
 DT  .US/F   60 520 00 00:   INTERVAL TRANSIT TIME
 SPR .MV     05 010 01 00:   SPONTANEOUS POTENTIAL FROM RES.
 CILD.MMHO   05 110 00 00:   CONDUCTIVITY INDUCTION LOG
 ASN .OHMM   05 041 16 00:   AMPLIFIED SHORT NORMAL 16"
 ILD .OHMM   05 120 46 00:   INDUCTION LOG DEEP
~PARAMETER INFORMATION
#MNEM.UNIT          VALUE    DESCRIPTION
#----------   ------------   ------------------------------
 PD  .                 GL:   PERMANENT DATUM
 EPD .F              5168:   ELEVATION PERMANENT DATUM
 LMF .                 KB:   LOG MEASURED FROM
 DAPD.F                 5:   FEET ABOVE PERMANENT DATUM
 DMF .                 KB:   DRILLING MEASURED FROM
 EKB .F              5173:   KELLING BUSHING
 EGL .F              5168:   GROUND LEVEL
 DATE.            7-16-63:   RUN DATE
 RUN .                  1:   RUN NUMBER
 DD  .F               562:   DEPTH DRILLER
 DL  .F               561:   DEPTH LOGGER
 BLI .F               560:   BOTTOM LOG INTERVAL
 TLI .F                94:   TOP LOG INTERVAL
 CS  .IN            8.625:   CASING SIZE
 CBD .F                10:   CASING BOTTOM DRILLER
 BS  .IN            6.875:   BIT SIZE
 BSD .F               562:   BIT SIZE AT DEPTH
 DFT .            NATURAL:   DRILLING FLUID TYPE
 DFD .                 10:   DRILLING FLUID DENSITY
 DFV .                 65:   DRILLING FLUID VISCOSITY
 MSS .           FLOWLINE:   MUD SAMPLE SOURCE
 RMS .OHMM            3.4:   RESISTIVITY MUD SAMPLE
 MST .F                76:   MUD SAMPLE TEMPERATURE
 RMF .OHMM            1.8:   RESISTIVITY MUD FILTRATE SAMPLE
 MFST.F                75:   MUD FILTRATE SAMPLE TEMPERATURE
 RMC .OHMM            3.4:   RESISTIVITY MUD CAKE
 MCST.F                75:   MUD CAKE SAMPLE TEMPERATURE
 MFSS.                 FP:   MUD FILTRATE SAMPLE SOURCE
 MCSS.                 FP:   MUD CAKE SAMPLE SOURCE
 TCS .HRS               1:   TIME CURCULATED STOPPED
 MRT .F                80:   MAXIMUM RECORDED TEMPERATURE
 LUN .               4507:   LOGGING UNIT NUMBER
 LUL .               CSPR:   LOGGING UNIT LOCATION
 ENGI.            GIFFORD:   RECORDING ENGINEER
 WITN.          JORGENSON:   WITNESSED BY
 CLNT.            A2DTECH:   CLIENT CODE
 ORIG.       2", 5" PRINT:   ORIGIN OF DATA
 UWI .       490250634300:   UNIQUE WELL ID
 DICO. A2D Technologies, Inc.:   DIGITIZING COMPANY
~OTHER INFORMATION
~A   DEPT       GR         CALS       DT        SPR       CILD        ASN        ILD   
# ...
  432.0000    70.0856     6.7080   103.6540   -34.5848   130.2817     8.9425     8.0888
  432.5000    73.1729     6.6488   103.8433   -34.7042   128.5669     9.0544     8.1505
  433.0000    73.1629     6.5868   103.9275   -34.4068   126.2576     9.1030     8.2120
  433.5000    75.9256     6.5764   103.4394   -34.1134   126.1117     9.1484     8.2745
  434.0000    78.4750     6.6485   103.4536   -34.2901   127.6358     9.0532     8.3046
  434.5000    78.0091     6.7274   103.4675   -34.5700   130.4955     8.9847     8.0918
  435.0000    78.1177     6.6849   103.1659   -34.7381   134.3058     8.9329     7.8260
  435.5000    77.9110     6.5707   102.8679   -34.0723   138.0282     8.8295     7.5597
  436.0000    80.1430     6.5942   102.7207   -33.9880   141.3463     8.6162     7.2907
  436.5000    81.6188     6.6408   102.6027   -34.5257   142.0444     8.3424     7.2413
  437.0000    82.1714     6.6597   102.8513   -35.0788   142.6896     8.2156     7.2944
  437.5000    87.0983     6.5875   104.0450   -35.3047   143.3602     8.0807     7.2208
  438.0000    81.9547     6.5170   105.3374   -34.5021   148.6922     7.9105     6.8718
  438.5000    77.5256     6.5146   105.7284   -33.6373   156.5301     7.8605     6.5318
  439.0000    78.9636     6.5946   106.1547   -33.0761   165.7673     7.9142     6.1934
  439.5000    80.6784     6.6807   106.3444   -33.0453   175.0046     7.9289     5.8517
  440.0000    77.1701     6.7370   106.0362   -33.0060   184.2418     7.4679     5.5204
  440.5000    75.8399     6.7512   104.6324   -32.9682   190.2980     7.0198     5.2761
  441.0000    79.1144     6.7670   105.4195   -32.9283   187.1227     6.6607     5.3463
  441.5000    74.6728     6.7724   107.2612   -32.8861   186.2802     6.5969     5.4358
  442.0000    77.4255     6.7629   108.7613   -33.3527   187.6257     6.9926     5.5280
  442.5000    75.9021     6.7564   108.3652   -33.9000   182.3692     6.8224     5.6857
  443.0000    72.5109     6.7257   107.9105   -34.4489   176.5594     6.8038     5.8484
  443.5000    62.4444     6.6816   107.1492   -34.9237   165.8235     7.4968     6.2233
  444.0000    59.6363     6.6366   105.5535   -35.0528   149.7893     7.9955     6.6681
  444.5000    60.0055     6.6152   103.1817   -34.5433   140.6517     8.2564     7.1141
  445.0000    63.2606     6.6200   100.7049   -34.0333   133.2892     8.4149     7.5610
  445.5000    67.9463     6.6265   101.0409   -33.7025   129.0661     8.5406     7.9842
  446.0000    72.6238     6.6428   101.3092   -33.5986   128.2696     8.6285     7.8536
  446.5000    74.4753     6.7537   100.6133   -33.4606   136.0233     8.6845     7.4843
  447.0000    76.6234     6.8580   100.3021   -33.3200   145.4585     8.6745     6.9724
  447.5000    78.3318     6.8972   100.6445   -33.3947   154.8936     8.4806     6.4645
  448.0000    71.0948     6.8322    99.7350   -33.5104   164.3288     8.1670     6.0889
  448.5000    70.3962     6.7298    98.6908   -33.1018   167.5050     7.7421     6.1460
  449.0000    66.6219     6.6316    99.6158   -32.6288   164.4869     7.3547     6.1614
  449.5000    65.9070     6.7994   103.1926   -32.2811   166.9741     7.4090     6.0901
  450.0000    69.1933     6.8896   105.9416   -32.3730   169.5171     7.4529     6.0886
  450.5000    70.7552     6.8609   105.0352   -32.7312   163.4809     7.2404     6.1827
  451.0000    63.7003     6.8328   106.5015   -33.0761   154.9229     7.2104     6.6212
  451.5000    63.7032     6.8076   107.3515   -33.5938   142.2352     8.4741     7.1072
  452.0000    67.2275     6.7827   105.2197   -34.4621   128.3245     8.8235     7.8032
  452.5000    65.4897     6.7388   101.9728   -35.2972   118.6494     9.1129     8.4858
  453.0000    62.6422     6.6449   101.0070   -35.2761   112.2854     9.6292     8.9160
  453.5000    62.9404     6.5566   103.0406   -35.1886   107.0722     9.9684     9.3452
  454.0000    67.0250     6.5754   103.6324   -35.2418   106.1780    10.0034     9.6332
  454.5000    71.2735     6.6812   103.6254   -35.8339   104.5624    10.0430     9.7465
  455.0000    72.2728     6.7364   103.5272   -36.0762   102.1127    10.0806     9.8589
  455.5000    67.5400     6.7239   103.1405   -35.4875   101.0523    10.1051     9.9763
  456.0000    67.4547     6.7472   102.5448   -34.5541   100.1006    10.3280    10.1194
  456.5000    71.5276     6.8085   102.2155   -34.5742   102.0798    10.5860    10.0320
  457.0000    67.7289     6.8706   102.7190   -35.0945   103.9345    10.7698     9.9359
  457.5000    68.0973     6.8956    97.3817   -35.5535   104.7200    11.1508     9.9089
  458.0000    69.3688     6.8431    96.6541   -35.6393   104.0599    11.3399     9.9272
  458.5000    64.3115     6.7859    97.8947   -35.6534   100.6534    11.5435    10.0757
  459.0000    57.8009     6.7656    95.6930   -36.1760    97.2512    11.7396    10.3883
  459.5000    47.4622     6.7584    94.3678   -36.7206    92.6157    12.1516    10.9169
  460.0000    38.4470     6.6698    95.4763   -37.0402    85.8149    13.0153    11.6804
  460.5000    32.4744     6.6148    96.4753   -36.5402    79.0141    14.9375    12.6178
  461.0000    28.4519     6.6356    93.7684   -37.1800    72.0423    16.9404    14.2399
  461.5000    27.1170     6.6765    84.5921   -38.1225    64.8164    19.3377    15.8438
  462.0000    30.0291     6.7035    83.9879   -39.3612    57.8471    21.8181    17.8344
  462.5000    33.5138     6.7383    86.5055   -40.6355    51.3465    24.5724    20.0206
  463.0000    35.8651     6.7477    86.3041   -41.5321    45.0689    26.7591    22.2192
  463.5000    33.4643     6.7569    82.4773   -42.1582    40.9490    27.3329    24.4165
  464.0000    29.1854     6.6944    88.1118   -42.7766    39.2488    28.2809    26.4249
  464.5000    28.8130     6.5918    91.6718   -43.3973    37.7506    29.7266    27.0254
  465.0000    30.9277     6.5461    92.9250   -43.8042    37.9824    31.4864    27.4235
  465.5000    36.5324     6.5342    94.2598   -44.0061    38.2143    31.2248    27.2790
  466.0000    37.0115     6.6195    97.0045   -45.0427    38.4461    30.9743    27.0254
  466.5000    34.5309     6.7572    98.8923   -45.6002    38.6780    31.3202    26.7653
  467.0000    31.7824     6.7239    97.8852   -44.8199    38.9098    30.7475    26.6075
  467.5000    33.1408     6.5802    99.7986   -45.0365    39.1417    30.2150    26.4727
  468.0000    32.4435     6.4965    98.4807   -45.3232    39.3735    30.5939    26.3382
  468.5000    36.7471     6.4824    96.4753   -44.8737    39.6054    31.3414    26.2098
  469.0000    29.8443     6.5633    96.9781   -44.2281    39.5097    30.8254    26.2028
  469.5000    29.7618     6.6425    94.3107   -44.5520    38.9728    30.4322    26.2264
  470.0000    29.9520     6.7213    93.2528   -45.3764    38.4359    31.0519    26.7087
  470.5000    28.6621     6.7946   100.6153   -45.9278    37.8990    31.9749    27.1953
  471.0000    35.9188     6.8197   101.7477   -46.3175    37.3621    31.4105    27.6781
  471.5000    35.7459     6.8537   102.5176   -47.6381    36.8247    30.4396    28.0790
  472.0000    37.1433     6.8128   104.9889   -48.9753    36.2850    31.4513    28.2972
  472.5000    37.4835     6.7607   109.2648   -48.1766    35.7174    30.9000    28.5091
  473.0000    36.7834     6.7094   107.5295   -47.7843    35.7106    29.7657    28.3201
  473.5000    40.3605     6.5783   104.6703   -48.0833    35.7143    29.5136    28.1014
  474.0000    37.6512     6.4885   102.6192   -48.2434    35.7143    30.9901    27.9055
  474.5000    34.6855     6.7097   100.4773   -47.5533    36.5323    31.5365    27.5883
  475.0000    33.8468     6.7739    98.1159   -46.8639    37.5876    29.6055    27.2171
  475.5000    32.9850     6.8217    97.5062   -46.4661    38.6429    26.5778    26.7068
  476.0000    31.8685     6.8540    97.7755   -46.8502    39.6982    26.8218    26.1948
  476.5000    35.3436     6.8338    96.8719   -47.0836    40.7535    28.4276    25.7484
  477.0000    41.5510     6.8171    98.4592   -46.5925    41.8088    27.8577    25.4667
