~VERSION INFORMATION
 VERS.                2.0:   CWLS LOG ASCII STANDARD - VERSION 2.0
 WRAP.                 NO:   ONE LINE PER DEPTH STEP
~WELL INFORMATION
#MNEM.UNIT      DATA TYPE    INFORMATION
#----------   ------------   ------------------------------
 STRT.F           34.0000:   START DEPTH
 STOP.F          662.0000:   STOP DEPTH
 STEP.F            0.5000:   STEP LENGTH
 NULL.          -999.2500:   NO VALUE
 COMP. LAWRENCE/ALLISON INC:   COMPANY
 WELL.   68-66 STX #34-34:   WELL
 FLD .             TEAPOT:   FIELD
 LOC .      S34 T39N R78W:   LOCATION
 CNTY.            NATRONA:   COUNTY
 STAT.            WYOMING:   STATE
 CTRY. UNITED STATES OF AMERICA:   COUNTRY
 SRVC.           Gearhart:   SERVICE COMPANY
 DATE.        24-AUG-1987:   LOGDATE
 API .       490251115000:   API NUMBER
~CURVE INFORMATION
#MNEM.UNIT       API CODE    CURVE DESCRIPTION
#----------   ------------   ------------------------------
 DEPT.F                  :   
 GRR .GAPI   07 310 01 00:   GAMMA RAY FROM RES. LOG
 ILD .OHMM   07 120 46 00:   INDUCTION LOG DEEP
 ILM .OHMM   07 120 44 00:   INDUCTION LOG MEDIUM
~PARAMETER INFORMATION
#MNEM.UNIT          VALUE    DESCRIPTION
#----------   ------------   ------------------------------
 PD  .                 GL:   PERMANENT DATUM
 EPD .F              5089:   ELEVATION PERMANENT DATUM
 LMF .                 KB:   LOG MEASURED FROM
 DAPD.F                 8:   FEET ABOVE PERMANENT DATUM
 DMF .                 KB:   DRILLING MEASURED FROM
 EKB .F              5097:   KELLING BUSHING
 EDF .F              5095:   DRILLING FLOOR
 EGL .F              5089:   GROUND LEVEL
 DATE.            8-24-87:   RUN DATE
 RUN .                  1:   RUN NUMBER
 DD  .F               675:   DEPTH DRILLER
 DL  .F               670:   DEPTH LOGGER
 BLI .F               662:   BOTTOM LOG INTERVAL
 TLI .F                30:   TOP LOG INTERVAL
 CS  .IN            8.625:   CASING SIZE
 CBD .F                48:   CASING BOTTOM DRILLER
 CBL .F                48:   CASING BOTTOM LOGGER
 BS  .IN            7.875:   BIT SIZE
 BSD .F               675:   BIT SIZE AT DEPTH
 DFT .                AIR:   DRILLING FLUID TYPE
 TCS .HRS            1300:   TIME CURCULATED STOPPED
 TLAB.HRS            1712:   TIME LOGGER AT BOTTOM
 MRT .F                80:   MAXIMUM RECORDED TEMPERATURE
 LUN .               7597:   LOGGING UNIT NUMBER
 LUL .           GILLETTE:   LOGGING UNIT LOCATION
 ENGI.         WEATHERMON:   RECORDING ENGINEER
 WITN.             STRONG:   WITNESSED BY
 CLNT.            A2DTECH:   CLIENT CODE
 ORIG.       2", 5" PRINT:   ORIGIN OF DATA
 UWI .       490251115000:   UNIQUE WELL ID
 DICO. A2D Technologies, Inc.:   DIGITIZING COMPANY
~OTHER INFORMATION
~A   DEPT       GRR       ILD        ILM   
# ...
  125.0000   125.3002     7.1704     7.9490
  125.5000   124.1385     7.1612     7.9666
  126.0000   123.2696     7.1516     7.9841
  126.5000   123.9137     7.1437     7.9776
  127.0000   126.1118     7.2438     7.9709
  127.5000   125.4522     7.3427     7.9641
  128.0000   123.6534     7.4429     7.9573
  128.5000   121.8505     7.5445     7.9506
  129.0000   121.6518     7.6225     7.9438
  129.5000   121.6580     7.6055     7.9371
  130.0000   121.6639     7.5919     7.9303
  130.5000   121.8858     7.5783     7.9236
  131.0000   121.5760     7.5646     7.9167
  131.5000   119.5259     7.5510     7.9082
  132.0000   117.5291     7.6215     8.0564
  132.5000   116.8179     7.7005     8.1953
  133.0000   120.8304     7.7822     8.3633
  133.5000   124.8249     7.8695     8.3335
  134.0000   128.8905     7.9838     8.2969
  134.5000   127.2201     7.9647     8.2659
  135.0000   124.9181     7.9374     8.2374
  135.5000   123.7471     7.9106     8.2096
  136.0000   128.0458     7.7613     8.0547
  136.5000   133.0813     7.6182     7.9061
  137.0000   138.2915     7.4776     7.7602
  137.5000   138.4913     7.3396     7.6171
  138.0000   133.2581     7.2099     7.4824
  138.5000   127.9349     7.1710     7.4421
  139.0000   126.2182     7.1339     7.4036
  139.5000   124.7995     7.0970     7.3653
  140.0000   123.5669     7.0603     7.3271
  140.5000   122.6478     7.0237     7.2892
  141.0000   124.3386     6.9874     7.2515
  141.5000   126.0575     6.9513     7.2140
  142.0000   127.7712     6.9153     7.1767
  142.5000   129.9873     6.8795     7.1395
  143.0000   132.1965     6.8439     7.1026
  143.5000   134.4020     6.8196     7.0774
  144.0000   136.6045     6.9401     7.2027
  144.5000   136.9445     7.0336     7.2995
  145.0000   132.1945     7.1282     7.3977
  145.5000   126.9258     7.2237     7.4972
  146.0000   125.1096     7.3212     7.5980
  146.5000   126.7624     7.4209     7.7014
  147.0000   128.1573     7.5569     7.8425
  147.5000   129.1564     7.6953     7.9862
  148.0000   130.1512     7.8363     8.1325
  148.5000   130.9873     7.9843     8.2861
  149.0000   130.4360     8.0029     8.3053
  149.5000   129.0550     8.0253     8.3287
  150.0000   127.6886     8.0587     8.3633
  150.5000   126.3782     7.9775     8.2867
  151.0000   126.7027     7.8242     8.1418
  151.5000   130.2067     7.5795     7.9827
  152.0000   133.6813     7.1433     7.8040
  152.5000   136.6916     7.1531     7.5521
  153.0000   134.1080     7.1724     7.5910
  153.5000   131.3575     7.1917     7.6622
  154.0000   131.0328     7.2112     7.7340
  154.5000   132.5714     7.2306     7.8065
  155.0000   134.0916     7.2501     7.9106
  155.5000   135.6223     7.2697     7.8884
  156.0000   135.2523     7.3552     7.8502
  156.5000   134.2950     7.4822     7.8376
  157.0000   131.6923     7.6114     7.9996
  157.5000   129.0709     7.7428     8.1112
  158.0000   127.6676     7.8765     8.2244
  158.5000   129.4394     8.0125     8.3392
  159.0000   130.3715     8.1359     8.4556
  159.5000   128.1868     8.1531     8.5745
  160.0000   125.6218     8.1703     8.6003
  160.5000   123.0086     8.1876     8.4824
  161.0000   123.8756     8.2096     8.3439
  161.5000   127.0073     8.0617     8.2070
  162.0000   129.6098     7.8619     8.0725
  162.5000   126.1219     7.6671     7.9403
  163.0000   121.8471     7.4771     7.8103
  163.5000   117.7250     7.2919     7.6824
  164.0000   118.4133     7.1329     7.5565
  164.5000   122.6417     7.0774     7.4136
  165.0000   126.7813     7.1148     7.4593
  165.5000   128.3234     7.1512     7.5137
  166.0000   128.8441     7.1878     7.5692
  166.5000   125.4453     7.2246     7.6248
  167.0000   122.0058     7.2616     7.6808
  167.5000   118.5872     7.2987     7.7373
  168.0000   115.1387     7.3362     7.7941
  168.5000   113.4974     7.3813     7.8514
  169.0000   116.2800     7.4293     7.9089
  169.5000   120.7810     7.4775     7.9676
  170.0000   125.5307     7.5624     8.0665
  170.5000   123.7665     7.6524     8.1852
  171.0000   121.7621     7.7435     8.3052
  171.5000   122.5224     7.8356     8.4270
  172.0000   123.4546     7.9289     8.5505
  172.5000   126.3101     8.0233     8.6795
  173.0000   128.3433     8.1187     8.8420
  173.5000   129.8482     8.2093     8.6953
  174.0000   131.3516     8.1340     8.5757
  174.5000   132.8598     8.0620     8.4576
  175.0000   134.2356     7.9909     8.3412
  175.5000   134.3419     7.9217     8.2264
  176.0000   132.2099     7.8127     8.1654
  176.5000   129.3725     7.7002     8.1139
  177.0000   126.1312     7.5889     8.0628
  177.5000   122.9041     7.4824     8.0119
  178.0000   120.3034     7.4391     7.9702
  178.5000   121.1697     7.3877     7.9394
  179.0000   124.6857     7.3367     7.9086
  179.5000   128.1421     7.2771     7.8779
  180.0000   131.6360     7.2874     7.8377
  180.5000   132.3397     7.3001     7.8524
  181.0000   131.3099     7.3127     7.8751
  181.5000   129.5140     7.3254     7.8976
  182.0000   125.9153     7.3381     7.9202
  182.5000   124.0740     7.3508     7.9428
  183.0000   123.7580     7.3636     7.9655
  183.5000   125.4795     7.3763     7.9883
  184.0000   126.9914     7.3892     8.0111
  184.5000   127.1709     7.4018     8.0340
  185.0000   127.5437     7.4199     8.0587
  185.5000   128.5369     7.4776     8.1495
  186.0000   129.3016     7.5360     8.2488
  186.5000   128.7462     7.5947     8.3496
  187.0000   128.2089     7.6539     8.4515
  187.5000   127.6845     7.7425     8.5546
  188.0000   127.4085     7.8909     8.6589
  188.5000   129.0465     8.0421     8.7573
  189.0000   131.4432     8.1954     8.8549
  189.5000   133.8498     8.3656     8.9536
  190.0000   135.6597     8.5369     9.0535
  190.5000   136.3879     8.6702     9.1544
  191.0000   136.6270     8.8040     9.2565
  191.5000   135.7094     8.9398     9.3628
  192.0000   132.8595     9.0778     9.4952
  192.5000   130.4690     9.2179     9.6295
  193.0000   131.9003     9.3602     9.7656
  193.5000   133.6196     9.5047     9.9038
  194.0000   135.3370     9.6515    10.0438
  194.5000   134.3178     9.8003    10.1858
  195.0000   133.0868     9.9528    10.3299
  195.5000   132.1115    10.0222    10.4505
  196.0000   134.0349    10.0962    10.6023
  196.5000   136.1572    10.1697    10.7563
  197.0000   137.3994    10.2440    10.9125
  197.5000   135.3170    10.3188    11.0710
  198.0000   133.1808    10.3941    11.2319
  198.5000   131.0165    10.4704    11.3950
  199.0000   129.0508    10.5457    11.4641
  199.5000   127.0606    10.5233    11.4641
  200.0000   125.0342    10.5002    11.4641
  200.5000   123.3563    10.4775    11.4641
  201.0000   124.6388    10.4548    11.3572
  201.5000   127.1548    10.4322    11.2448
  202.0000   129.8915    10.4096    11.1332
  202.5000   132.6274    10.3871    11.0229
  203.0000   131.4466    10.3646    10.9129
  203.5000   129.2170    10.3422    10.8314
  204.0000   127.6985    10.3198    10.7952
  204.5000   129.0626    10.2975    10.7600
  205.0000   130.8941    10.2752    10.7248
  205.5000   132.7948    10.2530    10.6897
  206.0000   133.8925    10.2308    10.6546
  206.5000   134.0655    10.2087    10.6197
  207.0000   134.1379    10.1866    10.5849
  207.5000   133.5013    10.1646    10.5503
  208.0000   132.3860    10.0866    10.4701
  208.5000   129.0894    10.0013    10.3840
  209.0000   126.1615     9.9167    10.2987
  209.5000   125.9856     9.8328    10.2140
  210.0000   128.6786     9.7496    10.1300
  210.5000   131.3889     9.6664    10.0471
  211.0000   134.0949     9.6117     9.9750
  211.5000   136.7626     9.6117     9.9750
  212.0000   137.3081     9.6117     9.9750
  212.5000   134.9777     9.6117     9.9750
  213.0000   133.2129     9.6117     9.9750
  213.5000   133.9772     9.6119     9.9752
  214.0000   135.7422     9.6119     9.9747
  214.5000   137.4845     9.6110     9.9737
  215.0000   134.8476     9.6134     9.9766
  215.5000   131.6937     9.3169     9.8056
