~VERSION INFORMATION
 VERS.                2.0:   CWLS LOG ASCII STANDARD - VERSION 2.0
 WRAP.                 NO:   ONE LINE PER DEPTH STEP
~WELL INFORMATION
#MNEM.UNIT      DATA TYPE    INFORMATION
#----------   ------------   ------------------------------
 STRT.F           16.0000:   START DEPTH
 STOP.F          661.0000:   STOP DEPTH
 STEP.F            0.5000:   STEP LENGTH
 NULL.          -999.2500:   NO VALUE
 COMP. FENIX & SCISSON INC:   COMPANY
 WELL.  26-66 SX 11 #I-11:   WELL
 FLD .             TEAPOT:   FIELD
 LOC .      S11 T38N R78W:   LOCATION
 CNTY.            NATRONA:   COUNTY
 STAT.            WYOMING:   STATE
 CTRY. UNITED STATES OF AMERICA:   COUNTRY
 SRVC.      Dresser Atlas:   SERVICE COMPANY
 DATE.        22-JUL-1980:   LOGDATE
 API .       490251083200:   API NUMBER
~CURVE INFORMATION
#MNEM.UNIT       API CODE    CURVE DESCRIPTION
#----------   ------------   ------------------------------
 DEPT.F                  :   
 SFL .OHMM   07 220 01 00:   SHALLOW FOCUSED LOG RESISTIVITY
 ILD .OHMM   07 120 46 00:   INDUCTION LOG DEEP
 ILM .OHMM   07 120 44 00:   INDUCTION LOG MEDIUM
 SPR .MV     07 010 01 00:   SPONTANEOUS POTENTIAL
 CALD.IN     45 280 60 00:   CALIPER
 GRD .GAPI   45 310 01 00:   GAMMA RAY FROM DENSITY LOG
 RHOB.G/C3   45 350 01 00:   BULK DENSITY
 CORR.G/C3   45 356 01 00:   DENSITY CORRECTION
 DPHI.DEC    45 890 12 00:   DENSITY POROSITY SANDSTONE
 NPHI.DEC    42 890 03 00:   NEUTRON POROSITY SANDSTONE
~PARAMETER INFORMATION
#MNEM.UNIT          VALUE    DESCRIPTION
#----------   ------------   ------------------------------
 PD  .                 GL:   PERMANENT DATUM
 EPD .F              5193:   ELEVATION PERMANENT DATUM
 LMF .                 KB:   LOG MEASURED FROM
 DAPD.F                 5:   FEET ABOVE PERMANENT DATUM
 DMF .                 KB:   DRILLING MEASURED FROM
 EKB .F              5198:   KELLING BUSHING
 EDF .F              5196:   DRILLING FLOOR
 EGL .F              5193:   GROUND LEVEL
 DATE.            7-22-80:   RUN DATE
 RUN .                  1:   RUN NUMBER
 DD  .F               655:   DEPTH DRILLER
 DL  .F               655:   DEPTH LOGGER
 BLI .F               653:   BOTTOM LOG INTERVAL
 TLI .F                20:   TOP LOG INTERVAL
 BS  .IN            7.875:   BIT SIZE
 BSD .F               655:   BIT SIZE AT DEPTH
 DFT .                KCL:   DRILLING FLUID TYPE
 DFD .                9.1:   DRILLING FLUID DENSITY
 DFV .                 46:   DRILLING FLUID VISCOSITY
 DFPH.                 11:   DRILLING FLUID PH
 DFL .                  6:   DRILLING FLUID LOSS
 MSS .           FLOWLINE:   MUD SAMPLE SOURCE
 RMS .OHMM            .17:   RESISTIVITY MUD SAMPLE
 MST .F                75:   MUD SAMPLE TEMPERATURE
 RMF .OHMM            .13:   RESISTIVITY MUD FILTRATE SAMPLE
 MFST.F                75:   MUD FILTRATE SAMPLE TEMPERATURE
 RMC .OHMM            .26:   RESISTIVITY MUD CAKE
 MCST.F                75:   MUD CAKE SAMPLE TEMPERATURE
 MFSS.                  C:   MUD FILTRATE SAMPLE SOURCE
 MCSS.                  C:   MUD CAKE SAMPLE SOURCE
 TCS .HRS               1:   TIME CURCULATED STOPPED
 LUN .               6240:   LOGGING UNIT NUMBER
 LUL .               RVTN:   LOGGING UNIT LOCATION
 ENGI.   K. RALL/J. GETTY:   RECORDING ENGINEER
 WITN.            RHOADES:   WITNESSED BY
 CLNT.            A2DTECH:   CLIENT CODE
 ORIG.        2" 5" PRINT:   ORIGIN OF DATA
 UWI .       490251083200:   UNIQUE WELL ID
 DICO. A2D Technologies, Inc.:   DIGITIZING COMPANY
~OTHER INFORMATION
~A   DEPT      SFL        ILD        ILM        SPR       CALD        GRD       RHOB       CORR         DPHI     NPHI   
# ...
  217.0000     8.3265     8.0774     7.7929   -62.5990     7.9989   114.9168     2.5002     0.0245     0.1096     0.3168
  217.5000     8.2188     8.0307     7.8171   -62.6001     7.9965   115.2654     2.5088     0.0266     0.1028     0.3108
  218.0000     8.1462     7.9256     7.8419   -62.6572     7.9941   116.2082     2.5175     0.0413     0.1013     0.2912
  218.5000     8.2728     7.9256     7.8529   -63.0175     7.9917   114.9499     2.5389     0.0602     0.0874     0.2851
  219.0000     8.3875     8.1322     7.9583   -63.3761     7.9892   111.0585     2.5451     0.0593     0.0799     0.2827
  219.5000     8.5036     8.2530     8.0595   -63.7449     7.9868   106.6564     2.5142     0.0441     0.0959     0.2802
  220.0000     8.6210     8.3745     8.1619   -63.6415     7.9844   106.6339     2.4972     0.0282     0.1096     0.2778
  220.5000     8.7718     8.5299     8.2657   -63.4250     7.9820   108.9158     2.5125     0.0351     0.1085     0.2957
  221.0000     8.7706     8.4527     8.3759   -63.2150     7.9819   112.1744     2.5419     0.0479     0.0908     0.3017
  221.5000     8.7706     8.6031     8.5500   -63.2802     7.9819   113.3022     2.5434     0.0543     0.0813     0.2941
  222.0000     8.9623     8.6798     8.6682   -63.3594     7.9819   110.1252     2.5209     0.0483     0.0917     0.2847
  222.5000     9.1397     8.9037     8.7880   -63.4375     7.9833   104.9809     2.5042     0.0361     0.1029     0.2748
  223.0000     9.3206     9.0681     8.9094   -63.5156     7.9858   102.2310     2.5038     0.0352     0.1064     0.2726
  223.5000     9.5050     9.2295     9.0326   -63.5966     7.9882   100.6266     2.5168     0.0463     0.1007     0.2780
  224.0000     9.6932     9.3938     9.1574   -63.5289     7.9906   101.8212     2.5223     0.0506     0.0945     0.2893
  224.5000     9.8862     9.5286     9.3547   -63.4292     7.9930   104.8867     2.4961     0.0336     0.1024     0.3001
  225.0000     9.8862     9.5547     9.4413   -63.2724     7.9955   107.9845     2.4749     0.0165     0.1164     0.3000
  225.5000     9.8862     9.6867     9.6094   -63.1056     7.9979   107.5788     2.4764     0.0198     0.1219     0.2864
  226.0000    10.0700     9.8206     9.7805   -63.0296     8.0003   105.8738     2.5108     0.0296     0.1126     0.2780
  226.5000    10.3088     9.9563     9.9546   -63.1805     8.0028   104.6626     2.5155     0.0396     0.1011     0.2803
  227.0000    10.5504    10.0940    10.1319   -63.2074     8.0052   102.4601     2.5101     0.0400     0.0969     0.2821
  227.5000    10.6422    10.2335    10.2572   -63.1317     8.0076    99.8733     2.5046     0.0312     0.1030     0.2832
  228.0000    10.5719    10.2572    10.1821   -63.0405     8.0100    99.4106     2.4988     0.0226     0.1053     0.2790
  228.5000    10.5041    10.1296    10.1299   -63.0911     8.0125   102.3344     2.4708     0.0148     0.1161     0.2936
  229.0000    10.4367    10.0079    10.0779   -63.3048     8.0149   104.7299     2.4679     0.0180     0.1271     0.3121
  229.5000    10.3698     9.8877    10.0261   -63.5169     8.0173   104.8758     2.4868     0.0253     0.1263     0.3307
  230.0000    10.3033     9.7689     9.9777   -63.7316     8.0198   104.9219     2.4965     0.0319     0.1152     0.3282
  230.5000    10.2372     9.7058     9.9777   -63.8091     8.0219   105.9454     2.5008     0.0324     0.1072     0.2991
  231.0000    10.1715     9.7287     9.9773   -63.8108     8.0161   104.9470     2.4979     0.0304     0.1078     0.3065
  231.5000    10.1632     9.7553     9.9756   -63.8141     8.0102   103.5684     2.4954     0.0284     0.1096     0.3083
  232.0000    10.1641     9.7819     9.9717   -63.9798     8.0042   102.7139     2.5030     0.0270     0.1108     0.3100
  232.5000    10.1601     9.7956     9.7956   -64.1853     8.0028   104.8080     2.5326     0.0377     0.1043     0.2895
  233.0000    10.0729     9.6688     9.7217   -63.9948     8.0038   105.2675     2.5592     0.0525     0.0776     0.2907
  233.5000     9.9512     9.5442     9.6544   -63.4446     8.0049   105.7327     2.5555     0.0539     0.0722     0.2939
  234.0000     9.8203     9.4212     9.5875   -62.8833     8.0061   106.5394     2.5510     0.0551     0.0755     0.2966
  234.5000     9.7046     9.2998     9.5211   -62.9220     8.0072   108.7391     2.5529     0.0563     0.0782     0.3034
  235.0000     9.7064     9.1789     9.4552   -63.0659     8.0083   110.8911     2.5539     0.0548     0.0749     0.3055
  235.5000     9.6671     9.0985     9.3897   -63.2109     8.0094   110.1552     2.5579     0.0518     0.0746     0.2964
  236.0000     9.6328     9.1003     9.3247   -63.3591     8.0106   107.6994     2.5625     0.0487     0.0706     0.2804
  236.5000     9.5985     9.0489     9.2689   -63.2185     8.0117   103.5969     2.5461     0.0485     0.0802     0.2723
  237.0000     9.5643     9.0163     9.2689   -63.0431     8.0128   104.2894     2.5190     0.0391     0.0955     0.2782
  237.5000     9.5286     9.0163     9.3616   -63.2556     8.0139   107.2913     2.5057     0.0337     0.1024     0.2887
  238.0000     9.6168     9.1161     9.4312   -63.4584     8.0150   110.2523     2.5496     0.0504     0.0904     0.3108
  238.5000     9.6903     9.2222     9.5014   -63.6598     8.0162   110.2947     2.5378     0.0510     0.0778     0.3108
  239.0000     9.8232     9.3298     9.5721   -63.8146     8.0173   108.9514     2.5184     0.0379     0.0950     0.2924
  239.5000     9.9580     9.4387     9.6168   -63.8142     8.0184   107.8273     2.5105     0.0284     0.1020     0.2842
  240.0000    10.0700     9.5484     9.2604   -63.7908     8.0195   106.8393     2.5373     0.0417     0.0951     0.2731
  240.5000    10.0700     9.6168     9.0323   -63.3379     8.0206   103.5381     2.5522     0.0561     0.0820     0.2562
  241.0000     9.8868     9.4662     8.8097   -62.8859     8.0218   101.7611     2.5431     0.0555     0.0781     0.2601
  241.5000     9.8108     9.2157     8.5927   -62.4392     8.0212   102.2072     2.5123     0.0388     0.0883     0.2717
  242.0000     9.4140     8.9718     8.3810   -62.2942     8.0192   103.3210     2.4820     0.0225     0.1137     0.2873
  242.5000     8.9170     8.7343     8.2991   -62.5069     8.0173   105.7771     2.4648     0.0180     0.1275     0.2887
  243.0000     8.8569     8.6105     8.2991   -62.7165     8.0153   108.1589     2.4574     0.0143     0.1315     0.2859
  243.5000     8.7691     8.5294     8.2991   -62.9273     8.0133   109.5253     2.4418     0.0109     0.1403     0.2847
  244.0000     8.8400     8.4534     8.2991   -63.1394     8.0113   109.3511     2.4397     0.0127     0.1442     0.2759
  244.5000     9.0054     8.5316     8.2991   -63.1613     8.0093   107.9046     2.4612     0.0190     0.1312     0.2606
  245.0000     9.1738     8.5978     8.2795   -63.0701     8.0074   107.5855     2.4694     0.0173     0.1259     0.2533
  245.5000     9.3454     8.6902     8.1977   -62.9784     8.0054   107.1645     2.4704     0.0150     0.1252     0.2605
  246.0000     9.4413     8.6429     8.1167   -62.8864     8.0035   104.5249     2.4713     0.0191     0.1246     0.2751
  246.5000     9.1296     8.5705     8.0729   -62.7944     8.0018   102.1193     2.4716     0.0219     0.1243     0.2783
  247.0000     8.9205     8.4985     8.0729   -62.7026     7.9988   102.3104     2.4850     0.0227     0.1185     0.2843
  247.5000     8.7608     8.4272     8.1476   -62.6087     7.9958   103.9408     2.5054     0.0227     0.1077     0.3058
  248.0000     8.9432     8.3565     8.1476   -62.7295     7.9929   102.7234     2.5257     0.0228     0.0970     0.3226
  248.5000     9.3443     8.2864     8.1476   -62.9115     7.9899    98.4537     2.5425     0.0274     0.0862     0.3204
  249.0000     9.7545     8.2230     7.9989   -63.0437     7.9869    96.6082     2.5459     0.0442     0.0817     0.3156
  249.5000     9.8858     8.1857     7.9458   -63.1249     7.9840    96.3140     2.5330     0.0500     0.0864     0.3107
  250.0000     8.9360     8.1102     7.8864   -63.1520     7.9828    98.1903     2.5183     0.0492     0.0931     0.3059
