~VERSION INFORMATION
 VERS.                2.0:   CWLS LOG ASCII STANDARD - VERSION 2.0
 WRAP.                 NO:   ONE LINE PER DEPTH STEP
~WELL INFORMATION
#MNEM.UNIT      DATA TYPE    INFORMATION
#----------   ------------   ------------------------------
 STRT.F            0.0000:   START DEPTH
 STOP.F          700.0000:   STOP DEPTH
 STEP.F            0.5000:   STEP LENGTH
 NULL.          -999.2500:   NO VALUE
 COMP. FENIX & SCISSON INC:   COMPANY
 WELL. 37-11 SX 11 WP #11-11:   WELL
 FLD .             TEAPOT:   FIELD
 LOC .      S11 T38N R78W:   LOCATION
 CNTY.            NATRONA:   COUNTY
 STAT.            WYOMING:   STATE
 CTRY. UNITED STATES OF AMERICA:   COUNTRY
 SRVC.      Dresser Atlas:   SERVICE COMPANY
 DATE.        21-AUG-1980:   LOGDATE
 API .       490251084200:   API NUMBER
~CURVE INFORMATION
#MNEM.UNIT       API CODE    CURVE DESCRIPTION
#----------   ------------   ------------------------------
 DEPT.F                  :   
 SPR .MV     07 010 01 00:   SPONTANEOUS POTENTIAL
 RFOC.OHMM   07 220 04 00:   RESISTIVITY FOCUSED LOG
 RILD.OHMM   07 120 46 00:   INDUCTION LOG DEEP RESISTIVITY
 RILM.OHMM   07 120 44 00:   INDUCTION LOG MEDIUM RESISTIVITY
 GRD .GAPI   45 310 01 00:   GAMMA RAY FROM DENSITY LOG
 CALD.IN     45 280 60 00:   CALIPER
 RHOB.G/C3   45 350 01 00:   BULK DENSITY
 CORR.G/C3   45 356 01 00:   DENSITY CORRECTION
 CNC .DEC    42 890 03 00:   NEUTRON POROSITY SANDSTONE
 PORD.DEC    45 890 12 00:   POROSITY DENSITY SANDSTONE
~PARAMETER INFORMATION
#MNEM.UNIT          VALUE    DESCRIPTION
#----------   ------------   ------------------------------
 PD  .                 GL:   PERMANENT DATUM
 EPD .F              5194:   ELEVATION PERMANENT DATUM
 LMF .                 KB:   LOG MEASURED FROM
 DAPD.F                 5:   FEET ABOVE PERMANENT DATUM
 DMF .                 KB:   DRILLING MEASURED FROM
 EKB .F              5199:   KELLING BUSHING
 EDF .F              5198:   DRILLING FLOOR
 EGL .F              5194:   GROUND LEVEL
 DATE.            8-21-80:   RUN DATE
 RUN .                  1:   RUN NUMBER
 DD  .F               695:   DEPTH DRILLER
 DL  .F               700:   DEPTH LOGGER
 BLI .F               699:   BOTTOM LOG INTERVAL
 BS  .IN            7.875:   BIT SIZE
 BSD .F               695:   BIT SIZE AT DEPTH
 DFT .      DISPERSED KCL:   DRILLING FLUID TYPE
 DFD .               2.68:   DRILLING FLUID DENSITY
 DFV .                 50:   DRILLING FLUID VISCOSITY
 DFPH.                 14:   DRILLING FLUID PH
 DFL .                 18:   DRILLING FLUID LOSS
 MSS .           FLOWLINE:   MUD SAMPLE SOURCE
 RMS .OHMM           .256:   RESISTIVITY MUD SAMPLE
 MST .F                70:   MUD SAMPLE TEMPERATURE
 RMF .OHMM           .393:   RESISTIVITY MUD FILTRATE SAMPLE
 MFST.F                66:   MUD FILTRATE SAMPLE TEMPERATURE
 RMC .OHMM           .858:   RESISTIVITY MUD CAKE
 MCST.F                66:   MUD CAKE SAMPLE TEMPERATURE
 MFSS.               MEAS:   MUD FILTRATE SAMPLE SOURCE
 MCSS.               MEAS:   MUD CAKE SAMPLE SOURCE
 RMB .OHMM            .53:   RESISTIVITY MUD AT BHT
 BHT .F                99:   BOTTOM HOLE TEMPERATURE
 TCS .HRS               3:   TIME CURCULATED STOPPED
 MRT .F                99:   MAXIMUM RECORDED TEMPERATURE
 LUN .               9369:   LOGGING UNIT NUMBER
 LUL .       ROCK SPRINGS:   LOGGING UNIT LOCATION
 ENGI.            PAULSON:   RECORDING ENGINEER
 WITN.              SCOTT:   WITNESSED BY
 CLNT.            A2DTECH:   CLIENT CODE
 ORIG.       2", 5" PRINT:   ORIGIN OF DATA
 UWI .       490251084200:   UNIQUE WELL ID
 DICO. A2D Technologies, Inc.:   DIGITIZING COMPANY
~OTHER INFORMATION
~A    DEPT     SPR       RFOC       RILD       RILM        GRD       CALD       RHOB       CORR        CNC         PORD 
# ...
  234.5000   -16.5654     8.8282     8.3530     8.5697    97.0397     8.0061     2.4871    -0.0318     0.2347     0.0967
  235.0000   -16.5609     8.7936     8.3360     8.5790    96.9196     8.0082     2.5022    -0.0255     0.2349     0.0861
  235.5000   -16.5901     8.7589     8.3190     8.5885   100.0783     8.0104     2.5111    -0.0191     0.2411     0.0725
  236.0000   -17.0879     8.7242     8.3017     8.5989   103.1391     8.0126     2.5123    -0.0124     0.2706     0.0720
  236.5000   -17.5731     8.6805     8.2849     8.5299   102.5893     8.0148     2.5236     0.0036     0.2922     0.0734
  237.0000   -17.9774     8.7994     8.2342     8.4503   100.1672     8.0169     2.5456     0.0190     0.2874     0.0716
  237.5000   -17.7953     8.9855     8.1859     8.3991    99.5551     8.0191     2.5602     0.0282     0.2795     0.0768
  238.0000   -17.6139     9.2606     8.1338     8.3517   102.7407     8.0213     2.5516     0.0209     0.2717     0.0834
  238.5000   -17.8785     9.0112     8.1779     8.3047   102.7586     8.0235     2.5560     0.0189     0.2680     0.0762
  239.0000   -18.3886     8.5516     8.2120     8.2578   100.5350     8.0257     2.5559     0.0167     0.2742     0.0713
  239.5000   -18.9314     8.3633     8.2320     8.2096   100.7030     8.0262     2.5442     0.0126     0.2837     0.0844
  240.0000   -17.6311     8.4339     8.2512     8.3283   103.4001     8.0262     2.5388     0.0044     0.2767     0.0996
  240.5000   -15.4259     8.5590     8.2707     8.4531   105.4324     8.0309     2.5612     0.0115     0.2690     0.1077
  241.0000   -13.3065     8.6860     8.2861     8.5799   103.4615     8.0388     2.5477     0.0048     0.2676     0.1089
  241.5000   -12.3016     8.8420     8.1923     8.6795   101.5611     8.0461     2.5224    -0.0164     0.2822     0.1051
  242.0000   -12.5702     8.8420     8.1155     8.5105   100.0126     8.0431     2.5014    -0.0215     0.2979     0.0964
  242.5000   -12.9793     8.5647     8.0393     8.3128    98.3599     8.0399     2.4985    -0.0205     0.2999     0.0815
  243.0000   -13.5452     8.3769     7.9640     8.1338    97.1702     8.0367     2.5003    -0.0197     0.3076     0.0779
  243.5000   -14.1787     8.2096     7.8892     8.1607    97.2056     8.0335     2.5134    -0.0093     0.2916     0.0798
  244.0000   -14.5157     8.2434     7.8189     8.1868    97.4245     8.0303     2.5313     0.0062     0.2782     0.0904
  244.5000   -14.7198     8.3066     7.7578     8.2128    98.4387     8.0270     2.5480     0.0171     0.2664     0.0992
  245.0000   -14.5398     8.4760     7.6935     8.2386   101.8465     8.0262     2.5501     0.0156     0.2608     0.0923
  245.5000   -14.3561     8.6489     7.5150     8.2645   104.9512     8.0262     2.5325     0.0056     0.2556     0.0761
  246.0000   -14.6149     8.7603     7.3299     8.2861   106.0499     8.0262     2.5078     0.0027     0.2511     0.0722
  246.5000   -14.9802     8.3480     7.1493     8.0271   105.2900     8.0262     2.5226     0.0044     0.2556     0.1008
  247.0000   -15.3552     8.0108     6.9732     7.7676   104.4226     8.0262     2.5515     0.0146     0.2629     0.1192
  247.5000   -15.9354     7.6873     6.8014     7.5167   103.8862     8.0262     2.5559     0.0224     0.2745     0.1291
  248.0000   -16.5198     7.3768     6.6338     7.2745   104.5564     8.0262     2.5283     0.0061     0.2775     0.1295
  248.5000   -17.1052     7.1697     6.5106     7.0853   106.4224     8.0257     2.4860    -0.0156     0.2868     0.1105
  249.0000   -17.6983     7.0802     6.5106     6.9567   107.3086     8.0232     2.4636    -0.0262     0.2998     0.0920
  249.5000   -17.9045     6.9911     6.5106     6.8304   107.1959     8.0209     2.4624    -0.0311     0.3042     0.0785
  250.0000   -16.1519     6.9464     6.6473     6.6943   107.3950     8.0185     2.4709    -0.0237     0.2915     0.0898
  250.5000   -14.4275     7.1825     6.7762     6.8386   108.5607     8.0161     2.5218    -0.0022     0.2807     0.1023
  251.0000   -12.6801     7.5311     6.9076     7.0022   109.6899     8.0137     2.5466     0.0040     0.2695     0.1002
  251.5000   -12.0880     7.8959     7.0416     7.1698   109.7483     8.0113     2.5443    -0.0053     0.2676     0.1002
  252.0000   -12.1407     8.1338     7.1781     7.3415   109.4762     8.0089     2.5069    -0.0146     0.2768     0.1053
  252.5000   -12.1862     7.8021     7.3449     7.5516   106.6075     8.0064     2.5085    -0.0058     0.2869     0.1146
  253.0000   -12.2301     7.6927     7.3322     7.5200   102.7008     8.0126     2.5122     0.0017     0.2873     0.1186
  253.5000   -12.2768     7.8882     7.3114     7.4811    97.9268     8.0211     2.5046     0.0010     0.2808     0.1008
  254.0000   -12.4840     8.0298     7.2908     7.4417    96.8362     8.0297     2.4889    -0.0103     0.2697     0.0858
  254.5000   -12.8896     8.1338     7.2701     7.4026    95.9836     8.0383     2.4798    -0.0176     0.2688     0.0822
  255.0000   -13.2940     8.2096     7.2495     7.3638    94.3494     8.0459     2.5037    -0.0036     0.2710     0.0873
  255.5000   -13.7092     7.9459     7.2289     7.3252    92.8140     8.0383     2.5285     0.0066     0.2717     0.0914
  256.0000   -14.0580     7.7480     7.2084     7.2867    92.6548     8.0304     2.5445     0.0156     0.2724     0.0820
  256.5000   -14.0459     7.6225     7.1880     7.2484    94.3170     8.0262     2.5324     0.0172     0.2896     0.0713
  257.0000   -13.5570     7.7042     7.1676     7.2097    95.4829     8.0262     2.5262     0.0183     0.2998     0.0740
  257.5000   -13.0687     7.7652     7.1428     7.2586    95.6760     8.0262     2.5332     0.0200     0.3099     0.0817
  258.0000   -12.4998     7.7162     7.1557     7.3213    95.4631     8.0262     2.5528     0.0229     0.2963     0.0851
  258.5000   -11.5679     7.6556     7.1850     7.3846    96.0580     8.0262     2.5608     0.0247     0.2840     0.0843
  259.0000   -10.6576     7.5954     7.2145     7.4484    95.8992     8.0262     2.5455     0.0192     0.2721     0.0936
  259.5000    -9.8288     7.5521     7.2443     7.5128    95.1910     8.0262     2.5363     0.0151     0.2594     0.1118
  260.0000   -10.1077     7.6954     7.2771     7.5776    93.8770     8.0262     2.5395     0.0153     0.2535     0.1129
  260.5000   -10.4546     7.9091     7.3481     7.6432    93.4469     8.0269     2.5302     0.0180     0.2628     0.0904
  261.0000   -10.2129     8.1287     7.4274     7.7088    94.0639     8.0307     2.5039     0.0118     0.2680     0.0867
  261.5000    -9.8514     8.3633     7.5079     7.7659    96.2903     8.0345     2.4904     0.0013     0.2702     0.1056
  262.0000    -9.9295     8.3633     7.5888     7.7924    98.3376     8.0383     2.5152    -0.0038     0.2738     0.1227
  262.5000   -10.0070     8.3633     7.6225     7.8208    98.8769     8.0421     2.5301     0.0069     0.2969     0.1323
  263.0000   -10.1930     8.3633     7.5511     7.8376    98.4908     8.0461     2.5160     0.0045     0.3008     0.1237
  263.5000   -10.7910     8.3633     7.5003     7.7199    98.4467     8.0401     2.4824    -0.0018     0.2850     0.1061
  264.0000   -11.2032     8.3633     7.4498     7.6244    98.4414     8.0328     2.4541    -0.0016     0.2596     0.0826
  264.5000   -11.4686     8.1531     7.3996     7.5300    98.6702     8.0260     2.4571     0.0020     0.2578     0.0907
  265.0000   -11.7282     7.8749     7.3449     7.4824    98.6701     8.0262     2.4836     0.0161     0.2654     0.1077
  265.5000   -11.9873     7.6906     7.3499     7.4953    98.0498     8.0262     2.5154     0.0295     0.2696     0.1226
  266.0000   -11.9567     7.7682     7.3555     7.5039    97.4893     8.0262     2.5413     0.0291     0.2666     0.1044
  266.5000   -11.6129     7.8376     7.3612     7.5126    99.1821     8.0262     2.5122     0.0084     0.2640     0.0895
  267.0000   -10.9811     7.9065     7.3668     7.5213   103.1741     8.0262     2.4783    -0.0122     0.2637     0.0960
  267.5000   -10.2675     7.9761     7.3724     7.5299   107.5770     8.0262     2.4723    -0.0093     0.2619     0.1099
