~VERSION INFORMATION
 VERS.                2.0:   CWLS LOG ASCII STANDARD - VERSION 2.0
 WRAP.                 NO:   ONE LINE PER DEPTH STEP
~WELL INFORMATION
#MNEM.UNIT      DATA TYPE    INFORMATION
#----------   ------------   ------------------------------
 STRT.F           46.0000:   START DEPTH
 STOP.F          670.0000:   STOP DEPTH
 STEP.F            0.5000:   STEP LENGTH
 NULL.          -999.2500:   NO VALUE
 COMP. FENIX & SCISSON INC:   COMPANY
 WELL. TEAPOT #27 62SX 11WI-11:   WELL
 FLD .             TEAPOT:   FIELD
 LOC .      S11 T38N R78W:   LOCATION
 CNTY.            NATRONA:   COUNTY
 STAT.            WYOMING:   STATE
 CTRY. UNITED STATES OF AMERICA:   COUNTRY
 SRVC.      Dresser Atlas:   SERVICE COMPANY
 DATE.        27-JUL-1980:   LOGDATE
 API .       490251084000:   API NUMBER
~CURVE INFORMATION
#MNEM.UNIT       API CODE    CURVE DESCRIPTION
#----------   ------------   ------------------------------
 DEPT.F                  :   
 GRD .GAPI   45 310 01 00:   GAMMA RAY FROM DENSITY LOG
 RHOB.G/C3   45 350 01 00:   BULK DENSITY
 CORR.G/C3   45 356 01 00:   DENSITY CORRECTION
 CALD.IN     45 280 60 00:   CALIPER
 DPOR.DEC    45 890 12 00:   DENSITY POROSITY SANDSTONE
 SPR .MV     07 010 01 00:   SPONTANEOUS POTENTIAL
 SFL .OHMM   07 220 01 00:   SHALLOW FOCUSED LOG RESISTIVITY
 ILD .OHMM   07 120 46 00:   INDUCTION LOG DEEP
 ILM .OHMM   07 120 44 00:   INDUCTION LOG MEDIUM
~PARAMETER INFORMATION
#MNEM.UNIT          VALUE    DESCRIPTION
#----------   ------------   ------------------------------
 PD  .                 GL:   PERMANENT DATUM
 EPD .F              5186:   ELEVATION PERMANENT DATUM
 LMF .                 KB:   LOG MEASURED FROM
 DAPD.F                 5:   FEET ABOVE PERMANENT DATUM
 DMF .                 KB:   DRILLING MEASURED FROM
 EKB .F              5191:   KELLING BUSHING
 EGL .F              5186:   GROUND LEVEL
 DATE.            7-27-80:   RUN DATE
 RUN .                  1:   RUN NUMBER
 DD  .F               660:   DEPTH DRILLER
 DL  .F               663:   DEPTH LOGGER
 BLI .F               661:   BOTTOM LOG INTERVAL
 TLI .F                46:   TOP LOG INTERVAL
 BS  .IN            7.875:   BIT SIZE
 BSD .F               660:   BIT SIZE AT DEPTH
 DFT .           CHEM GEL:   DRILLING FLUID TYPE
 DFD .                9.5:   DRILLING FLUID DENSITY
 DFV .                 50:   DRILLING FLUID VISCOSITY
 DFPH.                 11:   DRILLING FLUID PH
 DFL .                  6:   DRILLING FLUID LOSS
 MSS .           FLOWLINE:   MUD SAMPLE SOURCE
 RMS .OHMM            .08:   RESISTIVITY MUD SAMPLE
 MST .F                70:   MUD SAMPLE TEMPERATURE
 RMC .OHMM            .08:   RESISTIVITY MUD CAKE
 MCST.F                70:   MUD CAKE SAMPLE TEMPERATURE
 MFSS.               MEAS:   MUD FILTRATE SAMPLE SOURCE
 MCSS.               MEAS:   MUD CAKE SAMPLE SOURCE
 RMB .OHMM            .06:   RESISTIVITY MUD AT BHT
 BHT .F                90:   BOTTOM HOLE TEMPERATURE
 TCS .HRS               5:   TIME CURCULATED STOPPED
 MRT .F                90:   MAXIMUM RECORDED TEMPERATURE
 LUN .               6145:   LOGGING UNIT NUMBER
 LUL .              GLTTE:   LOGGING UNIT LOCATION
 ENGI.              HENRY:   RECORDING ENGINEER
 WITN.              AMEND:   WITNESSED BY
 CLNT.            A2DTECH:   CLIENT CODE
 ORIG.       2", 5" PRINT:   ORIGIN OF DATA
 UWI .       490251084000:   UNIQUE WELL ID
 DICO. A2D Technologies, Inc.:   DIGITIZING COMPANY
~OTHER INFORMATION
~A   DEPT      GRD       RHOB       CORR       CALD       DPOR        SPR          SFL        ILD      ILM   
# ...
  484.0000   106.7273     2.5128     0.0213     8.6238     0.0975   -40.0836    11.5046     7.5384     7.8491
  484.5000   108.1022     2.5090     0.0199     8.6040     0.1052   -40.1434    11.7318     6.8900     7.6972
  485.0000   108.1622     2.5122     0.0180     8.5993     0.1019   -40.1432    11.6592     6.3265     7.4991
  485.5000   106.3906     2.5184     0.0145     8.5946     0.0912   -40.1433    11.4879     5.8092     7.0862
  486.0000   104.8801     2.5121     0.0105     8.5900     0.0980   -40.1427    11.2016     5.3341     6.5021
  486.5000   103.9519     2.4785     0.0066     8.5854     0.1173   -40.1403     8.6735     5.1715     5.9400
  487.0000   105.1574     2.4444     0.0038     8.5848     0.1516   -40.1515     6.5451     5.2380     5.3002
  487.5000   109.8482     2.3884     0.0058     8.5848     0.1839   -40.5411     6.1594     5.2962     5.1241
  488.0000   114.6089     2.3447     0.0077     8.5848     0.1987   -41.1895     6.8183     5.3549     5.1715
  488.5000   116.6575     2.3964     0.0129     8.5836     0.1595   -41.9969     8.5182     5.5768     6.4080
  489.0000   114.8126     2.4712     0.0181     8.5794     0.1112   -42.4474    11.6304     5.8286     6.8797
  489.5000   109.6429     2.5444     0.0233     8.5754     0.0869   -42.8949    13.7149     6.5554     7.1254
  490.0000   106.9355     2.5488     0.0248     8.5713     0.0771   -43.2653    12.9783     7.3356     7.5409
  490.5000   105.5261     2.5475     0.0260     8.5673     0.0798   -43.5698    12.7416     8.2623     8.3447
  491.0000   105.0153     2.5430     0.0274     8.5635     0.0820   -43.7406    12.6917     8.7748     8.8082
  491.5000   102.6379     2.5419     0.0256     8.5603     0.0820   -43.8025    12.6376     9.1489     9.1714
  492.0000   101.7728     2.5388     0.0222     8.5570     0.0849   -43.8620    12.5282     8.8794     9.3160
  492.5000   103.7346     2.5261     0.0183     8.5538     0.0879   -43.9359    12.4029     8.7021     9.4050
  493.0000   108.0522     2.5195     0.0122     8.5505     0.0908   -44.0816    12.2812     8.6564     9.3085
  493.5000   107.0258     2.5282     0.0063     8.5471     0.0887   -44.2315    12.2123     8.6871     9.2397
  494.0000   105.9333     2.5255     0.0039     8.5335     0.0915   -44.6086    12.1451     8.7375     9.1494
  494.5000   104.8675     2.5145     0.0022     8.5027     0.0990   -45.2851    12.0782     9.1447     9.2259
  495.0000   103.8212     2.5035     0.0003     8.4972     0.1056   -45.9573    12.0573     9.5466     9.3444
  495.5000   103.0382     2.5022     0.0003     8.4913     0.1042   -46.6315    12.5002    10.2395     9.5181
  496.0000   102.6307     2.5048     0.0019     8.4845     0.1045   -47.3131    13.5664    11.1072     9.9111
  496.5000   101.6093     2.4915     0.0035     8.4511     0.1128   -48.1875    15.7181    12.0484    10.6851
  497.0000    97.5813     2.4774     0.0068     8.4158     0.1211   -49.1385    18.5210    13.0694    11.5194
  497.5000    89.9087     2.4673     0.0133     8.3807     0.1277   -50.0902    21.5938    14.1768    12.2168
  498.0000    82.3514     2.4660     0.0192     8.3455     0.1288   -50.9752    24.0409    15.3781    13.0639
  498.5000    72.4853     2.4581     0.0268     8.3104     0.1326   -51.7636    24.7137    16.8540    13.6740
  499.0000    65.1133     2.4396     0.0353     8.3015     0.1444   -52.3323    24.2631    18.2104    14.1739
  499.5000    63.5482     2.4180     0.0418     8.2971     0.1563   -52.7862    22.7078    18.9258    14.4727
  500.0000    63.6499     2.3970     0.0416     8.2927     0.1671   -53.2403    22.1265    18.8048    14.6274
  500.5000    65.3924     2.3788     0.0416     8.2886     0.1760   -53.7086    22.2315    18.6300    14.3357
  501.0000    67.8463     2.3740     0.0400     8.2949     0.1838   -54.0233    22.3335    18.4105    14.2124
  501.5000    70.4427     2.3688     0.0369     8.3254     0.1862   -54.3045    22.0170    18.4392    14.0804
  502.0000    72.8517     2.3650     0.0334     8.3532     0.1887   -54.5834    21.7267    18.4931    13.9697
  502.5000    74.8911     2.3612     0.0252     8.3756     0.1907   -54.8194    21.2473    18.5471    13.9697
  503.0000    74.8885     2.3563     0.0167     8.4047     0.1930   -54.8125    20.9416    18.5807    13.9697
  503.5000    73.2360     2.3491     0.0086     8.4388     0.1971   -54.7435    21.7300    18.3264    13.9697
  504.0000    72.6443     2.3412     0.0042     8.4549     0.2029   -54.5686    21.5809    18.1441    13.9697
  504.5000    72.9214     2.3325     0.0115     8.4670     0.2071   -54.3952    21.3974    17.6685    13.7516
  505.0000    72.8460     2.3410     0.0177     8.4791     0.1993   -54.2216    21.0852    17.0296    13.4923
  505.5000    72.6414     2.3583     0.0129     8.4914     0.1900   -54.0473    20.5598    16.4139    13.0756
  506.0000    73.1460     2.3724     0.0159     8.5041     0.1831   -53.8759    19.4734    15.8203    12.6762
  506.5000    73.3890     2.3708     0.0088     8.4831     0.1855   -53.6197    19.2773    15.3660    12.3947
  507.0000    72.8914     2.3771     0.0151     8.4578     0.1827   -53.2484    19.7094    14.9419    12.4516
  507.5000    72.1627     2.3915     0.0289     8.4319     0.1740   -52.6772    20.3563    14.7825    12.5940
  508.0000    71.9668     2.4234     0.0373     8.4009     0.1493   -52.1101    21.2384    14.6533    13.5419
  508.5000    73.2549     2.4970     0.0458     8.3848     0.0995   -51.6268    23.8284    14.4917    14.6835
  509.0000    74.7930     2.5539     0.0502     8.4422     0.0761   -51.6388    26.7343    14.6032    15.8645
  509.5000    77.3034     2.5677     0.0544     8.4497     0.0645   -51.7121    30.8207    14.8101    16.6091
  510.0000    77.8135     2.5743     0.0553     8.4538     0.0619   -52.1165    28.4496    15.2256    17.3006
  510.5000    76.9028     2.5181     0.0402     8.4582     0.1077   -52.5139    24.7342    15.8137    17.4745
  511.0000    74.6687     2.4432     0.0251     8.4621     0.1411   -52.9108    21.5040    16.4256    17.5895
  511.5000    73.3781     2.4094     0.0199     8.4431     0.1606   -53.3073    20.5598    16.9413    16.7911
  512.0000    74.0324     2.4077     0.0327     8.3891     0.1605   -53.7039    20.5598    17.3051    15.8663
  512.5000    75.0638     2.4528     0.0454     8.3355     0.1360   -54.1131    22.1211    17.6164    15.0267
  513.0000    76.4818     2.4640     0.0496     8.2857     0.1300   -54.4847    23.1902    17.7540    15.0261
  513.5000    77.7710     2.4431     0.0497     8.2747     0.1412   -54.8619    22.9468    17.8925    16.0443
  514.0000    78.2219     2.4023     0.0497     8.2637     0.1659   -55.2406    21.3455    17.9093    16.6409
  514.5000    77.8055     2.3881     0.0496     8.2292     0.1727   -55.4608    22.8668    17.5399    16.4310
  515.0000    76.0843     2.4297     0.0497     8.2050     0.1607   -55.5664    25.8812    17.1355    16.3322
  515.5000    74.8625     2.4699     0.0464     8.2061     0.1144   -55.4636    28.8982    16.7391    16.8397
  516.0000    74.2168     2.4884     0.0416     8.2416     0.1294   -55.2255    24.0210    16.3370    17.3043
  516.5000    74.5680     2.4185     0.0300     8.3037     0.1498   -54.9855    20.7861    16.1186    17.6059
  517.0000    75.5795     2.4019     0.0181     8.3531     0.1666   -54.7470    20.3715    15.8902    17.9144
  517.5000    75.9879     2.3983     0.0143     8.4447     0.1696   -54.6549    20.7299    15.5003    17.8009
  518.0000    76.6803     2.3843     0.0123     8.4281     0.1775   -54.7477    20.9416    15.1109    17.4404
  518.5000    77.5098     2.3706     0.0099     8.4859     0.1854   -54.8396    20.7907    14.9897    16.7269
  519.0000    78.5798     2.3615     0.0058     8.4878     0.1915   -54.9319    20.6660    14.9315    16.2272
  519.5000    79.7853     2.3576     0.0017     8.4912     0.1919   -54.9852    20.5420    14.8380    15.9764
  520.0000    80.4060     2.3616     0.0005     8.4945     0.1884   -54.7486    20.4187    14.7002    15.7442
