~VERSION INFORMATION
 VERS.                2.0:   CWLS LOG ASCII STANDARD - VERSION 2.0
 WRAP.                 NO:   ONE LINE PER DEPTH STEP
~WELL INFORMATION
#MNEM.UNIT      DATA TYPE    INFORMATION
#----------   ------------   ------------------------------
 STRT.F           86.5000:   START DEPTH
 STOP.F         1282.0000:   STOP DEPTH
 STEP.F            0.5000:   STEP LENGTH
 NULL.          -999.2500:   NO VALUE
 COMP.      UNITED STATES:   COMPANY
 WELL.             NPR #3:   WELL
 FLD .        TEAPOT DOME:   FIELD
 LOC .      S14 T38N R78W:   LOCATION
 CNTY.            NATRONA:   COUNTY
 STAT.            WYOMING:   STATE
 CTRY. UNITED STATES OF AMERICA:   COUNTRY
 SRVC.       Schlumberger:   SERVICE COMPANY
 DATE.        06-JUL-1962:   LOGDATE
 API .       490250631800:   API NUMBER
~CURVE INFORMATION
#MNEM.UNIT       API CODE    CURVE DESCRIPTION
#----------   ------------   ------------------------------
 DEPT.F                  :   
 SPR .MV     05 010 01 00:   SPONTANEOUS POTENTIAL FROM RES.
 CILD.MMHO   05 110 00 00:   CONDUCTIVITY INDUCTION LOG
 ASN .OHMM   05 041 16 00:   AMPLIFIED SHORT NORMAL 16"
 ILD .OHMM   05 120 46 00:   INDUCTION LOG DEEP
 GR  .GAPI   30 310 01 00:   GAMMA RAY
~PARAMETER INFORMATION
#MNEM.UNIT          VALUE    DESCRIPTION
#----------   ------------   ------------------------------
 PD  .                 GL:   PERMANENT DATUM
 EPD .F              5288:   ELEVATION PERMANENT DATUM
 LMF .                 KB:   LOG MEASURED FROM
 DAPD.F                 5:   FEET ABOVE PERMANENT DATUM
 DMF .                 KB:   DRILLING MEASURED FROM
 EKB .F              5293:   KELLING BUSHING
 EGL .F              5288:   GROUND LEVEL
 DATE.             7-6-62:   RUN DATE
 RUN .                  1:   RUN NUMBER
 DD  .F              1286:   DEPTH DRILLER
 DL  .F              1283:   DEPTH LOGGER
 BLI .F              1282:   BOTTOM LOG INTERVAL
 TLI .F                87:   TOP LOG INTERVAL
 CBD .F                10:   CASING BOTTOM DRILLER
 BS  .IN             6.75:   BIT SIZE
 BSD .F              1286:   BIT SIZE AT DEPTH
 DFT .            GEL-OIL:   DRILLING FLUID TYPE
 DFD .               10.3:   DRILLING FLUID DENSITY
 DFV .                 53:   DRILLING FLUID VISCOSITY
 DFL .                3.6:   DRILLING FLUID LOSS
 MSS .           FLOWLINE:   MUD SAMPLE SOURCE
 RMS .OHMM           5.66:   RESISTIVITY MUD SAMPLE
 MST .F                78:   MUD SAMPLE TEMPERATURE
 RMF .OHMM           5.59:   RESISTIVITY MUD FILTRATE SAMPLE
 MFST.F                78:   MUD FILTRATE SAMPLE TEMPERATURE
 RMC .OHMM           4.47:   RESISTIVITY MUD CAKE
 MCST.F                78:   MUD CAKE SAMPLE TEMPERATURE
 MFSS.                  M:   MUD FILTRATE SAMPLE SOURCE
 MCSS.                  M:   MUD CAKE SAMPLE SOURCE
 RMB .OHMM           5.08:   RESISTIVITY MUD AT BHT
 BHT .F                88:   BOTTOM HOLE TEMPERATURE
 TCS .HRS               1:   TIME CURCULATED STOPPED
 MRT .F                88:   MAXIMUM RECORDED TEMPERATURE
 LUN .               2503:   LOGGING UNIT NUMBER
 LUL .               CSPR:   LOGGING UNIT LOCATION
 ENGI.             KNOBEL:   RECORDING ENGINEER
 WITN.          JORGENSEN:   WITNESSED BY
 CLNT.            A2DTECH:   CLIENT CODE
 ORIG.       2", 5" PRINT:   ORIGIN OF DATA
 UWI .       490250631800:   UNIQUE WELL ID
 DICO. A2D Technologies, Inc.:   DIGITIZING COMPANY
~OTHER INFORMATION
~A   DEPT      SPR       CILD        ASN        ILD         GR   
# ...
  391.5000   -40.4752   186.6965     5.7823     5.3910  -999.2500
  392.0000   -40.3344   186.6965     5.7099     5.3507  -999.2500
  392.5000   -40.1934   186.6965     5.6375     5.3505  -999.2500
  393.0000   -40.0539   186.6965     5.5751     5.3503  -999.2500
  393.5000   -39.9366   186.6965     5.5866     5.3503  -999.2500
  394.0000   -39.9740   187.5074     5.6156     5.3505  -999.2500
  394.5000   -40.0609   188.5928     5.6331     5.3529  -999.2500
  395.0000   -40.1467   189.6997     5.6847     5.2697  -999.2500
  395.5000   -40.2329   192.8029     5.6804     5.1661  -999.2500
  396.0000   -40.3192   195.9688     5.5890     5.0615  -999.2500
  396.5000   -40.4048   199.1346     5.4627     4.9571  -999.2500
  397.0000   -40.4899   202.3004     5.3378     4.8526  -999.2500
  397.5000   -40.4853   204.7395     5.2420     4.7478  -999.2500
  398.0000   -40.3709   204.7415     5.1553     4.6514  -999.2500
  398.5000   -40.2569   204.7474     5.0732     4.6496  -999.2500
  399.0000   -40.1423   203.4913     5.1855     4.7230  -999.2500
  399.5000   -40.0276   198.8488     5.3516     4.8791  -999.2500
  400.0000   -39.9136   194.2393     5.5178     5.0348  -999.2500
  400.5000   -39.7994   189.6297     5.6827     5.1907  -999.2500
  401.0000   -39.7393   185.0202     5.8460     5.3467  -999.2500
  401.5000   -39.8397   181.4560     6.1271     5.5079  -999.2500
  402.0000   -39.9809   179.6891     6.3967     5.5497  -999.2500
  402.5000   -40.1222   179.6891     6.5101     5.5518  -999.2500
  403.0000   -40.1395   179.6891     6.3375     5.5202  -999.2500
  403.5000   -40.0678   180.6251     6.3341     5.4762  -999.2500
  404.0000   -39.9853   183.8913     6.0346     5.4321  -999.2500
  404.5000   -39.9406   187.1574     5.6965     5.3880  -999.2500
  405.0000   -39.9428   190.4235     5.5826     5.3439  -999.2500
  405.5000   -39.8150   193.6897     5.4988     5.2996  -999.2500
  406.0000   -39.6267   196.7071     5.4178     5.2558  -999.2500
  406.5000   -39.4386   196.7071     5.3949     5.2498  -999.2500
  407.0000   -39.2506   191.5533     5.3936     5.2502  -999.2500
  407.5000   -39.1392   186.7922     5.4280     5.3124  -999.2500
  408.0000   -39.2787   182.0271     5.4765     5.4213  -999.2500
  408.5000   -39.4368   177.2566     5.6247     5.5736  -999.2500
  409.0000   -39.5976   173.5780     5.8174     5.7264  -999.2500
  409.5000   -39.7579   171.1993     6.0099     5.8809  -999.2500
  410.0000   -39.9178   168.8206     6.1772     6.0115  -999.2500
  410.5000   -40.0790   166.4419     6.2146     5.9567  -999.2500
  411.0000   -40.1386   164.6766     6.1675     5.9453  -999.2500
  411.5000   -40.1075   164.6869     6.1133     5.7916  -999.2500
  412.0000   -40.0277   170.5986     6.0629     5.6386  -999.2500
  412.5000   -39.9482   178.1593     5.9786     5.4864  -999.2500
  413.0000   -39.8689   188.1781     5.8510     5.3344  -999.2500
  413.5000   -39.7897   194.7040     5.6661     5.1823  -999.2500
  414.0000   -39.7385   200.6075     5.4838     5.0303  -999.2500
  414.5000   -39.7935   204.5496     5.3059     4.8782  -999.2500
  415.0000   -39.8628   207.1466     5.1696     4.7256  -999.2500
  415.5000   -39.9261   208.9306     5.0680     4.5734  -999.2500
  416.0000   -40.0637   210.7147     5.0734     4.5500  -999.2500
  416.5000   -39.7778   211.7229     5.1536     4.6098  -999.2500
  417.0000   -39.5105   207.2713     5.1843     4.7511  -999.2500
  417.5000   -39.2468   201.9315     5.3295     4.8915  -999.2500
  418.0000   -38.9821   196.5918     5.4897     5.0321  -999.2500
  418.5000   -38.7188   191.2520     5.6350     5.1727  -999.2500
  419.0000   -38.5427   185.9091     5.6351     5.3136  -999.2500
  419.5000   -38.5458   180.6861     5.6660     5.4478  -999.2500
  420.0000   -38.5452   176.6028     5.7160     5.4749  -999.2500
  420.5000   -38.5471   172.6818     5.7947     5.5912  -999.2500
  421.0000   -38.6448   169.9435     5.8840     5.7065  -999.2500
  421.5000   -38.7514   167.2538     5.9731     5.8219  -999.2500
  422.0000   -38.8581   164.9870     6.0617     5.9378  -999.2500
  422.5000   -38.9648   163.3219     6.1272     6.0485  -999.2500
  423.0000   -39.0694   162.6712     6.1572     6.0524  -999.2500
  423.5000   -39.1118   164.0160     6.1755     6.0237  -999.2500
  424.0000   -38.9870   167.3942     6.1661     5.9781  -999.2500
  424.5000   -38.8677   171.8899     6.0828     5.8742  -999.2500
  425.0000   -38.7484   177.9226     5.9483     5.6785  -999.2500
  425.5000   -38.6309   184.9747     5.8164     5.4843  -999.2500
  426.0000   -38.5744   192.0268     5.7255     5.2900  -999.2500
  426.5000   -38.6968   198.6791     5.6332     5.0955  -999.2500
  427.0000   -38.8135   203.3787     5.4725     4.9006  -999.2500
  427.5000   -38.9301   206.8369     5.3094     4.7077  -999.2500
  428.0000   -39.0470   210.2952     5.1766     4.5438  -999.2500
  428.5000   -39.1634   211.7229     5.0673     4.5492  -999.2500
  429.0000   -39.2794   211.2424     5.0863     4.5501  -999.2500
  429.5000   -39.3422   207.3536     5.1696     4.6027  -999.2500
  430.0000   -39.3426   201.5778     5.2526     4.7499  -999.2500
  430.5000   -39.3427   195.8020     5.3335     4.9453  -999.2500
  431.0000   -39.3421   190.0263     5.4758     5.1452  -999.2500
  431.5000   -39.2752   184.2505     5.6340     5.3453  -999.2500
  432.0000   -39.1246   178.4747     5.8222     5.5465  -999.2500
  432.5000   -38.9745   173.3283     6.0134     5.7452  -999.2500
  433.0000   -38.8241   171.2469     6.1373     5.7765  -999.2500
  433.5000   -38.6738   169.1656     6.1356     5.8003  -999.2500
  434.0000   -38.5231   168.6776     6.1355     5.8254  -999.2500
  434.5000   -38.3719   170.3461     6.1216     5.8496  -999.2500
  435.0000   -38.3464   172.1865     6.0332     5.8230  -999.2500
  435.5000   -38.3463   174.0269     5.9447     5.7934  -999.2500
  436.0000   -38.3599   175.8672     5.8550     5.7638  -999.2500
  436.5000   -38.4285   177.2406     5.8356     5.7509  -999.2500
  437.0000   -38.4963   177.6870     5.8681     5.7508  -999.2500
  437.5000   -38.5639   176.6728     5.9271     5.7488  -999.2500
  438.0000   -38.6316   173.7808     5.9861     5.8176  -999.2500
  438.5000   -38.6992   170.8888     6.0452     5.9059  -999.2500
  439.0000   -38.7669   167.9968     6.1045     5.9949  -999.2500
  439.5000   -38.8345   165.3190     6.1743     6.0838  -999.2500
  440.0000   -38.9020   162.8214     6.3073     6.1726  -999.2500
  440.5000   -38.9449   161.0718     6.4409     6.2614  -999.2500
  441.0000   -38.9439   159.9617     6.5754     6.3501  -999.2500
  441.5000   -38.9178   158.8517     6.7109     6.4390  -999.2500
  442.0000   -38.8436   157.6660     6.7117     6.5299  -999.2500
  442.5000   -38.7701   155.1723     6.6920     6.5516  -999.2500
  443.0000   -38.6965   152.4962     6.6759     6.5846  -999.2500
  443.5000   -38.6221   149.8202     6.6728     6.6203  -999.2500
  444.0000   -38.5493   147.1442     6.7945     6.6828  -999.2500
  444.5000   -38.6002   144.4681     6.9556     6.9312  -999.2500
  445.0000   -38.6592   141.6491     7.1177     7.0510  -999.2500
  445.5000   -38.7178   141.4129     7.1773     7.0511  -999.2500
  446.0000   -38.7762   139.4147     7.0608     7.0541  -999.2500
  446.5000   -38.8348   137.4167     7.3506     7.1916  -999.2500
  447.0000   -38.8934   136.0165     7.6358     7.3442  -999.2500
  447.5000   -38.9445   139.6470     7.4598     7.1661  -999.2500
  448.0000   -38.9229   145.7958     7.2065     6.9580  -999.2500
  448.5000   -38.7436   152.5541     6.9962     6.7506  -999.2500
  449.0000   -38.5626   159.3124     6.7912     6.5435  -999.2500
  449.5000   -38.3821   164.6733     6.6335     6.3366  -999.2500
  450.0000   -38.2014   164.6651     6.4862     6.1526  -999.2500
  450.5000   -38.0216   164.6864     6.3351     6.1501  -999.2500
  451.0000   -37.8419   167.2167     6.2966     6.1246  -999.2500
  451.5000   -37.7454   169.5028     6.2675     6.0956  -999.2500
  452.0000   -37.9456   170.6545     6.2421     6.0666  -999.2500
