~VERSION INFORMATION
 VERS.                2.0:   CWLS LOG ASCII STANDARD - VERSION 2.0
 WRAP.                 NO:   ONE LINE PER DEPTH STEP
~WELL INFORMATION
#MNEM.UNIT      DATA TYPE    INFORMATION
#----------   ------------   ------------------------------
 STRT.F           42.0000:   START DEPTH
 STOP.F          612.0000:   STOP DEPTH
 STEP.F            0.5000:   STEP LENGTH
 NULL.          -999.2500:   NO VALUE
 COMP. FENIX AND SCISSON INCORPORATED:   COMPANY
 WELL. RES 3 TEAPOT DOM #25SX11-11:   WELL
 FLD .             TEAPOT:   FIELD
 LOC .      S11 T38N R78W:   LOCATION
 CNTY.            NATRONA:   COUNTY
 STAT.            WYOMING:   STATE
 CTRY. UNITED STATES OF AMERICA:   COUNTRY
 SRVC.            Unknown:   SERVICE COMPANY
 DATE.        16-FEB-1978:   LOGDATE
 API .       490251058000:   API NUMBER
~CURVE INFORMATION
#MNEM.UNIT       API CODE    CURVE DESCRIPTION
#----------   ------------   ------------------------------
 DEPT.F                  :   
 ILD .OHMM   05 120 46 00:   INDUCTION LOG DEEP
 SN  .OHMM   05 040 16 00:   SHORT NORMAL 16"
 SPR .MV     05 010 01 00:   SPONTANEOUS POTENTIAL FROM RES.
 CALD.IN     45 280 60 00:   CALIPER FROM DENSITY LOG
 CORR.G/C3   45 356 01 00:   DENSITY CORRECTION
 DPHI.DEC    45 890 12 00:   DENSITY POROSITY SANDSTONE
 GRD .GAPI   45 310 01 00:   GAMMA RAY FROM DENSITY LOG
 RHOB.G/C3   45 350 01 00:   BULK DENSITY
~PARAMETER INFORMATION
#MNEM.UNIT          VALUE    DESCRIPTION
#----------   ------------   ------------------------------
 PD  .                 GL:   PERMANENT DATUM
 EPD .F              5167:   ELEVATION PERMANENT DATUM
 LMF .                 KB:   LOG MEASURED FROM
 DAPD.F                 3:   FEET ABOVE PERMANENT DATUM
 DMF .                 KB:   DRILLING MEASURED FROM
 EKB .F              5170:   KELLING BUSHING
 EGL .F              5167:   GROUND LEVEL
 DATE.        16-FEB-1978:   RUN DATE
 RUN .                  1:   RUN NUMBER
 DD  .F               610:   DEPTH DRILLER
 DL  .F               615:   DEPTH LOGGER
 BLI .F               610:   BOTTOM LOG INTERVAL
 TLI .F                40:   TOP LOG INTERVAL
 CS  .IN            8.625:   CASING SIZE
 CBD .F                40:   CASING BOTTOM DRILLER
 CBL .F                40:   CASING BOTTOM LOGGER
 BS  .IN            7.875:   BIT SIZE
 BSD .F               610:   BIT SIZE AT DEPTH
 DFT .        LIGNO/ SULF:   DRILLING FLUID TYPE
 DFD .                8.7:   DRILLING FLUID DENSITY
 DFV .                 30:   DRILLING FLUID VISCOSITY
 DFPH.                 10:   DRILLING FLUID PH
 DFL .                4.6:   DRILLING FLUID LOSS
 MSS .           FLOWLINE:   MUD SAMPLE SOURCE
 RMS .OHMM            1.7:   RESISTIVITY MUD SAMPLE
 MST .F                69:   MUD SAMPLE TEMPERATURE
 RMF .OHMM            1.5:   RESISTIVITY MUD FILTRATE SAMPLE
 MFST.F                70:   MUD FILTRATE SAMPLE TEMPERATURE
 RMC .OHMM            2.5:   RESISTIVITY MUD CAKE
 MCST.F                70:   MUD CAKE SAMPLE TEMPERATURE
 MFSS.               MEAS:   MUD FILTRATE SAMPLE SOURCE
 RMB .OHMM            1.6:   RESISTIVITY MUD AT BHT
 BHT .F                70:   BOTTOM HOLE TEMPERATURE
 TCS .HRS               3:   TIME CURCULATED STOPPED
 MRT .F                70:   MAXIMUM RECORDED TEMPERATURE
 LUN .               2958:   LOGGING UNIT NUMBER
 LUL .             CASPER:   LOGGING UNIT LOCATION
 ENGI.            POINTER:   RECORDING ENGINEER
 WITN.           MCGINLEY:   WITNESSED BY
 CLNT.            A2DTECH:   CLIENT CODE
 ORIG.           5" PRINT:   ORIGIN OF DATA
 UWI .       490251058000:   UNIQUE WELL ID
 DICO. A2D Technologies, Inc.:   DIGITIZING COMPANY
~OTHER INFORMATION
~A   DEPT      ILD         SN         SPR      CALD       CORR       DPHI        GRD       RHOB   
# ...
   82.5000     6.4373     6.9293    -7.8654     7.9503     0.0415     0.1260    90.8104     2.4486
   83.0000     6.6612     6.9762    -7.8742     7.9800     0.0415     0.1257    91.4103     2.4552
   83.5000     6.6115     7.0714    -7.8829     7.9794     0.0384     0.1221    91.2557     2.4559
   84.0000     6.4716     7.0695    -8.4978     7.9789     0.0368     0.1198    91.7446     2.4521
   84.5000     6.5133     7.1660    -8.3528     7.9631     0.0367     0.1180    93.3591     2.4498
   85.0000     6.5552     7.2140    -8.0606     7.9626     0.0382     0.1235    94.1096     2.4520
   85.5000     6.6424     7.2628    -7.7665     7.9620     0.0396     0.1259    93.8043     2.4557
   86.0000     6.8259     7.2604    -7.3207     7.9614     0.0410     0.1253    93.1973     2.4548
   86.5000     6.9186     7.2584    -7.3317     7.9609     0.0424     0.1251    93.3445     2.4517
   87.0000     6.9622     7.2565    -7.4920     7.9603     0.0454     0.1245    93.6425     2.4502
   87.5000     6.9584     7.1503    -7.3470     7.9598     0.0468     0.1215    92.8092     2.4508
   88.0000     6.9064     7.1026    -7.0550     7.9591     0.0467     0.1222    90.1652     2.4523
   88.5000     6.8066     7.1007    -6.9121     7.9586     0.0436     0.1246    89.2566     2.4544
   89.0000     6.7559     7.0987    -6.7695     7.9581     0.0391     0.1268    89.1031     2.4551
   89.5000     6.7055     7.0968    -7.0835     7.9677     0.0313     0.1286    89.8527     2.4505
   90.0000     6.6095     7.1449    -7.3953     7.9871     0.0284     0.1293    90.4525     2.4459
   90.5000     6.6059     7.1425    -7.7071     8.0017     0.0343     0.1275    89.2421     2.4451
   91.0000     6.5567     7.1405    -8.0189     7.9709     0.0343     0.1230    88.6350     2.4465
   91.5000     6.5531     7.0888    -8.1791     7.9551     0.0357     0.1189    89.8372     2.4495
   92.0000     6.5953     7.0378    -8.0364     7.9546     0.0356     0.1180    90.8903     2.4300
   92.5000     6.6839     6.8431    -7.8936     7.9541     0.0356     0.1186    90.2824     2.4201
   93.0000     6.6794     6.8413    -7.9046     7.9233     0.0355     0.1199    90.7312     2.4387
   93.5000     6.6758     6.9835    -7.9134     7.8623     0.0354     0.1211    91.9342     2.4514
   94.0000     6.7197     7.0793    -8.0737     7.7862     0.0308     0.1254    91.0256     2.4559
   94.5000     6.7151     7.1267    -8.0824     7.6248     0.0263     0.1323    90.2514     2.4438
   95.0000     6.7115     7.0750    -8.2427     7.3772     0.0127     0.1508    89.6600     2.4341
   95.5000     6.6614     7.0241    -8.4030     7.4219    -0.0023     0.1660    89.6563     2.4106
   96.0000     6.6570     7.0222    -8.3879     7.5573    -0.0304     0.1952    89.6527     2.3985
   96.5000     6.6074     7.0693    -8.1197     7.4511    -0.1222     0.2295    89.4982     2.3541
   97.0000     6.5581     7.0674    -8.1285     7.5260    -0.1523     0.2712    89.1929     2.3210
   97.5000     6.5092     7.0166    -7.9835     7.6312    -0.2541     0.2953    88.7368     2.2639
   98.0000     6.5057     7.0147    -7.9945     7.8331    -0.3964     0.3010    87.4511     2.1745
   98.5000     6.4125     7.0124    -8.0033     8.0078     0.0302     0.3002    81.7904     2.0055
   99.0000     6.3647     6.9620    -8.0121     7.9921     0.0660     0.1332    82.5409     2.4055
   99.5000     6.4056     7.0091    -7.4169     8.3087     0.0614     0.1096    87.8163     2.4755
  100.0000     6.2699     6.9100    -6.9690     9.4109     0.0539     0.1104    99.4265     2.4741
  100.5000     6.3093     6.9072    -6.8356     7.9752     0.0493     0.1170   101.6825     2.4626
  101.0000     6.2604     6.9526    -6.8593     7.9745     0.0432     0.1180   100.9225     2.4596
  101.5000     6.2129     6.9982    -6.7220     7.9892     0.0371     0.1162    99.4084     2.4603
  102.0000     6.2087     6.9947    -6.7458     7.9885     0.0340     0.1153    96.5368     2.4640
  102.5000     6.2488     6.9918    -7.0682     7.9879     0.0339     0.1154    96.0784     2.4677
  103.0000     6.2882     6.9890    -7.2430     8.0024     0.0368     0.1166    94.7138     2.4691
  103.5000     6.3268     6.9385    -7.4135     8.0018     0.0367     0.1179    93.6522     2.4690
  104.0000     6.3224     6.9841    -7.7355     8.0162     0.0366     0.1185    95.3055     2.4652
  104.5000     6.2734     6.9806    -7.9060     8.0156     0.0365     0.1173    96.0553     2.4614
  105.0000     6.2692     6.9777    -8.0765     7.9999     0.0349     0.1138    96.2003     2.4583
  105.5000     6.3097     6.9748    -8.0955     7.9994     0.0348     0.1116    96.0422     2.4575
  106.0000     6.3494     6.9714    -7.9630     7.9921     0.0332     0.1102    94.1981     2.4589
  106.5000     6.3441     6.9686    -7.6837     7.9831     0.0316     0.1097    93.7681     2.4620
  107.0000     6.2959     6.9658    -7.7027     7.9824     0.0315     0.1091    94.9674     2.4685
  107.5000     6.3355     6.9630    -7.5654     7.9667     0.0329     0.1088    97.6765     2.4752
  108.0000     6.3754     6.9602    -7.2814     7.9662     0.0327     0.1104    98.2755     2.4759
  108.5000     6.4155     6.9092    -7.1536     7.9656     0.0326     0.1153    98.4205     2.4758
  109.0000     6.4998     6.9668    -7.1726     7.9800     0.0341     0.1189    97.9607     2.4720
  109.5000     6.6322     7.2974    -6.8885     7.9695     0.0355     0.1195    98.1237     2.4666
  110.0000     6.7685     7.5530    -6.9123     7.9723     0.0368     0.1181    98.4016     2.4613
  110.5000     6.7160     7.7090    -6.9312     7.9783     0.0457     0.1148    98.0927     2.4650
  111.0000     6.8528     7.7051    -6.7940     7.9474     0.0501     0.1124    96.2769     2.4694
  111.5000     6.8990     7.7020    -6.8177     7.9468     0.0530     0.1113    93.5561     2.4761
  112.0000     6.9393     7.6989    -7.2912     7.9462     0.0454     0.1143    93.5284     2.4843
  112.5000     6.9335     7.6424    -7.4621     7.9607     0.0333     0.1162    93.6953     2.4842
  113.0000     6.8809     7.5858    -7.4855     7.9601     0.0212     0.1210    93.5163     2.4678
  113.5000     6.8286     7.5302    -7.5044     7.9594     0.0166     0.1325    93.3820     2.4510
  114.0000     6.8240     7.5272    -7.5234     7.9589     0.0225     0.1331    94.4306     2.4457
  114.5000     6.7723     7.3180    -7.5424     7.9582     0.0284     0.1294    95.4805     2.4441
  115.0000     6.6743     7.2644    -7.5614     7.9576     0.0328     0.1233    96.0795     2.4463
  115.5000     6.7163     7.2112    -7.5804     7.9571     0.0297     0.1215    95.9214     2.4485
  116.0000     6.7107     7.1564    -7.6000     7.9565     0.0296     0.1218    92.2474     2.4522
  116.5000     6.7062     7.1053    -7.7746     7.9559     0.0310     0.1201    90.4799     2.4558
  117.0000     6.6553     7.1024    -7.7936     7.9401     0.0338     0.1180    92.7365     2.4595
  117.5000     6.6508     7.1491    -7.9641     7.9395     0.0337     0.1153    93.0309     2.4632
  118.0000     6.5093     7.1967    -7.9831     7.9389     0.0336     0.1127    93.1774     2.4669
  118.5000     6.4599     7.2440    -7.6985     7.9534     0.0335     0.1112    92.4159     2.4705
  119.0000     6.4555     7.1902    -7.2635     7.9529     0.0334     0.1104    91.0527     2.4728
  119.5000     6.4962     7.2374    -7.2872     7.9372     0.0333     0.1083    90.2927     2.4771
  120.0000     6.5371     7.2916    -7.3062     7.9364     0.0332     0.1068    92.5479     2.4808
  120.5000     6.6691     7.4871    -7.3252     7.9208     0.0331     0.1054    93.2976     2.4830
  121.0000     6.8050     7.5888    -7.4957     7.9202     0.0345     0.1054    92.8379     2.4829
  121.5000     6.9920     7.6919    -7.6662     7.9045     0.0374     0.1057    91.6254     2.4844
  122.0000     7.1344     7.7955    -7.3821     7.8586     0.0388     0.1070    90.1113     2.4828
  122.5000     7.2294     7.8475    -7.0981     7.7666     0.0387     0.1079    89.6530     2.4774
