~VERSION INFORMATION
 VERS.                2.0:   CWLS LOG ASCII STANDARD - VERSION 2.0
 WRAP.                 NO:   ONE LINE PER DEPTH STEP
~WELL INFORMATION
#MNEM.UNIT      DATA TYPE    INFORMATION
#----------   ------------   ------------------------------
 STRT.F           40.0000:   START DEPTH
 STOP.F          876.5000:   STOP DEPTH
 STEP.F            0.5000:   STEP LENGTH
 NULL.          -999.2500:   NO VALUE
 COMP. FENIX & SCISSON INC:   COMPANY
 WELL.     NPR 3 #41-S-14:   WELL
 FLD .             TEAPOT:   FIELD
 LOC .      S14 T38N R78W:   LOCATION
 CNTY.            NATRONA:   COUNTY
 STAT.            WYOMING:   STATE
 CTRY. UNITED STATES OF AMERICA:   COUNTRY
 SRVC.            Unknown:   SERVICE COMPANY
 DATE.        12-MAR-1978:   LOGDATE
 API .       490251060200:   API NUMBER
~CURVE INFORMATION
#MNEM.UNIT       API CODE    CURVE DESCRIPTION
#----------   ------------   ------------------------------
 DEPT.F                  :   
 CALD.IN     45 280 60 00:   CALIPER FROM DENSITY LOG
 GRD .GAPI   45 310 01 00:   GAMMA RAY FROM DENSITY LOG
 RHOB.G/C3   45 350 01 00:   BULK DENSITY
 DPHI.DEC    45 890 12 00:   DENSITY POROSITY SANDSTONE
 CORR.G/C3   45 356 01 00:   DENSITY CORRECTION
 SPR .MV     05 010 01 00:   SPONTANEOUS POTENTIAL FROM RES.
 IL  .OHMM   05 120 00 00:   INDUCTION LOG
 SN  .OHMM   05 040 16 00:   SHORT NORMAL 16"
~PARAMETER INFORMATION
#MNEM.UNIT          VALUE    DESCRIPTION
#----------   ------------   ------------------------------
 PD  .                 GL:   PERMANENT DATUM
 EPD .F              5211:   ELEVATION PERMANENT DATUM
 LMF .                 KB:   LOG MEASURED FROM
 DMF .                 KB:   DRILLING MEASURED FROM
 EKB .F              5215:   KELLING BUSHING
 EGL .F              5211:   GROUND LEVEL
 DATE.            3-12-78:   RUN DATE
 RUN .                  1:   RUN NUMBER
 DD  .F               870:   DEPTH DRILLER
 DL  .F               872:   DEPTH LOGGER
 BLI .F               866:   BOTTOM LOG INTERVAL
 TLI .F                50:   TOP LOG INTERVAL
 CS  .IN            8.625:   CASING SIZE
 CBD .F                40:   CASING BOTTOM DRILLER
 CBL .F                40:   CASING BOTTOM LOGGER
 BS  .IN            7.875:   BIT SIZE
 BSD .F               870:   BIT SIZE AT DEPTH
 DFT .                KCL:   DRILLING FLUID TYPE
 DFD .                8.6:   DRILLING FLUID DENSITY
 DFV .                 33:   DRILLING FLUID VISCOSITY
 DFPH.                 10:   DRILLING FLUID PH
 DFL .               12.1:   DRILLING FLUID LOSS
 MSS .           FLOWLINE:   MUD SAMPLE SOURCE
 RMS .OHMM            .32:   RESISTIVITY MUD SAMPLE
 MST .F                54:   MUD SAMPLE TEMPERATURE
 RMF .OHMM            .36:   RESISTIVITY MUD FILTRATE SAMPLE
 MFST.F                55:   MUD FILTRATE SAMPLE TEMPERATURE
 RMC .OHMM             .5:   RESISTIVITY MUD CAKE
 MCST.F                56:   MUD CAKE SAMPLE TEMPERATURE
 MFSS.           MEASURED:   MUD FILTRATE SAMPLE SOURCE
 MCSS.           MEASURED:   MUD CAKE SAMPLE SOURCE
 RMB .OHMM            .24:   RESISTIVITY MUD AT BHT
 BHT .F                72:   BOTTOM HOLE TEMPERATURE
 TCS .HRS               4:   TIME CURCULATED STOPPED
 MRT .F                72:   MAXIMUM RECORDED TEMPERATURE
 LUN .               2958:   LOGGING UNIT NUMBER
 LUL .               CASP:   LOGGING UNIT LOCATION
 ENGI.             MILLER:   RECORDING ENGINEER
 WITN.         HARRINGTON:   WITNESSED BY
 CLNT.            A2DTECH:   CLIENT CODE
 ORIG.        2" 5" PRINT:   ORIGIN OF DATA
 UWI .       490251060200:   UNIQUE WELL ID
 DICO. A2D Technologies, Inc.:   DIGITIZING COMPANY
~OTHER INFORMATION
~A   DEPT     CALD         GRD      RHOB       DPHI       CORR        SPR         IL         SN   
# ...
  728.5000     7.9954    86.3027     2.3718     0.1494     0.0117   -45.4580    12.1565    11.4687
  729.0000     7.9957    85.5213     2.3710     0.1496     0.0155   -45.4061    12.0313    11.3797
  729.5000     7.9961    85.6975     2.3720     0.1475     0.0193   -45.4529    12.0328    11.3674
  730.0000     7.9965    85.8997     2.3804     0.1445     0.0226   -45.5149    12.0328    11.3551
  730.5000     7.9969    85.2027     2.3890     0.1436     0.0179   -45.5772    12.0328    11.3428
  731.0000     7.9972    83.1846     2.3900     0.1425     0.0113   -45.6395    12.0328    11.3306
  731.5000     7.9976    80.6749     2.3893     0.1408     0.0064   -45.7012    12.0329    11.3184
  732.0000     7.9980    76.1179     2.3753     0.1485     0.0116   -45.7625    12.0329    11.3062
  732.5000     7.9984    74.6650     2.3637     0.1546     0.0175   -45.7646    12.0327    11.2939
  733.0000     7.9988    75.0536     2.3604     0.1607     0.0234   -45.6872    12.0326    11.2817
  733.5000     7.9991    78.2616     2.3571     0.1629     0.0292   -45.6033    12.0029    11.2696
  734.0000     7.9995    83.6827     2.3559     0.1609     0.0350   -45.8172    11.9435    11.2574
  734.5000     7.9999    85.9353     2.3603     0.1573     0.0385   -46.0768    11.8844    11.2452
  735.0000     8.0002    85.0247     2.3714     0.1534     0.0384   -46.3409    11.8255    11.2331
  735.5000     8.0006    84.1491     2.3824     0.1496     0.0375   -46.5886    11.7670    11.2210
  736.0000     8.0010    84.2638     2.3846     0.1461     0.0367   -46.5359    11.7087    11.2087
  736.5000     8.0014    84.0984     2.3873     0.1438     0.0359   -46.4711    11.6508    11.1970
  737.0000     8.0018    82.5608     2.3931     0.1401     0.0351   -46.3972    11.5963    11.1852
  737.5000     8.0021    80.9826     2.3969     0.1376     0.0323   -46.7574    11.5010    11.1480
  738.0000     8.0025    80.7906     2.3953     0.1401     0.0305   -47.1784    11.4114    11.0356
  738.5000     8.0029    81.8962     2.3961     0.1392     0.0270   -47.0693    11.3226    10.9249
  739.0000     8.0033    82.9271     2.3948     0.1425     0.0262   -46.9367    11.2345    10.8153
  739.5000     8.0036    82.6703     2.3791     0.1477     0.0324   -46.8067    11.1470    10.7069
  740.0000     8.0040    81.8635     2.3698     0.1431     0.0364   -46.6796    11.0602    10.5995
  740.5000     8.0044    81.0635     2.3897     0.1342     0.0336   -46.7583    10.9741    10.4932
  741.0000     8.0048    80.9619     2.4094     0.1311     0.0310   -47.2072    10.8886    10.3880
  741.5000     8.0051    81.3158     2.4116     0.1340     0.0286   -47.4725    10.8039    10.2840
  742.0000     8.0055    85.9664     2.4103     0.1316     0.0285   -47.6098    10.7700    10.2840
  742.5000     8.0060    87.1843     2.4110     0.1304     0.0285   -47.7473    10.7779    10.2840
  743.0000     8.0025    86.1464     2.4132     0.1308     0.0273   -47.8840    10.7843    10.2840
  743.5000     7.9985    84.3523     2.4155     0.1301     0.0264   -48.0212    10.7909    10.2840
  744.0000     7.9945    82.5814     2.4146     0.1292     0.0231   -48.1627    10.7974    10.2840
  744.5000     7.9904    81.1206     2.4126     0.1328     0.0210   -48.1422    10.8039    10.2840
  745.0000     7.9864    82.6941     2.4115     0.1310     0.0173   -48.0755    10.8104    10.2840
  745.5000     7.9823    85.5294     2.4147     0.1284     0.0137   -48.0093    10.8169    10.2840
  746.0000     7.9783    86.2604     2.4104     0.1306     0.0100   -48.1352    10.8234    10.2840
  746.5000     7.9743    83.7782     2.4058     0.1328     0.0063   -49.1491    10.8299    10.2840
  747.0000     7.9702    80.7897     2.4016     0.1334     0.0055   -49.3293    10.8364    10.2840
  747.5000     7.9662    78.8033     2.4089     0.1340     0.0048   -49.3559    10.8430    10.2840
  748.0000     7.9622    79.1300     2.4091     0.1344     0.0025   -49.2895    10.8495    10.2840
  748.5000     7.9581    79.2902     2.4069     0.1344     0.0025   -49.2245    10.8560    10.2840
  749.0000     7.9541    78.6140     2.4056     0.1340     0.0026   -49.2938    10.8625    10.2840
  749.5000     7.9500    78.0129     2.4110     0.1310     0.0042   -49.4906    10.8691    10.2840
  750.0000     7.9472    79.2996     2.4159     0.1280     0.0100   -49.6876    10.8756    10.2840
  750.5000     7.9543    81.8492     2.4150     0.1280     0.0159   -49.6942    10.8821    10.2840
  751.0000     7.9618    83.3670     2.4192     0.1278     0.0218   -49.5079    10.8887    10.2840
  751.5000     7.9636    83.0557     2.4253     0.1276     0.0226   -49.3286    10.8952    10.2840
  752.0000     7.8966    82.6313     2.4309     0.1180     0.0271   -49.3170    10.9018    10.2840
  752.5000     7.8314    82.1789     2.4335     0.1159     0.0285   -49.7832    10.9083    10.2840
  753.0000     7.7667    82.4443     2.4433     0.1116     0.0303   -49.7649    10.9149    10.2840
  753.5000     7.7019    84.8159     2.4521     0.1069     0.0305   -49.7365    10.9215    10.2840
  754.0000     7.6376    86.9095     2.4528     0.1068     0.0313   -49.7109    10.9281    10.2840
  754.5000     7.6366    85.6545     2.4486     0.1101     0.0325   -49.6854    10.9346    10.2840
  755.0000     7.6530    84.7116     2.4443     0.1129     0.0223   -49.6598    10.9412    10.2840
  755.5000     7.6696    84.6676     2.4439     0.1140     0.0105   -49.6341    10.9478    10.2840
  756.0000     7.6860    84.1465     2.4386     0.1172     0.0037   -49.6094    10.9545    10.2840
  756.5000     7.6907    83.1125     2.4309     0.1266     0.0051   -49.6087    10.9608    10.2839
  757.0000     7.6941    83.4360     2.4299     0.1272     0.0035   -49.6968    10.9706    10.2834
  757.5000     7.6975    83.7515     2.4248     0.1282     0.0025   -49.7825    10.8758    10.2840
  758.0000     7.7010    83.2570     2.4168     0.1276     0.0034   -49.8681    10.6773    10.3595
  758.5000     7.7043    82.4731     2.4225     0.1247     0.0047   -49.9538    10.4824    10.4305
  759.0000     7.7071    83.2399     2.4280     0.1221     0.0061   -50.0395    10.2909    10.5019
  759.5000     7.7267    85.1293     2.4267     0.1228     0.0074   -50.1252    10.1029    10.5739
  760.0000     7.7474    84.9731     2.4261     0.1230     0.0087   -50.2108     9.9970    10.6464
  760.5000     7.7508    89.3439     2.4329     0.1176     0.0101   -50.2966     9.9846    10.6874
  761.0000     7.7538    80.8423     2.4344     0.1155     0.0086   -50.3822     9.9714    10.7121
  761.5000     7.7570    86.5005     2.4382     0.1136     0.0058   -50.4676     9.9587    10.7368
  762.0000     7.7602    83.8250     2.4418     0.1144     0.0029   -50.5552     9.9459    10.7615
  762.5000     7.7634    89.3207     2.4356     0.1177     0.0045   -50.4818     9.9331    10.7996
  763.0000     7.7667    87.5728     2.4276     0.1238     0.0076   -50.3089     9.9203    10.8450
  763.5000     7.7773    86.4406     2.4248     0.1280     0.0102   -50.1352     9.9103    10.8905
  764.0000     7.8021    83.8088     2.4330     0.1186     0.0122   -49.9611     9.9546    10.9363
  764.5000     7.8271    81.2162     2.4411     0.1104     0.0114   -49.7875    10.0229    10.9994
  765.0000     7.8747    78.2413     2.4425     0.1146     0.0107   -49.6141    10.0913    11.1170
  765.5000     8.0308    76.1924     2.4321     0.1212     0.0099   -49.4355    10.1597    11.2359
  766.0000     8.0851    77.1094     2.4238     0.1277     0.0092   -49.2542    10.2282    11.3985
  766.5000     8.0860    79.8461     2.4162     0.1313     0.0084   -48.6086    10.4111    11.6760
  767.0000     8.0866    82.5781     2.4031     0.1348     0.0077   -48.3413    10.9710    11.9602
  767.5000     8.0869    85.0667     2.3964     0.1396     0.0069   -48.0995    11.5611    12.2486
  768.0000     8.0874    83.9989     2.3919     0.1417     0.0058   -47.6176    12.1828    12.5451
  768.5000     8.0878    77.9931     2.3863     0.1450     0.0049   -46.9608    12.8380    13.1062
