~VERSION INFORMATION
 VERS.                2.0:   CWLS LOG ASCII STANDARD - VERSION 2.0
 WRAP.                 NO:   ONE LINE PER DEPTH STEP
~WELL INFORMATION
#MNEM.UNIT      DATA TYPE    INFORMATION
#----------   ------------   ------------------------------
 STRT.F          148.5000:   START DEPTH
 STOP.F          882.5000:   STOP DEPTH
 STEP.F            0.5000:   STEP LENGTH
 NULL.          -999.2500:   NO VALUE
 COMP.               NAVY:   COMPANY
 WELL. RES 3 TEAPOT DOM #55S-11:   WELL
 FLD .             TEAPOT:   FIELD
 LOC .      S11 T38N R78W:   LOCATION
 CNTY.            NATRONA:   COUNTY
 STAT.            WYOMING:   STATE
 CTRY. UNITED STATES OF AMERICA:   COUNTRY
 SRVC.       Schlumberger:   SERVICE COMPANY
 DATE.        05-AUG-1961:   LOGDATE
 API .       490250634000:   API NUMBER
~CURVE INFORMATION
#MNEM.UNIT       API CODE    CURVE DESCRIPTION
#----------   ------------   ------------------------------
 DEPT.F                  :   
 GR  .GAPI   30 310 01 00:   GAMMA RAY
 SPR .MV     05 010 01 00:   SPONTANEOUS POTENTIAL FROM RES.
 CILD.MMHO   05 110 46 00:   CONDUCTIVITY INDUCTION LOG DEEP
 ASN .OHMM   05 041 16 00:   AMPLIFIED SHORT NORMAL 16"
 ILD .OHMM   05 120 46 00:   INDUCTION LOG DEEP
~PARAMETER INFORMATION
#MNEM.UNIT          VALUE    DESCRIPTION
#----------   ------------   ------------------------------
 PD  .                 GL:   PERMANENT DATUM
 EPD .F              5201:   ELEVATION PERMANENT DATUM
 LMF .                 KB:   LOG MEASURED FROM
 DAPD.F                 6:   FEET ABOVE PERMANENT DATUM
 DMF .                 KB:   DRILLING MEASURED FROM
 EKB .F              5207:   KELLING BUSHING
 EGL .F              5201:   GROUND LEVEL
 DATE.             8-5-61:   RUN DATE
 RUN .                  1:   RUN NUMBER
 DD  .F               880:   DEPTH DRILLER
 DL  .F               882:   DEPTH LOGGER
 BLI .F               881:   BOTTOM LOG INTERVAL
 TLI .F               150:   TOP LOG INTERVAL
 BS  .IN            7.875:   BIT SIZE
 BSD .F               880:   BIT SIZE AT DEPTH
 DFT .       OIL EMULSION:   DRILLING FLUID TYPE
 DFV .                 40:   DRILLING FLUID VISCOSITY
 MSS .           FLOWLINE:   MUD SAMPLE SOURCE
 RMS .OHMM            .96:   RESISTIVITY MUD SAMPLE
 MST .F                74:   MUD SAMPLE TEMPERATURE
 TCS .HRS               1:   TIME CURCULATED STOPPED
 LUN .               2544:   LOGGING UNIT NUMBER
 LUL .                 NC:   LOGGING UNIT LOCATION
 ENGI.            EARNEST:   RECORDING ENGINEER
 WITN.          JORGENSEN:   WITNESSED BY
 CLNT.            A2DTECH:   CLIENT CODE
 ORIG.       2", 5" PRINT:   ORIGIN OF DATA
 UWI .       490250634000:   UNIQUE WELL ID
 DICO. A2D Technologies, Inc.:   DIGITIZING COMPANY
~OTHER INFORMATION
~A   DEPT       GR        SPR       CILD        ASN        ILD   
# ...
  575.5000  -999.2500   -49.3083   131.5072     9.4251     8.4405
  576.0000  -999.2500   -49.1870   132.4037     9.3413     8.4086
  576.5000  -999.2500   -48.9539   133.3003     9.2811     8.2920
  577.0000  -999.2500   -48.7462   133.5341     9.2142     8.2192
  577.5000  -999.2500   -48.5050   134.2192     9.1448     8.1851
  578.0000  -999.2500   -48.5513   134.8169     9.0878     8.1374
  578.5000  -999.2500   -48.6737   135.4146     9.0520     8.0964
  579.0000  -999.2500   -48.7812   136.0123     9.0089     8.0520
  579.5000  -999.2500   -48.8932   136.6100     8.9705     8.0091
  580.0000  -999.2500   -49.0075   137.2077     8.9267     7.9658
  580.5000  -999.2500   -49.1120   137.8053     8.8841     7.9219
  581.0000  -999.2500   -49.2396   138.4030     8.8188     7.8848
  581.5000  -999.2500   -49.2446   139.0007     8.7804     7.8959
  582.0000  -999.2500   -49.1138   139.5582     8.7599     7.9149
  582.5000  -999.2500   -48.9991   138.9692     8.8115     7.9336
  583.0000  -999.2500   -48.8822   138.2918     8.7985     7.9508
  583.5000  -999.2500   -48.7498   137.6145     8.7074     7.9726
  584.0000  -999.2500   -48.6911   136.9371     8.7817     7.9823
  584.5000  -999.2500   -48.9542   136.2597     8.8203     7.9855
  585.0000  -999.2500   -49.1035   135.5422     8.7760     7.9783
  585.5000  -999.2500   -49.0488   137.8653     8.7870     7.9945
  586.0000  -999.2500   -48.7667   140.9917     8.8040     7.8715
  586.5000  -999.2500   -48.4808   143.5743     8.7185     7.6332
  587.0000  -999.2500   -48.2016   147.8256     8.6201     7.4102
  587.5000  -999.2500   -47.8981   152.1801     8.4529     7.1772
  588.0000  -999.2500   -47.7666   156.5347     8.2164     6.9545
  588.5000  -999.2500   -47.6634   161.6466     7.9632     6.6997
  589.0000  -999.2500   -47.5329   162.6151     7.6725     6.6068
  589.5000  -999.2500   -47.4934   163.7875     7.4339     6.5288
  590.0000  -999.2500   -47.7543   164.9598     7.3701     6.4488
  590.5000  -999.2500   -47.9917   166.1322     7.3811     6.3741
  591.0000  -999.2500   -48.2281   167.3046     7.3857     6.4250
  591.5000  -999.2500   -48.4741   166.6397     7.5370     6.5239
  592.0000  -999.2500   -48.6550   165.1406     7.6360     6.6082
  592.5000  -999.2500   -48.5431   163.6414     7.6538     6.6967
  593.0000  -999.2500   -48.4160   162.1423     7.6876     6.7868
  593.5000  -999.2500   -48.2902   160.6432     7.7133     6.8655
  594.0000  -999.2500   -48.1646   159.1441     7.7438     6.9143
  594.5000  -999.2500   -48.0381   157.6450     7.7775     6.9702
  595.0000  -999.2500   -47.9132   156.1459     7.8175     7.0282
  595.5000  -999.2500   -47.7845   154.6468     7.8637     7.0665
  596.0000  -999.2500   -47.6768   153.1477     7.9146     7.1606
  596.5000  -999.2500   -47.7287   151.6486     7.9865     7.2441
  597.0000  -999.2500   -47.8000   150.1494     8.0614     7.2843
  597.5000  -999.2500   -47.8686   148.9337     8.1484     7.3378
  598.0000  -999.2500   -47.9365   147.8826     8.3277     7.3861
  598.5000  -999.2500   -48.0089   146.8315     8.4314     7.4331
  599.0000  -999.2500   -48.0560   145.7804     8.5223     7.4929
  599.5000  -999.2500   -47.9632   144.7293     8.5683     7.6260
  600.0000  -999.2500   -47.8615   143.5743     8.5828     7.7761
  600.5000  -999.2500   -47.7614   146.0716     8.5706     7.7177
  601.0000  -999.2500   -47.6608   148.8426     8.5579     7.5194
  601.5000  -999.2500   -47.5603   151.6137     8.4868     7.2959
  602.0000  -999.2500   -47.4598   154.3848     8.4012     7.1699
  602.5000  -999.2500   -47.3592   154.9978     8.2853     7.2204
  603.0000  -999.2500   -47.2572   153.8688     8.1920     7.2432
  603.5000  -999.2500   -47.1554   152.7399     8.1940     7.2799
  604.0000  -999.2500   -47.0531   151.6109     8.2211     7.3087
  604.5000  -999.2500   -46.9483   150.4819     8.2834     7.3427
  605.0000  -999.2500   -46.8534   149.3530     8.3650     7.3741
  605.5000  -999.2500   -46.7890   148.2240     8.4249     7.3949
  606.0000  -999.2500   -46.7126   147.5904     8.4455     7.4243
  606.5000  -999.2500   -46.6562   147.5904     8.4665     7.4490
  607.0000  -999.2500   -46.7595   147.5904     8.4273     7.4796
  607.5000  -999.2500   -46.9023   147.5904     8.3272     7.4601
  608.0000  -999.2500   -47.0374   147.5904     8.3006     7.4089
  608.5000  -999.2500   -47.1767   147.5904     8.3103     7.3632
  609.0000  -999.2500   -47.3131   147.5904     8.3182     7.3141
  609.5000  -999.2500   -47.4504   148.5542     8.2712     7.2678
  610.0000  -999.2500   -47.4472   149.4262     8.2155     7.2180
  610.5000  -999.2500   -47.3018   150.2849     8.1291     7.1802
  611.0000  -999.2500   -47.1636   151.1366     8.0618     7.1463
  611.5000  -999.2500   -47.0231   151.9893     8.0106     7.1001
  612.0000  -999.2500   -46.8846   152.8400     7.9843     7.0560
  612.5000  -999.2500   -46.7443   153.6980     8.0025     7.0116
  613.0000  -999.2500   -46.6053   154.5744     8.0158     6.9659
  613.5000  -999.2500   -46.4612   155.6239     8.0070     6.9244
  614.0000  -999.2500   -46.4955   157.3147     7.9422     6.8615
  614.5000  -999.2500   -46.5733   161.7481     7.7821     6.6434
  615.0000  -999.2500   -46.6418   170.8217     7.6286     6.4114
  615.5000  -999.2500   -46.7144   177.4579     7.3799     6.1849
  616.0000  -999.2500   -46.7851   184.0842     7.1431     5.9542
  616.5000  -999.2500   -46.8551   190.7128     6.9680     5.6210
  617.0000  -999.2500   -46.9709   194.0161     6.7842     5.3015
  617.5000  -999.2500   -47.0708   195.7831     6.5243     5.2633
  618.0000  -999.2500   -47.1993   195.7831     6.2843     5.2696
  618.5000  -999.2500   -47.2065   195.7831     6.2026     5.2812
  619.0000  -999.2500   -47.0183   193.7751     6.2632     5.4774
  619.5000  -999.2500   -46.8827   194.6988     6.3338     5.7137
  620.0000  -999.2500   -47.0215   191.8127     6.5291     5.9227
  620.5000  -999.2500   -47.2272   184.8850     6.9367     6.1425
  621.0000  -999.2500   -47.3927   177.9573     7.0564     6.2428
  621.5000  -999.2500   -47.6153   171.0296     7.0726     6.3715
  622.0000  -999.2500   -47.4985   165.6626     7.0871     6.4861
  622.5000  -999.2500   -47.1726   166.5519     7.1079     6.6185
  623.0000  -999.2500   -46.8419   167.2777     7.1853     6.6836
  623.5000  -999.2500   -46.6427   167.4498     7.2539     6.6756
  624.0000  -999.2500   -46.7419   166.6031     7.3240     6.6791
  624.5000  -999.2500   -46.7968   165.7564     7.3919     6.6777
  625.0000  -999.2500   -46.8944   164.9096     7.3830     6.6772
  625.5000  -999.2500   -47.0126   164.0629     7.3594     6.6809
  626.0000  -999.2500   -47.1453   165.0186     7.3386     6.6607
  626.5000  -999.2500   -47.2731   167.6528     7.3212     6.4956
  627.0000  -999.2500   -47.4031   170.2871     7.3060     6.3363
  627.5000  -999.2500   -47.5325   172.9213     7.2169     6.1783
  628.0000  -999.2500   -47.6545   175.5556     7.0195     6.0214
  628.5000  -999.2500   -47.6640   177.7108     6.9298     5.8621
  629.0000  -999.2500   -47.6693   184.5540     6.8314     5.6862
  629.5000  -999.2500   -47.6361   191.5186     6.7663     5.4350
  630.0000  -999.2500   -47.3973   199.7475     6.6032     5.1376
  630.5000  -999.2500   -47.1780   211.5892     6.4263     4.8240
  631.0000  -999.2500   -46.9553   226.0038     6.0860     4.6230
  631.5000  -999.2500   -46.7352   240.4017     5.7743     4.4323
  632.0000  -999.2500   -46.5182   250.1217     5.5058     4.2229
  632.5000  -999.2500   -46.3891   250.0628     5.3101     4.1677
  633.0000  -999.2500   -46.2913   250.0000     5.0822     4.2616
  633.5000  -999.2500   -46.2231   247.2691     4.9696     4.3488
  634.0000  -999.2500   -46.3459   245.9839     5.0643     4.4506
  634.5000  -999.2500   -46.5368   233.9013     5.5318     4.7243
  635.0000  -999.2500   -46.7019   222.2892     5.9978     5.0502
  635.5000  -999.2500   -46.8516   210.6770     6.3576     5.3614
  636.0000  -999.2500   -46.7841   199.0648     6.6003     5.6809
