~VERSION INFORMATION
 VERS.                2.0:   CWLS LOG ASCII STANDARD - VERSION 2.0
 WRAP.                 NO:   ONE LINE PER DEPTH STEP
~WELL INFORMATION
#MNEM.UNIT      DATA TYPE    INFORMATION
#----------   ------------   ------------------------------
 STRT.F            6.0000:   START DEPTH
 STOP.F         2600.0000:   STOP DEPTH
 STEP.F            0.5000:   STEP LENGTH
 NULL.          -999.2500:   NO VALUE
 COMP. FENIX & SCISSON INC:   COMPANY
 WELL.   NPR 3 SH #17 -34:   WELL
 FLD .             TEAPOT:   FIELD
 LOC .      S34 T39N R78W:   LOCATION
 CNTY.            NATRONA:   COUNTY
 STAT.            WYOMING:   STATE
 CTRY. UNITED STATES OF AMERICA:   COUNTRY
 SRVC.            Unknown:   SERVICE COMPANY
 DATE.        21-MAR-1978:   LOGDATE
 API .       490251060600:   API NUMBER
~CURVE INFORMATION
#MNEM.UNIT       API CODE    CURVE DESCRIPTION
#----------   ------------   ------------------------------
 DEPT.F                  :   
 NPHI.DEC    42 890 03 00:   NEUTRON POROSITY SANDSTONE
 CALD.IN     45 280 60 00:   CALIPER FROM DENSITY LOG
 GRD .GAPI   45 310 01 00:   GAMMA RAY FROM DENSITY LOG
 CORR.G/C3   45 356 01 00:   DENSITY CORRECTION
 RHOB.G/C3   45 350 01 00:   BULK DENSITY
 DPHI.DEC    45 890 12 00:   DENSITY POROSITY SANDSTONE
~PARAMETER INFORMATION
#MNEM.UNIT          VALUE    DESCRIPTION
#----------   ------------   ------------------------------
 PD  .                 GL:   PERMANENT DATUM
 EPD .F              5150:   ELEVATION PERMANENT DATUM
 LMF .                 KB:   LOG MEASURED FROM
 DMF .                 KB:   DRILLING MEASURED FROM
 EKB .F              5160:   KELLING BUSHING
 EGL .F              5150:   GROUND LEVEL
 DATE.          3-21-1978:   RUN DATE
 RUN .                  1:   RUN NUMBER
 DD  .F              2612:   DEPTH DRILLER
 DL  .F              2592:   DEPTH LOGGER
 BLI .F              2590:   BOTTOM LOG INTERVAL
 TLI .F                20:   TOP LOG INTERVAL
 CS  .IN            9.625:   CASING SIZE
 CBD .F               710:   CASING BOTTOM DRILLER
 CBL .F               710:   CASING BOTTOM LOGGER
 BS  .IN            8.625:   BIT SIZE
 BSD .F              2612:   BIT SIZE AT DEPTH
 DFT .           AIR MIST:   DRILLING FLUID TYPE
 BHT .F               110:   BOTTOM HOLE TEMPERATURE
 TCS .HRS               2:   TIME CURCULATED STOPPED
 MRT .F               110:   MAXIMUM RECORDED TEMPERATURE
 LUN .               2958:   LOGGING UNIT NUMBER
 LUL .               CASP:   LOGGING UNIT LOCATION
 ENGI.            POINTER:   RECORDING ENGINEER
 WITN.           MCGINLEY:   WITNESSED BY
 CLNT.            A2DTECH:   CLIENT CODE
 ORIG.      2" , 5" PRINT:   ORIGIN OF DATA
 UWI .       490251060600:   UNIQUE WELL ID
 DICO. A2D Technologies, Inc.:   DIGITIZING COMPANY
~OTHER INFORMATION
~A    DEPT      NPHI     CALD        GRD       CORR       RHOB       DPHI   
# ...
 1670.0000  -999.2500     9.0722   105.5197     0.1536     2.5189     0.0802
 1670.5000  -999.2500     9.0609   105.0818     0.1560     2.5223     0.0828
 1671.0000  -999.2500     9.0497   104.9969     0.1585     2.5162     0.0816
 1671.5000  -999.2500     9.0384   105.0984     0.1609     2.5211     0.0803
 1672.0000  -999.2500     9.0271   104.0778     0.1633     2.5192     0.0788
 1672.5000  -999.2500     9.0159   104.8890     0.1658     2.5209     0.0782
 1673.0000  -999.2500     9.0061   107.4485     0.1682     2.5232     0.0774
 1673.5000  -999.2500     9.0069   110.0020     0.1707     2.5233     0.0755
 1674.0000  -999.2500     9.0077   111.6228     0.1695     2.5265     0.0737
 1674.5000  -999.2500     9.0086   110.9046     0.1671     2.5348     0.0724
 1675.0000  -999.2500     9.0094   110.2089     0.1646     2.5354     0.0763
 1675.5000  -999.2500     9.0103   108.0530     0.1634     2.5224     0.0801
 1676.0000  -999.2500     9.0111   104.4064     0.1633     2.5093     0.0840
 1676.5000  -999.2500     9.0119   102.5514     0.1633     2.5138     0.0887
 1677.0000  -999.2500     9.0128   102.5686     0.1633     2.5086     0.0932
 1677.5000  -999.2500     9.0136   102.3255     0.1634     2.5025     0.0907
 1678.0000  -999.2500     9.0145    97.7100     0.1647     2.5052     0.0828
 1678.5000  -999.2500     9.0153    94.2946     0.1677     2.5078     0.0808
 1679.0000  -999.2500     9.0162    95.6622     0.1660     2.5175     0.0851
 1679.5000  -999.2500     9.0170    97.1506     0.1594     2.5140     0.0876
 1680.0000  -999.2500     9.0178    98.6862     0.1593     2.5084     0.0856
 1680.5000  -999.2500     9.0187    99.1797     0.1568     2.5066     0.0804
 1681.0000  -999.2500     9.0195    99.5196     0.1456     2.5182     0.0897
 1681.5000  -999.2500     9.0204   104.4286     0.1356     2.5064     0.0900
 1682.0000  -999.2500     9.0212   103.7740     0.1364     2.4959     0.0882
 1682.5000  -999.2500     9.0220   102.6865     0.1370     2.5062     0.0863
 1683.0000  -999.2500     9.0229   105.3954     0.1270     2.5106     0.0848
 1683.5000  -999.2500     9.0237   106.7702     0.1242     2.5093     0.0838
 1684.0000  -999.2500     9.0246   107.5559     0.1258     2.5157     0.0840
 1684.5000  -999.2500     9.0254   107.3624     0.1271     2.5131     0.0828
 1685.0000  -999.2500     9.0263   104.1162     0.1198     2.5178     0.0833
 1685.5000  -999.2500     9.0271    99.1200     0.1122     2.5143     0.0855
 1686.0000  -999.2500     9.0279    98.0284     0.1101     2.5104     0.0865
 1686.5000  -999.2500     9.0288   100.6631     0.1136     2.5107     0.0856
 1687.0000  -999.2500     9.0296   103.7295     0.1171     2.5131     0.0847
 1687.5000  -999.2500     9.0305   104.1611     0.1205     2.5135     0.0832
 1688.0000  -999.2500     9.0313   103.9761     0.1240     2.5142     0.0792
 1688.5000  -999.2500     9.0322   106.3254     0.1275     2.5207     0.0752
 1689.0000  -999.2500     9.0330   107.1928     0.1310     2.5276     0.0747
 1689.5000  -999.2500     9.0338   104.4141     0.1344     2.5301     0.0741
 1690.0000  -999.2500     9.0347   104.1110     0.1379     2.5317     0.0711
 1690.5000  -999.2500     9.0355   103.0261     0.1385     2.5356     0.0684
 1691.0000  -999.2500     9.0364   103.0318     0.1370     2.5384     0.0707
 1691.5000  -999.2500     9.0372   104.2329     0.1355     2.5344     0.0747
 1692.0000  -999.2500     9.0380   102.6723     0.1340     2.5304     0.0787
 1692.5000  -999.2500     9.0389   100.8767     0.1325     2.5265     0.0815
 1693.0000  -999.2500     9.0397   102.4171     0.1309     2.5225     0.0835
 1693.5000  -999.2500     9.0406   104.4203     0.1293     2.5179     0.0844
 1694.0000  -999.2500     9.0414   106.2791     0.1325     2.5123     0.0788
 1694.5000  -999.2500     9.0422   105.9419     0.1367     2.5189     0.0807
 1695.0000  -999.2500     9.0431   105.4452     0.1409     2.5235     0.0843
 1695.5000  -999.2500     9.0439   104.9037     0.1452     2.5216     0.0878
 1696.0000  -999.2500     9.0448   103.1192     0.1446     2.5198     0.0908
 1696.5000  -999.2500     9.0456   101.1772     0.1438     2.5182     0.0910
 1697.0000  -999.2500     9.0465    99.5282     0.1429     2.5168     0.0912
 1697.5000  -999.2500     9.0473   101.5547     0.1421     2.5153     0.0920
 1698.0000  -999.2500     9.0481   104.2061     0.1413     2.5150     0.0928
 1698.5000  -999.2500     9.0490   105.4110     0.1404     2.5151     0.0933
 1699.0000  -999.2500     9.0498   105.1091     0.1395     2.5081     0.0948
 1699.5000  -999.2500     9.0507   104.9207     0.1410     2.4988     0.0988
 1700.0000  -999.2500     9.0515   105.9177     0.1433     2.4938     0.0988
 1700.5000  -999.2500     9.0524   106.6589     0.1452     2.5019     0.0970
 1701.0000  -999.2500     9.0532   105.2631     0.1410     2.5019     0.0975
 1701.5000  -999.2500     9.0540   103.9271     0.1365     2.4956     0.0988
 1702.0000  -999.2500     9.0549   102.8773     0.1412     2.4883     0.1032
 1702.5000  -999.2500     9.0557   103.4125     0.1497     2.4908     0.1024
 1703.0000  -999.2500     9.0566   106.8871     0.1548     2.4930     0.1007
 1703.5000  -999.2500     9.0574   110.4060     0.1569     2.4924     0.0966
 1704.0000  -999.2500     9.0582   111.4758     0.1547     2.4959     0.0925
 1704.5000  -999.2500     9.0591   111.8254     0.1525     2.4999     0.0902
 1705.0000  -999.2500     9.0599   108.9686     0.1502     2.5001     0.0892
 1705.5000  -999.2500     9.0608   105.9457     0.1480     2.5031     0.0849
 1706.0000  -999.2500     9.0616   102.8610     0.1458     2.5100     0.0804
 1706.5000  -999.2500     9.0625   101.5318     0.1436     2.5175     0.0783
 1707.0000  -999.2500     9.0633   100.3727     0.1414     2.5218     0.0768
 1707.5000  -999.2500     9.0641    99.3288     0.1395     2.5243     0.0761
 1708.0000  -999.2500     9.0650    99.1420     0.1420     2.5228     0.0753
 1708.5000  -999.2500     9.0658   100.5814     0.1445     2.5265     0.0788
 1709.0000  -999.2500     9.0667   104.5767     0.1492     2.5240     0.0766
 1709.5000  -999.2500     9.0675   105.9117     0.1552     2.5272     0.0718
 1710.0000  -999.2500     9.0683   105.9985     0.1573     2.5388     0.0661
 1710.5000  -999.2500     9.0692   106.0772     0.1577     2.5449     0.0685
 1711.0000  -999.2500     9.0700   103.2643     0.1458     2.5443     0.0746
 1711.5000  -999.2500     9.0709    98.7364     0.1318     2.5301     0.0806
 1712.0000  -999.2500     9.0717    96.6794     0.1303     2.5199     0.0839
 1712.5000  -999.2500     9.0725   104.5150     0.1293     2.5150     0.0806
 1713.0000  -999.2500     9.0734   105.5387     0.1236     2.5233     0.0784
 1713.5000  -999.2500     9.0742   106.2477     0.1197     2.5186     0.0847
 1714.0000  -999.2500     9.0751   106.3071     0.1231     2.5111     0.0842
 1714.5000  -999.2500     9.0759   106.2963     0.1262     2.5115     0.0845
 1715.0000  -999.2500     9.0768   106.8792     0.1292     2.5121     0.0851
 1715.5000  -999.2500     9.0776   107.4679     0.1322     2.5126     0.0842
 1716.0000  -999.2500     9.0784   107.1450     0.1351     2.5130     0.0826
 1716.5000  -999.2500     9.0793   103.4704     0.1374     2.5130     0.0846
 1717.0000  -999.2500     9.0801   101.1588     0.1373     2.5130     0.0853
 1717.5000  -999.2500     9.0810   104.7498     0.1376     2.5130     0.0801
 1718.0000  -999.2500     9.0818   109.1900     0.1474     2.5181     0.0772
 1718.5000  -999.2500     9.0827   108.1977     0.1493     2.5246     0.0792
 1719.0000  -999.2500     9.0835   106.3614     0.1494     2.5211     0.0799
 1719.5000  -999.2500     9.0843   104.5361     0.1494     2.5177     0.0784
 1720.0000  -999.2500     9.0852   103.2946     0.1494     2.5143     0.0768
 1720.5000  -999.2500     9.0860   103.1513     0.1547     2.5167     0.0753
 1721.0000  -999.2500     9.0869   103.0393     0.1633     2.5231     0.0738
 1721.5000  -999.2500     9.0877    99.7457     0.1634     2.5316     0.0723
