~VERSION INFORMATION
 VERS.                2.0:   CWLS LOG ASCII STANDARD - VERSION 2.0
 WRAP.                 NO:   ONE LINE PER DEPTH STEP
~WELL INFORMATION
#MNEM.UNIT      DATA TYPE    INFORMATION
#----------   ------------   ------------------------------
 STRT.F           27.0000:   START DEPTH
 STOP.F          566.0000:   STOP DEPTH
 STEP.F            0.5000:   STEP LENGTH
 NULL.          -999.2500:   NO VALUE
 COMP.    FENIX & SCISSON:   COMPANY
 WELL. S-3 NPR #3 #86-S-3:   WELL
 FLD .             TEAPOT:   FIELD
 LOC .       S3 T38N R78W:   LOCATION
 CNTY.            NATRONA:   COUNTY
 STAT.            WYOMING:   STATE
 CTRY. UNITED STATES OF AMERICA:   COUNTRY
 SRVC.       Schlumberger:   SERVICE COMPANY
 DATE.        08-APR-1977:   LOGDATE
 API .       490251032900:   API NUMBER
~CURVE INFORMATION
#MNEM.UNIT       API CODE    CURVE DESCRIPTION
#----------   ------------   ------------------------------
 DEPT.F                  :   
 CALD.IN     45 280 60 00:   CALIPER FROM DENSITY LOG
 GRD .GAPI   45 310 01 00:   GAMMA RAY FROM DENSITY LOG
 CORR.G/C3   45 356 01 00:   DENSITY CORRECTION
 RHOB.G/C3   45 350 01 00:   BULK DENSITY
 DPHI.DEC    45 890 12 00:   DENSITY POROSITY SANDSTONE
 SPR .MV     07 010 01 00:   SPONTANEOUS POTENTIAL
 ILD .OHMM   07 120 46 00:   INDUCTION LOG DEEP
 ILM .OHMM   07 120 44 00:   INDUCTION LOG MEDIUM
 LL8 .OHMM   07 220 08 00:   LATEROLOG-8 RES.
~PARAMETER INFORMATION
#MNEM.UNIT          VALUE    DESCRIPTION
#----------   ------------   ------------------------------
 PD  .                 GL:   PERMANENT DATUM
 EPD .F              5147:   ELEVATION PERMANENT DATUM
 LMF .                 KB:   LOG MEASURED FROM
 DMF .                 KB:   DRILLING MEASURED FROM
 EGL .F              5147:   GROUND LEVEL
 DATE.        08-APR-1977:   RUN DATE
 RUN .                  1:   RUN NUMBER
 DD  .F               570:   DEPTH DRILLER
 DL  .F               567:   DEPTH LOGGER
 BLI .F               566:   BOTTOM LOG INTERVAL
 TLI .F                27:   TOP LOG INTERVAL
 CS  .IN            8.625:   CASING SIZE
 CBD .F                40:   CASING BOTTOM DRILLER
 CBL .F                33:   CASING BOTTOM LOGGER
 BS  .IN            7.875:   BIT SIZE
 BSD .F               570:   BIT SIZE AT DEPTH
 DFT .                KCL:   DRILLING FLUID TYPE
 DFD .                8.6:   DRILLING FLUID DENSITY
 DFV .                 31:   DRILLING FLUID VISCOSITY
 DFPH.                9.5:   DRILLING FLUID PH
 DFL .                8.6:   DRILLING FLUID LOSS
 MSS .           FLOWLINE:   MUD SAMPLE SOURCE
 RMS .OHMM          0.306:   RESISTIVITY MUD SAMPLE
 MST .F                78:   MUD SAMPLE TEMPERATURE
 RMF .OHMM          0.230:   RESISTIVITY MUD FILTRATE SAMPLE
 MFST.F                78:   MUD FILTRATE SAMPLE TEMPERATURE
 MFSS.               MEAS:   MUD FILTRATE SAMPLE SOURCE
 RMB .OHMM          0.341:   RESISTIVITY MUD AT BHT
 BHT .F                70:   BOTTOM HOLE TEMPERATURE
 TCS .HRS              20:   TIME CURCULATED STOPPED
 MRT .F                70:   MAXIMUM RECORDED TEMPERATURE
 LUN .               5642:   LOGGING UNIT NUMBER
 LUL .               CSPR:   LOGGING UNIT LOCATION
 ENGI.             MARTIN:   RECORDING ENGINEER
 WITN.               LYON:   WITNESSED BY
 CLNT.            A2DTECH:   CLIENT CODE
 ORIG.       2", 5" PRINT:   ORIGIN OF DATA
 UWI .       490251032900:   UNIQUE WELL ID
 DICO. A2D Technologies, Inc.:   DIGITIZING COMPANY
~OTHER INFORMATION
~A   DEPT     CALD         GRD      CORR       RHOB       DPHI        SPR        ILD        ILM        LL8   
# ...
  173.0000     8.2215   109.3941     0.0199     2.4459     0.1222   -73.6783     9.5611     9.8164    11.6387
  173.5000     8.2234   109.1094     0.0147     2.4528     0.1201   -73.5207     9.7644    10.0942    11.6411
  174.0000     8.2250   108.8334     0.0148     2.4537     0.1194   -73.3630    10.0412    10.3803    11.7245
  174.5000     8.2267   107.2118     0.0149     2.4530     0.1188   -73.2054    10.3259    10.6745    11.9733
  175.0000     8.2283   105.4411     0.0083     2.4560     0.1182   -72.7474    10.8414    10.9898    12.1430
  175.5000     8.2299   104.4156     0.0144     2.4615     0.1157   -72.1393    11.1488    11.2883    12.3150
  176.0000     8.2013   103.0920     0.0235     2.4711     0.1088   -71.6814    11.5445    11.6082    12.6638
  176.5000     8.1731    98.3407     0.0334     2.4977     0.0943   -71.5237    11.8718    11.9372    12.7546
  177.0000     8.1301    95.9731     0.0493     2.5120     0.0817   -70.9156    12.2084    12.2015    12.9353
  177.5000     8.1470    97.9291     0.0381     2.5076     0.0826   -70.6078    12.5545    12.5464    13.0280
  178.0000     8.2231   100.7784     0.0277     2.4882     0.1036   -70.3000    12.8214    12.9012    13.3970
  178.5000     8.2546   101.2432     0.0112     2.4913     0.1059   -70.2925    13.0204    13.2570    14.2621
  179.0000     8.2409   101.2609     0.0158     2.4959     0.1050   -70.8859    13.2794    13.3601    15.3951
  179.5000     8.2127   100.9727     0.0159     2.4794     0.1143   -71.4790    13.5617    13.6429    16.2762
  180.0000     8.2147    98.4647     0.0145     2.4630     0.1148   -71.9217    13.6596    13.7398    16.8530
  180.5000     8.2163    99.2598     0.0101     2.4645     0.1169   -72.0645    13.9501    14.0250    14.6755
  181.0000     8.2180   100.3330     0.0034     2.4436     0.1250   -72.2072    13.9539    14.0279    14.4758
  181.5000     8.2046   102.4391     0.0126     2.4354     0.1234   -72.0493    13.8615    14.0308    14.9901
  182.0000     8.1914   107.0347     0.0254     2.4626     0.1150   -72.0418    13.6748    14.0338    15.3082
  182.5000     8.1632   107.4951     0.0338     2.4709     0.1111   -72.0343    13.6786    13.8417    14.5863
  183.0000     8.1648   104.8347     0.0355     2.4740     0.1055   -71.8767    13.5880    13.7505    14.1898
  183.5000     8.1665   103.2086     0.0249     2.4689     0.1007   -71.5689    13.4050    13.6583    13.9014
  184.0000     8.1689   104.1249     0.0270     2.4636     0.1009   -71.5614    13.3162    13.3799    13.9043
  184.5000     8.2009   105.0368     0.0327     2.4743     0.1106   -71.4037    12.9563    13.2902    14.1994
  185.0000     8.2310   105.7952     0.0259     2.4661     0.1136   -70.9458    12.8705    13.1098    14.1035
  185.5000     8.2625   102.5387     0.0186     2.4640     0.1181   -70.7881    12.6096    13.0219    13.8162
  186.0000     8.2644   100.0229     0.0089     2.4565     0.1249   -70.7806    12.6131    12.9346    13.6296
  186.5000     8.2660    98.5503     0.0135     2.4423     0.1285   -70.7731    12.5295    12.7596    13.5376
  187.0000     8.2676    98.4145     0.0144     2.4372     0.1300   -70.7656    12.2755    12.5864    13.7301
  187.5000     8.2693    99.3308     0.0190     2.4313     0.1318   -70.7581    12.0268    12.3298    13.9246
  188.0000     8.2556   104.4156     0.0214     2.4429     0.1284   -70.7506    11.8648    12.2465    13.3603
  188.5000     8.2725   105.3275     0.0177     2.4610     0.1161   -70.7431    11.7049    11.9975    12.9970
  189.0000     8.2741   105.0471     0.0208     2.4661     0.1175   -70.7356    11.6266    12.0000    12.7323
  189.5000     8.2907   103.5745     0.0141     2.4414     0.1256   -70.7281    11.6307    11.9189    12.9133
  190.0000     8.2923   101.2077     0.0172     2.4467     0.1208   -70.7206    11.7147    11.8227    13.0963
  190.5000     8.2939   100.0188     0.0286     2.4649     0.1132   -70.8633    11.7180    11.7596    13.2819
  191.0000     8.2802   103.7767     0.0272     2.4544     0.1270   -71.1560    11.6396    11.7622    13.3763
  191.5000     8.2375   106.3279     0.0183     2.4267     0.1309   -71.4489    11.6436    11.7646    13.0140
  192.0000     8.2090   106.1927     0.0214     2.4291     0.1300   -71.7417    11.6469    11.6856    12.4003
  192.5000     8.1957   105.5985     0.0350     2.4585     0.1179   -71.4338    11.6501    11.6882    12.2828
  193.0000     8.1824   104.2474     0.0374     2.4653     0.1128   -71.2762    11.6534    11.6906    12.0657
  193.5000     8.1844   101.9902     0.0359     2.4737     0.1084   -70.8182    11.6566    11.6931    12.0683
  194.0000     8.1861    99.0869     0.0338     2.4880     0.1049   -70.6606    11.6598    11.6955    12.3381
  194.5000     8.1877   100.0303     0.0424     2.4844     0.1111   -70.6531    11.5827    11.6082    12.8009
  195.0000     8.1893   100.9421     0.0460     2.4604     0.1159   -70.6456    11.3471    11.3802    13.3988
  195.5000     8.1909   101.4069     0.0318     2.4455     0.1264   -70.6381    11.0411    11.2899    13.0031
  196.0000     8.1925   100.5305     0.0177     2.4343     0.1351   -70.6306    10.8173    11.0673    12.3932
  196.5000     8.1942   100.0966     0.0140     2.4276     0.1435   -70.7732    10.7449    10.8424    11.7530
  197.0000     8.1958   102.0562     0.0156     2.4142     0.1431   -71.0660    10.6738    10.7005    11.5873
  197.5000     8.1825   105.0545     0.0164     2.4326     0.1257   -71.2087    10.4581    10.4823    11.4311
  198.0000     8.1991   106.4135     0.0150     2.4414     0.1233   -71.6516    10.3889    10.4120    11.2772
  198.5000     8.2011   105.3880     0.0204     2.4456     0.1211   -71.9444    10.2490    10.3422    11.1284
  199.0000     8.1874   102.2760     0.0258     2.4529     0.1148   -72.3874    10.1804    10.2729    11.1307
  199.5000     8.1894    99.9093     0.0266     2.4650     0.1066   -72.9805    10.1130    10.2750    11.1330
  200.0000     8.1933    98.8854     0.0267     2.4831     0.1015   -73.4234    10.1208    10.2772    11.1353
  200.5000     8.2027    97.5633     0.0268     2.5057     0.1013   -73.7108    10.1896    10.5680    10.9856
  201.0000     8.2247    96.0921     0.0171     2.4847     0.0999   -74.1493    10.4785    10.7916    11.2430
  201.5000     8.2266    91.7893     0.0044     2.4916     0.0990   -74.1374    10.7755    10.8682    14.0327
  202.0000     8.2285    89.2701     0.0195     2.5067     0.1014   -73.5248    11.0810    11.0983    17.2552
  202.5000     8.2304    92.1255     0.0243     2.4856     0.1194   -73.5129    11.3165    11.2548    15.3664
  203.0000     8.2323    93.9330     0.0388     2.4560     0.1253   -73.0505    11.3983    11.4136    13.0439
  203.5000     8.2045    96.3366     0.0445     2.4406     0.1331   -73.0386    11.3220    11.4152    12.1186
  204.0000     8.1467    97.6970     0.0371     2.4183     0.1445   -73.0267    11.0924    11.1813    11.8027
  204.5000     8.1039    98.3122     0.0221     2.4146     0.1420   -72.8646    10.7933    11.1055    11.7252
  205.0000     8.1059    98.4804     0.0117     2.4162     0.1456   -72.7025    10.5745    10.8036    11.5688
  205.5000     8.1376    99.0956     0.0193     2.4267     0.1412   -72.3903    10.3601    10.5090    11.4918
  206.0000     8.1693   101.8128     0.0231     2.4366     0.1260   -72.3783    10.0105    10.0128    11.4164
  206.5000     8.1712   105.2757     0.0126     2.4321     0.1350   -72.3664     9.7399     9.7398    11.1863
  207.0000     8.1732   106.0083     0.0112     2.4375     0.1248   -72.6607     9.4112     9.4750    10.9599
  207.5000     8.1751   105.1068     0.0114     2.4360     0.1343   -73.1848     9.1562     9.2167    10.5903
  208.0000     8.1774   105.1571     0.0114     2.4248     0.1400   -73.9813     8.7263     8.9041     9.9534
  208.5000     8.1793   105.0272     0.0107     2.4241     0.1391   -74.5699     8.3737     8.5423     8.9118
  209.0000     8.1812   104.0031     0.0091     2.4250     0.1400   -75.1586     8.1473     8.3097     8.4927
