~VERSION INFORMATION
 VERS.                2.0:   CWLS LOG ASCII STANDARD - VERSION 2.0
 WRAP.                 NO:   ONE LINE PER DEPTH STEP
~WELL INFORMATION
#MNEM.UNIT      DATA TYPE    INFORMATION
#----------   ------------   ------------------------------
 STRT.F            0.0000:   START DEPTH
 STOP.F         1340.0000:   STOP DEPTH
 STEP.F            0.5000:   STEP LENGTH
 NULL.          -999.2500:   NO VALUE
 COMP. U S NAVY-INTEX OIL:   COMPANY
 WELL. NAVAL PETROLEUM RESERVE 3 S #81-14:   WELL
 FLD .             TEAPOT:   FIELD
 LOC .      S14 T38N R78W:   LOCATION
 CNTY.            NATRONA:   COUNTY
 STAT.            WYOMING:   STATE
 CTRY. UNITED STATES OF AMERICA:   COUNTRY
 SRVC.       Schlumberger:   SERVICE COMPANY
 DATE.        20-AUG-1966:   LOGDATE
 API .       490250971600:   API NUMBER
~CURVE INFORMATION
#MNEM.UNIT       API CODE    CURVE DESCRIPTION
#----------   ------------   ------------------------------
 DEPT.F                  :   
 SPR .MV     07 010 01 00:   SPONTANEOUS POTENTIAL
 CILD.MMHO   07 110 46 00:   CONDUCTIVITY INDUCTION LOG DEEP
 ILD .OHMM   07 120 46 00:   INDUCTION LOG DEEP
 ASN .OHMM   01 041 16 00:   AMPLIFIED SHORT NORMAL 16"
 CALD.IN     45 280 60 00:   CALIPER
 RHOB.G/C3   45 350 01 00:   BULK DENSITY
 DPHI.DEC    45 890 12 00:   DENSITY POROSITY SANDSTONE
 GRD .GAPI   45 310 01 00:   GAMMA RAY FROM DENSITY LOG
 CORR.G/C3   45 356 01 00:   DENSITY CORRECTION
~PARAMETER INFORMATION
#MNEM.UNIT          VALUE    DESCRIPTION
#----------   ------------   ------------------------------
 PD  .                 GL:   PERMANENT DATUM
 EPD .F              5283:   ELEVATION PERMANENT DATUM
 LMF .                 KB:   LOG MEASURED FROM
 DAPD.F                 5:   FEET ABOVE PERMANENT DATUM
 DMF .                 KB:   DRILLING MEASURED FROM
 EKB .F              5288:   KELLING BUSHING
 EGL .F              5283:   GROUND LEVEL
 DATE.            8-20-66:   RUN DATE
 RUN .                  1:   RUN NUMBER
 DD  .F              1340:   DEPTH DRILLER
 DL  .F              1337:   DEPTH LOGGER
 BLI .F              1336:   BOTTOM LOG INTERVAL
 TLI .F                17:   TOP LOG INTERVAL
 CS  .IN            8.625:   CASING SIZE
 CBD .F                15:   CASING BOTTOM DRILLER
 CBL .F                17:   CASING BOTTOM LOGGER
 BS  .IN            7.875:   BIT SIZE
 BSD .F              1340:   BIT SIZE AT DEPTH
 DFT .           GEL-CHEM:   DRILLING FLUID TYPE
 DFD .                9.8:   DRILLING FLUID DENSITY
 DFV .                 70:   DRILLING FLUID VISCOSITY
 DFL .                  8:   DRILLING FLUID LOSS
 MSS .          FLOW LINE:   MUD SAMPLE SOURCE
 RMS .OHMM           1.26:   RESISTIVITY MUD SAMPLE
 MST .F                71:   MUD SAMPLE TEMPERATURE
 RMF .OHMM            .71:   RESISTIVITY MUD FILTRATE SAMPLE
 MFST.F                71:   MUD FILTRATE SAMPLE TEMPERATURE
 MFSS.                  M:   MUD FILTRATE SAMPLE SOURCE
 RMB .OHMM           1.04:   RESISTIVITY MUD AT BHT
 BHT .F                86:   BOTTOM HOLE TEMPERATURE
 TCS .HRS               2:   TIME CURCULATED STOPPED
 MRT .F                86:   MAXIMUM RECORDED TEMPERATURE
 LUN .               3527:   LOGGING UNIT NUMBER
 LUL .               CSPR:   LOGGING UNIT LOCATION
 ENGI.          TOLLEFSON:   RECORDING ENGINEER
 WITN.                MAY:   WITNESSED BY
 CLNT.            A2DTECH:   CLIENT CODE
 ORIG.        2" 5" PRINT:   ORIGIN OF DATA
 UWI .       490250971600:   UNIQUE WELL ID
 DICO. A2D Technologies, Inc.:   DIGITIZING COMPANY
~OTHER INFORMATION
~A    DEPT     SPR       CILD        ILD        ASN         CALD     RHOB       DPHI          GRD     CORR   
# ...
  693.5000   -48.1604   174.1517     5.6124     6.7326     7.9464     2.5135     0.1034    98.8625     0.0658
  694.0000   -48.1817   174.1517     5.5657     6.7830     7.9471     2.4861     0.1111   100.5361     0.0721
  694.5000   -48.1904   174.1517     5.5181     6.8150     7.9478     2.4656     0.1189   104.0826     0.0580
  695.0000   -48.1294   176.1477     5.4709     6.7653     7.9485     2.4792     0.1133   106.9459     0.0469
  695.5000   -48.0679   177.1956     5.4236     6.7181     7.9492     2.4932     0.1070   108.0746     0.0355
  696.0000   -48.0046   178.1516     5.3765     6.6869     7.9499     2.4950     0.1066   108.5229     0.0481
  696.5000   -48.0488   179.1076     5.3367     6.6572     7.9506     2.4873     0.1124   108.1059     0.0619
  697.0000   -48.1137   180.0636     5.3285     6.6517     7.9513     2.4848     0.1112   107.5519     0.0531
  697.5000   -48.1814   181.0195     5.3196     6.6472     7.9520     2.5016     0.1082   105.9574     0.0458
  698.0000   -48.1710   181.9755     5.3107     6.6425     7.9527     2.4881     0.1127   103.9410     0.0482
  698.5000   -48.1241   182.9315     5.3018     6.6387     7.9534     2.4715     0.1148   101.9253     0.0554
  699.0000   -48.0766   184.1317     5.2929     6.5941     7.9541     2.4811     0.1121   101.8420     0.0424
  699.5000   -48.0296   185.8380     5.2839     6.5400     7.9548     2.4916     0.1094   104.3593     0.0450
  700.0000   -47.9953   187.9015     5.2750     6.4857     7.9555     2.4794     0.1157   106.4083     0.0550
  700.5000   -47.9960   189.9649     5.2661     6.4316     7.9562     2.4618     0.1202   107.3843     0.0632
  701.0000   -47.9960   192.0283     5.2572     6.3774     7.9570     2.4778     0.1166   107.6852     0.0417
  701.5000   -47.9960   194.0755     5.2481     6.3231     7.9577     2.4974     0.1103   107.8955     0.0229
  702.0000   -47.9960   195.1749     5.2380     6.2687     7.9584     2.5082     0.1034   109.8632     0.0372
  702.5000   -47.9957   194.2169     5.3028     6.2172     7.9591     2.4867     0.1107   110.3967     0.0471
  703.0000   -47.9930   193.1138     5.3800     6.2611     7.9598     2.4686     0.1182   108.7303     0.0630
  703.5000   -48.0914   189.9900     5.4578     6.3607     7.9605     2.4626     0.1186   106.1599     0.0298
  704.0000   -48.2006   186.9062     5.5334     6.4580     7.9617     2.4551     0.1231   103.2859     0.0349
  704.5000   -48.3093   181.7365     5.6430     6.5554     7.9570     2.4355     0.1297   100.6829     0.0484
  705.0000   -48.4000   175.8626     5.7805     6.6712     7.9422     2.4486     0.1256   100.6356     0.0377
  705.5000   -48.4290   169.9886     5.9192     6.7928     7.9416     2.4605     0.1209   101.8268     0.0253
  706.0000   -48.4613   164.1146     6.0575     6.9139     7.9418     2.4589     0.1191   101.7040     0.0377
  706.5000   -48.4935   158.2407     6.1975     7.0356     7.9418     2.4574     0.1210   101.1934     0.0476
  707.0000   -48.5258   153.1936     6.2380     7.0951     7.9418     2.4565     0.1188    99.6294     0.0431
  707.5000   -48.5582   153.1936     6.2850     7.0920     7.9418     2.4690     0.1181    97.3536     0.0333
  708.0000   -48.5920   153.1936     6.3320     7.0238     7.9418     2.4827     0.1152    97.7883     0.0281
  708.5000   -48.5604   154.1916     6.2324     6.9347     7.9418     2.4938     0.1101    99.6174     0.0325
  709.0000   -48.5136   156.1876     6.1668     6.8091     7.9418     2.5069     0.1049    96.9448     0.0429
  709.5000   -48.4665   158.1836     6.0796     6.6827     7.9418     2.5253     0.0979    92.8390     0.0562
  710.0000   -48.4196   161.1776     5.9086     6.5566     7.9418     2.5040     0.1075    90.5805     0.0648
  710.5000   -48.3727   167.6813     5.6917     6.4297     7.9418     2.4578     0.1233    92.7829     0.0807
  711.0000   -48.3257   180.1397     5.4212     6.2151     7.9418     2.4394     0.1329    92.9660     0.0255
  711.5000   -48.2790   219.0681     4.6175     5.9692     7.9418     2.4303     0.1358    94.0550     0.0288
  712.0000   -48.2341   256.9735     3.8151     5.7312     7.9418     2.4186     0.1429    95.5515     0.0391
  712.5000   -48.1847   310.0710     3.0111     5.2068     7.9418     2.4045     0.1534    96.7463     0.0383
  713.0000   -47.9013   372.0500     2.4931     4.6294     7.9418     2.3741     0.1669    97.9296     0.0281
  713.5000   -47.6083   434.0290     2.1440     4.0538     7.9418     2.3412     0.1935   100.9248     0.0246
  714.0000   -47.5413   497.5050     1.8807     3.4846     7.9418     2.3335     0.1892   107.2455     0.0346
  714.5000   -47.3804   541.4421     1.7497     3.0950     7.9418     2.2977     0.1952   113.5214     0.0529
  715.0000   -47.2195   574.8503     1.7471     2.9555     7.9418     2.2520     0.2310   120.1551     0.0861
  715.5000   -47.0582   582.3353     1.8102     2.8423     7.9418     2.2057     0.2669   119.5395     0.1187
  716.0000   -46.8960   570.3593     1.8738     2.8016     7.9418     2.1923     0.2800   115.3324     0.1567
  716.5000   -46.7339   521.5968     1.9319     2.9706     7.9418     2.2129     0.2685   110.2483     0.1515
  717.0000   -46.6143   460.1131     2.2614     3.1856     7.9418     2.2545     0.2549   105.3069     0.1205
  717.5000   -46.8387   387.5859     2.6703     3.5165     7.9418     2.2929     0.2236   100.3282     0.1015
  718.0000   -47.0617   317.6828     3.5757     3.9947     7.9418     2.3688     0.1892    96.0146     0.0830
  718.5000   -47.3245   252.0935     4.5626     4.9255     7.9418     2.4516     0.1405    92.2148     0.0678
  719.0000   -47.6535   193.1162     5.5466     6.1500     7.9341     2.4505     0.1242    89.2561     0.0626
  719.5000   -47.9822   156.2973     6.5340     7.0598     7.9215     2.4401     0.1278    87.4467     0.0595
  720.0000   -48.3070   127.1029     7.2866     7.5887     7.9087     2.4378     0.1285    87.2250     0.0524
  720.5000   -48.6542   116.0013     7.8068     8.1195     7.8960     2.4596     0.1209    87.9500     0.0417
  721.0000   -48.7930   107.2854     8.2016     8.6600     7.8832     2.4643     0.1178    88.5290     0.0422
  721.5000   -48.7446   105.2875     8.2250     8.9743     7.8705     2.4707     0.1171    88.2615     0.0561
  722.0000   -48.6854   109.4771     7.9694     9.1373     7.8578     2.4985     0.1098    88.0498     0.0667
  722.5000   -48.6278   125.0798     7.2813     8.9523     7.8442     2.4806     0.1171    88.3206     0.0636
  723.0000   -48.5705   141.9716     6.4224     8.7130     7.8549     2.4477     0.1295    89.2661     0.0628
  723.5000   -48.5133   163.1016     5.5565     8.3675     7.8738     2.4303     0.1349    92.2475     0.0596
  724.0000   -48.4571   184.2315     4.9311     7.8347     7.8929     2.4208     0.1445    96.6340     0.0455
  724.5000   -48.3928   205.3615     4.6328     6.9068     7.9118     2.3981     0.1519   102.1022     0.0311
  725.0000   -48.1113   213.0739     4.6142     6.1551     7.9193     2.3623     0.1665   107.6447     0.0224
  725.5000   -47.8607   216.1427     4.5729     5.6754     7.9141     2.3261     0.1864   111.9525     0.0408
  726.0000   -47.6384   218.0622     4.5391     5.5577     7.9091     2.3136     0.2040   105.7086     0.0696
  726.5000   -47.4186   219.1093     4.5288     5.7781     7.9040     2.3640     0.1807    97.6576     0.1001
  727.0000   -47.5896   216.2570     4.9132     6.0890     7.8989     2.4051     0.1522    90.5749     0.1190
  727.5000   -47.9773   203.5469     5.3327     6.7369     7.8938     2.4045     0.1527    88.6660     0.0939
  728.0000   -48.3617   175.7500     6.1540     7.4311     7.8887     2.4369     0.1412    92.3685     0.0609
  728.5000   -48.5992   148.2902     7.0937     8.1306     7.8836     2.4477     0.1269    94.8641     0.0441
  729.0000   -48.5965   133.6327     7.7808     8.4638     7.8785     2.4344     0.1333    94.9101     0.0525
  729.5000   -48.5999   120.2595     7.9465     8.7140     7.8734     2.4423     0.1318    94.5313     0.0577
