~VERSION INFORMATION
 VERS.                2.0:   CWLS LOG ASCII STANDARD - VERSION 2.0
 WRAP.                 NO:   ONE LINE PER DEPTH STEP
~WELL INFORMATION
#MNEM.UNIT      DATA TYPE    INFORMATION
#----------   ------------   ------------------------------
 STRT.F           40.0000:   START DEPTH
 STOP.F          876.5000:   STOP DEPTH
 STEP.F            0.5000:   STEP LENGTH
 NULL.          -999.2500:   NO VALUE
 COMP. FENIX & SCISSON INC:   COMPANY
 WELL.     NPR 3 #41-S-14:   WELL
 FLD .             TEAPOT:   FIELD
 LOC .      S14 T38N R78W:   LOCATION
 CNTY.            NATRONA:   COUNTY
 STAT.            WYOMING:   STATE
 CTRY. UNITED STATES OF AMERICA:   COUNTRY
 SRVC.            Unknown:   SERVICE COMPANY
 DATE.        12-MAR-1978:   LOGDATE
 API .       490251060200:   API NUMBER
~CURVE INFORMATION
#MNEM.UNIT       API CODE    CURVE DESCRIPTION
#----------   ------------   ------------------------------
 DEPT.F                  :   
 CALD.IN     45 280 60 00:   CALIPER FROM DENSITY LOG
 GRD .GAPI   45 310 01 00:   GAMMA RAY FROM DENSITY LOG
 RHOB.G/C3   45 350 01 00:   BULK DENSITY
 DPHI.DEC    45 890 12 00:   DENSITY POROSITY SANDSTONE
 CORR.G/C3   45 356 01 00:   DENSITY CORRECTION
 SPR .MV     05 010 01 00:   SPONTANEOUS POTENTIAL FROM RES.
 IL  .OHMM   05 120 00 00:   INDUCTION LOG
 SN  .OHMM   05 040 16 00:   SHORT NORMAL 16"
~PARAMETER INFORMATION
#MNEM.UNIT          VALUE    DESCRIPTION
#----------   ------------   ------------------------------
 PD  .                 GL:   PERMANENT DATUM
 EPD .F              5211:   ELEVATION PERMANENT DATUM
 LMF .                 KB:   LOG MEASURED FROM
 DMF .                 KB:   DRILLING MEASURED FROM
 EKB .F              5215:   KELLING BUSHING
 EGL .F              5211:   GROUND LEVEL
 DATE.            3-12-78:   RUN DATE
 RUN .                  1:   RUN NUMBER
 DD  .F               870:   DEPTH DRILLER
 DL  .F               872:   DEPTH LOGGER
 BLI .F               866:   BOTTOM LOG INTERVAL
 TLI .F                50:   TOP LOG INTERVAL
 CS  .IN            8.625:   CASING SIZE
 CBD .F                40:   CASING BOTTOM DRILLER
 CBL .F                40:   CASING BOTTOM LOGGER
 BS  .IN            7.875:   BIT SIZE
 BSD .F               870:   BIT SIZE AT DEPTH
 DFT .                KCL:   DRILLING FLUID TYPE
 DFD .                8.6:   DRILLING FLUID DENSITY
 DFV .                 33:   DRILLING FLUID VISCOSITY
 DFPH.                 10:   DRILLING FLUID PH
 DFL .               12.1:   DRILLING FLUID LOSS
 MSS .           FLOWLINE:   MUD SAMPLE SOURCE
 RMS .OHMM            .32:   RESISTIVITY MUD SAMPLE
 MST .F                54:   MUD SAMPLE TEMPERATURE
 RMF .OHMM            .36:   RESISTIVITY MUD FILTRATE SAMPLE
 MFST.F                55:   MUD FILTRATE SAMPLE TEMPERATURE
 RMC .OHMM             .5:   RESISTIVITY MUD CAKE
 MCST.F                56:   MUD CAKE SAMPLE TEMPERATURE
 MFSS.           MEASURED:   MUD FILTRATE SAMPLE SOURCE
 MCSS.           MEASURED:   MUD CAKE SAMPLE SOURCE
 RMB .OHMM            .24:   RESISTIVITY MUD AT BHT
 BHT .F                72:   BOTTOM HOLE TEMPERATURE
 TCS .HRS               4:   TIME CURCULATED STOPPED
 MRT .F                72:   MAXIMUM RECORDED TEMPERATURE
 LUN .               2958:   LOGGING UNIT NUMBER
 LUL .               CASP:   LOGGING UNIT LOCATION
 ENGI.             MILLER:   RECORDING ENGINEER
 WITN.         HARRINGTON:   WITNESSED BY
 CLNT.            A2DTECH:   CLIENT CODE
 ORIG.        2" 5" PRINT:   ORIGIN OF DATA
 UWI .       490251060200:   UNIQUE WELL ID
 DICO. A2D Technologies, Inc.:   DIGITIZING COMPANY
~OTHER INFORMATION
~A   DEPT     CALD         GRD      RHOB       DPHI       CORR        SPR         IL         SN   
# ...
  526.0000     8.0854    81.8616     2.4175     0.1253    -0.0046   -55.4730     8.2325     8.9809
  526.5000     8.0850    80.8917     2.4209     0.1238    -0.0044   -55.4466     8.2250     8.9323
  527.0000     8.0846    79.3193     2.4242     0.1220    -0.0042   -55.4201     8.2174     8.8777
  527.5000     8.0842    78.1405     2.4270     0.1204    -0.0040   -55.3938     8.2098     8.8236
  528.0000     8.0839    81.2058     2.4262     0.1196    -0.0039   -55.3767     8.2021     8.7697
  528.5000     8.0835    85.3816     2.4239     0.1224    -0.0037   -55.3769     8.1944     8.7162
  529.0000     8.0831    86.5297     2.4218     0.1248    -0.0034   -55.3760     8.1868     8.6630
  529.5000     8.0827    81.8710     2.4198     0.1244    -0.0004   -55.4081     8.1791     8.6101
  530.0000     8.0824    78.6897     2.4233     0.1243     0.0030   -55.4491     8.1713     8.5576
  530.5000     8.0820    78.2322     2.4279     0.1208     0.0063   -55.4902     8.1630     8.5054
  531.0000     8.0816    78.3775     2.4333     0.1174     0.0080   -55.5293     8.1213     8.4534
  531.5000     8.0813    78.6281     2.4437     0.1114     0.0061   -55.5818     8.0766     8.4018
  532.0000     8.0809    82.0860     2.4501     0.1040     0.0045   -56.1292     8.0324     8.3506
  532.5000     8.0805    84.8905     2.4423     0.1095     0.0045   -56.7477     7.9882     8.2810
  533.0000     8.0801    85.1834     2.4418     0.1128     0.0045   -56.8316     7.9401     8.1713
  533.5000     8.0798    86.7163     2.4420     0.1113     0.0045   -56.8870     7.7129     8.0631
  534.0000     8.0794    89.3994     2.4468     0.1081     0.0045   -56.9452     7.4689     7.9564
  534.5000     8.0790    89.7609     2.4521     0.1047     0.0045   -57.1677     7.2327     7.8510
  535.0000     8.0786    89.8242     2.4560     0.1028     0.0045   -57.5631     7.0040     7.7470
  535.5000     8.0783    89.8805     2.4512     0.1072     0.0035   -57.8183     6.9581     7.6521
  536.0000     8.0779    90.1152     2.4413     0.1121     0.0026   -57.9138     6.9368     7.6050
  536.5000     8.0775    90.1176     2.4374     0.1150    -0.0012   -57.8335     6.9156     7.5817
  537.0000     8.0772    89.3343     2.4320     0.1178    -0.0077   -57.2540     6.9127     7.6265
  537.5000     8.0768    88.8397     2.4262     0.1226    -0.0049   -57.1900     6.9864     7.7252
  538.0000     8.0764    90.6879     2.4222     0.1206    -0.0018   -57.2103     7.0569     7.8252
  538.5000     8.0760    91.7798     2.4323     0.1187     0.0006   -57.2316     7.1281     7.9264
  539.0000     8.0757    91.4614     2.4333     0.1168     0.0005   -57.2526     7.2001     8.0290
  539.5000     8.0753    89.1796     2.4310     0.1157     0.0014   -57.2733     7.2728     8.0893
  540.0000     8.0749    86.7809     2.4386     0.1112     0.0024   -57.2939     7.3462     8.0918
  540.5000     8.0745    86.3123     2.4467     0.1056     0.0035   -57.3147     7.3745     8.0944
  541.0000     8.0742    89.4899     2.4509     0.1058     0.0044   -57.3357     7.3745     8.0969
  541.5000     8.0738    92.4418     2.4502     0.1060     0.0027   -57.3554     7.3745     8.0995
  542.0000     8.0734    91.6399     2.4486     0.1070     0.0008   -57.3412     7.4274     8.1020
  542.5000     8.0730    92.1673     2.4464     0.1082     0.0020   -57.1775     7.4807     8.1046
  543.0000     8.0727    93.1182     2.4443     0.1094     0.0038   -57.1706     7.5343     8.1071
  543.5000     8.0723    91.2538     2.4431     0.1096     0.0057   -57.1731     7.5883     8.1096
  544.0000     8.0719    88.5747     2.4498     0.1057     0.0049   -57.2680     7.6427     8.1122
  544.5000     8.0716    85.9418     2.4569     0.1017     0.0022   -57.8410     7.6975     8.1148
  545.0000     8.0712    86.2046     2.4610     0.0996     0.0009   -58.1839     7.7526     8.1173
  545.5000     8.0708    89.2305     2.4564     0.1027     0.0020   -58.2171     7.8082     8.1199
  546.0000     8.0704    89.7186     2.4464     0.1084     0.0016   -57.7581     7.8671     8.1224
  546.5000     8.0701    90.1154     2.4492     0.1066     0.0001   -57.3731     7.7887     8.1250
  547.0000     8.0697    91.1577     2.4521     0.1045    -0.0015   -57.4380     7.6470     8.1275
  547.5000     8.0693    91.8548     2.4469     0.1120    -0.0031   -57.5100     7.5078     8.1301
  548.0000     8.0689    91.7617     2.4414     0.1124    -0.0047   -57.5640     7.3712     8.1327
  548.5000     8.0686    91.6876     2.4451     0.1064    -0.0062   -57.5027     7.1729     8.1352
  549.0000     8.0682    91.6867     2.4464     0.1082    -0.0078   -57.4395     7.1798     8.1378
  549.5000     8.0678    91.6871     2.4423     0.1099    -0.0094   -57.3756     7.1935     8.1403
  550.0000     8.0674    91.6857     2.4381     0.1121    -0.0075   -57.4127     7.2068     8.1429
  550.5000     8.0671    91.6860     2.4369     0.1137    -0.0035   -57.4584     7.2203     8.1454
  551.0000     8.0667    91.7221     2.4316     0.1188     0.0004   -57.5036     7.2339     8.1480
  551.5000     8.0663    90.0379     2.4340     0.1168     0.0044   -57.5486     7.2475     8.1506
  552.0000     8.0660    87.7141     2.4420     0.1127     0.0064   -57.5719     7.2611     8.1531
  552.5000     8.0656    86.5656     2.4470     0.1076     0.0062   -57.5720     7.2748     8.1557
  553.0000     8.0652    89.4066     2.4456     0.1084     0.0060   -57.5721     7.2885     8.1583
  553.5000     8.0647    91.5307     2.4499     0.1044     0.0058   -57.5721     7.3063     8.1610
  554.0000     8.0642    89.5193     2.4459     0.1084     0.0055   -57.5714     7.2967     8.1634
  554.5000     8.0637    87.9764     2.4506     0.1025     0.0053   -57.5703     7.2816     8.1410
  555.0000     8.0632    87.0760     2.4527     0.1056     0.0050   -57.5762     7.2666     8.1201
  555.5000     8.0628    85.8696     2.4414     0.1144     0.0048   -57.7512     7.2516     8.0995
  556.0000     8.0623    87.2429     2.4363     0.1112     0.0046   -58.5366     7.2367     8.0788
  556.5000     8.0618    87.6798     2.4453     0.1084     0.0068   -58.9966     7.2218     8.0582
  557.0000     8.0614    87.9446     2.4406     0.1108     0.0121   -59.0614     7.2069     8.0376
  557.5000     8.0609    88.5023     2.4376     0.1132     0.0173   -59.1265     7.1921     8.0171
  558.0000     8.0604    91.4246     2.4360     0.1144     0.0196   -58.8825     7.1773     7.9966
  558.5000     8.0599    92.9962     2.4398     0.1124     0.0174   -58.3537     7.1625     7.9762
  559.0000     8.0595    90.9409     2.4354     0.1147     0.0182   -58.3703     7.1478     7.9559
  559.5000     8.0590    87.5490     2.4279     0.1195     0.0272   -58.3725     7.1331     7.9128
  560.0000     8.0585    87.4587     2.4241     0.1217     0.0347   -58.3269     7.1184     7.7948
  560.5000     8.0580    86.4464     2.4336     0.1145     0.0328   -58.2744     7.1069     7.6873
  561.0000     8.0576    86.3310     2.4436     0.1088     0.0311   -58.2197     6.8506     7.5581
  561.5000     8.0571    86.3023     2.4513     0.1048     0.0293   -58.1849     6.6074     7.4310
  562.0000     8.0566    85.8321     2.4446     0.1085     0.0289   -58.6198     6.3729     7.3060
  562.5000     8.0562    85.6324     2.4409     0.1123     0.0296   -59.0764     6.1466     7.0684
  563.0000     8.0557    87.9320     2.4363     0.1157     0.0302   -58.6777     5.9284     6.8393
  563.5000     8.0552    89.5804     2.4328     0.1184     0.0289   -58.2901     5.7841     6.6600
  564.0000     8.0547    89.3384     2.4294     0.1200     0.0233   -58.6628     5.7443     6.6619
  564.5000     8.0542    88.2888     2.4388     0.1132     0.0180   -59.0191     5.7048     6.6619
  565.0000     8.0538    88.3111     2.4342     0.1140     0.0126   -58.7923     5.6656     6.6619
  565.5000     8.0533    88.3159     2.4336     0.1152     0.0073   -58.1851     5.6413     6.8639
  566.0000     8.0528    88.3186     2.4370     0.1160     0.0026   -58.2534     5.8252     7.1321
