~VERSION INFORMATION
 VERS.                2.0:   CWLS LOG ASCII STANDARD - VERSION 2.0
 WRAP.                 NO:   ONE LINE PER DEPTH STEP
~WELL INFORMATION
#MNEM.UNIT      DATA TYPE    INFORMATION
#----------   ------------   ------------------------------
 STRT.F            0.0000:   START DEPTH
 STOP.F         3024.5000:   STOP DEPTH
 STEP.F            0.5000:   STEP LENGTH
 NULL.          -999.2500:   NO VALUE
 COMP. LAWRENCE/ALLISON INC:   COMPANY
 WELL.   NPR 3 77X #77-28:   WELL
 FLD .           N.P.R. 3:   FIELD
 LOC .      S28 T39N R78W:   LOCATION
 CNTY.            NATRONA:   COUNTY
 STAT.            WYOMING:   STATE
 CTRY. UNITED STATES OF AMERICA:   COUNTRY
 SRVC.      Dresser Atlas:   SERVICE COMPANY
 DATE.        19-OCT-1986:   LOGDATE
 API .       490251110400:   API NUMBER
~CURVE INFORMATION
#MNEM.UNIT       API CODE    CURVE DESCRIPTION
#----------   ------------   ------------------------------
 DEPT.F                  :   
 PORD.DEC    45 890 12 00:   DENSITY POROSITY SANDSTONE
 CNC .DEC    42 890 03 00:   NEUTRON POROSITY SANDSTONE
 DEN .G/C3   45 350 01 00:   COMPENSATED BULK DENSTIY
 CORR.G/C3   45 356 01 00:   DENSITY CORRECTION
 CALD.IN     45 280 60 00:   CALIPER FROM DENSITY LOG
 GRR .GAPI   07 310 01 00:   GAMMA RAY FROM RES. LOG.
 RFOC.OHMM   07 220 04 00:   RESISTIVITY FOCUSED LOG
 RILD.OHMM   07 120 46 00:   INDUCTION LOG DEEP RESISTIVITY
 RILM.OHMM   07 120 44 00:   INDUCTION LOG MEDIUM RESISTIVITY
 SPR .MV     07 010 01 00:   SPONTANEOUS POTENTIAL
~PARAMETER INFORMATION
#MNEM.UNIT          VALUE    DESCRIPTION
#----------   ------------   ------------------------------
 PD  .                 GL:   PERMANENT DATUM
 EPD .F              5074:   ELEVATION PERMANENT DATUM
 LMF .                 KB:   LOG MEASURED FROM
 DAPD.F                12:   FEET ABOVE PERMANENT DATUM
 DMF .                 KB:   DRILLING MEASURED FROM
 EKB .F              5086:   KELLING BUSHING
 EGL .F              5074:   GROUND LEVEL
 DATE.           10-19-86:   RUN DATE
 RUN .                  1:   RUN NUMBER
 DD  .F              3021:   DEPTH DRILLER
 DL  .F              3025:   DEPTH LOGGER
 BLI .F              3023:   BOTTOM LOG INTERVAL
 CS  .IN            8.625:   CASING SIZE
 CBD .F               620:   CASING BOTTOM DRILLER
 CBL .F               615:   CASING BOTTOM LOGGER
 BS  .IN            7.875:   BIT SIZE
 BSD .F              3021:   BIT SIZE AT DEPTH
 DFT .        KCL POLYMER:   DRILLING FLUID TYPE
 DFD .                8.9:   DRILLING FLUID DENSITY
 DFV .                 38:   DRILLING FLUID VISCOSITY
 DFPH.                9.5:   DRILLING FLUID PH
 DFL .               11.2:   DRILLING FLUID LOSS
 MSS .           FLOWLINE:   MUD SAMPLE SOURCE
 RMS .OHMM            .25:   RESISTIVITY MUD SAMPLE
 MST .F                65:   MUD SAMPLE TEMPERATURE
 RMF .OHMM           .203:   RESISTIVITY MUD FILTRATE SAMPLE
 MFST.F                65:   MUD FILTRATE SAMPLE TEMPERATURE
 RMC .OHMM            .31:   RESISTIVITY MUD CAKE
 MCST.F                65:   MUD CAKE SAMPLE TEMPERATURE
 MFSS.               MEAS:   MUD FILTRATE SAMPLE SOURCE
 MCSS.               CALC:   MUD CAKE SAMPLE SOURCE
 RMB .OHMM           .136:   RESISTIVITY MUD AT BHT
 BHT .F               119:   BOTTOM HOLE TEMPERATURE
 TCS .HRS               5:   TIME CURCULATED STOPPED
 MRT .F               119:   MAXIMUM RECORDED TEMPERATURE
 LUN .               6274:   LOGGING UNIT NUMBER
 LUL .               GLTE:   LOGGING UNIT LOCATION
 ENGI.             RAUTIO:   RECORDING ENGINEER
 WITN.             STRONG:   WITNESSED BY
 CLNT.            A2DTECH:   CLIENT CODE
 ORIG.       2", 5" PRINT:   ORIGIN OF DATA
 UWI .       490251110400:   UNIQUE WELL ID
 DICO. A2D Technologies, Inc.:   DIGITIZING COMPANY
~OTHER INFORMATION
~A    DEPT    PORD        CNC        DEN       CORR       CALD        GRR       RFOC       RILD       RILM        SPR   
# ...
 2043.5000  -999.2500  -999.2500  -999.2500  -999.2500  -999.2500   115.9350     7.8242     6.5208     6.6912   -82.1465
 2044.0000  -999.2500  -999.2500  -999.2500  -999.2500  -999.2500   112.1588     8.2576     6.4847     6.6912   -82.2060
 2044.5000  -999.2500  -999.2500  -999.2500  -999.2500  -999.2500   108.1206     8.6575     6.4494     6.6542   -82.2075
 2045.0000  -999.2500  -999.2500  -999.2500  -999.2500  -999.2500   104.0637     8.3836     6.3707     6.5620   -82.2043
 2045.5000  -999.2500  -999.2500  -999.2500  -999.2500  -999.2500   101.1131     8.0628     6.2765     6.4711   -82.0674
 2046.0000  -999.2500  -999.2500  -999.2500  -999.2500  -999.2500    99.3162     7.7542     6.1836     6.3815   -81.7782
 2046.5000  -999.2500  -999.2500  -999.2500  -999.2500  -999.2500    97.5000     7.6815     6.0921     6.2932   -81.4873
 2047.0000  -999.2500  -999.2500  -999.2500  -999.2500  -999.2500    96.8726     7.6815     6.0020     6.2060   -81.2293
 2047.5000  -999.2500  -999.2500  -999.2500  -999.2500  -999.2500    98.0983     7.5946     5.9369     6.1594   -81.5355
 2048.0000  -999.2500  -999.2500  -999.2500  -999.2500  -999.2500    99.3572     7.4631     5.9369     6.1594   -81.8551
 2048.5000  -999.2500  -999.2500  -999.2500  -999.2500  -999.2500   100.4289     7.4039     5.9369     6.1592   -82.1711
 2049.0000  -999.2500  -999.2500  -999.2500  -999.2500  -999.2500   100.2659     7.5222     5.9369     6.1592   -82.4895
 2049.5000  -999.2500  -999.2500  -999.2500  -999.2500  -999.2500    99.5068     7.7282     5.9369     6.2338   -82.6029
 2050.0000  -999.2500  -999.2500  -999.2500  -999.2500  -999.2500    98.7498     7.9399     5.8316     6.2738   -82.6047
 2050.5000  -999.2500  -999.2500  -999.2500  -999.2500  -999.2500    97.9923     8.0431     5.7335     5.9975   -82.6042
 2051.0000  -999.2500  -999.2500  -999.2500  -999.2500  -999.2500    98.0584     7.6686     5.6370     5.7912   -82.6270
 2051.5000  -999.2500  -999.2500  -999.2500  -999.2500  -999.2500    96.0186     7.3543     5.4724     5.5921   -82.7646
 2052.0000  -999.2500  -999.2500  -999.2500  -999.2500  -999.2500    93.5223     7.0529     5.2541     5.3997   -82.9005
 2052.5000  -999.2500  -999.2500  -999.2500  -999.2500  -999.2500    91.0049     6.7639     5.0444     5.2140   -83.0363
 2053.0000  -999.2500  -999.2500  -999.2500  -999.2500  -999.2500    88.4483     6.5237     4.8432     5.0345   -83.1757
 2053.5000  -999.2500  -999.2500  -999.2500  -999.2500  -999.2500    88.7442     6.2303     4.6499     4.8610   -83.2061
 2054.0000  -999.2500  -999.2500  -999.2500  -999.2500  -999.2500    92.4433     5.9500     4.5048     4.6717   -83.1525
 2054.5000  -999.2500  -999.2500  -999.2500  -999.2500  -999.2500    96.0110     5.6823     4.5048     4.6737   -82.9507
 2055.0000  -999.2500  -999.2500  -999.2500  -999.2500  -999.2500    98.4564     5.4150     4.7256     4.9507   -82.8316
 2055.5000  -999.2500  -999.2500  -999.2500  -999.2500  -999.2500    96.0997     5.4150     4.8797     5.2186   -82.7203
 2056.0000  -999.2500  -999.2500  -999.2500  -999.2500  -999.2500    92.1903     6.3604     5.0387     5.5019   -82.6074
 2056.5000  -999.2500  -999.2500  -999.2500  -999.2500  -999.2500    92.1863     7.1423     5.2030     5.8309   -82.4944
 2057.0000  -999.2500  -999.2500  -999.2500  -999.2500  -999.2500    93.9917     8.0202     5.3162     5.8317   -82.3814
 2057.5000  -999.2500  -999.2500  -999.2500  -999.2500  -999.2500    91.2252     8.8183     5.3153     5.5786   -82.2681
 2058.0000  -999.2500  -999.2500  -999.2500  -999.2500  -999.2500    88.2634     7.8859     5.0226     5.1613   -82.1552
 2058.5000  -999.2500  -999.2500  -999.2500  -999.2500  -999.2500    85.9687     7.0444     4.7864     4.7753   -82.0408
 2059.0000  -999.2500  -999.2500  -999.2500  -999.2500  -999.2500    88.9136     6.2927     4.5615     4.4170   -82.1248
 2059.5000  -999.2500  -999.2500  -999.2500  -999.2500  -999.2500    92.3510     5.6213     4.3472     4.0891   -82.3552
 2060.0000  -999.2500  -999.2500  -999.2500  -999.2500  -999.2500    95.8303     5.0215     4.1430     3.9567   -82.5865
 2060.5000  -999.2500  -999.2500  -999.2500  -999.2500  -999.2500    99.2960     4.7169     4.0339     3.9948   -82.8178
 2061.0000  -999.2500  -999.2500  -999.2500  -999.2500  -999.2500    98.6403     4.9112     4.0339     4.2611   -83.0491
 2061.5000  -999.2500  -999.2500  -999.2500  -999.2500  -999.2500    95.1303     5.6230     4.0339     4.4310   -83.2801
 2062.0000  -999.2500  -999.2500  -999.2500  -999.2500  -999.2500    94.1376     6.4380     4.0339     4.5079   -83.5115
 2062.5000  -999.2500  -999.2500  -999.2500  -999.2500  -999.2500    99.2631     7.1364     4.0879     4.4616   -83.5249
 2063.0000  -999.2500  -999.2500  -999.2500  -999.2500  -999.2500   104.3279     7.1364     4.1762     4.4628   -83.3559
 2063.5000  -999.2500  -999.2500  -999.2500  -999.2500  -999.2500   106.3520     6.1587     4.2665     4.4636   -83.1862
 2064.0000  -999.2500  -999.2500  -999.2500  -999.2500  -999.2500   103.6942     5.5665     4.3822     4.4636   -83.0161
 2064.5000  -999.2500  -999.2500  -999.2500  -999.2500  -999.2500   101.5835     5.5665     4.3822     4.5251   -82.8464
 2065.0000  -999.2500  -999.2500  -999.2500  -999.2500  -999.2500   103.8317     5.7066     4.3822     4.6036   -82.6766
 2065.5000  -999.2500  -999.2500  -999.2500  -999.2500  -999.2500   108.7569     5.7752     4.4722     4.7142   -82.5068
 2066.0000  -999.2500  -999.2500  -999.2500  -999.2500  -999.2500   113.7649     5.7752     4.6350     5.0669   -82.3367
 2066.5000  -999.2500  -999.2500  -999.2500  -999.2500  -999.2500   114.4309     5.9907     4.8037     5.4471   -82.1659
 2067.0000  -999.2500  -999.2500  -999.2500  -999.2500  -999.2500   112.8394     6.5658     4.9785     5.8544   -82.0104
 2067.5000  -999.2500  -999.2500  -999.2500  -999.2500  -999.2500   111.2656     7.1960     5.1597     6.1594   -82.0763
 2068.0000  -999.2500  -999.2500  -999.2500  -999.2500  -999.2500   109.9476     7.8868     5.3475     5.8575   -82.3252
 2068.5000  -999.2500  -999.2500  -999.2500  -999.2500  -999.2500   108.0252     8.4997     5.5441     5.7223   -82.5711
 2069.0000  -999.2500  -999.2500  -999.2500  -999.2500  -999.2500   105.5332     8.4997     5.6733     5.8243   -82.7996
 2069.5000  -999.2500  -999.2500  -999.2500  -999.2500  -999.2500   103.0398     7.1578     5.6677     5.9369   -82.8041
 2070.0000  -999.2500  -999.2500  -999.2500  -999.2500  -999.2500   101.4849     6.7531     5.5529     5.8367   -82.7567
 2070.5000  -999.2500  -999.2500  -999.2500  -999.2500  -999.2500   100.0481     6.7531     5.4938     5.6979   -82.6063
 2071.0000  -999.2500  -999.2500  -999.2500  -999.2500  -999.2500    98.6114     6.7531     5.4354     5.6180   -82.4558
 2071.5000  -999.2500  -999.2500  -999.2500  -999.2500  -999.2500    97.1706     6.5976     5.4150     5.6324   -82.4102
 2072.0000  -999.2500  -999.2500  -999.2500  -999.2500  -999.2500    95.6679     6.5076     5.4150     5.6869   -82.5017
 2072.5000  -999.2500  -999.2500  -999.2500  -999.2500  -999.2500    93.3256     6.6541     5.4613     5.7418   -82.5933
 2073.0000  -999.2500  -999.2500  -999.2500  -999.2500  -999.2500    90.7635     6.9317     5.5474     5.7752   -82.6839
 2073.5000  -999.2500  -999.2500  -999.2500  -999.2500  -999.2500    86.1139     7.2023     5.6349     5.8286   -82.7732
 2074.0000  -999.2500  -999.2500  -999.2500  -999.2500  -999.2500    83.9659     7.2689     5.7237     5.8286   -82.7066
 2074.5000  -999.2500  -999.2500  -999.2500  -999.2500  -999.2500    86.5150     7.1011     5.8139     5.9116   -82.5087
 2075.0000  -999.2500  -999.2500  -999.2500  -999.2500  -999.2500    89.0869     7.0710     5.9055     6.0286   -82.3110
 2075.5000  -999.2500  -999.2500  -999.2500  -999.2500  -999.2500    91.6590     6.9988     5.9986     6.1480   -82.1129
 2076.0000  -999.2500  -999.2500  -999.2500  -999.2500  -999.2500    94.2321     6.8335     6.0936     6.2697   -81.9951
 2076.5000  -999.2500  -999.2500  -999.2500  -999.2500  -999.2500    96.7725     6.7490     6.1026     6.3938   -81.9687
