~VERSION INFORMATION
 VERS.                2.0:   CWLS LOG ASCII STANDARD - VERSION 2.0
 WRAP.                 NO:   ONE LINE PER DEPTH STEP
~WELL INFORMATION
#MNEM.UNIT      DATA TYPE    INFORMATION
#----------   ------------   ------------------------------
 STRT.F           30.0000:   START DEPTH
 STOP.F          656.5000:   STOP DEPTH
 STEP.F            0.5000:   STEP LENGTH
 NULL.          -999.2500:   NO VALUE
 COMP. BROWN JOHN E&C INC:   COMPANY
 WELL. NPR 3 SHX-18-25 #25-11:   WELL
 FLD .              NPR 3:   FIELD
 LOC .      S11 T38N R78W:   LOCATION
 CNTY.            NATRONA:   COUNTY
 STAT.            WYOMING:   STATE
 CTRY. UNITED STATES OF AMERICA:   COUNTRY
 SRVC.           Gearhart:   SERVICE COMPANY
 DATE.        09-JUL-1987:   LOGDATE
 API .       490251114100:   API NUMBER
~CURVE INFORMATION
#MNEM.UNIT       API CODE    CURVE DESCRIPTION
#----------   ------------   ------------------------------
 DEPT.F                  :   
 GRR .GAPI   07 310 01 00:   GAMMA RAY FROM RES. LOG.
 RILM.OHMM   07 120 44 00:   INDUCTION LOG MEDIUM RESISTIVITY
 RILD.OHMM   07 120 46 00:   INDUCTION LOG DEEP RESISTIVITY
~PARAMETER INFORMATION
#MNEM.UNIT          VALUE    DESCRIPTION
#----------   ------------   ------------------------------
 PD  .                 GL:   PERMANENT DATUM
 EPD .F              5222:   ELEVATION PERMANENT DATUM
 LMF .                 KB:   LOG MEASURED FROM
 DAPD.F                 8:   FEET ABOVE PERMANENT DATUM
 DMF .                 KB:   DRILLING MEASURED FROM
 EKB .F              5230:   KELLING BUSHING
 EDF .F              5228:   DRILLING FLOOR
 EGL .F              5222:   GROUND LEVEL
 DATE.             7-9-87:   RUN DATE
 RUN .                  1:   RUN NUMBER
 DD  .F               662:   DEPTH DRILLER
 DL  .F               664:   DEPTH LOGGER
 BLI .F               662:   BOTTOM LOG INTERVAL
 TLI .F                30:   TOP LOG INTERVAL
 CS  .IN            8.625:   CASING SIZE
 CBD .F                48:   CASING BOTTOM DRILLER
 CBL .F                48:   CASING BOTTOM LOGGER
 BS  .IN            7.875:   BIT SIZE
 BSD .F               662:   BIT SIZE AT DEPTH
 DFT .                AIR:   DRILLING FLUID TYPE
 TLAB.HRS            1552:   TIME LOGGER AT BOTTOM
 MRT .F                80:   MAXIMUM RECORDED TEMPERATURE
 LUN .               7597:   LOGGING UNIT NUMBER
 LUL .           GILLETTE:   LOGGING UNIT LOCATION
 ENGI.         WEATHERMON:   RECORDING ENGINEER
 WITN.             STRONG:   WITNESSED BY
 CLNT.            A2DTECH:   CLIENT CODE
 ORIG.       2", 5" PRINT:   ORIGIN OF DATA
 UWI .       490251114100:   UNIQUE WELL ID
 DICO. A2D Technologies, Inc.:   DIGITIZING COMPANY
~OTHER INFORMATION
~A   DEPT       GRR      RILM       RILD   
# ...
  303.0000   117.8105     7.7802     7.9305
  303.5000   119.7992     7.6211     7.8389
  304.0000   118.3403     7.4068     7.6527
  304.5000   116.6508     7.1985     7.4518
  305.0000   115.9894     6.9961     7.2562
  305.5000   115.9667     6.7994     7.0668
  306.0000   116.1079     6.6082     7.0668
  306.5000   116.2679     6.4224     7.0668
  307.0000   115.6111     6.2663     7.0668
  307.5000   114.8596     6.4633     7.0673
  308.0000   114.2399     6.6416     7.0674
  308.5000   114.2417     6.8247     7.2656
  309.0000   114.3359     7.0129     7.4033
  309.5000   116.2259     7.2063     7.5333
  310.0000   118.8283     7.4012     7.6656
  310.5000   121.5245     7.5280     7.8005
  311.0000   120.2559     7.6252     7.9017
  311.5000   118.2692     7.7212     7.9516
  312.0000   116.2878     7.8185     8.0018
  312.5000   114.5765     7.9171     8.0525
  313.0000   113.6151     7.9695     8.1183
  313.5000   113.0587     7.8812     8.0076
  314.0000   112.4970     7.8219     7.9536
  314.5000   112.6207     7.7630     7.9110
  315.0000   113.2730     7.7046     7.8685
  315.5000   113.9315     7.6466     7.8246
  316.0000   114.6462     7.5313     7.6736
  316.5000   117.2661     7.3161     7.4754
  317.0000   120.2666     7.1065     7.2821
  317.5000   117.0528     6.9048     7.0943
  318.0000   112.5135     6.6853     6.8915
  318.5000   109.6743     6.4360     6.5945
  319.0000   111.7666     6.0972     6.3091
  319.5000   114.7515     5.7769     6.0367
  320.0000   114.5378     5.4736     5.7759
  320.5000   110.4011     5.1861     5.6603
  321.0000   109.0189     4.9729     5.6589
  321.5000   108.8056     4.8818     5.6582
  322.0000   110.2745     5.1948     5.8169
  322.5000   112.2758     5.4624     5.9978
  323.0000   114.2977     5.7437     6.2253
  323.5000   116.3083     6.0396     6.4729
  324.0000   118.3528     6.3507     6.7304
  324.5000   117.9226     6.6286     6.9981
  325.0000   116.1463     6.8734     7.2764
  325.5000   114.3237     7.1273     7.5658
  326.0000   115.6348     7.3906     7.6908
  326.5000   118.0756     7.4986     7.7874
  327.0000   120.1535     7.5546     7.8852
  327.5000   119.7244     7.6110     7.9843
  328.0000   117.8044     7.6679     8.0845
  328.5000   115.9674     7.7252     8.1937
  329.0000   115.0801     7.7828     8.2357
  329.5000   115.2567     7.8410     8.2814
  330.0000   115.4841     7.8962     8.3273
  330.5000   114.0428     7.9570     8.3734
  331.0000   112.1282     8.0267     8.4198
  331.5000   112.2274     8.0977     8.4667
  332.0000   112.7920     8.1692     8.5206
  332.5000   113.9968     8.2414     8.6013
  333.0000   114.7914     8.3141     8.6820
  333.5000   115.5234     8.4060     8.7638
  334.0000   117.2458     8.5137     8.8462
  334.5000   120.1931     8.6235     8.9303
  335.0000   120.6969     8.7416     8.9871
  335.5000   119.3665     8.6722     8.8988
  336.0000   117.9904     8.5976     8.8311
  336.5000   116.6302     8.5236     8.7635
  337.0000   115.3252     8.4502     8.6607
  337.5000   116.4703     8.3780     8.5419
  338.0000   118.8663     8.3460     8.4246
  338.5000   121.1120     8.3467     8.3090
  339.0000   122.1552     8.3470     8.1857
  339.5000   120.9699     8.3475     8.0594
  340.0000   119.2318     8.2403     7.9352
  340.5000   116.5920     8.0519     7.8130
  341.0000   114.2655     7.8678     7.6929
  341.5000   114.2411     7.6879     7.4854
  342.0000   115.9029     7.4756     7.0915
  342.5000   118.7152     7.0814     6.7184
  343.0000   119.9538     6.7081     6.3833
  343.5000   121.1048     6.3544     5.7509
  344.0000   121.2505     6.0193     5.2087
  344.5000   121.4255     5.5436     4.7190
  345.0000   121.2333     4.8728     4.2868
  345.5000   120.8461     4.2832     3.7692
  346.0000   120.4507     3.7651     3.3215
  346.5000   120.2866     3.3079     3.0980
  347.0000   120.2951     2.9969     2.9378
  347.5000   120.2638     2.7516     2.8458
  348.0000   118.1865     2.6031     2.8093
  348.5000   111.2497     2.6294     2.7733
  349.0000   110.2900     2.6660     2.7516
  349.5000   111.7092     2.7012     3.0266
  350.0000   114.0212     2.9956     3.3266
  350.5000   115.3877     3.3052     3.6564
  351.0000   116.6288     3.6468     4.0189
  351.5000   117.9021     4.0238     4.4173
  352.0000   119.9663     4.4397     4.8552
  352.5000   121.9003     4.8987     5.3366
  353.0000   122.6314     5.3226     5.6844
  353.5000   123.3238     5.5622     6.0949
  354.0000   124.5640     5.8127     6.0392
  354.5000   128.2245     5.8736     5.9371
  355.0000   128.3314     5.7580     5.8368
  355.5000   127.9221     5.4784     5.6413
  356.0000   128.3086     5.2123     5.4327
  356.5000   130.9401     4.9591     5.2319
  357.0000   134.8890     4.7137     5.0526
  357.5000   140.4817     4.6130     4.9747
  358.0000   137.0783     4.5738     4.8818
  358.5000   131.6200     4.6544     4.9201
  359.0000   125.8950     4.7335     4.9672
  359.5000   124.0084     4.8139     5.1939
  360.0000   125.1468     5.0365     5.4567
  360.5000   128.1220     5.3286     5.7335
  361.0000   131.3041     5.6406     6.0243
  361.5000   134.4972     5.9730     6.3292
  362.0000   135.4813     6.3250     6.6065
  362.5000   134.7313     6.6238     6.8417
  363.0000   133.8505     6.8752     7.0854
  363.5000   130.9117     7.0813     7.3212
  364.0000   127.9555     7.2936     7.5508
  364.5000   124.9821     7.5127     7.7875
  365.0000   123.4700     7.6810     7.9695
  365.5000   124.6310     7.6217     7.8407
  366.0000   126.4953     7.5630     7.7393
  366.5000   127.2417     7.4408     7.6393
  367.0000   126.6784     7.3472     7.5394
  367.5000   126.2868     7.2581     7.3639
  368.0000   126.3745     7.1696     7.1901
  368.5000   128.9170     7.0822     7.0205
  369.0000   131.5766     6.9958     6.8550
  369.5000   134.0208     6.9107     6.6934
  370.0000   134.2729     6.7352     6.5629
  370.5000   132.7280     6.4951     6.3613
  371.0000   131.2166     6.2638     6.1621
  371.5000   129.6949     6.0413     5.9692
  372.0000   128.2930     5.8240     5.8736
  372.5000   128.1973     5.5340     5.9278
  373.0000   130.8055     5.2260     5.9644
  373.5000   133.4201     5.0968     6.0012
  374.0000   136.0434     5.0658     6.0380
  374.5000   134.2910     5.5914     6.0766
  375.0000   131.5972     5.9501     6.1650
  375.5000   130.7210     6.2211     6.4253
  376.0000   130.7413     6.5044     6.6935
  376.5000   131.9324     6.7469     6.9729
  377.0000   133.1284     6.9098     7.2641
  377.5000   131.3971     7.0766     7.5673
  378.0000   128.8643     7.2475     7.6420
  378.5000   127.8569     7.4225     7.6798
  379.0000   130.2314     7.4938     7.7178
  379.5000   132.5653     7.5263     7.7560
  380.0000   134.6620     7.5593     7.7943
  380.5000   133.5458     7.5918     7.8235
  381.0000   132.3881     7.6101     7.7311
  381.5000   133.0277     7.5272     7.6578
  382.0000   133.8697     7.4633     7.5850
  382.5000   131.4730     7.4000     7.5129
  383.0000   128.3911     7.3372     7.4416
  383.5000   125.2204     7.2750     7.3709
  384.0000   124.7163     7.2656     7.3009
  384.5000   128.1835     7.2656     7.2656
  385.0000   131.5201     7.2656     7.3365
  385.5000   132.7993     7.2658     7.3844
  386.0000   132.0087     7.2650     7.4326
  386.5000   131.2328     7.2656     7.4700
  387.0000   130.2857     7.0346     7.1912
  387.5000   129.0262     6.7696     6.9721
  388.0000   128.3942     6.5145     6.7596
  388.5000   130.7044     6.2691     6.5536
  389.0000   134.7567     6.0329     6.3538
  389.5000   138.9389     5.8053     6.1602
  390.0000   143.1046     5.5861     5.9832
  390.5000   146.1776     5.3723     5.8454
  391.0000   144.5034     5.5292     5.7181
  391.5000   142.9341     5.7296     5.5966
  392.0000   141.3986     5.8175     5.4803
  392.5000   140.8676     5.8243     5.3663
  393.0000   142.4321     5.6082     5.2546
  393.5000   143.9401     5.1494     5.1131
