~VERSION INFORMATION
 VERS.                2.0:   CWLS LOG ASCII STANDARD - VERSION 2.0
 WRAP.                 NO:   ONE LINE PER DEPTH STEP
~WELL INFORMATION
#MNEM.UNIT      DATA TYPE    INFORMATION
#----------   ------------   ------------------------------
 STRT.F           34.0000:   START DEPTH
 STOP.F          604.0000:   STOP DEPTH
 STEP.F            0.5000:   STEP LENGTH
 NULL.          -999.2500:   NO VALUE
 COMP. FENIX & SCISSON INC:   COMPANY
 WELL.       NPR #17 SX-2:   WELL
 FLD .             TEAPOT:   FIELD
 LOC .       S2 T38N R78W:   LOCATION
 CNTY.            NATRONA:   COUNTY
 STAT.            WYOMING:   STATE
 CTRY. UNITED STATES OF AMERICA:   COUNTRY
 SRVC.       Schlumberger:   SERVICE COMPANY
 DATE.        18-MAR-1977:   LOGDATE
 API .       490251032700:   API NUMBER
~CURVE INFORMATION
#MNEM.UNIT       API CODE    CURVE DESCRIPTION
#----------   ------------   ------------------------------
 DEPT.F                  :   
 SPR .MV     07 010 01 00:   SPONTANEOUS POTENTIAL
 ILD .OHMM   07 120 46 00:   INDUCTION LOG DEEP
 ILM .OHMM   07 120 44 00:   INDUCTION LOG MEDIUM
 LL8 .OHMM   07 220 08 00:   LATEROLOG-8 RES.
 CALD.IN     45 280 60 00:   CALIPER FROM DENSITY LOG
 GRD .GAPI   45 310 01 00:   GAMMA RAY FROM DENSITY LOG
 CORR.G/C3   45 356 01 00:   DENSITY CORRECTION
 DPHI.DEC    45 890 12 00:   DENSITY POROSITY SANDSTONE
 RHOB.G/C3   45 350 01 00:   BULK DENSITY
~PARAMETER INFORMATION
#MNEM.UNIT          VALUE    DESCRIPTION
#----------   ------------   ------------------------------
 PD  .                 GL:   PERMANENT DATUM
 EPD .F              5122:   ELEVATION PERMANENT DATUM
 LMF .                 KB:   LOG MEASURED FROM
 DAPD.F                 4:   FEET ABOVE PERMANENT DATUM
 DMF .                 KB:   DRILLING MEASURED FROM
 EKB .F              5126:   KELLING BUSHING
 EGL .F              5122:   GROUND LEVEL
 DATE.        18-MAR-1977:   RUN DATE
 RUN .                  1:   RUN NUMBER
 DD  .F               600:   DEPTH DRILLER
 DL  .F               605:   DEPTH LOGGER
 BLI .F               604:   BOTTOM LOG INTERVAL
 TLI .F                44:   TOP LOG INTERVAL
 CS  .IN            8.625:   CASING SIZE
 CBD .F                40:   CASING BOTTOM DRILLER
 CBL .F                44:   CASING BOTTOM LOGGER
 BS  .IN            7.875:   BIT SIZE
 BSD .F               600:   BIT SIZE AT DEPTH
 DFT .            KCL MUD:   DRILLING FLUID TYPE
 DFD .                8.9:   DRILLING FLUID DENSITY
 DFV .                 39:   DRILLING FLUID VISCOSITY
 DFPH.                8.5:   DRILLING FLUID PH
 DFL .                6.1:   DRILLING FLUID LOSS
 MSS .                PIT:   MUD SAMPLE SOURCE
 RMS .OHMM           0.26:   RESISTIVITY MUD SAMPLE
 MST .F                52:   MUD SAMPLE TEMPERATURE
 RMF .OHMM           0.24:   RESISTIVITY MUD FILTRATE SAMPLE
 MFST.F                52:   MUD FILTRATE SAMPLE TEMPERATURE
 MFSS.               MEAS:   MUD FILTRATE SAMPLE SOURCE
 TCS .HRS            0230:   TIME CURCULATED STOPPED
 LUN .               7711:   LOGGING UNIT NUMBER
 LUL .               CSPR:   LOGGING UNIT LOCATION
 ENGI.             SAYLER:   RECORDING ENGINEER
 WITN.         STUEBINGER:   WITNESSED BY
 CLNT.            A2DTECH:   CLIENT CODE
 ORIG.           5" PRINT:   ORIGIN OF DATA
 UWI .       490251032700:   UNIQUE WELL ID
 DICO. A2D Technologies, Inc.:   DIGITIZING COMPANY
~OTHER INFORMATION
~A   DEPT      SPR        ILD        ILM        LL8       CALD        GRD       CORR       DPHI       RHOB   
# ...
  289.5000   -40.4254     8.3213     8.2301     8.4851     8.1296   111.0855     0.0351     0.1176     2.4548
  290.0000   -40.7146     8.2660     8.2323     8.1976     8.1155   109.9121     0.0381     0.1191     2.4516
  290.5000   -41.0038     8.2111     8.1770     8.1422     8.0721   108.7357     0.0292     0.1233     2.4373
  291.0000   -41.7401     8.1001     8.0665     8.2580     8.0434   109.6393     0.0247     0.1340     2.4302
  291.5000   -41.4332     7.9359     7.9028     8.3172     8.0299   109.9473     0.0450     0.1318     2.4319
  292.0000   -41.1262     7.8282     7.6352     8.2043     8.0161   108.7739     0.0638     0.1255     2.4367
  292.5000   -40.6703     7.6695     7.1745     7.9815     8.0171   108.6124     0.0864     0.1237     2.4446
  293.0000   -40.5124     7.4615     6.6949     7.6564     7.9736   109.6863     0.0880     0.1216     2.4468
  293.5000   -40.6525     7.1591     6.5131     6.9932     7.9450   111.6240     0.0888     0.1192     2.4536
  294.0000   -41.0908     6.9650     6.5150     6.5170     7.9015   113.2654     0.0805     0.1180     2.4499
  294.5000   -41.2310     6.9669     6.5622     6.0886     7.8877   113.5734     0.0783     0.1228     2.4432
  295.0000   -41.3711     7.0174     6.6559     6.1390     7.9189   113.2889     0.0799     0.1168     2.4582
  295.5000   -41.2131     7.1174     6.7508     6.6731     7.9639   111.5180     0.0619     0.1212     2.4468
  296.0000   -41.0551     7.3198     6.9429     8.0490     7.9812   111.5546     0.0447     0.1305     2.4358
  296.5000   -41.0313     7.4241     7.0911     8.3928     8.0105   112.9096     0.0377     0.1287     2.4391
  297.0000   -40.7392     7.5842     7.1425     7.8865     8.0264   114.7486     0.0493     0.1221     2.4524
  297.5000   -40.5812     7.7981     7.2444     7.7791     8.0274   116.7062     0.0516     0.1234     2.4409
  298.0000   -40.4215     7.9093     7.3478     7.8353     7.9693   116.3253     0.0674     0.1143     2.4674
  298.5000   -40.4126     7.9767     7.5573     8.0016     7.9553   113.6704     0.0712     0.1080     2.4719
  299.0000   -40.4037     8.0806     7.7724     8.2857     7.9714   112.4940     0.0690     0.1103     2.4749
  299.5000   -40.5439     8.1391     7.9382     8.4616     8.0169   113.1013     0.0645     0.1166     2.4600
  300.0000   -40.5300     8.1374     7.9464     8.4485     8.0401   114.7398     0.0526     0.1208     2.4526
  300.5000   -40.4428     8.0962     8.0261     8.2890     8.1223   114.3083     0.0533     0.1088     2.4720
  301.0000   -40.3843     8.1432     8.1661     8.2890     8.1080   112.0964     0.0489     0.1103     2.4773
  301.5000   -40.5322     8.1444     8.2242     8.2890     8.1087   109.8844     0.0557     0.1046     2.4721
  302.0000   -40.5303     8.1455     8.0557     8.2851     8.1241   107.8206     0.0467     0.1105     2.4632
  302.5000   -40.6782     7.8633     7.5686     7.9973     8.1395   106.4976     0.0249     0.1195     2.4475
  303.0000   -40.9748     7.5983     7.4135     7.6270     8.1995   106.8042     0.0144     0.1287     2.4371
  303.5000   -41.1224     7.4976     7.4145     7.5220     8.2149   108.2959     0.0100     0.1278     2.4401
  304.0000   -41.2699     7.4468     7.3642     7.5220     8.2006   109.7877     0.0280     0.1212     2.4506
  304.5000   -41.5661     7.4432     7.2637     7.5220     8.2012   109.3535     0.0220     0.1206     2.4506
  305.0000   -41.8627     7.1655     7.0167     7.4614     8.2167   108.9168     0.0213     0.1230     2.4462
  305.5000   -42.1596     6.5245     6.6383     7.2656     8.2172   108.6334     0.0221     0.1275     2.4417
  306.0000   -42.6049     6.3905     6.5024     7.0668     8.2030   108.4929     0.0214     0.1271     2.4402
  306.5000   -43.0505     6.1620     6.2813     6.5933     8.2184   108.5058     0.0124     0.1265     2.4380
  307.0000   -43.9432     5.5418     5.8606     6.0668     8.2190   107.3309     0.0087     0.1284     2.4298
  307.5000   -44.8359     5.3420     5.2813     5.5437     8.2344   106.7481     0.0132     0.1358     2.4283
  308.0000   -45.5795     5.4175     5.2454     5.1723     8.2202   106.4626     0.0140     0.1375     2.4260
  308.5000   -46.3232     5.4182     5.3568     5.5437     8.2208   104.5469     0.0125     0.1432     2.4110
  309.0000   -46.6202     5.4190     5.7830     6.3246     8.2214   102.1868     0.0111     0.1477     2.4076
  309.5000   -46.3202     5.4269     6.2865     7.0180     8.2196   102.9379     0.0058     0.1432     2.4141
  310.0000   -46.0207     5.6120     6.6466     7.2656     8.2077   107.9852     0.0081     0.1375     2.4270
  310.5000   -45.4231     5.9746     6.5559     7.2656     8.2233   112.8894     0.0134     0.1243     2.4420
  311.0000   -45.1235     6.5852     6.4213     7.3671     8.2238   112.7270     0.0164     0.1195     2.4540
  311.5000   -44.8240     6.8662     6.8368     7.5743     8.2393   110.3274     0.0134     0.1180     2.4592
  312.0000   -44.6735     7.2592     7.1287     7.9511     8.2399   109.2115     0.0210     0.1140     2.4667
  312.5000   -44.2249     7.4130     7.2294     8.0622     8.2553   110.1605     0.0158     0.1138     2.4541
  313.0000   -44.0744     7.5700     7.4341     8.0622     8.2559   111.0124     0.0120     0.1252     2.4407
  313.5000   -43.9238     7.6769     7.5917     8.1183     8.2565   111.3190     0.0083     0.1302     2.4384
  314.0000   -43.7733     7.8395     7.7526     8.2890     8.2422   110.8848     0.0061     0.1269     2.4377
  314.5000   -43.7718     8.0056     7.9170     8.4047     8.2428   109.4137     0.0054     0.1299     2.4355
  315.0000   -43.6213     8.1751     8.0848     8.6412     8.2434   107.7943     0.0047     0.1311     2.4356
  315.5000   -43.4708     8.2332     8.1990     8.7619     8.2440   106.1750     0.0047     0.1236     2.4416
  316.0000   -43.1713     8.4076     8.4900     8.7619     8.2446   106.7778     0.0055     0.1206     2.4476
  316.5000   -42.8717     8.4673     8.6700     9.0083     8.2303   108.1215     0.0070     0.1179     2.4536
  317.0000   -42.7212     8.5275     8.8537     9.1342     8.2309   108.5762     0.0112     0.1146     2.4641
  317.5000   -42.2726     8.5881     8.9167     9.3262     8.2315   108.5865     0.0222     0.1097     2.4790
  318.0000   -41.5260     8.6491     8.7946     9.3911     8.2172   109.0412     0.0266     0.1011     2.4865
  318.5000   -41.3755     8.6503     8.7349     9.3911     8.2178   111.8663     0.0304     0.0963     2.4895
  319.0000   -41.5234     8.6515     8.7364     9.3911     8.2332   112.6173     0.0244     0.1017     2.4903
  319.5000   -41.6709     8.6527     8.7377     9.1342     8.2342   112.9239     0.0229     0.0999     2.4821
  320.0000   -42.1161     8.5937     8.7998     9.0710     8.2502   113.2305     0.0230     0.0963     2.4874
  320.5000   -42.5618     8.5358     8.9863     9.2617     8.2647   113.3863     0.0215     0.1040     2.4852
  321.0000   -42.7097     8.4776     9.1768     9.5885     8.2824   112.0659     0.0185     0.1124     2.4658
  321.5000   -42.7078     8.4791     9.3065     9.7901     8.2660   110.8910     0.0291     0.1112     2.4703
  322.0000   -42.7063     8.4216     9.3726     9.7225     8.2516   110.0124     0.0321     0.1064     2.4808
  322.5000   -42.8542     8.4228     9.3091     9.6553     8.1633   109.1338     0.0351     0.1102     2.4748
  323.0000   -42.8524     8.4239     9.2459     9.7901     7.9859   108.5515     0.0472     0.1024     2.4801
  323.5000   -42.8509     8.4838     9.1871     9.8583     7.8529   108.2652     0.0375     0.1057     2.4786
  324.0000   -42.9984     8.4849     8.9951     9.7225     7.8385   109.1646     0.0262     0.1081     2.4734
  324.5000   -43.5931     8.5452     8.7498     9.4565     8.0470   112.2860     0.0247     0.0994     2.4884
  325.0000   -43.4426     8.4870     8.7510     9.0083     8.0921   113.1852     0.0263     0.0943     2.4922
  325.5000   -43.2920     8.5476     8.6916     8.8842     8.1073   113.9462     0.0173     0.1045     2.4869
