~VERSION INFORMATION
 VERS.                2.0:   CWLS LOG ASCII STANDARD - VERSION 2.0
 WRAP.                 NO:   ONE LINE PER DEPTH STEP
~WELL INFORMATION
#MNEM.UNIT      DATA TYPE    INFORMATION
#----------   ------------   ------------------------------
 STRT.F           86.5000:   START DEPTH
 STOP.F         1282.0000:   STOP DEPTH
 STEP.F            0.5000:   STEP LENGTH
 NULL.          -999.2500:   NO VALUE
 COMP.      UNITED STATES:   COMPANY
 WELL.             NPR #3:   WELL
 FLD .        TEAPOT DOME:   FIELD
 LOC .      S14 T38N R78W:   LOCATION
 CNTY.            NATRONA:   COUNTY
 STAT.            WYOMING:   STATE
 CTRY. UNITED STATES OF AMERICA:   COUNTRY
 SRVC.       Schlumberger:   SERVICE COMPANY
 DATE.        06-JUL-1962:   LOGDATE
 API .       490250631800:   API NUMBER
~CURVE INFORMATION
#MNEM.UNIT       API CODE    CURVE DESCRIPTION
#----------   ------------   ------------------------------
 DEPT.F                  :   
 SPR .MV     05 010 01 00:   SPONTANEOUS POTENTIAL FROM RES.
 CILD.MMHO   05 110 00 00:   CONDUCTIVITY INDUCTION LOG
 ASN .OHMM   05 041 16 00:   AMPLIFIED SHORT NORMAL 16"
 ILD .OHMM   05 120 46 00:   INDUCTION LOG DEEP
 GR  .GAPI   30 310 01 00:   GAMMA RAY
~PARAMETER INFORMATION
#MNEM.UNIT          VALUE    DESCRIPTION
#----------   ------------   ------------------------------
 PD  .                 GL:   PERMANENT DATUM
 EPD .F              5288:   ELEVATION PERMANENT DATUM
 LMF .                 KB:   LOG MEASURED FROM
 DAPD.F                 5:   FEET ABOVE PERMANENT DATUM
 DMF .                 KB:   DRILLING MEASURED FROM
 EKB .F              5293:   KELLING BUSHING
 EGL .F              5288:   GROUND LEVEL
 DATE.             7-6-62:   RUN DATE
 RUN .                  1:   RUN NUMBER
 DD  .F              1286:   DEPTH DRILLER
 DL  .F              1283:   DEPTH LOGGER
 BLI .F              1282:   BOTTOM LOG INTERVAL
 TLI .F                87:   TOP LOG INTERVAL
 CBD .F                10:   CASING BOTTOM DRILLER
 BS  .IN             6.75:   BIT SIZE
 BSD .F              1286:   BIT SIZE AT DEPTH
 DFT .            GEL-OIL:   DRILLING FLUID TYPE
 DFD .               10.3:   DRILLING FLUID DENSITY
 DFV .                 53:   DRILLING FLUID VISCOSITY
 DFL .                3.6:   DRILLING FLUID LOSS
 MSS .           FLOWLINE:   MUD SAMPLE SOURCE
 RMS .OHMM           5.66:   RESISTIVITY MUD SAMPLE
 MST .F                78:   MUD SAMPLE TEMPERATURE
 RMF .OHMM           5.59:   RESISTIVITY MUD FILTRATE SAMPLE
 MFST.F                78:   MUD FILTRATE SAMPLE TEMPERATURE
 RMC .OHMM           4.47:   RESISTIVITY MUD CAKE
 MCST.F                78:   MUD CAKE SAMPLE TEMPERATURE
 MFSS.                  M:   MUD FILTRATE SAMPLE SOURCE
 MCSS.                  M:   MUD CAKE SAMPLE SOURCE
 RMB .OHMM           5.08:   RESISTIVITY MUD AT BHT
 BHT .F                88:   BOTTOM HOLE TEMPERATURE
 TCS .HRS               1:   TIME CURCULATED STOPPED
 MRT .F                88:   MAXIMUM RECORDED TEMPERATURE
 LUN .               2503:   LOGGING UNIT NUMBER
 LUL .               CSPR:   LOGGING UNIT LOCATION
 ENGI.             KNOBEL:   RECORDING ENGINEER
 WITN.          JORGENSEN:   WITNESSED BY
 CLNT.            A2DTECH:   CLIENT CODE
 ORIG.       2", 5" PRINT:   ORIGIN OF DATA
 UWI .       490250631800:   UNIQUE WELL ID
 DICO. A2D Technologies, Inc.:   DIGITIZING COMPANY
~OTHER INFORMATION
~A   DEPT      SPR       CILD        ASN        ILD         GR   
# ...
  940.5000   -31.1213   147.0834     7.3366     6.9909  -999.2500
  941.0000   -30.6001   145.1766     7.3963     7.0879  -999.2500
  941.5000   -30.5728   143.2699     7.3967     7.1842  -999.2500
  942.0000   -30.5766   141.3631     7.4193     7.2539  -999.2500
  942.5000   -30.5777   139.6470     7.4648     7.2525  -999.2500
  943.0000   -30.5777   138.3361     7.4756     7.2528  -999.2500
  943.5000   -30.5778   137.1444     7.4814     7.3056  -999.2500
  944.0000   -30.5783   135.9526     7.5858     7.4105  -999.2500
  944.5000   -30.5769   134.6417     7.6869     7.5156  -999.2500
  945.0000   -30.4632   134.6417     7.7619     7.6246  -999.2500
  945.5000   -30.3353   134.6417     7.7977     7.6528  -999.2500
  946.0000   -30.2074   134.9635     7.7842     7.6508  -999.2500
  946.5000   -30.0797   135.3210     7.7342     7.5949  -999.2500
  947.0000   -29.9519   135.6428     7.6857     7.5409  -999.2500
  947.5000   -29.8240   137.2945     7.6373     7.4876  -999.2500
  948.0000   -29.6958   138.7961     7.5888     7.4344  -999.2500
  948.5000   -29.5831   140.2977     7.5406     7.3811  -999.2500
  949.0000   -29.6704   141.7993     7.4958     7.3278  -999.2500
  949.5000   -29.7706   143.3008     7.4772     7.2746  -999.2500
  950.0000   -29.8704   144.6523     7.4898     7.2212  -999.2500
  950.5000   -29.9705   144.6523     7.5160     7.1662  -999.2500
  951.0000   -30.0716   144.6523     7.5164     7.1523  -999.2500
  951.5000   -30.1737   143.7146     7.4585     7.1616  -999.2500
  952.0000   -30.1195   141.8911     7.3940     7.2446  -999.2500
  952.5000   -29.8851   140.0676     7.4190     7.3310  -999.2500
  953.0000   -29.6581   138.2411     7.5716     7.3726  -999.2500
  953.5000   -29.4293   136.2059     7.7195     7.5359  -999.2500
  954.0000   -29.1939   132.7537     7.8672     7.6999  -999.2500
  954.5000   -29.2212   129.3067     8.0150     7.8635  -999.2500
  955.0000   -29.3773   125.6492     8.1628     8.0271  -999.2500
  955.5000   -29.5273   123.5770     8.3106     8.1907  -999.2500
  956.0000   -29.6757   121.3699     8.4585     8.3543  -999.2500
  956.5000   -29.7833   119.1679     8.6066     8.5183  -999.2500
  957.0000   -29.7809   116.9684     8.7536     8.6826  -999.2500
  957.5000   -29.7808   114.7708     8.9011     8.8508  -999.2500
  958.0000   -29.7762   112.5723     9.0330     9.0215  -999.2500
  958.5000   -29.9770   110.2344     9.2270     9.1928  -999.2500
  959.0000   -30.2545   107.7897     9.4244     9.3644  -999.2500
  959.5000   -30.5334   105.3449     9.6217     9.5361  -999.2500
  960.0000   -30.8125   102.9002     9.8183     9.7078  -999.2500
  960.5000   -31.1003   100.4555    10.0314     9.8792  -999.2500
  961.0000   -31.1738    98.0107    10.2928    10.0499  -999.2500
  961.5000   -31.1762    95.5660    10.5003    10.1568  -999.2500
  962.0000   -31.1733    93.5985    10.6109    10.1784  -999.2500
  962.5000   -31.2726    93.5985    10.7231    10.3056  -999.2500
  963.0000   -31.4102    93.5985    10.8358    10.4322  -999.2500
  963.5000   -31.5487    93.5985    10.8560    10.5533  -999.2500
  964.0000   -31.6872    94.9800    10.8581    10.5550  -999.2500
  964.5000   -31.8257    96.3505    10.7256    10.4929  -999.2500
  965.0000   -31.9638    97.7210    10.5148    10.4296  -999.2500
  965.5000   -32.1014    99.0916    10.3029    10.3667  -999.2500
  966.0000   -32.1702   100.4621    10.0912    10.3038  -999.2500
  966.5000   -32.1027   101.8326    10.0251    10.2410  -999.2500
  967.0000   -31.9675   102.6080     9.9884    10.1782  -999.2500
  967.5000   -31.8317   103.0158     9.9527    10.1154  -999.2500
  968.0000   -31.6956   103.9464     9.8918    10.0525  -999.2500
  968.5000   -31.5745   104.8771     9.8179     9.9897  -999.2500
  969.0000   -31.5731   105.8077     9.7438     9.9266  -999.2500
  969.5000   -31.5729   106.7383     9.6696     9.8639  -999.2500
  970.0000   -31.5725   107.6133     9.5918     9.8819  -999.2500
  970.5000   -31.5824   107.6133     9.5202     9.9132  -999.2500
  971.0000   -31.7349   106.1651     9.5386     9.9448  -999.2500
  971.5000   -31.6865   104.4900     9.5823     9.9763  -999.2500
  972.0000   -31.5804   103.6091     9.6275    10.0076  -999.2500
  972.5000   -31.4765   103.6091     9.6362    10.0390  -999.2500
  973.0000   -31.3745   104.3404     9.5542    10.0558  -999.2500
  973.5000   -31.2723   105.8575     9.3216    10.0547  -999.2500
  974.0000   -31.1700   107.3745     9.3474     9.9282  -999.2500
  974.5000   -31.0678   108.8916     9.3915     9.7845  -999.2500
  975.0000   -30.9769   110.4087     9.2244     9.6407  -999.2500
  975.5000   -30.9766   111.9257     9.0619     9.4970  -999.2500
  976.0000   -30.9747   113.4428     8.9078     9.3533  -999.2500
  976.5000   -30.7879   114.9599     8.8039     9.2083  -999.2500
  977.0000   -30.5777   116.4747     8.7798     9.0601  -999.2500
  977.5000   -30.3674   117.9870     8.7333     9.0531  -999.2500
  978.0000   -30.1800   119.6174     8.6721     9.0541  -999.2500
  978.5000   -30.1791   119.6202     8.6080     9.0443  -999.2500
  979.0000   -30.2944   120.6333     8.5294     8.9674  -999.2500
  979.5000   -30.4231   121.7210     8.4506     8.8898  -999.2500
  980.0000   -30.5520   122.8072     8.3718     8.8125  -999.2500
  980.5000   -30.6804   123.8944     8.2934     8.7352  -999.2500
  981.0000   -30.8089   124.9812     8.2359     8.6578  -999.2500
  981.5000   -30.9415   126.0668     8.2276     8.5805  -999.2500
  982.0000   -30.9753   127.1517     8.1607     8.5035  -999.2500
  982.5000   -30.9767   127.6344     8.0934     8.4529  -999.2500
  983.0000   -30.9767   127.7640     8.0259     8.4537  -999.2500
  983.5000   -31.0352   128.5574     7.9594     8.4533  -999.2500
  984.0000   -31.1520   129.3509     7.9569     8.4533  -999.2500
  984.5000   -31.2689   130.1444     7.9580     8.3944  -999.2500
  985.0000   -31.3864   130.4573     7.9547     8.3537  -999.2500
  985.5000   -31.5033   129.4523     7.8389     8.3537  -999.2500
  986.0000   -31.6204   128.4472     7.7181     8.3535  -999.2500
  986.5000   -31.7480   127.6344     7.7965     8.3535  -999.2500
  987.0000   -31.4531   127.6344     7.8941     8.3537  -999.2500
  987.5000   -31.0088   127.6344     7.8981     8.3545  -999.2500
  988.0000   -30.8944   128.7511     7.9058     8.3502  -999.2500
  988.5000   -31.3322   130.2972     7.9491     8.2254  -999.2500
  989.0000   -31.7570   133.5148     7.9073     8.0961  -999.2500
  989.5000   -31.9714   136.7357     7.7844     7.9674  -999.2500
  990.0000   -31.9693   139.9593     7.5776     7.8388  -999.2500
  990.5000   -31.7004   143.1882     7.3422     7.7102  -999.2500
  991.0000   -31.3904   145.6829     7.2511     7.5815  -999.2500
  991.5000   -31.5938   145.6785     7.2669     7.4534  -999.2500
  992.0000   -31.7801   148.0862     7.0174     7.3259  -999.2500
  992.5000   -31.5735   150.4179     6.7378     7.2530  -999.2500
  993.0000   -31.3636   152.6526     6.8539     7.2575  -999.2500
  993.5000   -31.6552   152.6523     7.1249     7.2794  -999.2500
  994.0000   -32.0507   151.4593     7.1761     7.3013  -999.2500
  994.5000   -32.4496   150.3192     7.0978     7.3232  -999.2500
  995.0000   -32.8616   149.1732     7.0963     7.3459  -999.2500
  995.5000   -32.9653   148.0270     7.0964     7.3523  -999.2500
  996.0000   -32.9313   147.6554     7.0964     7.3524  -999.2500
  996.5000   -32.7835   147.6554     7.0964     7.3520  -999.2500
  997.0000   -32.6400   147.6554     7.0964     7.3547  -999.2500
  997.5000   -32.4961   147.6554     7.0963     7.4128  -999.2500
  998.0000   -32.3819   146.5745     7.0962     7.4700  -999.2500
  998.5000   -32.6399   144.9880     7.1082     7.5267  -999.2500
  999.0000   -32.7691   143.4014     7.1565     7.5834  -999.2500
  999.5000   -32.7052   141.8148     7.2379     7.6400  -999.2500
 1000.0000   -32.6163   140.2283     7.3192     7.6967  -999.2500
 1000.5000   -32.5704   138.6417     7.4009     7.7533  -999.2500
 1001.0000   -32.5706   137.0551     7.4825     7.8101  -999.2500
