~VERSION INFORMATION
 VERS.                2.0:   CWLS LOG ASCII STANDARD - VERSION 2.0
 WRAP.                 NO:   ONE LINE PER DEPTH STEP
~WELL INFORMATION
#MNEM.UNIT      DATA TYPE    INFORMATION
#----------   ------------   ------------------------------
 STRT.F           16.0000:   START DEPTH
 STOP.F         1334.0000:   STOP DEPTH
 STEP.F            0.5000:   STEP LENGTH
 NULL.          -999.2500:   NO VALUE
 COMP. U S NAVY/INTEX OIL CO:   COMPANY
 WELL.  S-11 NPR 3 #87-11:   WELL
 FLD .             TEAPOT:   FIELD
 LOC .      S11 T38N R78W:   LOCATION
 CNTY.            NATRONA:   COUNTY
 STAT.            WYOMING:   STATE
 CTRY. UNITED STATES OF AMERICA:   COUNTRY
 SRVC.       Schlumberger:   SERVICE COMPANY
 DATE.        17-JUN-1966:   LOGDATE
 API .       490250958900:   API NUMBER
~CURVE INFORMATION
#MNEM.UNIT       API CODE    CURVE DESCRIPTION
#----------   ------------   ------------------------------
 DEPT.F                  :   
 GRD .GAPI   45 310 01 00:   GAMMA RAY FROM DENSITY LOG
 CALD.IN     45 280 60 00:   CALIPER
 RHOB.G/C3   45 350 01 00:   BULK DENSITY
 DPOR.DEC    45 890 12 00:   DENSITY POROSITY SANDSTONE
 DRHO.G/C3   45 356 01 00:   DENSITY CORRECTION
 ASN .OHMM   05 041 16 00:   AMPLIFIED SHORT NORMAL 16"
 ILD .OHMM   05 120 46 00:   INDUCTION LOG DEEP
 CILD.MMHO   05 110 46 00:   CONDUCTIVITY INDUCTION LOG DEEP
 SPR .MV     05 010 01 00:   SPONTANEOUS POTENTIAL FROM RES.
~PARAMETER INFORMATION
#MNEM.UNIT          VALUE    DESCRIPTION
#----------   ------------   ------------------------------
 PD  .                 GL:   PERMANENT DATUM
 EPD .F              5284:   ELEVATION PERMANENT DATUM
 LMF .                 KB:   LOG MEASURED FROM
 DAPD.F                 5:   FEET ABOVE PERMANENT DATUM
 DMF .                 KB:   DRILLING MEASURED FROM
 EKB .F              5289:   KELLING BUSHING
 EGL .F              5284:   GROUND LEVEL
 DATE.          8-17-1966:   RUN DATE
 RUN .                  1:   RUN NUMBER
 DD  .F              1335:   DEPTH DRILLER
 DL  .F              1335:   DEPTH LOGGER
 BLI .F              1334:   BOTTOM LOG INTERVAL
 TLI .F                50:   TOP LOG INTERVAL
 CS  .IN            8.625:   CASING SIZE
 CBD .F                10:   CASING BOTTOM DRILLER
 BS  .IN            7.875:   BIT SIZE
 BSD .F              1335:   BIT SIZE AT DEPTH
 DFT .           GEL-CHEM:   DRILLING FLUID TYPE
 DFD .                9.3:   DRILLING FLUID DENSITY
 DFV .                 50:   DRILLING FLUID VISCOSITY
 MSS .          FLOW LINE:   MUD SAMPLE SOURCE
 RMS .OHMM           1.38:   RESISTIVITY MUD SAMPLE
 MST .F                80:   MUD SAMPLE TEMPERATURE
 RMF .OHMM           1.09:   RESISTIVITY MUD FILTRATE SAMPLE
 MFST.F                77:   MUD FILTRATE SAMPLE TEMPERATURE
 MFSS.                  M:   MUD FILTRATE SAMPLE SOURCE
 RMB .OHMM           1.70:   RESISTIVITY MUD AT BHT
 BHT .F               108:   BOTTOM HOLE TEMPERATURE
 TCS .HRS               1:   TIME CURCULATED STOPPED
 MRT .F               108:   MAXIMUM RECORDED TEMPERATURE
 LUN .               4507:   LOGGING UNIT NUMBER
 LUL .               CSPR:   LOGGING UNIT LOCATION
 ENGI.            MANGOLD:   RECORDING ENGINEER
 WITN.                MAY:   WITNESSED BY
 CLNT.            A2DTECH:   CLIENT CODE
 ORIG.       2", 5" PRINT:   ORIGIN OF DATA
 UWI .       490250958900:   UNIQUE WELL ID
 DICO. A2D Technologies, Inc.:   DIGITIZING COMPANY
~OTHER INFORMATION
~A   DEPT       GRD      CALD       RHOB       DPOR       DRHO        ASN        ILD       CILD        SPR   
# ...
 1111.0000   126.3218     8.5730     2.5298     0.0807     0.0340     6.3106     4.5387   236.6038   -33.3740
 1111.5000   127.8557     8.5800     2.4863     0.0984     0.0370     6.1188     4.3958   242.2244   -33.3058
 1112.0000   126.0824     8.5803     2.4483     0.1089     0.0373     5.7002     4.3261   246.7726   -33.2383
 1112.5000   124.5007     8.5665     2.4507     0.1178     0.0296     5.2691     4.2231   246.2761   -33.1594
 1113.0000   123.2166     8.5528     2.4524     0.1139     0.0484     5.0486     4.2205   244.7865   -32.8386
 1113.5000   121.9058     8.5390     2.4686     0.1026     0.0591     5.1336     4.2482   240.8069   -32.5987
 1114.0000   120.3350     8.5257     2.4960     0.0906     0.0301     5.2179     4.4882   233.5452   -32.7730
 1114.5000   117.3771     8.5324     2.5237     0.0786     0.0133     5.5433     4.7300   220.1986   -32.9398
 1115.0000   115.5906     8.5404     2.5409     0.0675     0.0231     5.9408     4.9711   206.8520   -33.1057
 1115.5000   116.1690     8.5483     2.5504     0.0616     0.0323     6.2947     5.2126   194.2587   -33.2718
 1116.0000   116.1108     8.5562     2.5596     0.0556     0.0415     6.5260     5.4604   183.0937   -33.4368
 1116.5000   112.7584     8.5641     2.5636     0.0507     0.0506     6.6327     5.5122   171.9288   -33.5587
 1117.0000   110.0615     8.5720     2.5458     0.0595     0.0588     6.7186     5.3951   171.3009   -33.5123
 1117.5000   114.4999     8.5797     2.5310     0.0730     0.0513     6.7579     5.1906   182.2493   -33.4693
 1118.0000   119.2391     8.5797     2.5275     0.0705     0.0405     6.7970     4.9855   193.5104   -33.4267
 1118.5000   120.6331     8.5652     2.5458     0.0654     0.0299     6.7665     4.7810   204.7716   -33.3841
 1119.0000   116.7193     8.5509     2.5261     0.0728     0.0232     6.6226     4.6060   216.0328   -33.3415
 1119.5000   116.0876     8.5367     2.5097     0.0825     0.0534     6.3235     4.5671   225.7676   -33.2989
 1120.0000   122.5115     8.5250     2.5001     0.0877     0.0609     5.9315     4.5256   229.7716   -33.2563
 1120.5000   125.7620     8.5272     2.5243     0.0825     0.0367     5.5359     4.4832   232.8699   -33.2137
 1121.0000   123.3586     8.5292     2.5243     0.0783     0.0490     5.4509     4.4429   233.8630   -33.1711
 1121.5000   118.9373     8.5312     2.5364     0.0678     0.0609     5.3020     4.4918   233.8630   -33.1285
 1122.0000   118.2408     8.5331     2.5454     0.0607     0.0644     5.3790     4.8472   223.5319   -33.0858
 1122.5000   118.4163     8.5351     2.5356     0.0721     0.0616     5.6116     5.1929   209.3512   -33.0431
 1123.0000   116.4837     8.5371     2.5334     0.0684     0.0430     6.2557     5.5382   195.1705   -33.0009
 1123.5000   114.4556     8.5390     2.5480     0.0618     0.0226     6.4560     5.8833   180.9897   -32.9774
 1124.0000   114.3679     8.5410     2.5481     0.0649     0.0331     6.8629     6.2301   171.3446   -33.0108
 1124.5000   114.1519     8.5429     2.5337     0.0721     0.0445     7.3383     6.4984   162.3356   -33.0425
 1125.0000   111.7076     8.5449     2.5472     0.0652     0.0385     7.5857     6.6936   152.4330   -33.0740
 1125.5000   109.1549     8.5469     2.5654     0.0533     0.0329     7.8023     6.7627   151.3595   -33.1056
 1126.0000   106.5703     8.5488     2.5656     0.0534     0.0355     7.9192     6.8260   150.1679   -33.1371
 1126.5000   108.3684     8.5508     2.5607     0.0563     0.0476     8.0112     6.8904   148.9762   -33.1687
 1127.0000   112.4286     8.5527     2.5558     0.0592     0.0368     8.0707     6.9550   147.7846   -33.2002
 1127.5000   116.2921     8.5547     2.5586     0.0525     0.0363     8.1055     7.0197   147.7504   -33.2318
 1128.0000   120.5517     8.5567     2.5733     0.0434     0.0441     8.1496     7.0868   148.1354   -33.2634
 1128.5000   116.8374     8.5586     2.5881     0.0362     0.0519     8.2163     7.0787   148.5204   -33.2949
 1129.0000   114.0714     8.5606     2.5920     0.0379     0.0598     8.2833     7.0505   148.9053   -33.3263
 1129.5000   114.4881     8.5626     2.5780     0.0530     0.0589     8.3496     7.0217   149.2903   -33.3567
 1130.0000   113.6498     8.5647     2.5657     0.0486     0.0472     8.3715     6.9931   149.0938   -33.4793
 1130.5000   112.5432     8.5571     2.5809     0.0415     0.0377     8.3918     6.9644   148.4608   -33.6318
 1131.0000   115.1929     8.5476     2.5744     0.0466     0.0435     8.4077     6.9352   148.0804   -33.7850
 1131.5000   117.1203     8.5380     2.5693     0.0506     0.0515     8.3121     6.9026   147.6954   -33.9375
 1132.0000   113.2288     8.5284     2.5835     0.0418     0.0595     8.2117     7.0629   146.0767   -34.0920
 1132.5000   109.4490     8.5271     2.5919     0.0347     0.0674     8.1093     7.2627   142.6733   -34.0765
 1133.0000   105.8159     8.5304     2.5975     0.0331     0.0748     8.1497     7.4636   139.2699   -33.9341
 1133.5000   104.6047     8.5337     2.6017     0.0314     0.0809     8.2377     7.6644   135.8665   -33.7901
 1134.0000   110.5022     8.5371     2.5837     0.0398     0.0872     8.3461     7.7945   132.4632   -33.6459
 1134.5000   114.7680     8.5402     2.5653     0.0502     0.0820     8.6035     7.8664   130.5859   -33.5018
 1135.0000   111.6001     8.5443     2.5480     0.0602     0.0737     8.8540     7.2375   134.5581   -33.3577
 1135.5000   107.6883     8.5045     2.5435     0.0639     0.0653     8.9240     6.6024   155.4750   -33.2137
 1136.0000   104.2995     8.4737     2.5399     0.0677     0.0569     8.8955     5.9712   175.2168   -33.0696
 1136.5000   108.7823     8.4445     2.5364     0.0724     0.0482     8.7593     5.3408   194.9586   -32.9255
 1137.0000   113.4151     8.4144     2.5253     0.0786     0.0503     8.3876     4.7021   212.1218   -32.7815
 1137.5000   117.8952     8.3849     2.5114     0.1038     0.0557     7.3445     4.5423   226.5806   -32.6374
 1138.0000   125.2585     8.3552     2.4666     0.1306     0.0688     6.2357     4.5703   230.4642   -32.4932
 1138.5000   130.6936     8.3454     2.4083     0.1578     0.0999     5.4992     4.6020   227.0763   -32.3481
 1139.0000   124.6784     8.3453     2.3781     0.1719     0.0852     5.5687     4.7255   223.6336   -32.1971
 1139.5000   117.2667     8.3453     2.4840     0.1230     0.0714     5.6537     4.9292   218.9428   -32.3947
 1140.0000   109.8388     8.3453     2.5591     0.0894     0.0576     5.9493     5.1357   210.9797   -32.6607
 1140.5000   105.1802     8.3455     2.5838     0.0557     0.0420     6.8802     6.1690   189.2189   -32.9282
 1141.0000   103.7975     8.3352     2.5671     0.0399     0.0502     7.8696     7.2992   167.4582   -33.1951
 1141.5000   102.3306     8.3204     2.5827     0.0475     0.0629     8.7466     8.4538   145.6975   -33.4618
 1142.0000   105.7962     8.3054     2.5731     0.0547     0.0757     9.4383     8.8828   123.9368   -33.7285
 1142.5000   108.6309     8.2904     2.5538     0.0613     0.0835     9.8358     9.1727   112.7110   -33.9953
 1143.0000   107.4774     8.2746     2.5655     0.0523     0.0743    10.4536     9.0419   114.6306   -34.2635
 1143.5000   106.4247     8.2587     2.5782     0.0479     0.0697    10.0593     8.8890   116.5891   -34.4244
 1144.0000   107.0571     8.2427     2.5652     0.0518     0.1121    10.0182     8.7382   118.5476   -34.5306
 1144.5000   109.6392     8.2268     2.5686     0.0503     0.1078     9.9847     8.5874   120.5060   -34.6363
 1145.0000   112.1920     8.2100     2.5740     0.0488     0.1038    10.1550     8.4350   122.1698   -34.7419
 1145.5000   110.8566     8.2364     2.5563     0.0576     0.1171    10.3300     8.3065   123.4211   -34.8477
 1146.0000   106.2859     8.2803     2.5428     0.0700     0.1065    10.5044     8.6054   120.8673   -34.9534
 1146.5000   105.4542     8.3249     2.5617     0.0412     0.0901    10.6811     8.9160   117.5306   -35.0588
 1147.0000   106.1302     8.3643     2.5668     0.0514     0.0799    10.9533     9.2246   114.1940   -35.1626
