~VERSION INFORMATION
 VERS.                2.0:   CWLS LOG ASCII STANDARD - VERSION 2.0
 WRAP.                 NO:   ONE LINE PER DEPTH STEP
~WELL INFORMATION
#MNEM.UNIT      DATA TYPE    INFORMATION
#----------   ------------   ------------------------------
 STRT.F           32.0000:   START DEPTH
 STOP.F          648.0000:   STOP DEPTH
 STEP.F            0.5000:   STEP LENGTH
 NULL.          -999.2500:   NO VALUE
 COMP. LAWRENCE/ALLISON INC:   COMPANY
 WELL.    17-16 SX #17-11:   WELL
 FLD .             TEAPOT:   FIELD
 LOC .      S11 T38N R78W:   LOCATION
 CNTY.            NATRONA:   COUNTY
 STAT.            WYOMING:   STATE
 CTRY. UNITED STATES OF AMERICA:   COUNTRY
 SRVC.           Gearhart:   SERVICE COMPANY
 DATE.        12-JUL-1987:   LOGDATE
 API .       490251115200:   API NUMBER
~CURVE INFORMATION
#MNEM.UNIT       API CODE    CURVE DESCRIPTION
#----------   ------------   ------------------------------
 DEPT.F                  :   
 GRR .GAPI   07 310 01 00:   GAMMA RAY
 ILD .OHMM   07 120 46 00:   INDUCTION LOG DEEP
 ILM .OHMM   07 120 44 00:   INDUCTION LOG MEDIUM
~PARAMETER INFORMATION
#MNEM.UNIT          VALUE    DESCRIPTION
#----------   ------------   ------------------------------
 PD  .                 GL:   PERMANENT DATUM
 EPD .F              5231:   ELEVATION PERMANENT DATUM
 LMF .                 KB:   LOG MEASURED FROM
 DAPD.F                 8:   FEET ABOVE PERMANENT DATUM
 DMF .                 KB:   DRILLING MEASURED FROM
 EKB .F              5239:   KELLING BUSHING
 EDF .F              5237:   DRILLING FLOOR
 EGL .F              5231:   GROUND LEVEL
 DATE.        12-JUL-1987:   RUN DATE
 RUN .                  1:   RUN NUMBER
 DD  .F               650:   DEPTH DRILLER
 DL  .F               656:   DEPTH LOGGER
 BLI .F               654:   BOTTOM LOG INTERVAL
 TLI .F                30:   TOP LOG INTERVAL
 CS  .IN            8.625:   CASING SIZE
 CBD .F                48:   CASING BOTTOM DRILLER
 CBL .F                48:   CASING BOTTOM LOGGER
 BS  .IN            7.875:   BIT SIZE
 BSD .F               650:   BIT SIZE AT DEPTH
 DFT .                AIR:   DRILLING FLUID TYPE
 TLAB.HRS            1051:   TIME LOGGER AT BOTTOM
 MRT .F                80:   MAXIMUM RECORDED TEMPERATURE
 LUN .               7597:   LOGGING UNIT NUMBER
 LUL .           GILLETTE:   LOGGING UNIT LOCATION
 ENGI.         WEATHERMON:   RECORDING ENGINEER
 WITN.         MR. STRONG:   WITNESSED BY
 CLNT.            A2DTECH:   CLIENT CODE
 ORIG.           5" PRINT:   ORIGIN OF DATA
 UWI .       490251115200:   UNIQUE WELL ID
 DICO. A2D Technologies, Inc.:   DIGITIZING COMPANY
~OTHER INFORMATION
~A   DEPT       GRR       ILD        ILM   
# ...
  123.0000   107.2967     8.3389     8.1670
  123.5000   107.0212     8.3394     8.1111
  124.0000   106.4368     8.2250     8.1116
  124.5000   106.7721     8.1123     8.0561
  125.0000   106.7987     8.0566     7.9917
  125.5000   108.3358     8.0014     7.8366
  126.0000   109.2687     7.8916     7.6226
  126.5000   105.9356     7.6762     7.4144
  127.0000   103.8904     7.3636     7.2621
  127.5000   104.8233     7.2123     7.1625
  128.0000   106.6625     7.1603     7.1134
  128.5000   108.1996     7.1139     7.0647
  129.0000   109.7367     7.1145     7.1144
  129.5000   111.8781     7.1645     7.1149
  130.0000   112.2001     7.2651     7.2652
  130.5000   110.7227     7.3162     7.4185
  131.0000   111.0514     7.4707     7.5228
  131.5000   112.3414     7.5756     7.6284
  132.0000   111.7154     7.7355     7.7356
  132.5000   111.4332     7.7900     7.8442
  133.0000   112.3727     7.8995     7.8994
  133.5000   113.3056     7.9550     7.9550
  134.0000   111.8149     8.0110     7.9636
  134.5000   112.1502     8.0673     8.0674
  135.0000   115.8021     8.1241     8.1241
  135.5000   119.4541     8.2382     8.1813
  136.0000   117.6679     8.2387     8.1818
  136.5000   116.4351     8.2967     8.2393
  137.0000   113.4461     8.2400     8.2973
  137.5000   112.6116     8.2405     8.2979
  138.0000   112.9469     8.2411     8.2984
  138.5000   112.6647     8.1280     8.2990
  139.0000   113.0000     8.0722     8.1853
  139.5000   115.7456     7.9616     8.0171
  140.0000   119.3909     7.9071     7.7981
  140.5000   118.5177     7.8500     7.6912
  141.0000   118.2196     7.7991     7.6383
  141.5000   120.6999     7.7457     7.6390
  142.0000   122.5249     7.6926     7.6395
  142.5000   120.4433     7.6933     7.6400
  143.0000   120.1611     7.6405     7.6406
  143.5000   120.4964     7.5881     7.5882
  144.0000   120.2208     7.5888     7.5362
  144.5000   118.1325     7.6421     7.5369
  145.0000   114.8358     7.6959     7.5374
  145.5000   116.6751     7.6965     7.5379
  146.0000   119.7865     7.6971     7.5384
  146.5000   117.0303     7.7512     7.6443
  147.0000   114.2859     7.7517     7.6980
  147.5000   112.8538     7.8062     7.7522
  148.0000   116.8144     7.8068     7.7528
  148.5000   118.9558     7.8617     7.8617
  149.0000   120.4929     7.9170     7.8623
  149.5000   121.1237     7.9176     7.9176
  150.0000   124.1716     7.9800     7.9122
  150.5000   120.5758     8.0648     7.8764
  151.0000   116.6778     8.1459     7.8407
  151.5000   113.0820     8.2620     7.8138
  152.0000   113.7402     8.3798     7.9283
  152.5000   117.7946     8.6180     8.0371
  153.0000   120.7308     8.6204     8.1514
  153.5000   121.0624     8.6227     8.2671
  154.0000   123.2067     8.6851     8.3263
  154.5000   124.7468     8.6874     8.3860
  155.0000   125.9774     8.7503     8.5050
  155.5000   121.4826     8.7528     8.5067
  156.0000   118.1889     8.8780     8.6274
  156.5000   118.5205     9.0046     8.7497
  157.0000   119.4564     9.0070     8.7516
  157.5000   119.7885     8.9465     8.7534
  158.0000   119.8187     8.9496     8.7555
  158.5000   120.7608     8.9520     8.8797
  159.0000   122.6030     9.0168     8.8815
  159.5000   125.6537     9.1453     9.0075
  160.0000   128.1001     9.2757     9.1353
  160.5000   129.0286     9.4079     9.2648
  161.0000   126.3465     9.5426     9.3962
  161.5000   124.8654     9.6786     9.5295
  162.0000   123.3844     9.8165     9.5979
  162.5000   120.9970     9.9564     9.6780
  163.0000   119.1863     9.9591     9.8043
  163.5000   116.8338    10.1011     9.9433
  164.0000   115.6549    10.1742    10.0844
  164.5000   115.3749    10.3192    10.1567
  165.0000   114.4981    10.3939    10.3007
  165.5000   114.2255    10.5427    10.3746
  166.0000   114.2624    10.6930    10.5217
  166.5000   115.5004    10.8454    10.6710
  167.0000   117.3426    11.0000    10.8224
  167.5000   117.4018    11.0796    10.9760
  168.0000   117.0917    11.0826    10.9027
  168.5000   116.5248    11.0088    10.8289
  169.0000   116.5617    11.0119    10.7562
  169.5000   116.8933    10.9364    10.6840
  170.0000   117.5271    10.7809    10.5394
  170.5000   117.8587    10.5713    10.4686
  171.0000   116.0756    10.5010    10.3983
  171.5000   114.5945    10.4312    10.4004
  172.0000   113.4156    10.3619    10.3306
  172.5000   114.6536    10.2930    10.3209
  173.0000   116.7979    10.2965    10.2633
  173.5000   118.9587    10.2992    10.2659
  174.0000   120.8298    10.2308    10.1970
  174.5000   119.3107    10.1628    10.1991
  175.0000   117.5276    10.1656    10.2011
  175.5000   116.3413    10.0979    10.1321
  176.0000   117.2845    10.1013    10.1347
  176.5000   118.8246    10.0335    10.1368
  177.0000   118.2425    10.0369    10.1388
  177.5000   119.7826    10.0396    10.1410
  178.0000   118.9124     9.9722    10.0728
  178.5000   118.9427     9.9756    10.0056
  179.0000   120.2296     9.9783    10.0077
  179.5000   123.1924     9.9119     9.9405
  180.0000   129.3105     9.9153     9.9425
  180.5000   130.8506     9.9180     9.8752
  181.0000   129.6717     9.9207     9.8777
  181.5000   126.3780     9.9234     9.8797
  182.0000   120.0557     9.9260     9.8089
  182.5000   122.8116     9.8594     9.7475
  183.0000   123.1433     9.7938     9.6156
  183.5000   123.7770     9.6621     9.6175
  184.0000   125.0191     9.6647     9.5525
  184.5000   126.3505     9.5341     9.4883
  185.0000   130.2174     9.5373     9.4907
  185.5000   131.7501     9.4077     9.3618
  186.0000   127.8595     9.1532     9.1073
  186.5000   125.4721     8.8434     8.9214
  187.0000   124.2932     8.5441     8.7354
  187.5000   123.7185     8.2549     8.4824
  188.0000   125.8628     8.0869     8.1571
  188.5000   128.9135     7.9777     7.8260
  189.0000   131.6620     7.9798     7.7193
  189.5000   134.7371     8.0468     7.7212
  190.0000   135.6486     8.1527     7.9402
  190.5000   131.1537     8.2117     8.1089
  191.0000   125.1410     8.3867     8.2812
  191.5000   122.1493     8.5655     8.4572
  192.0000   120.3662     8.6876     8.5258
  192.5000   117.6767     8.8114     8.6487
  193.0000   114.9872     8.8752     8.8841
  193.5000   114.1030     8.9394     8.9478
  194.0000   114.7441     8.8800     8.9496
  194.5000   115.9821     8.8830     8.9514
  195.0000   116.3142     8.8239     8.8908
  195.5000   116.6465     8.7653     8.7705
  196.0000   114.2653     8.7064     8.7723
  196.5000   112.7843     8.6485     8.7134
  197.0000   112.2096     8.6515     8.6549
  197.5000   111.9296     8.5934     8.5373
  198.0000   116.1961     8.6561     8.5395
  198.5000   120.4552     8.6599     8.6007
  199.0000   122.2975     8.7212     8.6623
  199.5000   122.6291     8.7241     8.7245
  200.0000   125.6807     8.8526     8.7866
  200.5000   126.5988     8.9113     8.7867
  201.0000   126.3082     8.9717     8.7869
  201.5000   124.1953     9.0342     8.9097
  202.0000   124.3384     9.0971     8.9717
  202.5000   127.8572     9.0342     8.9717
  203.0000   129.3795     9.0342     9.0342
  203.5000   129.6934     9.0342     8.9717
  204.0000   128.4966     9.0342     8.9097
  204.5000   124.5780     8.9717     8.9097
  205.0000   125.8011     8.9717     8.9097
  205.5000   126.4171     8.9097     8.9097
  206.0000   120.0242     8.9097     8.9097
  206.5000   117.3800     8.9097     8.9097
  207.0000   117.6939     8.9097     8.9097
  207.5000   120.4247     8.9097     8.7869
  208.0000   124.0618     8.9097     8.7869
  208.5000   128.0010     8.8481     8.7261
  209.0000   126.2001     8.7869     8.7261
  209.5000   123.4928     8.7869     8.6657
  210.0000   120.1813     8.7261     8.6657
  210.5000   117.7059     8.7261     8.6657
  211.0000   116.5794     8.7261     8.6657
  211.5000   119.0110     8.7261     8.6058
  212.0000   120.2312     8.6657     8.6058
  212.5000   120.2429     8.7261     8.5463
  213.0000   119.6504     8.7261     8.5463
  213.5000   119.0550     8.7261     8.6058
