~VERSION INFORMATION
 VERS.                2.0:   CWLS LOG ASCII STANDARD - VERSION 2.0
 WRAP.                 NO:   ONE LINE PER DEPTH STEP
~WELL INFORMATION
#MNEM.UNIT      DATA TYPE    INFORMATION
#----------   ------------   ------------------------------
 STRT.F            4.0000:   START DEPTH
 STOP.F          564.0000:   STOP DEPTH
 STEP.F            0.1000:   STEP LENGTH
 NULL.          -999.2500:   NO VALUE
 COMP.       F D SERV INC:   COMPANY
 WELL. NAVAL PETROLEUM RESERVE 3 SX-3 #88-4-3:   WELL
 FLD .             TEAPOT:   FIELD
 LOC .       S3 T38N R78W:   LOCATION
 CNTY.            NATRONA:   COUNTY
 STAT.            WYOMING:   STATE
 CTRY. UNITED STATES OF AMERICA:   COUNTRY
 SRVC.      Western Atlas:   SERVICE COMPANY
 DATE.        15-OCT-1992:   LOGDATE
 API .       490252255000:   API NUMBER
~CURVE INFORMATION
#MNEM.UNIT       API CODE    CURVE DESCRIPTION
#----------   ------------   ------------------------------
 DEPT.F                  :   
 GRR .GAPI   07 310 01 00:   GAMMA RAY
 RILD.OHMM   07 120 46 00:   INDUCTION LOG DEEP RESISTIVITY
 RILM.OHMM   07 120 44 00:   INDUCTION LOG MEDIUM RESISTIVITY
~PARAMETER INFORMATION
#MNEM.UNIT          VALUE    DESCRIPTION
#----------   ------------   ------------------------------
 PD  .                 GL:   PERMANENT DATUM
 EPD .F              5129:   ELEVATION PERMANENT DATUM
 LMF .                 KB:   LOG MEASURED FROM
 DAPD.F                10:   FEET ABOVE PERMANENT DATUM
 DMF .                 KB:   DRILLING MEASURED FROM
 EKB .F              5139:   KELLING BUSHING
 EGL .F              5129:   GROUND LEVEL
 DATE.        15-OCT-1992:   RUN DATE
 RUN .                  1:   RUN NUMBER
 DD  .F               570:   DEPTH DRILLER
 DL  .F               570:   DEPTH LOGGER
 BLI .F               564:   BOTTOM LOG INTERVAL
 TLI .F               564:   TOP LOG INTERVAL
 CS  .IN            8.625:   CASING SIZE
 CBL .F                94:   CASING BOTTOM LOGGER
 BS  .IN            7.875:   BIT SIZE
 BSD .F               570:   BIT SIZE AT DEPTH
 DFT .           AIR FOAM:   DRILLING FLUID TYPE
 TCS .HRS               4:   TIME CURCULATED STOPPED
 MRT .F                72:   MAXIMUM RECORDED TEMPERATURE
 LUN .            HL-6345:   LOGGING UNIT NUMBER
 LUL .          FT.MORGAN:   LOGGING UNIT LOCATION
 ENGI.             BURLEY:   RECORDING ENGINEER
 WITN.        DARY STRONG:   WITNESSED BY
 CLNT.            A2DTECH:   CLIENT CODE
 ORIG.           5" PRINT:   ORIGIN OF DATA
 UWI .       490252255000:   UNIQUE WELL ID
 DICO. A2D Technologies, Inc.:   DIGITIZING COMPANY
~OTHER INFORMATION
~A    DEPT      GRR      RILD       RILM   
# ...
  422.6000    94.5311    20.0839    20.1274
  422.7000    95.2727    20.0834    20.0000
  422.8000    96.0144    20.0828    20.0000
  422.9000    96.7182    20.0822    20.0000
  423.0000    97.2388    20.0817    20.0000
  423.1000    97.9386    20.0811    19.9660
  423.2000    98.4973    20.0805    19.8601
  423.3000    98.9903    19.9783    19.8601
  423.4000    99.5623    19.9388    19.8601
  423.5000   100.2768    19.9383    19.7823
  423.6000   100.8188    19.8784    19.6674
  423.7000   101.4863    19.6590    19.5532
  423.8000   102.0559    19.6583    19.4397
  423.9000   102.5488    19.5611    19.3102
  424.0000   102.9734    19.5197    19.3102
  424.1000   103.2174    19.4695    19.1659
  424.2000   103.4965    19.3297    18.9923
  424.3000   103.2792    19.1079    18.9077
  424.4000   102.8643    18.9766    18.9046
  424.5000   102.2524    18.8853    18.7755
  424.6000   101.4438    18.8428    18.6858
  424.7000   100.4438    18.7520    18.5774
  424.8000    99.2568    18.5563    18.4695
  424.9000    98.4184    18.4482    18.3842
  425.0000    97.3873    18.4477    18.3842
  425.1000    96.3561    18.3615    18.2775
  425.2000    95.6367    18.1914    18.1715
  425.3000    94.6599    18.0205    18.0660
  425.4000    92.8276    17.9345    17.9611
  425.5000    90.5021    17.9340    17.8751
  425.6000    88.8191    17.8314    17.8751
  425.7000    87.2602    17.8074    17.8751
  425.8000    85.8983    17.7479    17.7958
  425.9000    84.7335    17.6442    17.6925
  426.0000    83.8296    17.5411    17.5898
  426.1000    83.5557    17.4341    17.5026
  426.2000    83.5513    17.4336    17.5026
  426.3000    83.5465    17.4331    17.4070
  426.4000    83.5416    17.4326    17.3802
  426.5000    83.6100    17.3975    17.3802
  426.6000    83.8753    17.3096    17.3802
  426.7000    84.4289    17.3091    17.3682
  426.8000    84.6428    17.3086    17.2586
  426.9000    84.8868    17.3081    17.2586
  427.0000    85.1308    17.2552    17.1878
  427.1000    85.3748    17.1860    17.0880
  427.2000    85.6086    17.1743    16.9888
  427.3000    85.6028    17.0647    16.8989
  427.4000    85.8062    17.0643    16.8989
  427.5000    85.8947    17.0638    16.8989
  427.6000    85.8899    17.0139    16.8989
  427.7000    85.8336    16.9434    16.8526
  427.8000    85.5795    16.9429    16.7807
  427.9000    85.3264    16.9423    16.7807
  428.0000    85.0727    16.9419    16.7807
  428.1000    84.8191    16.9415    16.7807
  428.2000    84.5654    16.9410    16.7175
  428.3000    84.3118    16.9140    16.6633
  428.4000    84.0467    16.8214    16.6403
  428.5000    83.8045    16.8209    16.5468
  428.6000    83.5508    16.8205    16.5468
  428.7000    83.1635    16.8200    16.4674
  428.8000    82.9065    16.8195    16.4310
  428.9000    83.1505    16.7951    16.4310
  429.0000    83.4161    16.6931    16.4310
  429.1000    83.4117    16.4673    16.4310
  429.2000    83.4069    16.4669    16.4310
  429.3000    83.5250    16.4664    16.3550
  429.4000    83.7690    16.4252    16.3161
  429.5000    84.0130    16.3502    16.2795
  429.6000    84.2893    16.3467    16.2019
  429.7000    84.2851    16.1211    16.2019
  429.8000    84.4443    16.1208    16.1103
  429.9000    84.5762    16.0635    16.0168
  430.0000    84.5714    16.0070    15.9760
  430.1000    84.5666    16.0065    15.9760
  430.2000    84.5610    16.0061    15.9620
  430.3000    84.7621    15.9134    15.8643
  430.4000    85.0061    15.8932    15.8643
  430.5000    85.2501    15.7855    15.8643
  430.6000    85.4941    15.6362    15.8152
  430.7000    85.7407    15.5604    15.7233
  430.8000    85.7359    15.5599    15.6320
  430.9000    85.9254    15.4720    15.5337
  431.0000    86.1694    15.3816    15.5337
  431.1000    86.4134    15.2918    15.4696
  431.2000    86.6574    15.2024    15.3798
  431.3000    86.9146    15.1266    15.2905
  431.4000    86.9101    15.1262    15.2017
  431.5000    87.2721    15.0428    15.1035
  431.6000    87.6335    15.0195    15.1035
  431.7000    87.8775    15.0191    15.0438
  431.8000    88.1769    14.9899    14.9979
  431.9000    88.9908    14.9023    14.9510
  432.0000    89.2111    14.8082    14.7833
  432.1000    89.4551    14.8078    14.6853
  432.2000    89.5783    14.7459    14.6853
  432.3000    89.5048    14.7033    14.6853
  432.4000    89.2680    14.7029    14.6473
  432.5000    89.2625    14.6939    14.5826
  432.6000    89.2583    14.5991    14.5796
  432.7000    88.9300    14.5988    14.4806
  432.8000    88.4276    14.5984    14.4109
  432.9000    87.9251    14.5567    14.3793
  433.0000    87.4224    14.4717    14.3444
  433.1000    86.8274    14.3935    14.2787
  433.2000    86.8235    14.3930    14.2787
  433.3000    86.6677    14.3198    14.2787
  433.4000    86.5131    14.2915    14.2787
  433.5000    86.5083    14.2911    14.2787
  433.6000    86.5034    14.2907    14.2465
  433.7000    86.4986    14.2859    14.1788
  433.8000    86.6859    14.1898    14.1788
  433.9000    87.0700    14.1894    14.1788
  434.0000    87.5629    14.1361    14.1153
  434.1000    88.1286    14.0535    14.0334
  434.2000    89.1810    13.9903    13.9811
  434.3000    89.4098    13.9876    13.9811
  434.4000    89.4725    13.8915    13.9811
  434.5000    89.3384    13.8912    13.9042
  434.6000    89.1621    13.8908    13.8833
  434.7000    89.1573    13.8904    13.8833
  434.8000    89.1520    13.8900    13.8833
  434.9000    88.7030    13.8896    13.8833
  435.0000    88.2006    13.8892    13.8833
  435.1000    87.8166    13.8888    13.8833
  435.2000    87.4963    13.8884    13.8258
  435.3000    86.9938    13.8880    13.7862
  435.4000    86.4161    13.8876    13.7862
  435.5000    86.2005    13.8873    13.7862
  435.6000    85.9469    13.8869    13.7862
  435.7000    85.8009    13.8239    13.7862
  435.8000    85.7961    13.7889    13.7862
  435.9000    85.7914    13.7885    13.7862
  436.0000    86.3870    13.7881    13.7643
  436.1000    86.5838    13.7877    13.6898
  436.2000    87.2741    13.7873    13.6898
  436.3000    88.2646    13.7869    13.6898
  436.4000    89.2552    13.7866    13.6898
  436.5000    90.2736    13.7862    13.6898
  436.6000    92.2034    13.7858    13.6898
  436.7000    93.4295    13.7854    13.6898
  436.8000    94.0062    13.7850    13.6898
  436.9000    94.1642    13.7846    13.6898
  437.0000    94.1253    13.7842    13.6898
  437.1000    93.8535    13.7838    13.6898
  437.2000    93.8490    13.7835    13.6726
  437.3000    93.6652    13.7830    13.5940
  437.4000    93.2844    13.7827    13.5940
  437.5000    92.8571    13.7823    13.5940
  437.6000    92.6035    13.7819    13.5940
  437.7000    92.3206    13.7815    13.5940
  437.8000    92.3164    13.7811    13.5940
  437.9000    92.3116    13.7807    13.5940
  438.0000    92.4231    13.7804    13.5940
  438.1000    92.6027    13.8347    13.5940
  438.2000    92.6103    13.8767    13.5940
  438.3000    92.8931    13.8763    13.5940
  438.4000    93.0983    13.8759    13.5940
  438.5000    93.3423    13.8755    13.5940
  438.6000    93.5863    13.8752    13.5940
  438.7000    93.8304    13.8748    13.6532
  438.8000    94.0744    13.8744    13.6898
  438.9000    94.3184    13.8740    13.6898
  439.0000    94.5624    13.8736    13.6898
  439.1000    94.8064    13.8732    13.6898
  439.2000    94.9558    13.8728    13.6898
  439.3000    94.9510    13.8724    13.6898
  439.4000    94.9460    13.8720    13.6898
  439.5000    94.7018    13.8717    13.6898
  439.6000    94.6358    13.8713    13.6898
  439.7000    94.3595    13.8708    13.6898
  439.8000    93.8571    13.8705    13.6188
  439.9000    93.3226    13.8701    13.5940
  440.0000    92.5109    13.8697    13.5940
  440.1000    91.8200    13.8693    13.5722
  440.2000    91.2456    13.8689    13.4989
  440.3000    91.1180    13.8685    13.4989
  440.4000    91.2890    13.8047    13.4989
  440.5000    91.3052    13.7707    13.4989
  440.6000    91.5796    13.7703    13.4989
  440.7000    92.0112    13.7561    13.4989
