~VERSION INFORMATION
 VERS.                2.0:   CWLS LOG ASCII STANDARD - VERSION 2.0
 WRAP.                 NO:   ONE LINE PER DEPTH STEP
~WELL INFORMATION
#MNEM.UNIT      DATA TYPE    INFORMATION
#----------   ------------   ------------------------------
 STRT.F           86.5000:   START DEPTH
 STOP.F         1282.0000:   STOP DEPTH
 STEP.F            0.5000:   STEP LENGTH
 NULL.          -999.2500:   NO VALUE
 COMP.      UNITED STATES:   COMPANY
 WELL.             NPR #3:   WELL
 FLD .        TEAPOT DOME:   FIELD
 LOC .      S14 T38N R78W:   LOCATION
 CNTY.            NATRONA:   COUNTY
 STAT.            WYOMING:   STATE
 CTRY. UNITED STATES OF AMERICA:   COUNTRY
 SRVC.       Schlumberger:   SERVICE COMPANY
 DATE.        06-JUL-1962:   LOGDATE
 API .       490250631800:   API NUMBER
~CURVE INFORMATION
#MNEM.UNIT       API CODE    CURVE DESCRIPTION
#----------   ------------   ------------------------------
 DEPT.F                  :   
 SPR .MV     05 010 01 00:   SPONTANEOUS POTENTIAL FROM RES.
 CILD.MMHO   05 110 00 00:   CONDUCTIVITY INDUCTION LOG
 ASN .OHMM   05 041 16 00:   AMPLIFIED SHORT NORMAL 16"
 ILD .OHMM   05 120 46 00:   INDUCTION LOG DEEP
 GR  .GAPI   30 310 01 00:   GAMMA RAY
~PARAMETER INFORMATION
#MNEM.UNIT          VALUE    DESCRIPTION
#----------   ------------   ------------------------------
 PD  .                 GL:   PERMANENT DATUM
 EPD .F              5288:   ELEVATION PERMANENT DATUM
 LMF .                 KB:   LOG MEASURED FROM
 DAPD.F                 5:   FEET ABOVE PERMANENT DATUM
 DMF .                 KB:   DRILLING MEASURED FROM
 EKB .F              5293:   KELLING BUSHING
 EGL .F              5288:   GROUND LEVEL
 DATE.             7-6-62:   RUN DATE
 RUN .                  1:   RUN NUMBER
 DD  .F              1286:   DEPTH DRILLER
 DL  .F              1283:   DEPTH LOGGER
 BLI .F              1282:   BOTTOM LOG INTERVAL
 TLI .F                87:   TOP LOG INTERVAL
 CBD .F                10:   CASING BOTTOM DRILLER
 BS  .IN             6.75:   BIT SIZE
 BSD .F              1286:   BIT SIZE AT DEPTH
 DFT .            GEL-OIL:   DRILLING FLUID TYPE
 DFD .               10.3:   DRILLING FLUID DENSITY
 DFV .                 53:   DRILLING FLUID VISCOSITY
 DFL .                3.6:   DRILLING FLUID LOSS
 MSS .           FLOWLINE:   MUD SAMPLE SOURCE
 RMS .OHMM           5.66:   RESISTIVITY MUD SAMPLE
 MST .F                78:   MUD SAMPLE TEMPERATURE
 RMF .OHMM           5.59:   RESISTIVITY MUD FILTRATE SAMPLE
 MFST.F                78:   MUD FILTRATE SAMPLE TEMPERATURE
 RMC .OHMM           4.47:   RESISTIVITY MUD CAKE
 MCST.F                78:   MUD CAKE SAMPLE TEMPERATURE
 MFSS.                  M:   MUD FILTRATE SAMPLE SOURCE
 MCSS.                  M:   MUD CAKE SAMPLE SOURCE
 RMB .OHMM           5.08:   RESISTIVITY MUD AT BHT
 BHT .F                88:   BOTTOM HOLE TEMPERATURE
 TCS .HRS               1:   TIME CURCULATED STOPPED
 MRT .F                88:   MAXIMUM RECORDED TEMPERATURE
 LUN .               2503:   LOGGING UNIT NUMBER
 LUL .               CSPR:   LOGGING UNIT LOCATION
 ENGI.             KNOBEL:   RECORDING ENGINEER
 WITN.          JORGENSEN:   WITNESSED BY
 CLNT.            A2DTECH:   CLIENT CODE
 ORIG.       2", 5" PRINT:   ORIGIN OF DATA
 UWI .       490250631800:   UNIQUE WELL ID
 DICO. A2D Technologies, Inc.:   DIGITIZING COMPANY
~OTHER INFORMATION
~A   DEPT      SPR       CILD        ASN        ILD         GR   
# ...
 1001.5000   -32.5696   135.4685     7.5561     7.8667  -999.2500
 1002.0000   -32.3897   134.6496     7.5572     7.9226  -999.2500
 1002.5000   -32.1819   135.0986     7.5393     7.9400  -999.2500
 1003.0000   -31.9731   136.0514     7.5019     7.8864  -999.2500
 1003.5000   -31.7770   137.0078     7.4647     7.8342  -999.2500
 1004.0000   -31.7715   137.9645     7.4273     7.7818  -999.2500
 1004.5000   -31.7694   138.9212     7.3900     7.7294  -999.2500
 1005.0000   -31.8672   139.6470     7.3526     7.6770  -999.2500
 1005.5000   -31.9826   139.6470     7.3155     7.6247  -999.2500
 1006.0000   -32.0974   139.6487     7.2784     7.5719  -999.2500
 1006.5000   -32.1712   139.7440     7.2537     7.5628  -999.2500
 1007.0000   -32.0006   139.8374     7.3485     7.5865  -999.2500
 1007.5000   -31.7073   139.9312     7.4538     7.6102  -999.2500
 1008.0000   -31.4132   140.0251     7.4576     7.6338  -999.2500
 1008.5000   -31.1170   140.1190     7.4569     7.6531  -999.2500
 1009.0000   -30.9772   140.2129     7.4456     7.6232  -999.2500
 1009.5000   -30.9764   140.3067     7.3839     7.5459  -999.2500
 1010.0000   -30.9757   140.4001     7.3220     7.4683  -999.2500
 1010.5000   -30.9752   140.4935     7.2980     7.4528  -999.2500
 1011.0000   -31.0120   140.5865     7.3396     7.4524  -999.2500
 1011.5000   -31.0634   141.1554     7.3767     7.4525  -999.2500
 1012.0000   -31.1159   142.5484     7.3292     7.4527  -999.2500
 1012.5000   -31.1739   143.9415     7.2740     7.4528  -999.2500
 1013.0000   -31.0075   145.3346     7.2787     7.4527  -999.2500
 1013.5000   -30.8113   146.7276     7.1959     7.4384  -999.2500
 1014.0000   -30.6099   148.1207     7.0879     7.3357  -999.2500
 1014.5000   -30.6357   149.5138     7.0392     7.2325  -999.2500
 1015.0000   -30.7054   150.9068     6.9504     7.1296  -999.2500
 1015.5000   -30.7738   152.2802     6.8328     7.0269  -999.2500
 1016.0000   -30.8074   153.6495     6.7147     6.9231  -999.2500
 1016.5000   -30.8447   156.7526     6.6194     6.8052  -999.2500
 1017.0000   -30.8828   163.8198     6.5460     6.6356  -999.2500
 1017.5000   -30.9203   170.8891     6.4727     6.4698  -999.2500
 1018.0000   -30.9580   177.9407     6.3299     6.3040  -999.2500
 1018.5000   -30.9165   184.9832     6.1133     6.1379  -999.2500
 1019.0000   -30.8077   191.0504     5.8973     5.9726  -999.2500
 1019.5000   -30.6984   196.0363     5.6922     5.8301  -999.2500
 1020.0000   -30.5885   196.7071     5.5557     5.7604  -999.2500
 1020.5000   -30.4789   196.7071     5.5300     5.7497  -999.2500
 1021.0000   -30.3800   194.5448     5.5939     5.7548  -999.2500
 1021.5000   -30.4301   191.2280     5.5966     5.8800  -999.2500
 1022.0000   -30.5401   187.0200     5.7421     6.0054  -999.2500
 1022.5000   -30.6498   179.9500     6.0777     6.1299  -999.2500
 1023.0000   -30.7598   172.8799     6.2179     6.2543  -999.2500
 1023.5000   -30.7769   165.8098     6.3181     6.3788  -999.2500
 1024.0000   -30.7773   160.6391     6.3830     6.5033  -999.2500
 1024.5000   -30.7796   157.6660     6.4278     6.6267  -999.2500
 1025.0000   -30.6995   157.6660     6.4724     6.7187  -999.2500
 1025.5000   -30.6047   157.6660     6.5169     6.8010  -999.2500
 1026.0000   -30.5090   157.6660     6.5616     6.8443  -999.2500
 1026.5000   -30.4135   155.6999     6.6077     6.8219  -999.2500
 1027.0000   -30.3182   153.7098     6.5888     6.8003  -999.2500
 1027.5000   -30.2226   151.6596     6.5549     6.7787  -999.2500
 1028.0000   -30.1813   152.8743     6.5203     6.7595  -999.2500
 1028.5000   -30.1132   156.1911     6.4855     6.6567  -999.2500
 1029.0000   -30.0242   159.5047     6.4509     6.5330  -999.2500
 1029.5000   -30.0200   162.8236     6.3871     6.4085  -999.2500
 1030.0000   -30.0956   166.1404     6.2970     6.2840  -999.2500
 1030.5000   -30.1704   169.4540     6.1852     6.1527  -999.2500
 1031.0000   -30.1795   172.7752     6.0682     5.9019  -999.2500
 1031.5000   -30.1799   177.2966     5.9510     5.6322  -999.2500
 1032.0000   -30.1796   182.8525     5.8341     5.3451  -999.2500
 1032.5000   -30.0585   192.8029     5.7154     4.9779  -999.2500
 1033.0000   -29.9178   207.6324     5.5684     4.6195  -999.2500
 1033.5000   -29.7766   224.4717     5.3260     4.2611  -999.2500
 1034.0000   -29.6348   239.7524     5.0896     3.9049  -999.2500
 1034.5000   -29.5894   251.7650     4.8539     3.6421  -999.2500
 1035.0000   -29.3636   257.8294     4.6183     3.6484  -999.2500
 1035.5000   -29.0957   257.8011     4.4419     3.6482  -999.2500
 1036.0000   -29.0527   256.7871     4.3272     3.6479  -999.2500
 1036.5000   -29.2319   253.0178     4.2737     3.7353  -999.2500
 1037.0000   -29.4111   244.6015     4.6160     3.9196  -999.2500
 1037.5000   -29.5959   231.1683     5.0124     4.0997  -999.2500
 1038.0000   -29.7750   214.8461     5.4085     4.6877  -999.2500
 1038.5000   -30.0024   196.2854     5.7009     5.3139  -999.2500
 1039.0000   -29.9821   181.9816     5.8564     5.7014  -999.2500
 1039.5000   -29.9789   172.5083     6.0113     5.8282  -999.2500
 1040.0000   -29.9801   167.6818     6.1640     5.9542  -999.2500
 1040.5000   -29.9802   165.3373     6.2822     6.0781  -999.2500
 1041.0000   -29.9800   162.9618     6.3492     6.2024  -999.2500
 1041.5000   -29.9797   160.5969     6.4160     6.3271  -999.2500
 1042.0000   -29.9342   158.4825     6.4799     6.4499  -999.2500
 1042.5000   -29.8354   156.5345     6.5918     6.5172  -999.2500
 1043.0000   -29.7374   154.5852     6.7118     6.5823  -999.2500
 1043.5000   -29.6397   152.6339     6.8333     6.6477  -999.2500
 1044.0000   -29.5821   150.6837     6.9525     6.7131  -999.2500
 1044.5000   -29.5819   148.6565     6.9575     6.7786  -999.2500
 1045.0000   -29.5815   148.1989     6.9570     6.8440  -999.2500
 1045.5000   -29.5818   147.7250     7.0259     6.9096  -999.2500
 1046.0000   -29.5819   147.2512     7.1484     6.9661  -999.2500
 1046.5000   -29.6122   146.7774     7.2720     7.0102    91.9268
 1047.0000   -29.6636   145.4910     7.2764     7.0533    92.0842
 1047.5000   -29.7152   143.9199     7.3037     7.0962    91.4635
 1048.0000   -29.7684   142.3488     7.3482     7.1393    92.4408
 1048.5000   -29.7652   140.6481     7.3944     7.1823    97.2726
 1049.0000   -29.7373   140.6481     7.4255     7.2253    90.7118
 1049.5000   -29.7088   140.6481     7.4372     7.2684    75.1162
 1050.0000   -29.6802   141.0274     7.4588     7.3114    72.1160
 1050.5000   -29.6515   141.7816     7.4492     7.3544    77.5623
 1051.0000   -29.6241   142.5357     7.4173     7.3974    79.6414
 1051.5000   -29.5966   143.2899     7.3582     7.4416    79.8363
 1052.0000   -29.7197   143.6512     7.2947     7.4426    79.0374
 1052.5000   -29.9706   143.6512     7.1977     7.4243    97.5049
 1053.0000   -29.8042   143.6512     7.0879     7.4057    94.4992
 1053.5000   -29.4910   143.6512     6.9727     7.3873    96.3252
 1054.0000   -29.1787   143.6512     6.8570     7.3686   106.3082
 1054.5000   -28.9817   143.6304     6.8000     7.3233    90.8885
 1055.0000   -28.9842   145.9069     6.7193     7.1288    95.8179
 1055.5000   -28.9839   148.9160     6.6225     6.9335   100.4753
 1056.0000   -28.9840   151.9760     6.4291     6.6198   104.0151
 1056.5000   -28.9843   159.8926     6.2135     6.2176    99.6795
 1057.0000   -28.9853   169.2439     5.9657     5.8128    92.7716
 1057.5000   -28.9792   178.6881     5.6031     5.2544    99.0256
 1058.0000   -28.8346   203.0604     5.2368     4.5959   105.3100
 1058.5000   -28.6897   229.6996     4.8706     3.9333    97.1202
 1059.0000   -28.5458   264.3872     4.5044     3.2717    93.9495
 1059.5000   -28.4020   307.2978     4.1387     2.6495    84.2224
 1060.0000   -28.2581   361.8509     3.7785     2.2502    90.4327
 1060.5000   -28.1143   416.5803     3.4552     1.8411    91.2483
 1061.0000   -27.9873   468.5554     3.1290     1.4643    94.3005
 1061.5000   -28.0282   496.0381     2.9741     1.3438    95.8602
 1062.0000   -28.0848   509.5601     2.8573     1.3474    92.0546
