~VERSION INFORMATION
 VERS.                2.0:   CWLS LOG ASCII STANDARD - VERSION 2.0
 WRAP.                 NO:   ONE LINE PER DEPTH STEP
~WELL INFORMATION
#MNEM.UNIT      DATA TYPE    INFORMATION
#----------   ------------   ------------------------------
 STRT.F            3.0000:   START DEPTH
 STOP.F          587.0000:   STOP DEPTH
 STEP.F            0.5000:   STEP LENGTH
 NULL.          -999.2500:   NO VALUE
 COMP.   FLUOR DANIEL INC:   COMPANY
 WELL. NAVAL PETROLEUM RESERVE 3 STX- #1-3:   WELL
 FLD .          N.P.R. #3:   FIELD
 LOC .       S3 T38N R78W:   LOCATION
 CNTY.            NATRONA:   COUNTY
 STAT.            WYOMING:   STATE
 CTRY. UNITED STATES OF AMERICA:   COUNTRY
 SRVC.      Western Atlas:   SERVICE COMPANY
 DATE.        03-FEB-1995:   LOGDATE
 API .       490252269200:   API NUMBER
~CURVE INFORMATION
#MNEM.UNIT       API CODE    CURVE DESCRIPTION
#----------   ------------   ------------------------------
 DEPT.F                  :   
 GRR .GAPI   07 310 01 00:   GAMMA RAY FROM RES. LOG.
 RILD.OHMM   07 120 46 00:   INDUCTION LOG DEEP RESISTIVITY
 RILM.OHMM   07 120 44 00:   INDUCTION LOG MEDIUM RESISTIVITY
~PARAMETER INFORMATION
#MNEM.UNIT          VALUE    DESCRIPTION
#----------   ------------   ------------------------------
 PD  .                 GL:   PERMANENT DATUM
 EPD .F              5226:   ELEVATION PERMANENT DATUM
 LMF .                 KB:   LOG MEASURED FROM
 DAPD.F                10:   FEET ABOVE PERMANENT DATUM
 DMF .                 KB:   DRILLING MEASURED FROM
 EKB .F              5236:   KELLING BUSHING
 EDF .F              5235:   DRILLING FLOOR
 EGL .F              5226:   GROUND LEVEL
 DATE.         3-FEB-1995:   RUN DATE
 RUN .                  1:   RUN NUMBER
 DD  .F               595:   DEPTH DRILLER
 DL  .F               595:   DEPTH LOGGER
 BLI .F               587:   BOTTOM LOG INTERVAL
 CS  .IN            9.625:   CASING SIZE
 CBD .F                55:   CASING BOTTOM DRILLER
 CBL .F                55:   CASING BOTTOM LOGGER
 BS  .IN             8.75:   BIT SIZE
 BSD .F               595:   BIT SIZE AT DEPTH
 DFT .                AIR:   DRILLING FLUID TYPE
 MRT .F                90:   MAXIMUM RECORDED TEMPERATURE
 LUN .             HL6274:   LOGGING UNIT NUMBER
 LUL .             CASPER:   LOGGING UNIT LOCATION
 ENGI.        VERN RAUTIO:   RECORDING ENGINEER
 WITN.        STEVE HARDY:   WITNESSED BY
 CLNT.            A2DTECH:   CLIENT CODE
 ORIG.           5" PRINT:   ORIGIN OF DATA
 UWI .       490252269200:   UNIQUE WELL ID
 DICO. A2D Technologies, Inc.:   DIGITIZING COMPANY
~OTHER INFORMATION
~A    DEPT      GRR      RILD       RILM   
# ...
  185.0000   120.3193     8.2772     8.2703
  185.5000   118.7937     8.2431     8.2363
  186.0000   117.3749     8.2091     8.2024
  186.5000   117.8014     8.1754     8.1686
  187.0000   120.3358     8.1417     8.1350
  187.5000   122.9456     8.1082     8.1011
  188.0000   125.4433     8.0748     8.0676
  188.5000   125.0933     8.0597     8.0597
  189.0000   123.3731     8.1606     8.2341
  189.5000   121.6057     8.2686     8.3898
  190.0000   119.8530     8.3781     8.5482
  190.5000   118.0916     8.4890     8.7096
  191.0000   117.6614     8.6013     8.8740
  191.5000   118.1266     8.7152     9.0190
  192.0000   117.1800     8.7689     9.0136
  192.5000   116.1599     8.7564     9.0035
  193.0000   116.9135     8.7393     8.9935
  193.5000   119.1300     8.7224     8.9834
  194.0000   120.5310     8.7053     8.9734
  194.5000   119.9803     8.6884     8.9634
  195.0000   118.4573     8.6715     8.9534
  195.5000   116.9255     8.6546     8.9439
  196.0000   118.0658     8.6378     8.9354
  196.5000   121.7756     8.6209     8.8384
  197.0000   125.3954     8.5933     8.7044
  197.5000   126.4091     8.4808     8.5725
  198.0000   125.0763     8.3698     8.4428
  198.5000   123.7347     8.2601     8.3151
  199.0000   123.0474     8.1520     8.1894
  199.5000   123.9294     8.0452     8.0655
  200.0000   125.1423     7.9399     7.9435
  200.5000   126.3997     7.8359     7.8233
  201.0000   126.7165     7.6852     7.6869
  201.5000   126.1319     7.6237     7.6940
  202.0000   122.9443     7.6661     7.7842
  202.5000   118.7234     7.7423     7.8693
  203.0000   116.1115     7.8178     7.9561
  203.5000   118.7496     7.8933     8.1325
  204.0000   121.8009     7.9693     8.3569
  204.5000   122.3153     8.0461     8.5258
  205.0000   121.1022     8.1236     8.5493
  205.5000   120.3775     8.2018     8.5715
  206.0000   121.1833     8.2809     8.6061
  206.5000   122.9951     8.3607     8.5258
  207.0000   124.7294     8.4412     8.5677
  207.5000   123.8002     8.5225     8.6216
  208.0000   121.9043     8.6046     8.6745
  208.5000   119.9641     8.6875     8.7264
  209.0000   119.9939     8.7689     8.7716
  209.5000   122.4611     8.8514     8.8486
  210.0000   124.3598     8.7675     8.7527
  210.5000   123.0661     8.6996     8.6859
  211.0000   121.6487     8.6322     8.6188
  211.5000   121.9619     8.5653     8.5519
  212.0000   124.2204     8.4990     8.4855
  212.5000   125.4998     8.4331     8.4195
  213.0000   123.3768     8.3675     8.3675
  213.5000   121.3497     8.3675     8.3708
  214.0000   120.0768     8.3844     8.3878
  214.5000   119.8401     8.4014     8.4048
  215.0000   120.7607     8.4185     8.4219
  215.5000   121.6953     8.4356     8.4390
  216.0000   121.3545     8.5258     8.5258
  216.5000   119.3090     8.6100     8.6398
  217.0000   117.3658     8.7596     8.7900
  217.5000   116.5544     8.9118     8.9427
  218.0000   115.4025     9.0667     9.0981
  218.5000   113.6953     9.2242     9.2562
  219.0000   111.9634     9.3846     9.4171
  219.5000   112.9586     9.5476     9.5807
  220.0000   115.1672     9.7135     9.7472
  220.5000   117.2840     9.8823     9.9166
  221.0000   116.5100    10.0541    10.0889
  221.5000   114.5460    10.2288    10.2642
  222.0000   114.8470    10.4066    10.4426
  222.5000   115.6414    10.5874    10.6241
  223.0000   112.8382    10.8546    10.9393
  223.5000   108.7996    11.2084    11.3169
  224.0000   105.5117    11.5738    11.8212
  224.5000   103.5862    11.8478    12.4654
  225.0000   102.2993    11.9741    13.1450
  225.5000   101.0054    12.1018    13.7580
  226.0000   100.5900    12.2308    13.7419
  226.5000   101.5712    12.3612    13.7487
  227.0000   104.1852    12.4023    13.4604
  227.5000   103.5455    12.1697    12.9135
  228.0000   102.0885    11.9916    12.3889
  228.5000   103.4414    11.8162    11.8855
  229.0000   104.0803    11.6150    11.5682
  229.5000   104.6636    11.4997    11.3960
  230.0000   104.4030    11.3929    11.2263
  230.5000   103.2075    11.2871    11.0592
  231.0000   101.3878    11.1823    10.8946
  231.5000   100.5489    11.0834    10.6796
  232.0000   103.3588    11.0647    10.6931
  232.5000   106.1599    11.0469    10.7201
  233.0000   104.5357    11.0292    10.7472
  233.5000   103.6333    11.0114    10.7743
  234.0000   104.8866    10.9937    10.8015
  234.5000   105.8330    10.9797    10.8288
  235.0000   105.0126    10.9802    10.8561
  235.5000   104.2206    10.9803    10.8776
  236.0000   103.8550    10.9805    10.7414
  236.5000   104.8288    10.8980    10.6095
  237.0000   105.1999    10.7650    10.4790
  237.5000   105.4399    10.6336    10.3500
  238.0000   106.2178    10.5039    10.2227
  238.5000   108.8674    10.3757    10.0969
  239.0000   111.5094    10.2491     9.9727
  239.5000   113.0096    10.1240     9.8500
  240.0000   110.9414     9.9979     9.7288
  240.5000   108.8997     9.9804     9.6302
  241.0000   107.0892     9.9625     9.6407
  241.5000   106.7517     9.9446     9.6688
  242.0000   107.4911     9.9268     9.6971
  242.5000   108.3180     9.9090     9.7208
  243.0000   109.1496     9.8050     9.6001
  243.5000   108.4070     9.6751     9.4973
  244.0000   105.5598     9.5470     9.3956
  244.5000   103.0791     9.4206     9.2949
  245.0000   104.3745     9.2958     9.1894
  245.5000   104.7926     9.1894     9.1037
  246.0000   104.3074     9.1894     9.1516
  246.5000   106.5817     9.1894     9.2030
  247.0000   111.0405     9.1894     9.2547
  247.5000   110.0995     9.1894     9.3067
  248.0000   107.8553     9.1894     9.3589
  248.5000   106.4009     9.1894     9.4115
  249.0000   106.4806     9.1894     9.4644
  249.5000   105.4822     9.1895     9.5176
  250.0000   104.5145     9.1894     9.5710
  250.5000   103.5801     9.1894     9.6302
  251.0000   104.6260     9.1894     9.5404
  251.5000   105.9697     9.0436     9.5430
  252.0000   106.3094     8.8396     9.4840
  252.5000   105.2031     8.6397     9.3417
  253.0000   104.2179     8.4444     8.9753
  253.5000   106.6415     8.2536     8.6225
  254.0000   110.0080     8.0671     8.2852
  254.5000   112.4488     7.8848     7.9610
  255.0000   110.9996     7.7067     7.6191
  255.5000   110.8255     7.5442     7.6191
  256.0000   110.8085     7.5510     7.6511
  256.5000   108.2568     7.5931     7.7153
  257.0000   105.3251     7.6819     7.7801
  257.5000   102.3054     7.7721     7.8455
  258.0000   102.2459     7.8629     7.9114
  258.5000   105.5420     7.9546     7.9846
  259.0000   108.2178     8.0653     8.0692
  259.5000   108.0218     8.0800     8.0827
  260.0000   107.5545     8.0935     8.0962
  260.5000   107.8301     8.1071     8.1098
  261.0000   108.9486     8.1206     8.1234
  261.5000   111.4634     8.1356     8.1356
  262.0000   113.9266     8.2297     8.2507
  262.5000   115.3229     8.3355     8.3568
  263.0000   113.6325     8.4427     8.4643
  263.5000   111.1188     8.5513     8.5731
  264.0000   108.8195     8.6612     8.6834
  264.5000   109.0019     8.7726     8.8514
  265.0000   110.4297     8.8514     8.8298
  265.5000   111.1310     8.7651     8.7880
  266.0000   108.6417     8.6983     8.7463
  266.5000   106.1299     8.6323     8.7045
  267.0000   104.7569     8.5669     8.6630
  267.5000   106.7765     8.5021     8.6217
  268.0000   109.7260     8.4377     8.5806
  268.5000   112.6332     8.3675     8.5397
  269.0000   114.9672     8.3852     8.4989
  269.5000   114.6686     8.4048     8.4463
  270.0000   113.5327     8.4246     8.5432
  270.5000   112.4794     8.4463     8.6835
  271.0000   113.0727     8.4465     8.8262
  271.5000   114.6184     8.4463     8.9708
  272.0000   116.1347     8.4464     9.1063
  272.5000   117.4443     8.4465     9.1066
  273.0000   117.7284     8.4459     8.9683
  273.5000   116.9307     8.4468     8.8018
  274.0000   115.9422     8.3548     8.6384
  274.5000   115.9612     8.2846     8.4463
  275.0000   117.5966     8.2151     8.3342
  275.5000   118.4446     8.1463     8.2336
