~VERSION INFORMATION
 VERS.                2.0:   CWLS LOG ASCII STANDARD - VERSION 2.0
 WRAP.                 NO:   ONE LINE PER DEPTH STEP
~WELL INFORMATION
#MNEM.UNIT      DATA TYPE    INFORMATION
#----------   ------------   ------------------------------
 STRT.F           30.0000:   START DEPTH
 STOP.F          602.0000:   STOP DEPTH
 STEP.F            0.5000:   STEP LENGTH
 NULL.          -999.2500:   NO VALUE
 COMP. FENIX & SCISSON U.S NAVY:   COMPANY
 WELL.   S-3 NPR #3 #51-3:   WELL
 FLD .             TEAPOT:   FIELD
 LOC .       S3 T38N R78W:   LOCATION
 CNTY.            NATRONA:   COUNTY
 STAT.            WYOMING:   STATE
 CTRY. UNITED STATES OF AMERICA:   COUNTRY
 SRVC.              Welex:   SERVICE COMPANY
 DATE.        08-MAR-1977:   LOGDATE
 API .       490251030800:   API NUMBER
~CURVE INFORMATION
#MNEM.UNIT       API CODE    CURVE DESCRIPTION
#----------   ------------   ------------------------------
 DEPT.F                  :   
 SPR .MV     07 010 01 00:   SPONTANEOUS POTENTIAL
 ILD .OHMM   07 120 46 00:   INDUCTION LOG DEEP
 ILM .OHMM   07 120 44 00:   INDUCTION LOG MEDIUM
 SGRD.OHMM   07 221 05 00:   SHALLOW SHORT GUARD RESISTIVITY
 CALD.IN     45 280 60 00:   CALIPER FROM DENSITY LOG
 CORR.G/C3   45 356 01 00:   DENSITY CORRECTION
 RHOB.G/C3   45 350 01 00:   BULK DENSITY
 DPHI.DEC    45 890 12 00:   DENSITY POROSITY SANDSTONE
 GRD .GAPI   45 310 01 00:   GAMMA RAY FROM DENSITY LOG
~PARAMETER INFORMATION
#MNEM.UNIT          VALUE    DESCRIPTION
#----------   ------------   ------------------------------
 PD  .                 GL:   PERMANENT DATUM
 EPD .F              5140:   ELEVATION PERMANENT DATUM
 LMF .                 GL:   LOG MEASURED FROM
 DAPD.F                  :   FEET ABOVE PERMANENT DATUM
 DMF .                 GL:   DRILLING MEASURED FROM
 EKB .F                  :   KELLING BUSHING
 EDF .F                  :   DRILLING FLOOR
 EGL .F              5140:   GROUND LEVEL
 DATE.             3-8-77:   RUN DATE
 RUN .                  1:   RUN NUMBER
 DD  .F               611:   DEPTH DRILLER
 DL  .F               555:   DEPTH LOGGER
 BLI .F               553:   BOTTOM LOG INTERVAL
 TLI .F                40:   TOP LOG INTERVAL
 CS  .IN            8.625:   CASING SIZE
 CBD .F                40:   CASING BOTTOM DRILLER
 CBL .F                40:   CASING BOTTOM LOGGER
 BS  .IN            7.875:   BIT SIZE
 BSD .F               611:   BIT SIZE AT DEPTH
 DFT .           CHEM GEL:   DRILLING FLUID TYPE
 DFD .                8.6:   DRILLING FLUID DENSITY
 DFV .                 42:   DRILLING FLUID VISCOSITY
 DFPH.                  8:   DRILLING FLUID PH
 DFL .                3.2:   DRILLING FLUID LOSS
 MSS .           FLOWLINE:   MUD SAMPLE SOURCE
 RMS .OHMM           1.49:   RESISTIVITY MUD SAMPLE
 MST .F                48:   MUD SAMPLE TEMPERATURE
 RMF .OHMM           1.07:   RESISTIVITY MUD FILTRATE SAMPLE
 MFST.F                48:   MUD FILTRATE SAMPLE TEMPERATURE
 RMC .OHMM           2.34:   RESISTIVITY MUD CAKE
 MCST.F                48:   MUD CAKE SAMPLE TEMPERATURE
 MFSS.           MEASURED:   MUD FILTRATE SAMPLE SOURCE
 MCSS.           MEASURED:   MUD CAKE SAMPLE SOURCE
 RMB .OHMM           1.19:   RESISTIVITY MUD AT BHT
 BHT .F                60:   BOTTOM HOLE TEMPERATURE
 TCS .HRS               2:   TIME CURCULATED STOPPED
 TLAB.HRS                :   TIME LOGGER AT BOTTOM
 MRT .F                60:   MAXIMUM RECORDED TEMPERATURE
 LUN .               0716:   LOGGING UNIT NUMBER
 LUL .             VERNAL:   LOGGING UNIT LOCATION
 ENGI.           CALLAHAN:   RECORDING ENGINEER
 WITN.         STUEBINGER:   WITNESSED BY
 CLNT.            A2DTECH:   CLIENT CODE
 ORIG.       2", 5" PRINT:   ORIGIN OF DATA
 UWI .       490251030800:   UNIQUE WELL ID
 DICO. A2D Technologies, Inc.:   DIGITIZING COMPANY
 OS  .                   :   OTHER SERVICES
 PWI .                   :   PRIMARY WELL IDENTIFIER
 R1  .                   :   REMARKS 1
 R2  .                   :   REMARKS 2
 LSRV.                   :   LOG MNEMONIC
~OTHER INFORMATION
~A   DEPT      SPR        ILD        ILM       SGRD       CALD       CORR       RHOB       DPHI        GRD   
# ...
  431.5000   -40.2628    18.1914    25.0989    25.9461     7.8297     0.0167     2.3532     0.1760    92.8830
  432.0000   -40.2716    18.1803    25.7876    26.6622     7.8585     0.0182     2.3502     0.1772    92.4276
  432.5000   -40.4291    18.1692    25.9549    27.2090     7.8577     0.0242     2.3547     0.1700    91.2124
  433.0000   -40.4364    18.2871    25.7563    27.9701     7.8720     0.0350     2.3667     0.1764    90.6139
  433.5000   -40.4437    18.4030    25.2118    28.1409     7.8709     0.0407     2.3787     0.1647    90.4604
  434.0000   -40.5993    18.3890    24.8501    26.4249     7.8701     0.0361     2.3776     0.1679    90.3069
  434.5000   -40.4565    17.8757    24.6638    25.5134     7.8690     0.0210     2.3599     0.1781    90.3040
  435.0000   -40.3153    17.6191    24.6314    24.8046     7.8681     0.0074     2.3478     0.1850    90.1505
  435.5000   -40.3228    17.2463    24.2915    24.7929     7.8673    -0.0032     2.3298     0.1931    89.9970
  436.0000   -40.3303    17.1167    23.7780    24.9563     7.8664    -0.0093     2.3267     0.1946    89.9934
  436.5000   -40.3392    17.1061    22.4838    24.9415     7.8655    -0.0033     2.3299     0.1935    89.8399
  437.0000   -40.3465    17.0934    22.1612    24.9296     7.8647     0.0147     2.3425     0.1862    89.5358
  437.5000   -40.3538    17.0830    22.4564    24.5751     7.8486     0.0267     2.3688     0.1721    89.5330
  438.0000   -40.3611    17.0726    22.7590    23.8924     7.8478     0.0312     2.3861     0.1607    89.3795
  438.5000   -40.3684    16.9445    22.9031    23.5514     7.8320     0.0197     2.3868     0.1619    89.2259
  439.0000   -40.3757    16.8173    22.7279    23.3786     7.8311     0.0025     2.3815     0.1641    88.7706
  439.5000   -40.3830    16.4615    22.0940    23.2061     7.8153     0.0085     2.3838     0.1625    88.4665
  440.0000   -40.2401    16.3379    21.3196    23.1928     7.7994     0.0250     2.3913     0.1559    88.0118
  440.5000   -40.2492    16.2153    20.7109    22.8629     7.7984     0.0256     2.3988     0.1544    87.4065
  441.0000   -40.2565    16.0936    20.5761    22.3822     7.7975     0.0083     2.3905     0.1553    86.8012
  441.5000   -39.9635    16.1956    20.7064    21.7604     7.7966     0.0098     2.3852     0.1626    86.3464
  442.0000   -39.8189    16.1853    20.9854    21.9038     7.7958     0.0143     2.3867     0.1617    85.7404
  442.5000   -39.9781    16.2883    21.5579    22.1988     7.8099     0.0097     2.3739     0.1668    84.9845
  443.0000   -40.2857    16.2759    21.6977    22.8088     7.8088    -0.0144     2.3528     0.1806    84.3792
  443.5000   -40.4432    16.1537    21.6813    23.4383     7.8231     0.0006     2.3611     0.1776    83.9245
  444.0000   -40.4505    16.1439    21.9700    24.2525     7.8370     0.0143     2.3762     0.1641    83.6205
  444.5000   -40.4580    16.0227    22.2627    24.9219     7.8212     0.0065     2.3814     0.1662    83.4669
  445.0000   -40.3150    16.1267    22.7158    23.8739     7.8353     0.0035     2.3798     0.1626    83.3135
  445.5000   -40.6244    16.2268    22.6812    23.0693     7.8344     0.0064     2.3828     0.1605    83.4612
  446.0000   -40.7818    16.2165    21.6121    22.5843     7.8334     0.0201     2.3896     0.1542    83.6082
  446.5000   -40.7891    16.5483    20.8645    21.8053     7.8325     0.0124     2.3994     0.1500    83.9065
  447.0000   -40.7964    16.8839    21.2892    21.4978     7.8317     0.0229     2.4264     0.1356    84.3554
  447.5000   -40.6518    17.2252    22.3322    22.2420     7.8158     0.0258     2.4347     0.1326    84.9774
  448.0000   -40.5105    17.5761    24.0838    23.0147     7.8000    -0.0013     2.4407     0.1272    85.7043
  448.5000   -40.3679    17.8131    26.3348    24.1463     7.7991     0.0212     2.4640     0.1176    86.4545
  449.0000   -40.3754    17.9260    30.4352    32.7323     7.7831     0.0213     2.4850     0.1146    87.2046
  449.5000   -40.3843    18.0396    30.6490    52.0324     7.7822     0.0058     2.4880     0.1125    88.1053
  450.0000   -40.4074    18.1539    30.1886    56.9070     7.7814     0.0030     2.4792     0.1140    89.4578
  450.5000   -40.5488    18.1446    29.5557    54.5640     7.7901     0.0106     2.4628     0.1197    90.0618
  451.0000   -40.8563    18.0134    25.4553    35.5033     7.7997     0.0105     2.4361     0.1368    90.5151
  451.5000   -40.7132    17.6373    21.7784    25.8079     7.8092     0.0150     2.4103     0.1465    90.2153
  452.0000   -40.5702    16.9139    20.0351    21.3983     7.8187     0.0225     2.3909     0.1558    90.8196
  452.5000   -40.4272    16.1977    19.7520    19.9447     7.8242     0.0074     2.3872     0.1594    92.9295
  453.0000   -40.4361    15.5537    19.4728    19.9508     7.8236     0.0013     2.4030     0.1438    93.6836
  453.5000   -40.5934    15.1238    19.1957    19.9410     7.8232     0.0209     2.3999     0.1501    91.1251
  454.0000   -40.7507    14.8080    18.6644    19.7956     7.8227     0.0269     2.4187     0.1402    92.1808
  454.5000   -40.6076    14.7009    18.1477    19.6512     7.8222     0.0223     2.4360     0.1309    93.5377
  455.0000   -40.6165    14.3928    17.8912    19.5060     7.8218     0.0193     2.4330     0.1336    91.8825
  455.5000   -40.6236    14.0922    17.8840    19.4983     7.8214     0.0268     2.4364     0.1281    90.6592
  456.0000   -41.0812    13.8938    17.8754    19.4907     7.8209     0.0358     2.4540     0.1234    91.7352
  456.5000   -41.0661    13.6982    17.7451    19.0824     7.8205     0.0373     2.4570     0.1180    93.2427
  457.0000   -40.9453    13.6936    17.6158    18.9431     7.8201     0.0312     2.4443     0.1207    94.5996
  457.5000   -40.8023    13.6881    17.8543    18.9339     7.8195     0.0252     2.4239     0.1306    94.7516
  458.0000   -40.6592    13.6836    18.3464    19.3238     7.8191     0.0281     2.4300     0.1246    92.4940
  458.5000   -40.5155    13.6791    18.7238    19.4523     7.8187     0.0356     2.4472     0.1186    89.9353
  459.0000   -40.2248    13.7697    18.5874    19.4427     7.8182     0.0401     2.4593     0.1141    94.1738
  459.5000   -40.2337    13.8608    17.9482    19.4332     7.8329     0.0416     2.4661     0.1123    94.3060
  460.0000   -40.2408    13.9525    17.3229    19.4255     7.8174     0.0295     2.4623     0.1162    95.2111
  460.5000   -40.5483    13.9468    16.8496    18.8874     7.8319     0.0129     2.4540     0.1219    96.4174
  461.0000   -40.7057    13.9422    16.7268    18.3641     7.8314     0.0069     2.4419     0.1282    97.3224
  461.5000   -41.0147    13.9376    16.8380    17.8479     7.8459     0.0144     2.4337     0.1276    98.6793
  462.0000   -41.0219    14.0288    17.0643    17.6011     7.8455     0.0189     2.4397     0.1192   100.1868
  462.5000   -40.8770    14.2209    17.2952    17.7165     7.8600     0.0233     2.4539     0.1147   101.3931
  463.0000   -40.7358    14.6143    17.2867    17.8343     7.8596     0.0278     2.4608     0.1150   102.4689
  463.5000   -40.7447    14.8134    17.2799    18.1997     7.8591     0.0308     2.4630     0.1135   103.0530
  464.0000   -40.7518    14.9113    16.8016    19.0943     7.8587     0.0308     2.4690     0.1126   103.0544
  464.5000   -40.9091    14.7002    16.7949    19.7592     7.8732     0.0261     2.4509     0.1187   102.7543
  465.0000   -41.2165    14.2939    17.0206    18.8168     7.8727     0.0081     2.4389     0.1235   102.4549
  465.5000   -41.3739    13.7077    17.2528    18.4227     7.8723     0.0006     2.4366     0.1298   102.0046
  466.0000   -41.0806    13.4214    17.6077    18.8020     7.8718    -0.0236     2.4389     0.1415   101.4036
  466.5000   -40.9376    13.4159    17.9684    18.4064     7.8714     0.0035     2.4434     0.1277   100.7927
  467.0000   -40.9465    13.5997    18.0859    18.2722     7.8710     0.0140     2.4471     0.1253   100.3523
  467.5000   -41.2539    13.7848    16.7521    18.2650     7.8555     0.0125     2.4479     0.1316   100.3542
