~VERSION INFORMATION
 VERS.                2.0:   CWLS LOG ASCII STANDARD - VERSION 2.0
 WRAP.                 NO:   ONE LINE PER DEPTH STEP
~WELL INFORMATION
#MNEM.UNIT      DATA TYPE    INFORMATION
#----------   ------------   ------------------------------
 STRT.F           16.0000:   START DEPTH
 STOP.F          306.0000:   STOP DEPTH
 STEP.F            0.5000:   STEP LENGTH
 NULL.          -999.2500:   NO VALUE
 COMP. LAWRENCE-ALLISON &AS:   COMPANY
 WELL. NPR ##3 51-66SX10UI2:   WELL
 FLD .             TEAPOT:   FIELD
 LOC .      S10 T38N R78W:   LOCATION
 CNTY.            NATRONA:   COUNTY
 STAT.            WYOMING:   STATE
 CTRY. UNITED STATES OF AMERICA:   COUNTRY
 SRVC.      Dresser Atlas:   SERVICE COMPANY
 DATE.        16-JAN-1985:   LOGDATE
 API .       490251100300:   API NUMBER
~CURVE INFORMATION
#MNEM.UNIT       API CODE    CURVE DESCRIPTION
#----------   ------------   ------------------------------
 DEPT.F                  :   
 AC  .US/F   60 520 00 00:   ACOUSTIC SONIC
 CALD.IN     45 280 60 00:   CALIPER FROM DENSITY LOG
 CNC .DEC    42 890 03 00:   COMPENSATED NEUTRON POROSITY SANDSTONE
 CORR.G/C3   45 356 01 00:   DENSITY CORRECTION
 GRD .GAPI   45 310 01 00:   GAMMA RAY FROM DENSITY LOG
 PORD.DEC    45 890 12 00:   POROSITY DENSITY SANDSTONE
 RHOB.G/C3   45 350 01 00:   BULK DENSITY
~PARAMETER INFORMATION
#MNEM.UNIT          VALUE    DESCRIPTION
#----------   ------------   ------------------------------
 PD  .                 GL:   PERMANENT DATUM
 EPD .F              5156:   ELEVATION PERMANENT DATUM
 LMF .                 GL:   LOG MEASURED FROM
 DMF .                 GL:   DRILLING MEASURED FROM
 EGL .F              5156:   GROUND LEVEL
 DATE.        16-JAN-1985:   RUN DATE
 RUN .                  1:   RUN NUMBER
 DD  .F               308:   DEPTH DRILLER
 DL  .F               308:   DEPTH LOGGER
 BLI .F               306:   BOTTOM LOG INTERVAL
 TLI .F                20:   TOP LOG INTERVAL
 CS  .IN            8.625:   CASING SIZE
 CBD .F                20:   CASING BOTTOM DRILLER
 CBL .F                20:   CASING BOTTOM LOGGER
 BS  .IN            7.875:   BIT SIZE
 BSD .F               308:   BIT SIZE AT DEPTH
 DFT .          KCL-WATER:   DRILLING FLUID TYPE
 MSS .               TANK:   MUD SAMPLE SOURCE
 RMS .OHMM           0.11:   RESISTIVITY MUD SAMPLE
 MST .F                88:   MUD SAMPLE TEMPERATURE
 RMF .OHMM           0.08:   RESISTIVITY MUD FILTRATE SAMPLE
 MFST.F                88:   MUD FILTRATE SAMPLE TEMPERATURE
 RMC .OHMM           0.13:   RESISTIVITY MUD CAKE
 MCST.F                88:   MUD CAKE SAMPLE TEMPERATURE
 MFSS.               CALC:   MUD FILTRATE SAMPLE SOURCE
 MCSS.               CALC:   MUD CAKE SAMPLE SOURCE
 BHT .F               100:   BOTTOM HOLE TEMPERATURE
 TCS .HRS               2:   TIME CURCULATED STOPPED
 MRT .F               100:   MAXIMUM RECORDED TEMPERATURE
 LUN .               6270:   LOGGING UNIT NUMBER
 LUL .                 FM:   LOGGING UNIT LOCATION
 ENGI.          E. GOVETT:   RECORDING ENGINEER
 WITN.             GROOMS:   WITNESSED BY
 CLNT.            A2DTECH:   CLIENT CODE
 ORIG.           5" PRINT:   ORIGIN OF DATA
 UWI .       490251100300:   UNIQUE WELL ID
 DICO. A2D Technologies, Inc.:   DIGITIZING COMPANY
~OTHER INFORMATION
~A   DEPT        AC      CALD          CNC     CORR         GRD      PORD       RHOB   
# ...
  198.0000   107.4216     7.8953     0.3371    -0.0048   120.0965     0.1300     2.4647
  198.5000   108.1656     7.9102     0.3477    -0.0151   129.1772     0.1373     2.4536
  199.0000   109.0599     7.9402     0.3495    -0.0196   132.3336     0.1412     2.4468
  199.5000   110.1044     7.9851     0.3510    -0.0196   129.3246     0.1400     2.4498
  200.0000   111.5239     8.0033     0.3516    -0.0088   126.7466     0.1294     2.4641
  200.5000   111.1409     8.0099     0.3423     0.0166   125.8633     0.1198     2.4838
  201.0000   110.5325     8.0150     0.3320     0.0304   127.9668     0.1169     2.4807
  201.5000   110.1495     8.0000     0.3245     0.0090   129.4690     0.1243     2.4641
  202.0000   112.4712     7.9681     0.3205    -0.0079   127.2120     0.1394     2.4331
  202.5000   114.5675     7.8947     0.3377    -0.0167   123.9022     0.1620     2.3977
  203.0000   118.3167     7.8797     0.3565    -0.0092   122.9985     0.1780     2.3788
  203.5000   120.1876     7.8947     0.3462    -0.0016   124.2466     0.1838     2.3697
  204.0000   119.2787     7.9098     0.3133    -0.0077   125.1008     0.1735     2.3948
  204.5000   117.2066     7.9248     0.2982    -0.0137   121.0389     0.1581     2.4391
  205.0000   114.0046     7.9248     0.2994    -0.0107   119.8344     0.1388     2.4549
  205.5000   110.0887     7.9248     0.3171    -0.0047   119.6825     0.1328     2.4602
  206.0000   108.2782     7.9248     0.3196     0.0043   120.1322     0.1309     2.4625
  206.5000   107.6698     7.9398     0.3094     0.0149   119.9804     0.1291     2.4692
  207.0000   107.5121     7.9398     0.3027     0.0240   118.4751     0.1246     2.4760
  207.5000   107.3545     7.9398     0.3088     0.0098   117.1203     0.1213     2.4783
  208.0000   107.0466     7.9398     0.3127    -0.0108   116.9684     0.1219     2.4760
  208.5000   106.2879     7.9398     0.3075    -0.0184   112.4553     0.1222     2.4760
  209.0000   105.6795     7.9248     0.3027    -0.0154   111.7020     0.1213     2.4782
  209.5000   105.0711     7.8797     0.3005    -0.0109   114.2569     0.1210     2.4737
  210.0000   106.3410     7.8797     0.2994    -0.0063   118.9171     0.1258     2.4563
  210.5000   108.8971     7.8947     0.3091    -0.0003   122.3743     0.1475     2.4019
  211.0000   112.6250     7.9098     0.3163     0.0027   125.9819     0.1602     2.3959
  211.5000   114.0831     7.9248     0.3187    -0.0034   127.9353     0.1699     2.3944
  212.0000   114.5008     7.9098     0.3072    -0.0094   119.8135     0.1539     2.4208
  212.5000   111.6366     7.9098     0.3018    -0.0125   114.8120     0.1382     2.4525
  213.0000   109.3002     7.9098     0.3045    -0.0077   113.9459     0.1291     2.4668
  213.5000   107.4145     7.9248     0.3115    -0.0034   117.5531     0.1255     2.4745
  214.0000   106.9564     7.9098     0.3136    -0.0004   119.9577     0.1219     2.4826
  214.5000   106.4982     7.9098     0.3003     0.0071   114.5427     0.1171     2.4894
  215.0000   105.8898     7.9248     0.2937     0.0267   112.5863     0.1134     2.4946
  215.5000   104.9809     7.9098     0.2870     0.0252   111.8330     0.1116     2.4961
  216.0000   104.3725     7.9098     0.2932     0.0192   114.3879     0.1110     2.4969
  216.5000   103.7640     7.9248     0.2952     0.0206   116.1910     0.1098     2.4969
  217.0000   103.4520     7.9398     0.2864     0.0267   117.3925     0.1089     2.4976
  217.5000   103.1280     7.9549     0.2909     0.0263   116.3380     0.1077     2.5014
  218.0000   102.7634     7.9248     0.2976     0.0051   115.5847     0.1062     2.5044
  218.5000   102.7560     7.9098     0.2985    -0.0036   115.2825     0.1041     2.5059
  219.0000   102.8256     7.9098     0.2922    -0.0021   116.0329     0.1032     2.5013
  219.5000   102.8174     7.9098     0.2918     0.0070   116.4829     0.1071     2.4953
  220.0000   102.7148     7.9248     0.2915     0.0160   114.8270     0.1111     2.4907
  220.5000   102.5763     7.9398     0.2863     0.0115   113.6225     0.1135     2.4892
  221.0000   102.2684     7.9398     0.2807     0.0024   112.8692     0.1140     2.4914
  221.5000   101.9605     7.9248     0.2716    -0.0112   113.3474     0.1119     2.4861
  222.0000   101.6526     7.9098     0.2825    -0.0188   115.8015     0.1113     2.4808
  222.5000   101.3447     7.8947     0.2864    -0.0157   116.4738     0.1195     2.4778
  223.0000   101.4145     7.8947     0.2852    -0.0049   116.1712     0.1216     2.4779
  223.5000   101.9379     7.8947     0.2807     0.0068   116.3201     0.1183     2.4831
  224.0000   102.2369     7.9098     0.2728     0.0144   116.9202     0.1176     2.4808
  224.5000   102.4422     7.9098     0.2598     0.0234   117.5202     0.1195     2.4861
  225.0000   102.3579     7.8947     0.2541     0.0083   117.3684     0.1190     2.4913
  225.5000   101.6743     7.8947     0.2603    -0.0008   114.9609     0.1137     2.4936
  226.0000    99.8638     7.8947     0.2786    -0.0068   112.1884     0.1140     2.4883
  226.5000    98.1284     7.8647     0.2891    -0.0114   107.9669     0.1162     2.4852
  227.0000    96.9941     7.8346     0.2897    -0.0121   105.7832     0.1177     2.4814
  227.5000    96.2354     7.8947     0.2912    -0.0144   105.1802     0.1240     2.4708
  228.0000    97.2799     7.9098     0.3004    -0.0175   107.8855     0.1427     2.4429
  228.5000    99.4513     7.9098     0.3134    -0.0205   117.5081     0.1663     2.3599
  229.0000   106.7317     7.9098     0.3166     0.0142   122.0179     0.2025     2.3387
  229.5000   110.2003     7.8947     0.3097     0.0233   124.7232     0.2067     2.3342
  230.0000   110.6990     7.9098     0.2922    -0.0009   121.5639     0.1798     2.4006
  230.5000   105.5057     7.9098     0.2773    -0.0130   116.3976     0.1460     2.4496
  231.0000    99.1121     7.9248     0.2737    -0.0070   108.1433     0.1180     2.4911
  231.5000    96.4752     7.9549     0.2765    -0.0010   104.7170     0.1068     2.5085
  232.0000    94.3641     8.0000     0.2719    -0.0040   103.2118     0.1020     2.5122
  232.5000    94.5822     7.9549     0.2662    -0.0055   101.8570     0.0995     2.5153
  233.0000    94.9504     7.9376     0.2629    -0.0024   103.5096     0.0968     2.5184
  233.5000    95.2436     7.9098     0.2629     0.0055   108.6209     0.0950     2.5213
  234.0000    95.4616     7.8947     0.2608     0.0201   110.7247     0.0953     2.5212
  234.5000    95.7548     7.9098     0.2559     0.0307   113.1293     0.0956     2.5212
  235.0000    96.1982     7.9398     0.2526     0.0307   112.2006     0.0956     2.5212
  235.5000    96.8690     7.9398     0.2659     0.0276   109.5599     0.0956     2.5204
  236.0000    97.5427     7.9248     0.2692     0.0306   105.9065     0.0953     2.5197
  236.5000    97.9169     7.9248     0.2583     0.0336   103.3486     0.0959     2.5189
  237.0000    97.8198     7.9248     0.2614     0.0261   100.9412     0.0971     2.5136
  237.5000    96.9109     7.9273     0.2638    -0.0087    88.6089     0.1038     2.4887
  238.0000    96.3794     7.9398     0.2556    -0.0163    79.1337     0.1368     2.4313
  238.5000    98.3988     7.9398     0.2503    -0.0008    66.5007     0.1739     2.3853
  239.0000   103.4252     7.9549     0.2589     0.0109    59.8827     0.1835     2.3717
  239.5000   106.1977     7.9549     0.2663     0.0018    57.9263     0.1759     2.3897
  240.0000   107.7681     7.9549     0.2837    -0.0042    60.0402     0.1605     2.4139
  240.5000   108.4369     7.9549     0.2867    -0.0027    66.6448     0.1611     2.4101
  241.0000   108.2793     7.9549     0.2819     0.0018    71.0043     0.1629     2.4063
  241.5000   106.9947     7.9549     0.2801     0.0199    72.6569     0.1620     2.4086
  242.0000   105.8483     7.9549     0.2752     0.0425    74.6104     0.1593     2.4062
  242.5000   104.8560     7.9398     0.2671     0.0429    76.5638     0.1681     2.3929
  243.0000   106.1443     7.9398     0.2614     0.0319    77.4650     0.1765     2.3753
