~VERSION INFORMATION
 VERS.                2.0:   CWLS LOG ASCII STANDARD - VERSION 2.0
 WRAP.                 NO:   ONE LINE PER DEPTH STEP
~WELL INFORMATION
#MNEM.UNIT      DATA TYPE    INFORMATION
#----------   ------------   ------------------------------
 STRT.F           30.0000:   START DEPTH
 STOP.F          570.0000:   STOP DEPTH
 STEP.F            0.5000:   STEP LENGTH
 NULL.          -999.2500:   NO VALUE
 COMP.    FENIX & SCISSON:   COMPANY
 WELL.  NPR #3 #13SX11-11:   WELL
 FLD .             TEAPOT:   FIELD
 LOC .      S11 T38N R78W:   LOCATION
 CNTY.            NATRONA:   COUNTY
 STAT.            WYOMING:   STATE
 CTRY. UNITED STATES OF AMERICA:   COUNTRY
 SRVC.       Schlumberger:   SERVICE COMPANY
 DATE.        27-FEB-1977:   LOGDATE
 API .       490251029400:   API NUMBER
~CURVE INFORMATION
#MNEM.UNIT       API CODE    CURVE DESCRIPTION
#----------   ------------   ------------------------------
 DEPT.F                  :   
 GRD .GAPI   45 310 01 00:   GAMMA RAY FROM DENSITY LOG
 CALD.IN     45 280 60 00:   CALIPER FROM DENSITY LOG
 CORR.G/C3   45 356 01 00:   DENSITY CORRECTION
 DPHI.DEC    45 890 12 00:   DENSITY POROSITY STANDSTONE
 RHOB.G/C3   45 350 01 00:   BULK DENSITY
 SPR .MV     07 010 01 00:   SPONTANEOUS POTENTIAL
 ILD .OHMM   07 120 46 00:   INDUCTION LOG DEEP
 ILM .OHMM   07 120 44 00:   INDUCTION LOG MEDIUM
 LL8 .OHMM   07 220 08 00:   LATEROLOG-8 RES.
~PARAMETER INFORMATION
#MNEM.UNIT          VALUE    DESCRIPTION
#----------   ------------   ------------------------------
 PD  .                 GL:   PERMANENT DATUM
 EPD .F              5180:   ELEVATION PERMANENT DATUM
 LMF .                 GL:   LOG MEASURED FROM
 DAPD.F                 0:   FEET ABOVE PERMANENT DATUM
 DMF .                 GL:   DRILLING MEASURED FROM
 EKB .F              5183:   KELLING BUSHING
 EGL .F              5180:   GROUND LEVEL
 DATE.        27-FEB-1977:   RUN DATE
 RUN .                  1:   RUN NUMBER
 DD  .F               585:   DEPTH DRILLER
 DL  .F               571:   DEPTH LOGGER
 BLI .F               570:   BOTTOM LOG INTERVAL
 TLI .F                44:   TOP LOG INTERVAL
 CS  .IN            8.625:   CASING SIZE
 CBD .F                40:   CASING BOTTOM DRILLER
 CBL .F                44:   CASING BOTTOM LOGGER
 BS  .IN            7.875:   BIT SIZE
 BSD .F               585:   BIT SIZE AT DEPTH
 DFT .                KCL:   DRILLING FLUID TYPE
 DFD .                8.7:   DRILLING FLUID DENSITY
 DFV .                 42:   DRILLING FLUID VISCOSITY
 DFPH.                  8:   DRILLING FLUID PH
 DFL .                9.2:   DRILLING FLUID LOSS
 MSS .                PIT:   MUD SAMPLE SOURCE
 RMS .OHMM           .806:   RESISTIVITY MUD SAMPLE
 MST .F                70:   MUD SAMPLE TEMPERATURE
 RMF .OHMM           .720:   RESISTIVITY MUD FILTRATE SAMPLE
 MFST.F                70:   MUD FILTRATE SAMPLE TEMPERATURE
 MFSS.               MEAS:   MUD FILTRATE SAMPLE SOURCE
 RMB .OHMM           .973:   RESISTIVITY MUD AT BHT
 BHT .F                58:   BOTTOM HOLE TEMPERATURE
 TCS .HRS            0230:   TIME CURCULATED STOPPED
 MRT .F                58:   MAXIMUM RECORDED TEMPERATURE
 LUN .               5642:   LOGGING UNIT NUMBER
 LUL .             CASPER:   LOGGING UNIT LOCATION
 ENGI.         JIM MARTIN:   RECORDING ENGINEER
 WITN.         STUEBINGER:   WITNESSED BY
 CLNT.            A2DTECH:   CLIENT CODE
 ORIG.           5" PRINT:   ORIGIN OF DATA
 UWI .       490251029400:   UNIQUE WELL ID
 DICO. A2D Technologies, Inc.:   DIGITIZING COMPANY
~OTHER INFORMATION
~A   DEPT      GRD       CALD       CORR       DPHI       RHOB        SPR        ILD        ILM        LL8   
# ...
  103.0000   117.8996     8.0807     0.0078     0.1254     2.4347   -38.9861     7.5854     7.7211     8.1713
  103.5000   112.4488     8.0833     0.0085     0.1206     2.4520   -38.6867     7.6371     7.7723     8.2276
  104.0000   109.7212     8.0860     0.0182     0.1260     2.4527   -38.3863     7.6892     7.7701     8.5766
  104.5000   107.2961     8.0886     0.0039     0.1314     2.4239   -37.7843     7.7446     7.9313     9.0027
  105.0000   108.3506     8.0913     0.0002     0.1296     2.4211   -37.1823     7.9105     7.9843     9.0649
  105.5000   111.2205     8.0939     0.0077     0.1239     2.4361   -36.5808     8.0124     8.0936     8.8161
  106.0000   113.9391     8.0966     0.0152     0.1188     2.4526   -35.9789     8.1795     8.1477     8.6340
  106.5000   114.5409     8.0992     0.0197     0.1167     2.4556   -35.5280     8.2353     8.2022     8.6334
  107.0000   113.3250     8.1019     0.0204     0.1146     2.4646   -35.2281     8.3488     8.1994     8.6400
  107.5000   113.7743     8.1045     0.0196     0.1128     2.4600   -34.7772     8.3478     8.1972     9.1245
  108.0000   114.9803     8.1072     0.0106     0.1228     2.4382   -34.4653     8.3468     8.1949     9.8472
  108.5000   113.3115     8.1098     0.0076     0.1174     2.4600   -34.1774     8.2883     8.1927     9.9153
  109.0000   113.1367     8.1125     0.0211     0.1147     2.4637   -33.8775     8.2873     8.1905     9.7778
  109.5000   114.8153     8.1151     0.0267     0.1231     2.4321   -33.5777     8.2863     8.1882     9.5758
  110.0000   115.7185     8.1178     0.0076     0.1358     2.4140   -33.4289     8.2853     8.1860     9.5090
  110.5000   113.2934     8.1204     0.0068     0.1201     2.4599   -33.2800     8.3419     8.2407     9.6412
  111.0000   107.2375     8.1212     0.0190     0.1117     2.4764   -33.2828     8.3408     8.3536     9.8434
  111.5000   106.3253     8.1210     0.0210     0.1120     2.4673   -33.2851     8.3978     8.4691     9.9111
  112.0000   106.9582     8.1208     0.0030     0.1090     2.4921   -33.2873     8.5136     8.6492     9.7738
  112.5000   113.8301     8.1207     0.0217     0.0988     2.4954   -33.2896     8.6314     8.8331     9.5058
  113.0000   117.8437     8.1205     0.0270     0.1155     2.4582   -33.2918     8.8112     9.0680     9.5051
  113.5000   118.4101     8.1204     0.0112     0.1277     2.4265   -33.2940     8.8716     9.1293     9.5813
  114.0000   120.5557     8.1202     0.0187     0.1283     2.4377   -33.2963     8.9941     9.2543     9.8390
  114.5000   123.9976     8.1201     0.0247     0.1148     2.4589   -33.1475     9.1815     9.3810    10.1855
  115.0000   122.6315     8.1199     0.0194     0.1184     2.4561   -32.9981     9.3732     9.5750    10.4713
  115.5000   120.9629     8.1198     0.0067     0.1230     2.4400   -32.6982     9.6349     9.7060    10.6907
  116.0000   119.7481     8.1196     0.0134     0.1121     2.4701   -32.2478     9.8358     9.9081    10.4699
  116.5000   118.6846     8.1194     0.0172     0.1115     2.4693   -31.7968     9.9717    10.1833    10.0425
  117.0000   118.3775     8.1193     0.0072     0.1197     2.4534   -31.3460    10.1094    10.4669    10.1117
  117.5000   117.7678     8.1191     0.0028     0.1236     2.4384   -31.0461    10.1784    10.5370    10.7622
  118.0000   115.9479     8.1190     0.0156     0.1101     2.4699   -31.1994    10.2479    10.6074    11.0921
  118.5000   113.8254     8.1188     0.0231     0.1044     2.4857   -31.5038    10.2464    10.6044    10.7608
  119.0000   112.0055     8.1187     0.0238     0.1050     2.4887   -31.6732    10.1745    10.6015    10.9893
  119.5000   110.4881     8.1185     0.0208     0.1086     2.4879   -31.8104    10.1733    10.5247    11.4618
  120.0000   110.1810     8.1184     0.0133     0.1116     2.4819   -31.5110    10.1019    10.4491    11.6923
  120.5000   109.5714     8.1182     0.0192     0.1144     2.4690   -31.2106     9.9619    10.3024    11.6105
  121.0000   108.9617     8.1180     0.0252     0.1168     2.4562   -30.9113     9.8920    10.2996    11.6097
  121.5000   109.5624     8.1179     0.0170     0.1180     2.4545   -30.7619     9.8227    10.2968    11.4490
  122.0000   110.9194     8.1177     0.0138     0.1174     2.4705   -30.7647     9.8215    10.2228    11.0580
  122.5000   111.8226     8.1176     0.0177     0.1141     2.4727   -30.7669     9.7526    10.1494    10.5333
  123.0000   112.2731     8.1174     0.0184     0.1129     2.4704   -30.7692     9.7514    10.1466    10.4598
  123.5000   111.9649     8.1178     0.0100     0.1129     2.4681   -30.7714     9.7503    10.0041    10.4590
  124.0000   109.3885     8.1182     0.0158     0.1141     2.4658   -30.7737     9.7491     9.8637    10.4583
  124.5000   108.3250     8.1187     0.0259     0.1157     2.4619   -30.7759     9.6805     9.7928    10.4576
  125.0000   108.4718     8.1192     0.0221     0.1181     2.4542   -30.6265     9.6126     9.6553    10.3846
  125.5000   108.7699     8.1196     0.0154     0.1223     2.4409   -30.0251     9.6114     9.5859    10.3839
  126.0000   109.2194     8.1201     0.0101     0.1274     2.4108   -29.4231     9.5440     9.5170    10.3832
  126.5000   109.8199     8.1205     0.0078     0.1350     2.4153   -29.1232     9.4117     9.4481    10.4546
  127.0000   110.4205     8.1210     0.0071     0.1371     2.4295   -29.4276     9.3457     9.3802    10.4539
  127.5000   111.3237     8.1214     0.0078     0.1353     2.4099   -29.7319     9.3446     9.3129    10.4532
  128.0000   111.9264     8.1219     0.0070     0.1284     2.4445   -30.1873     9.2151     9.3103    10.4525
  128.5000   113.1695     8.1223     0.0048     0.1347     2.4166   -30.1896     9.2140     9.3078    10.4518
  129.0000   116.4982     8.1228     0.0003     0.1332     2.4091   -30.1918     9.2129     9.2409    10.3788
  129.5000   118.9012     8.1232    -0.0035     0.1267     2.4249   -30.1941     9.2118     9.2384    10.1644
  130.0000   119.9445     8.1237     0.0061     0.1180     2.4632   -30.1964     9.2107     9.2359     9.8856
  130.5000   117.4034     8.1241     0.0159     0.1095     2.4760   -30.1986     9.2093     9.2334     9.7488
  131.0000   114.6203     8.1246     0.0144     0.1188     2.4473   -30.2013     9.2082     9.2309     9.8160
  131.5000   114.4647     8.1250     0.0092     0.1279     2.4300   -30.0520     9.2071     9.2284     9.8864
  132.0000   113.8539     8.1255     0.0144     0.1188     2.4556   -30.0548     9.2060     9.2901    10.1694
  132.5000   110.6724     8.1259     0.0219     0.1228     2.4548   -29.9054     9.2050     9.2875    10.4461
  133.0000   109.4576     8.1264     0.0129     0.1345     2.4284   -29.7566     9.3321     9.3496    10.3013
  133.5000   111.5711     8.1268    -0.0051     0.1388     2.4103   -29.4567     9.3310     9.4121    10.1589
  134.0000   114.2898     8.1273    -0.0066     0.1309     2.4065   -29.4595     9.3950     9.5403    10.7376
  134.5000   117.1597     8.1287    -0.0007     0.1231     2.4502   -29.4617     9.4589     9.5377    11.1157
  135.0000   118.8193     8.1304     0.0076     0.1264     2.4472   -29.4640     9.5234     9.5351    10.8861
  135.5000   120.0251     8.1321     0.0060     0.1276     2.4283   -29.3146     9.5222     9.5326    10.4416
  136.0000   118.2052     8.1339     0.0053     0.1226     2.4448   -29.0147     9.5211     9.4641    10.0154
  136.5000   119.4110     8.1356     0.0198     0.1174     2.4628   -28.8659     9.4543     9.2667     9.8767
  137.0000   119.8603     8.1373     0.0105     0.1220     2.4530   -28.7171     9.3230     9.0107    10.0837
  137.5000   118.3429     8.1391    -0.0015     0.1250     2.4417   -28.7199     9.0674     8.7618    10.2950
  138.0000   115.7666     8.1408     0.0112     0.1159     2.4657   -28.8732     8.8800     8.5197    10.2886
  138.5000   114.0979     8.1425     0.0180     0.1139     2.4680   -28.8754     8.5770     8.2843     9.9899
  139.0000   113.0344     8.1443     0.0082     0.1196     2.4589   -29.4819     8.3419     7.9939     9.4708
