~VERSION INFORMATION
 VERS.                2.0:   CWLS LOG ASCII STANDARD - VERSION 2.0
 WRAP.                 NO:   ONE LINE PER DEPTH STEP
~WELL INFORMATION
#MNEM.UNIT      DATA TYPE    INFORMATION
#----------   ------------   ------------------------------
 STRT.F           32.0000:   START DEPTH
 STOP.F          501.0000:   STOP DEPTH
 STEP.F            0.5000:   STEP LENGTH
 NULL.          -999.2500:   NO VALUE
 COMP. FENIX & SCISSON, INC., U.S. NAVY:   COMPANY
 WELL.     NPR-3 #82-S-10:   WELL
 FLD .             TEAPOT:   FIELD
 LOC .      S10 T38N R78W:   LOCATION
 CNTY.            NATRONA:   COUNTY
 STAT.            WYOMING:   STATE
 CTRY. UNITED STATES OF AMERICA:   COUNTRY
 SRVC.              Welex:   SERVICE COMPANY
 DATE.        10-MAY-1977:   LOGDATE
 API .       490251035300:   API NUMBER
~CURVE INFORMATION
#MNEM.UNIT       API CODE    CURVE DESCRIPTION
#----------   ------------   ------------------------------
 DEPT.F                  :   
 GURD.OHMM   07 220 05 00:   SHALLOW SHORT GUARD RESISTIVITY
 ILD .OHMM   07 120 46 00:   INDUCTION LOG DEEP
 ILM .OHMM   07 120 44 00:   INDUCTION LOG MEDIUM
 SPR .MV     07 010 01 00:   SPONTANEOUS POTENTIAL
 CALD.IN     45 280 60 00:   CALIPER FROM DENSITY LOG
 CORR.G/C3   45 356 01 00:   DENSITY CORRECTION
 DPHI.DEC    45 890 12 00:   DENSITY POROSITY SANDSTONE
 GRD .GAPI   45 310 01 00:   GAMMA RAY FROM DENSITY LOG
 RHOB.G/C3   45 350 01 00:   BULK DENSITY
~PARAMETER INFORMATION
#MNEM.UNIT          VALUE    DESCRIPTION
#----------   ------------   ------------------------------
 PD  .                 GL:   PERMANENT DATUM
 EPD .F              5134:   ELEVATION PERMANENT DATUM
 LMF .                 GL:   LOG MEASURED FROM
 DMF .                 GL:   DRILLING MEASURED FROM
 EGL .F              5134:   GROUND LEVEL
 DATE.        10-MAY-1977:   RUN DATE
 RUN .                  1:   RUN NUMBER
 DD  .F               505:   DEPTH DRILLER
 DL  .F               504:   DEPTH LOGGER
 BLI .F               502:   BOTTOM LOG INTERVAL
 TLI .F                30:   TOP LOG INTERVAL
 CS  .IN            8.625:   CASING SIZE
 CBD .F                40:   CASING BOTTOM DRILLER
 CBL .F                41:   CASING BOTTOM LOGGER
 BS  .IN            7.875:   BIT SIZE
 BSD .F               505:   BIT SIZE AT DEPTH
 DFT .            KCL MUD:   DRILLING FLUID TYPE
 DFD .                8.7:   DRILLING FLUID DENSITY
 DFV .                 29:   DRILLING FLUID VISCOSITY
 DFPH.                7.5:   DRILLING FLUID PH
 DFL .                6.6:   DRILLING FLUID LOSS
 MSS .           FLOWLINE:   MUD SAMPLE SOURCE
 RMS .OHMM           0.26:   RESISTIVITY MUD SAMPLE
 MST .F                72:   MUD SAMPLE TEMPERATURE
 RMF .OHMM           0.22:   RESISTIVITY MUD FILTRATE SAMPLE
 MFST.F                72:   MUD FILTRATE SAMPLE TEMPERATURE
 RMC .OHMM           0.42:   RESISTIVITY MUD CAKE
 MCST.F                72:   MUD CAKE SAMPLE TEMPERATURE
 MFSS.           FANN KIT:   MUD FILTRATE SAMPLE SOURCE
 MCSS.           FANN KIT:   MUD CAKE SAMPLE SOURCE
 RMB .OHMM           0.24:   RESISTIVITY MUD AT BHT
 BHT .F                78:   BOTTOM HOLE TEMPERATURE
 TCS .HRS               1:   TIME CURCULATED STOPPED
 MRT .F                78:   MAXIMUM RECORDED TEMPERATURE
 LUN .               8611:   LOGGING UNIT NUMBER
 LUL .             CASPER:   LOGGING UNIT LOCATION
 ENGI.            C. DOAK:   RECORDING ENGINEER
 WITN.         D. RHOADES:   WITNESSED BY
 CLNT.            A2DTECH:   CLIENT CODE
 ORIG.           5" PRINT:   ORIGIN OF DATA
 UWI .       490251035300:   UNIQUE WELL ID
 DICO. A2D Technologies, Inc.:   DIGITIZING COMPANY
~OTHER INFORMATION
~A   DEPT     GURD        ILD        ILM         SPR      CALD       CORR       DPHI        GRD       RHOB   
# ...
  214.5000     7.5555     5.7741     6.1413   -46.1693     7.6417     0.0305     0.1551   121.7099     2.4157
  215.0000     7.2031     5.3172     5.7745   -46.1606     7.6429     0.0306     0.1620   122.3151     2.4090
  215.5000     6.7624     4.7959     5.2453   -46.7584     7.6440     0.0308     0.1691   120.5465     2.4023
  216.0000     6.1531     4.0930     4.8309   -47.3316     7.6425     0.0324     0.1739   119.0746     2.3859
  216.5000     5.5125     3.6663     4.3279   -47.7693     7.6315     0.0325     0.1819   119.8282     2.3590
  217.0000     4.7380     3.3996     3.9805   -47.9107     7.6345     0.0296     0.1978   121.4721     2.3336
  217.5000     3.9613     3.1306     3.6124   -48.3472     7.6488     0.0267     0.2112   122.9676     2.3150
  218.0000     3.2440     2.8829     3.3815   -48.6361     7.6502     0.0263     0.2222   120.9022     2.3031
  218.5000     2.7499     2.7473     3.5512   -48.9250     7.6514     0.0225     0.2273   116.1662     2.2934
  219.0000     3.9412     2.6932     3.7813   -49.3628     7.6541     0.0196     0.2315   112.0119     2.2882
  219.5000     3.8360     2.7515     3.9438   -49.8005     7.6686     0.0167     0.2282   109.3531     2.2898
  220.0000     7.0537     2.8896     4.0568   -50.2382     7.6766     0.0153     0.2171   111.5431     2.3138
  220.5000     4.9061     3.0366     4.2310   -50.2292     7.6857     0.0094     0.1841   117.0150     2.3625
  221.0000     3.4887     3.3588     4.5679   -49.6235     7.6871     0.0096     0.1700   122.5817     2.3963
  221.5000     7.5175     3.6811     5.1404   -48.5731     7.6882     0.0097     0.1616   126.4353     2.4053
  222.0000     8.5773     4.0033     5.6348   -47.8204     7.6893     0.0113     0.1535   129.3313     2.4120
  222.5000     8.9458     4.2700     5.9986   -48.1093     7.6905     0.0144     0.1442   130.0617     2.4343
  223.0000     8.8882     4.9218     6.2499   -48.8446     7.6918     0.0160     0.1409   129.6284     2.4466
  223.5000     8.6525     5.4622     6.3847   -49.5800     7.6930     0.0130     0.1430   127.4147     2.4385
  224.0000     8.4217     5.8560     6.5223   -47.7856     7.6790     0.0101     0.1493   124.3078     2.4340
  224.5000     8.3111     6.1494     6.7557   -46.5779     7.6507     0.0057     0.1513   128.0317     2.4296
  225.0000     8.2589     6.3248     6.9492   -46.2801     7.6519     0.0063     0.1516   127.1533     2.4266
  225.5000     8.2652     6.4159     7.1483   -46.7157     7.6382     0.0122     0.1507   124.9396     2.4282
  226.0000     8.3852     6.3747     7.1033   -47.0046     7.6394     0.0168     0.1454   121.3905     2.4358
  226.5000     8.6853     6.2037     6.9619   -47.7400     7.6406     0.0169     0.1392   121.9958     2.4441
  227.0000     8.8725     6.0335     6.8202   -47.8823     7.6417     0.0170     0.1369   123.6396     2.4508
  227.5000     8.9395     5.6764     6.6262   -47.4250     7.6430     0.0156     0.1402   126.1737     2.4457
  228.0000     8.3477     5.4483     6.1174   -47.3909     7.6440     0.0155     0.1454   129.0045     2.4360
  228.5000     6.6497     5.2293     5.7911   -47.8540     7.6452     0.0113     0.1496   131.5385     2.4286
  229.0000     4.8360     5.1244     6.0827   -48.1430     7.6464     0.0055     0.1577   131.5503     2.4174
  229.5000     7.0928     5.0564     6.1286   -47.9618     7.6477     0.0026     0.1622   130.2268     2.4085
  230.0000     7.9191     5.0939     6.0481   -47.5282     7.6488    -0.0018     0.1585   128.4581     2.4063
  230.5000     5.8872     5.0963     6.0518   -47.0731     7.6650    -0.0032     0.1525   125.9477     2.4206
  231.0000     4.7872     5.1697     6.3118   -46.7667     7.6661     0.0030     0.1477   123.4372     2.4311
  231.5000     7.8246     5.2825     6.6286   -46.4604     7.6673     0.0076     0.1432   121.5202     2.4379
  232.0000     8.4476     5.4373     6.9231   -46.6006     7.6685     0.0137     0.1354   120.9356     2.4469
  232.5000     7.5681     5.6646     7.2606   -46.5919     7.6696     0.0183     0.1294   122.1373     2.4560
  233.0000     7.2150     5.8666     7.4181   -46.5832     7.6708     0.0230     0.1228   125.1164     2.4680
  233.5000     8.1385     6.0759     7.6835   -46.4256     7.6720     0.0261     0.1186   127.3537     2.4771
  234.0000     9.4026     6.3802     7.9036   -46.4167     7.6732     0.0262     0.1153   128.1074     2.4877
  234.5000     9.7304     6.6078     8.1864   -46.2589     7.6744     0.0263     0.1126   124.0653     2.4923
  235.0000     9.8718     6.9869     8.3629   -46.2486     7.6758     0.0204     0.1128   128.1310     2.4875
  235.5000    10.0152     7.3368     8.6025   -46.2399     7.6621     0.0145     0.1191   128.7517     2.4784
  236.0000    10.2311     7.5992     8.7275   -46.2312     7.6631     0.0132     0.1233   128.1545     2.4721
  236.5000    10.5242     7.8154     8.8543   -46.2226     7.6643     0.0148     0.1226   126.5343     2.4729
  237.0000    10.6036     7.8199     8.8638   -46.2139     7.6657     0.0209     0.1211   125.2108     2.4745
  237.5000    10.3208     7.7688     8.9265   -46.2052     7.6669     0.0255     0.1190   123.8872     2.4776
  238.0000    10.1134     7.6666     8.7500   -45.9967     7.6679     0.0256     0.1157   127.9327     2.4821
  238.5000     9.7686     7.5640     8.5757   -45.7411     7.6692     0.0258     0.1154   131.8061     2.4874
  239.0000     9.3877     7.5163     8.1758   -45.5817     7.6704     0.0259     0.1186   134.5282     2.4837
  239.5000     9.2630     7.3654     8.0129   -45.5744     7.6716     0.0260     0.1222   136.4451     2.4793
  240.0000     9.2048     7.1679     7.9613   -45.5643     7.6728     0.0261     0.1279   137.1513     2.4734
  240.5000     9.1470     6.9290     7.8568   -45.5556     7.6740     0.0262     0.1311   136.0534     2.4614
  241.0000     9.0269     6.6917     7.7549   -45.5469     7.6751     0.0264     0.1281   133.9763     2.4645
  241.5000     8.9098     6.2517     7.6004   -45.5382     7.6762     0.0235     0.1287   131.1062     2.4638
  242.0000     8.4357     6.0004     7.3944   -45.2319     7.6924     0.0210     0.1304   132.6016     2.4601
  242.5000     8.2107     5.7196     7.1347   -45.2232     7.6936     0.0177     0.1349   134.9873     2.4527
  243.0000     8.1522     5.4519     6.6325   -45.5122     7.6796     0.0149     0.1400   136.1861     2.4438
  243.5000     7.8880     5.2328     6.3232   -46.0966     7.6811     0.0120     0.1510   134.5658     2.4281
  244.0000     7.1651     4.9536     6.0283   -46.6831     7.6822     0.0061     0.1576   131.3135     2.4132
  244.5000     5.5139     4.7875     5.6683   -47.4185     7.6833     0.0047     0.1617   130.4321     2.4095
  245.0000     4.3022     4.7567     5.5163   -47.4098     7.6845     0.0063     0.1614   132.0789     2.4088
  245.5000     4.8080     4.7934     5.7940   -47.2523     7.6857     0.0094     0.1583   134.0195     2.4111
  246.0000     8.0777     4.9389     6.2554   -46.7972     7.6870     0.0126     0.1504   134.3251     2.4195
  246.5000     9.3447     5.2121     6.8003   -46.1932     7.6881     0.0157     0.1392   132.5594     2.4346
  247.0000     9.6795     5.5112     7.3995   -45.8859     7.6893     0.0188     0.1321   130.1973     2.4492
  247.5000     9.8879     5.8678     7.7819   -45.5804     7.6905     0.0204     0.1290   128.4287     2.4630
  248.0000    10.0329     6.2045     8.2111   -45.5714     7.6917     0.0221     0.1299   129.6274     2.4615
  248.5000    10.1070     6.6059     8.1583   -45.7120     7.6929     0.0222     0.1289   130.9745     2.4654
  249.0000     9.7039     6.9850     8.1645   -46.1476     7.6941     0.0223     0.1241   132.6183     2.4744
  249.5000     9.5092     7.3348     8.0561   -46.4387     7.6952     0.0239     0.1196   133.8171     2.4842
  250.0000    10.6288     7.5964     8.1744   -45.9814     7.6964     0.0240     0.1163   134.7191     2.4895
  250.5000    10.4893     7.8675     8.3507   -45.5263     7.6827     0.0242     0.1148   136.1584     2.4903
