~VERSION INFORMATION
 VERS.                2.0:   CWLS LOG ASCII STANDARD - VERSION 2.0
 WRAP.                 NO:   ONE LINE PER DEPTH STEP
~WELL INFORMATION
#MNEM.UNIT      DATA TYPE    INFORMATION
#----------   ------------   ------------------------------
 STRT.F           16.0000:   START DEPTH
 STOP.F          634.0000:   STOP DEPTH
 STEP.F            0.5000:   STEP LENGTH
 NULL.          -999.2500:   NO VALUE
 COMP. LAWRENCE/ALLISON INC:   COMPANY
 WELL.    14-15 SX #11-11:   WELL
 FLD .             TEAPOT:   FIELD
 LOC .      S11 T38N R78W:   LOCATION
 CNTY.            NATRONA:   COUNTY
 STAT.            WYOMING:   STATE
 CTRY. UNITED STATES OF AMERICA:   COUNTRY
 SRVC.      Dresser Atlas:   SERVICE COMPANY
 DATE.        06-JAN-1985:   LOGDATE
 API .       490251101700:   API NUMBER
~CURVE INFORMATION
#MNEM.UNIT       API CODE    CURVE DESCRIPTION
#----------   ------------   ------------------------------
 DEPT.F                  :   
 SPR .MV     11 010 01 00:   SPONTANEOUS POTENTIAL FROM RES.
 RD  .OHMM   11 220 10 00:   RESISTIVITY DEEP
 RS  .OHMM   11 220 09 00:   RESISTIVITY SHALLOW
 RMLL.OHMM   20 270 04 00:   RESISTIVITY MICROLATEROLOG
 AC  .US/F   60 520 00 00:   ACCOUSTIC SONIC
 CNC .DEC    42 890 03 00:   COMPENSATED NEUTRON POROSITY SANDSTONE
 PORD.DEC    45 890 12 00:   POROSITY DENSITY SANDSTONE
 GRD .GAPI   45 310 01 00:   GAMMA RAY FROM DENSITY LOG
 CALD.IN     45 280 60 00:   CALIPER FROM DENSITY
 CORR.G/C3   45 356 01 00:   DENSITY CORRECTION
 DEN .G/C3   45 350 01 00:   COMPENSATED BULK DENSTIY
~PARAMETER INFORMATION
#MNEM.UNIT          VALUE    DESCRIPTION
#----------   ------------   ------------------------------
 PD  .                 GL:   PERMANENT DATUM
 EPD .F            5196.8:   ELEVATION PERMANENT DATUM
 LMF .                 KB:   LOG MEASURED FROM
 DMF .                 KB:   DRILLING MEASURED FROM
 EKB .F            5196.8:   KELLING BUSHING
 EGL .F            5196.8:   GROUND LEVEL
 DATE.        06-JAN-1985:   RUN DATE
 RUN .                  1:   RUN NUMBER
 DD  .F               650:   DEPTH DRILLER
 DL  .F               636:   DEPTH LOGGER
 BLI .F               634:   BOTTOM LOG INTERVAL
 CS  .IN            8.625:   CASING SIZE
 CBD .F                20:   CASING BOTTOM DRILLER
 CBL .F                22:   CASING BOTTOM LOGGER
 BS  .IN             6.25:   BIT SIZE
 BSD .F               650:   BIT SIZE AT DEPTH
 DFT .        KCL POLYMER:   DRILLING FLUID TYPE
 RMS .OHMM           .105:   RESISTIVITY MUD SAMPLE
 MST .F                72:   MUD SAMPLE TEMPERATURE
 RMF .OHMM            .08:   RESISTIVITY MUD FILTRATE SAMPLE
 MFST.F                72:   MUD FILTRATE SAMPLE TEMPERATURE
 RMC .OHMM            .13:   RESISTIVITY MUD CAKE
 MCST.F                72:   MUD CAKE SAMPLE TEMPERATURE
 MFSS.               CALC:   MUD FILTRATE SAMPLE SOURCE
 MCSS.               CALC:   MUD CAKE SAMPLE SOURCE
 TCS .HRS               3:   TIME CURCULATED STOPPED
 LUN .               6307:   LOGGING UNIT NUMBER
 LUL .               GLTE:   LOGGING UNIT LOCATION
 ENGI.               MACK:   RECORDING ENGINEER
 WITN.               PAGE:   WITNESSED BY
 CLNT.            A2DTECH:   CLIENT CODE
 ORIG.           5" PRINT:   ORIGIN OF DATA
 UWI .       490251101700:   UNIQUE WELL ID
 DICO. A2D Technologies, Inc.:   DIGITIZING COMPANY
 R1  . POROSITY WITH SANDSTONE:   REMARKS 1
~OTHER INFORMATION
~A   DEPT      SPR         RD         RS       RMLL         AC        CNC       PORD        GRD       CALD       CORR        DEN   
   16.0000  -999.2500  -999.2500  -999.2500  -999.2500  -999.2500  -999.2500  -999.2500  -999.2500  -999.2500  -999.2500  -999.2500
   16.5000  -999.2500  -999.2500  -999.2500  -999.2500  -999.2500    -0.0041  -999.2500    73.7713  -999.2500  -999.2500  -999.2500
   17.0000  -999.2500  -999.2500  -999.2500  -999.2500  -999.2500    -0.0008  -999.2500    69.5371  -999.2500  -999.2500  -999.2500
   17.5000  -999.2500  -999.2500  -999.2500  -999.2500  -999.2500     0.0285  -999.2500    69.0844  -999.2500  -999.2500  -999.2500
   18.0000  -999.2500  -999.2500  -999.2500  -999.2500  -999.2500     0.1217  -999.2500    69.3889  -999.2500  -999.2500  -999.2500
   18.5000  -999.2500  -999.2500  -999.2500  -999.2500  -999.2500     0.5864  -999.2500    70.4494  -999.2500  -999.2500  -999.2500
   19.0000  -999.2500  -999.2500  -999.2500  -999.2500  -999.2500     0.6997  -999.2500    72.4176  -999.2500  -999.2500  -999.2500
   19.5000  -999.2500  -999.2500  -999.2500  -999.2500  -999.2500     0.3784  -999.2500    77.2603  -999.2500  -999.2500  -999.2500
   20.0000  -999.2500  -999.2500  -999.2500  -999.2500  -999.2500     0.3682  -999.2500    79.3798  -999.2500  -999.2500  -999.2500
   20.5000  -999.2500  -999.2500  -999.2500  -999.2500  -999.2500     0.3558     0.0695    78.4736     8.1943    -0.5118  -999.2500
   21.0000  -999.2500  -999.2500  -999.2500  -999.2500  -999.2500     0.3366     0.0607    78.0212     7.8445    -0.4950  -999.2500
   21.5000  -999.2500  -999.2500  -999.2500  -999.2500  -999.2500     0.3131     0.0526    78.7792     7.6315    -0.4587  -999.2500
   22.0000  -999.2500  -999.2500  -999.2500  -999.2500  -999.2500     0.2929     0.0222    84.3782     7.5401    -0.3967     1.9992
   22.5000   -11.0776 24598.1172  -999.2500  -999.2500  -999.2500     0.2969    -0.0288    93.4569     7.4487    -0.1278     2.0407
   23.0000   -15.2871 24591.0684  -999.2500  -999.2500  -999.2500     0.3000    -0.0863    99.9637     7.0685     0.0700     2.1192
   23.5000   -18.6154 24585.4316  -999.2500  -999.2500   130.4486     0.3031    -0.1324   100.1286     6.8251     0.0807     2.1995
   24.0000   -23.1521 24579.7949  -999.2500  -999.2500   118.0094     0.3152    -0.2282    94.5204     6.7793     0.0929     2.2752
   24.5000   -28.7664 24574.1602  -999.2500  -999.2500   119.8201     0.3155    -0.2492    82.4191     6.7943     0.1157     2.3548
   25.0000   -32.8718 24568.5273     0.2012  -999.2500   121.1785     0.3146    -0.2855    81.9667     6.8245     0.1596     2.4552
   25.5000   -35.7763 24562.8945     2.2788  -999.2500   123.1384     0.3155    -0.3057    86.3918     6.8698     0.1960     2.5050
   26.0000   -38.3585 24557.2637     5.6524  -999.2500   179.5901     0.3180    -0.4383   107.2466     6.9152     0.1901     2.5473
   26.5000   -40.9550 24551.6348     9.5079  -999.2500   237.8852     0.3192    -0.5000   110.2617     6.9302    -0.5298     3.0050
   27.0000   -43.8781 24546.0059    11.6248  -999.2500   239.9954     0.3192    -0.5000   109.8094     6.8995    -0.9130     4.0000
   27.5000   -46.1490 24540.3789    12.8978  -999.2500   240.0000     0.3192    -0.5000   109.5083     6.8993    -1.1140     4.0000
   28.0000   -48.1177 24534.7520    14.0155  -999.2500   240.0000     0.3204    -0.4998   109.8124     6.8963    -1.0547     3.9964
   28.5000   -49.6333 24529.1289    14.5084  -999.2500   240.0000     0.3298    -0.4407   110.1306     6.8836    -0.9202     3.1922
   29.0000   -50.9978 24523.5059    14.8118  -999.2500   239.9402     0.3584    -0.0521   110.5880     6.8834    -0.8053     2.2594
   29.5000   -52.2112 24517.8828    14.7077  -999.2500   239.9452     0.3559     0.2927   110.8759     6.8832    -0.5863     1.3689
   30.0000   -52.9715 24512.2617    14.6044  -999.2500   239.9501     0.3316     0.1528   110.4034     6.8829    -0.1409     2.0924
   30.5000   -53.5807 24506.5957    14.5018  -999.2500   239.9551     0.3211     0.1435   110.1225     6.8980     0.0751     2.4308
   31.0000   -54.1899 24500.9316    14.3999  -999.2500   239.8847     0.3189     0.1423   110.8260     6.8977     0.0828     2.4398
   31.5000   -54.9502 24495.2676    14.0043  -999.2500   239.8899     0.3202     0.1462   113.0525     6.9127     0.0844     2.4360
   32.0000   -55.5594 24489.6055    13.5254  -999.2500   239.8195     0.3229     0.1481   112.7937     6.9276     0.0845     2.4360
   32.5000   -56.1686 24483.9434    13.1513  -999.2500   239.8247     0.3404     0.1420   111.0366     6.9300     0.0832     2.4435
   33.0000   -56.6268 24477.1621    12.9711  -999.2500   224.1154     0.3509     0.1411   110.8865     6.9362     0.0833     2.4482
   33.5000   -57.0849 24471.5508    13.8291  -999.2500   207.4286     0.3525     0.1451   110.1319     6.9425     0.0819     2.4362
   34.0000   -57.3920 24637.6270    15.4594  -999.2500   182.5464     0.3383     0.1526   108.6206     6.9487     0.0775     2.4219
   34.5000   -57.6992 24801.9883    16.7761  -999.2500   161.7243     0.3332     0.1590   107.4118     6.9549     0.0731     2.4132
   35.0000   -57.8552 24624.9199    17.3694  -999.2500   144.3210     0.3350     0.1629   106.0517     6.9567     0.0718     2.4087
   35.5000   -58.0112 24619.2754    17.7122  -999.2500   129.9883     0.3471     0.1626   106.2045     6.9565     0.0735     2.4102
   36.0000   -58.1673 24613.6309    17.8334  -999.2500   121.5898     0.3588     0.1608   107.2650     6.9562     0.0766     2.4154
   36.5000   -58.3233 24607.9883    17.8308  -999.2500   121.0684     0.3606     0.1584   108.9307     6.9560     0.0705     2.4131
   37.0000   -58.4794 24774.9922    17.8288  -999.2500   121.3742     0.3423     0.1596   110.2937     6.9558     0.0570     2.4101
   37.5000   -58.4844 24941.6953    17.8267  -999.2500   120.5521     0.3308     0.1611   113.7748     6.9555     0.0543     2.4093
   38.0000   -58.4894 24934.5488    17.8247  -999.2500   119.2037     0.3290     0.1617   114.2298     6.9553     0.0638     2.4101
   38.5000   -58.4945 25103.7676    17.8226  -999.2500   118.7563     0.3016     0.1605   111.6598     6.9551     0.0652     2.4146
   39.0000   -58.4995 25096.5742    17.8206  -999.2500   118.6109     0.2905     0.1590   109.3921     6.9549     0.0574     2.4244
   39.5000   -58.5045 25090.8203    17.9431  -999.2500   118.5407     0.2899     0.1518   107.5781     6.9546     0.0487     2.4372
   40.0000   -58.5105 24911.6914    17.9405  -999.2500   118.4705     0.3052     0.1461   106.3694     6.9544     0.0566     2.4462
   40.5000   -58.3632 24905.9805    17.9384  -999.2500   118.1747     0.3342     0.1385   105.4632     6.9541     0.0733     2.4545
   41.0000   -58.3695 24728.1738    17.9364  -999.2500   117.6546     0.3390     0.1334   105.6159     6.9539     0.0674     2.4590
   41.5000   -58.2221 24722.5059    17.9343  -999.2500   117.2085     0.3408     0.1307   104.2559     6.9537     0.0808     2.4635
   42.0000   -58.0773 24716.8379    18.0576  -999.2500   116.5368     0.3424     0.1277   103.8032     6.9535     0.1150     2.4665
   42.5000   -58.0823 24711.1719    18.0550  -999.2500   115.7899     0.3412     0.1256   104.5615     6.9532     0.1161     2.4696
   43.0000   -58.0873 24705.5059    17.9281  -999.2500   115.1182     0.3321     0.1253   104.5630     6.9530     0.1078     2.4749
   43.5000   -57.9400 24871.8848    17.6791  -999.2500   114.4465     0.3315     0.1219   105.1696     6.9528     0.0907     2.4786
   44.0000   -57.9462 24866.0410    17.4336  -999.2500   114.1507     0.3409     0.1193   107.4404     6.9526     0.0773     2.4815
   44.5000   -57.9512 25033.4062    17.0727  -999.2500   113.8549     0.3418     0.1225   107.5932     6.9523     0.0668     2.4702
   45.0000   -57.9562 25027.6211    16.9527  -999.2500   113.4088     0.3325     0.1366   106.2332     6.9521     0.0579     2.4520
   45.5000   -57.9612 25021.8359    16.9508  -999.2500   113.1130     0.3228     0.1435   103.2089     6.9519     0.0626     2.4452
   46.0000   -57.8138 25016.0508    16.8317  -999.2500   112.9674     0.3114     0.1447   103.0588     6.9517     0.0672     2.4399
