~VERSION INFORMATION
 VERS.                2.0:   CWLS LOG ASCII STANDARD - VERSION 2.0
 WRAP.                 NO:   ONE LINE PER DEPTH STEP
~WELL INFORMATION
#MNEM.UNIT      DATA TYPE    INFORMATION
#----------   ------------   ------------------------------
 STRT.F           80.0000:   START DEPTH
 STOP.F         1011.0000:   STOP DEPTH
 STEP.F            0.5000:   STEP LENGTH
 NULL.          -999.2500:   NO VALUE
 COMP.          U.S. NAVY:   COMPANY
 WELL. RES 3 TEAPOT DOM #61S-11:   WELL
 FLD .             TEAPOT:   FIELD
 LOC .      S11 T38N R78W:   LOCATION
 CNTY.            NATRONA:   COUNTY
 STAT.            WYOMING:   STATE
 CTRY. UNITED STATES OF AMERICA:   COUNTRY
 SRVC.       Schlumberger:   SERVICE COMPANY
 DATE.        23-JUL-1964:   LOGDATE
 API .       490250637500:   API NUMBER
~CURVE INFORMATION
#MNEM.UNIT       API CODE    CURVE DESCRIPTION
#----------   ------------   ------------------------------
 DEPT.F                  :   
 CALS.IN     60 280 50 00:   CALIPER FROM SONIC LOG
 DT  .US/F   60 520 33 00:   INTERVAL TRANSIT TIME
 GR  .GAPI   30 310 01 00:   GAMMA RAY
 CILD.MMHO   05 110 46 00:   CONDUCTIVITY INDUCTION LOG DEEP
 ILD .OHMM   05 120 46 00:   INDUCTION LOG DEEP
 ASN .OHMM   05 041 16 00:   AMPLIFIED SHORT NORMAL 16"
 SPR .MV     05 010 01 00:   SPONTANEOUS POTENTIAL FROM RES.
~PARAMETER INFORMATION
#MNEM.UNIT          VALUE    DESCRIPTION
#----------   ------------   ------------------------------
 PD  .                 GL:   PERMANENT DATUM
 EPD .F              5199:   ELEVATION PERMANENT DATUM
 LMF .                 KB:   LOG MEASURED FROM
 DAPD.F                 5:   FEET ABOVE PERMANENT DATUM
 DMF .                 KB:   DRILLING MEASURED FROM
 EKB .F              5204:   KELLING BUSHING
 EGL .F              5199:   GROUND LEVEL
 DATE.          7-23-1964:   RUN DATE
 RUN .                  1:   RUN NUMBER
 DD  .F              1010:   DEPTH DRILLER
 DL  .F              1012:   DEPTH LOGGER
 BLI .F              1011:   BOTTOM LOG INTERVAL
 TLI .F                88:   TOP LOG INTERVAL
 CS  .IN            8.625:   CASING SIZE
 CBD .F                10:   CASING BOTTOM DRILLER
 BS  .IN             6.75:   BIT SIZE
 BSD .F              1010:   BIT SIZE AT DEPTH
 DFT .            GEL-OIL:   DRILLING FLUID TYPE
 DFD .                9.8:   DRILLING FLUID DENSITY
 DFV .                 54:   DRILLING FLUID VISCOSITY
 MSS .           FLOWLINE:   MUD SAMPLE SOURCE
 RMS .OHMM           1.47:   RESISTIVITY MUD SAMPLE
 MST .F                86:   MUD SAMPLE TEMPERATURE
 RMF .OHMM            .96:   RESISTIVITY MUD FILTRATE SAMPLE
 MFST.F                86:   MUD FILTRATE SAMPLE TEMPERATURE
 RMC .OHMM           2.10:   RESISTIVITY MUD CAKE
 MCST.F                86:   MUD CAKE SAMPLE TEMPERATURE
 MFSS.                 FP:   MUD FILTRATE SAMPLE SOURCE
 MCSS.                 FP:   MUD CAKE SAMPLE SOURCE
 TCS .HRS               2:   TIME CURCULATED STOPPED
 LUN .               4507:   LOGGING UNIT NUMBER
 LUL .              CSPR.:   LOGGING UNIT LOCATION
 ENGI.             DANNER:   RECORDING ENGINEER
 WITN.          JORGENSEN:   WITNESSED BY
 CLNT.            A2DTECH:   CLIENT CODE
 ORIG.      2" & 5" PRINT:   ORIGIN OF DATA
 UWI .       490250637500:   UNIQUE WELL ID
 DICO. A2D Technologies, Inc.:   DIGITIZING COMPANY
~OTHER INFORMATION
~A   DEPT     CALS         DT         GR        CILD         ILD        ASN      SPR   
# ...
  762.5000     6.6817    95.8395    63.7538   115.5254     8.9284    10.4456   -26.4748
  763.0000     6.6988    94.9352    68.7087   114.7967     8.9262     9.9443   -26.4748
  763.5000     6.7125    92.1483    69.1823   115.5575     8.9978     9.5756   -26.4748
  764.0000     6.7128    91.4698    65.4054   117.8705     8.9151    10.0318   -26.4748
  764.5000     6.7132    91.0926    59.3994   123.7619     8.6248    10.4438   -26.4748
  765.0000     6.7135    90.7906    57.4474   128.9768     8.3281     9.9278   -26.4748
  765.5000     6.7138    90.2627    58.7988   132.7057     8.0315     9.2352   -26.4748
  766.0000     6.6989    89.5843    70.8108   137.1776     7.7348     8.7046   -26.4748
  766.5000     6.6993    91.2402    69.1592   140.9066     7.5118     8.2475   -26.6187
  767.0000     6.6996    93.8750    64.9550   143.8930     7.2886     8.0409   -26.7626
  767.5000     6.6847    94.5519    61.8018   144.6534     7.2124     7.9374   -26.9065
  768.0000     6.6399    95.2289    59.5495   145.4106     7.2103     7.8780   -27.1942
  768.5000     6.5647    96.3577    60.4505   144.6783     7.2082     7.9071   -27.4820
  769.0000     6.5198    97.1099    62.1021   143.9496     7.2061     7.9950   -27.6259
  769.5000     6.5049    96.9586    63.9039   141.7385     7.2776     8.1417   -27.7698
  770.0000     6.4902    96.7319    64.9550   140.9113     7.2754     8.2297   -27.9137
  770.5000     6.4905    96.4300    64.8048   139.5383     7.2728     8.2588   -28.0576
  771.0000     6.4908    96.3539    63.0030   138.0702     7.3449     8.2583   -28.0576
  771.5000     6.4911    96.4285    59.3994   138.0845     7.4164     8.2726   -28.0576
  772.0000     6.4914    96.5883    56.9970   136.6128     7.5610     8.2869   -27.7698
  772.5000     6.4917    96.8913    57.5976   135.8841     7.7062     8.3159   -27.1942
  773.0000     6.4920    97.6309    57.4474   135.1555     7.8513     8.3450   -26.6187
  773.5000     6.4923    98.6090    62.2523   133.6839     7.9965     8.3740   -25.8993
  774.0000     6.5077    98.5330    73.2132   132.9552     8.1416     8.4324   -25.4676
  774.5000     6.4929    98.4569    74.2643   132.2265     8.2126     8.5203   -25.1799
  775.0000     6.4932    98.4562    76.0661   130.7584     8.2105     8.6524   -25.1799
  775.5000     6.6142    98.3802    78.6219   130.0297     8.2820     8.8434   -25.1799
  776.0000     6.6748    97.4758    80.1220   129.3010     8.2794     9.0197   -25.1799
  776.5000     6.6902    96.4961    79.6607   128.5723     8.2773     9.0635   -25.1799
  777.0000     6.7056    95.7424    78.7688   127.8436     8.2751     9.0630   -25.3237
  777.5000     6.7059    95.2898    81.0210   127.1150     8.1994     9.1069   -25.3237
  778.0000     6.7062    95.1387    78.1441   127.1328     8.1973     9.1505   -25.3237
  778.5000     6.7065    95.5895    76.2091   127.1471     8.1215     9.1648   -25.3237
  779.0000     6.6917    96.0406    75.4655   126.4219     8.0452     9.1643   -25.4676
  779.5000     6.6301    96.6423    74.9794   126.4361     7.9695     9.0902   -25.6115
  780.0000     6.5546    97.3192    71.4114   126.4504     7.8937     8.8983   -25.7554
  780.5000     6.5116    97.4693    72.3345   126.4647     7.9658     8.8391   -25.8993
  781.0000     6.5119    96.6400    72.9370   126.4789     7.9631     8.8975   -25.7554
  781.5000     6.5274    96.3382    74.2773   126.4934     8.0346     8.9706   -25.4676
  782.0000     6.5277    96.8644    71.1882   126.5110     8.1062     9.0144   -25.3237
  782.5000     6.5280    96.8763    68.5586   126.5252     8.1035     9.0876   -25.3237
  783.0000     6.5433    96.0346    71.0730   126.5395     8.1014     9.1608   -25.4676
  783.5000     6.5285    95.2809    73.8822   126.5537     8.1734     9.2635   -25.4676
  784.0000     6.5439    94.8283    75.6337   126.5680     8.1708     9.3514   -25.4676
  784.5000     6.3029    94.5264    76.2162   126.5824     8.1687     9.3361   -25.3237
  785.0000     6.0769    94.5256    76.2162   126.6001     8.1660     9.2179   -25.3237
  785.5000     6.0470    95.2103    75.1231   126.6143     8.1639     9.1438   -25.3237
  786.0000     6.0474    95.8042    74.1982   126.6286     8.0881     9.3054   -25.0360
  786.5000     6.0477    95.7131    71.2275   126.6428     8.0860     9.3493   -24.4604
  787.0000     6.1083    95.3409    69.1351   126.6571     8.0839     9.2751   -24.3165
  787.5000     6.2595    95.1243    68.6586   126.6716     8.0818     9.1715   -24.3165
  788.0000     6.3955    94.8974    67.3574   126.6891     8.0791     9.0974   -24.1727
  788.5000     6.4863    94.5202    68.1622   127.4463     8.0770     9.0381   -24.1727
  789.0000     6.5469    94.2182    69.6377   128.2035     8.0749     9.0083   -24.1727
  789.5000     6.5925    94.0669    69.4643   128.2178     7.9991     9.0814   -24.0288
  790.0000     6.6229    94.4426    63.7538   128.2320     7.9234     9.1399   -24.0288
  790.5000     6.6383    94.5174    68.2583   128.9896     7.9212     9.0363   -24.0288
  791.0000     6.6386    94.4412    69.1592   129.0070     7.7713     8.9180   -24.3165
  791.5000     6.6540    94.2145    67.8078   129.7643     7.7692     8.7998   -24.7482
  792.0000     6.6392    94.0631    64.3544   133.4932     7.5462     8.6963   -24.8921
  792.5000     6.6094    93.9118    62.4024   137.9651     7.3232     8.6075   -24.8921
  793.0000     6.5192    93.8358    61.6517   142.4370     7.0265     8.6513   -24.6043
  793.5000     6.4742    93.6091    62.1021   147.8354     6.7944     8.6065   -24.4604
  794.0000     6.4745    93.5331    64.2042   153.6132     6.5799     8.4441   -24.3165
  794.5000     6.5051    93.6076    66.9069   156.5992     6.4305     8.0902   -24.1727
  795.0000     6.5510    93.9834    68.5586   159.5853     6.2811     7.8394   -24.0288
  795.5000     6.5820    94.8862    70.3604   161.0854     6.2053     7.6476   -24.0288
  796.0000     6.6444    95.4128    72.1622   161.8426     6.1296     7.4557   -24.0288
  796.5000     6.6721    95.1106    72.0120   161.7507     6.2011     7.2490   -24.1727
  797.0000     6.5796    94.9593    73.5135   158.9029     6.3457     7.3811   -24.4604
  797.5000     6.5068    94.8080    77.1171   152.9736     6.5651     8.0581   -24.6043
  798.0000     6.4920    94.4307    78.3183   144.8155     6.8575     8.3375   -24.8921
  798.5000     6.4924    94.0534    76.8168   138.8862     7.2230     8.4255   -25.0360
  799.0000     6.4927    93.7515    76.2162   134.4428     7.4418     8.4987   -25.1799
  799.5000     6.4930    95.1062    77.2673   132.1074     7.7343     8.5865   -25.3237
  800.0000     6.4932    95.5572    77.5975   129.9438     7.9086     8.6848   -25.4676
  800.5000     6.4750    95.4008    77.4142   129.0689     7.9982     8.8124   -25.5673
  801.0000     6.4784    94.4866    73.9577   128.1939     8.0326     8.9399   -25.6669
  801.5000     6.4786    93.4239    70.2010   127.3189     8.0355     9.0735   -25.7473
  802.0000     6.4788    92.9187    70.1980   126.9198     8.0383     9.1328   -25.7439
  802.5000     6.4789    93.0435    70.1950   127.6342     8.0418     9.1333   -25.7410
  803.0000     6.4791    93.8961    69.5914   128.3558     8.0447     9.0896   -25.5937
  803.5000     6.4792    93.8952    67.7866   129.0639     8.0475     9.0459   -25.4471
  804.0000     6.4794    94.4969    66.5824   129.7777     7.9767     8.9727   -25.4443
  804.5000     6.4795    94.7222    67.1800   131.9709     7.9052     8.8847   -25.1538
  805.0000     6.4797    94.7213    68.3782   134.9142     7.7614     8.7820   -25.0071
  805.5000     6.4798    94.7205    70.7776   137.8576     7.6906     8.7219   -24.5727
  806.0000     6.4800    94.7953    72.5764   141.5438     7.4732     8.6063   -24.2815
  806.5000     6.4952    95.0955    74.5255   148.2018     7.1815     8.5036   -23.9909
  807.0000     6.5255    95.3960    74.3723   156.0181     6.6689     8.3715   -23.5565
  807.5000     6.5860    95.9976    77.9729   168.1972     6.2299     8.2394   -23.2660
