~VERSION INFORMATION
 VERS.                2.0:   CWLS LOG ASCII STANDARD - VERSION 2.0
 WRAP.                 NO:   ONE LINE PER DEPTH STEP
~WELL INFORMATION
#MNEM.UNIT      DATA TYPE    INFORMATION
#----------   ------------   ------------------------------
 STRT.F           32.0000:   START DEPTH
 STOP.F          501.0000:   STOP DEPTH
 STEP.F            0.5000:   STEP LENGTH
 NULL.          -999.2500:   NO VALUE
 COMP. FENIX & SCISSON, INC., U.S. NAVY:   COMPANY
 WELL.     NPR-3 #82-S-10:   WELL
 FLD .             TEAPOT:   FIELD
 LOC .      S10 T38N R78W:   LOCATION
 CNTY.            NATRONA:   COUNTY
 STAT.            WYOMING:   STATE
 CTRY. UNITED STATES OF AMERICA:   COUNTRY
 SRVC.              Welex:   SERVICE COMPANY
 DATE.        10-MAY-1977:   LOGDATE
 API .       490251035300:   API NUMBER
~CURVE INFORMATION
#MNEM.UNIT       API CODE    CURVE DESCRIPTION
#----------   ------------   ------------------------------
 DEPT.F                  :   
 GURD.OHMM   07 220 05 00:   SHALLOW SHORT GUARD RESISTIVITY
 ILD .OHMM   07 120 46 00:   INDUCTION LOG DEEP
 ILM .OHMM   07 120 44 00:   INDUCTION LOG MEDIUM
 SPR .MV     07 010 01 00:   SPONTANEOUS POTENTIAL
 CALD.IN     45 280 60 00:   CALIPER FROM DENSITY LOG
 CORR.G/C3   45 356 01 00:   DENSITY CORRECTION
 DPHI.DEC    45 890 12 00:   DENSITY POROSITY SANDSTONE
 GRD .GAPI   45 310 01 00:   GAMMA RAY FROM DENSITY LOG
 RHOB.G/C3   45 350 01 00:   BULK DENSITY
~PARAMETER INFORMATION
#MNEM.UNIT          VALUE    DESCRIPTION
#----------   ------------   ------------------------------
 PD  .                 GL:   PERMANENT DATUM
 EPD .F              5134:   ELEVATION PERMANENT DATUM
 LMF .                 GL:   LOG MEASURED FROM
 DMF .                 GL:   DRILLING MEASURED FROM
 EGL .F              5134:   GROUND LEVEL
 DATE.        10-MAY-1977:   RUN DATE
 RUN .                  1:   RUN NUMBER
 DD  .F               505:   DEPTH DRILLER
 DL  .F               504:   DEPTH LOGGER
 BLI .F               502:   BOTTOM LOG INTERVAL
 TLI .F                30:   TOP LOG INTERVAL
 CS  .IN            8.625:   CASING SIZE
 CBD .F                40:   CASING BOTTOM DRILLER
 CBL .F                41:   CASING BOTTOM LOGGER
 BS  .IN            7.875:   BIT SIZE
 BSD .F               505:   BIT SIZE AT DEPTH
 DFT .            KCL MUD:   DRILLING FLUID TYPE
 DFD .                8.7:   DRILLING FLUID DENSITY
 DFV .                 29:   DRILLING FLUID VISCOSITY
 DFPH.                7.5:   DRILLING FLUID PH
 DFL .                6.6:   DRILLING FLUID LOSS
 MSS .           FLOWLINE:   MUD SAMPLE SOURCE
 RMS .OHMM           0.26:   RESISTIVITY MUD SAMPLE
 MST .F                72:   MUD SAMPLE TEMPERATURE
 RMF .OHMM           0.22:   RESISTIVITY MUD FILTRATE SAMPLE
 MFST.F                72:   MUD FILTRATE SAMPLE TEMPERATURE
 RMC .OHMM           0.42:   RESISTIVITY MUD CAKE
 MCST.F                72:   MUD CAKE SAMPLE TEMPERATURE
 MFSS.           FANN KIT:   MUD FILTRATE SAMPLE SOURCE
 MCSS.           FANN KIT:   MUD CAKE SAMPLE SOURCE
 RMB .OHMM           0.24:   RESISTIVITY MUD AT BHT
 BHT .F                78:   BOTTOM HOLE TEMPERATURE
 TCS .HRS               1:   TIME CURCULATED STOPPED
 MRT .F                78:   MAXIMUM RECORDED TEMPERATURE
 LUN .               8611:   LOGGING UNIT NUMBER
 LUL .             CASPER:   LOGGING UNIT LOCATION
 ENGI.            C. DOAK:   RECORDING ENGINEER
 WITN.         D. RHOADES:   WITNESSED BY
 CLNT.            A2DTECH:   CLIENT CODE
 ORIG.           5" PRINT:   ORIGIN OF DATA
 UWI .       490251035300:   UNIQUE WELL ID
 DICO. A2D Technologies, Inc.:   DIGITIZING COMPANY
~OTHER INFORMATION
~A   DEPT     GURD        ILD        ILM         SPR      CALD       CORR       DPHI        GRD       RHOB   
# ...
  433.5000    17.1629    13.2407    17.2028   -34.7188     7.7018     0.0371     0.1288   101.5890     2.4666
  434.0000    17.7722    12.9733    18.1891   -34.7083     7.7030     0.0372     0.1261   103.2206     2.4696
  434.5000    17.9015    12.7993    18.0724   -34.6173     7.7042     0.0375     0.1251   104.6172     2.4689
  435.0000    17.6618    12.5409    17.2273   -34.5387     7.7202     0.0389     0.1284   107.7547     2.4644
  435.5000    17.1862    12.4587    16.4187   -34.5283     7.7214     0.0390     0.1314   108.1122     2.4585
  436.0000    16.7233    12.4631    15.4095   -34.5162     7.7077     0.0406     0.1359   105.3080     2.4518
  436.5000    16.4994    12.3812    14.5150   -34.5060     7.6794     0.0407     0.1412   105.0201     2.4436
  437.0000    16.3911    12.3857    14.7257   -34.4970     7.6508     0.0361     0.1403   106.3702     2.4427
  437.5000    16.1719    12.3906    14.2324   -34.6369     7.6520     0.0364     0.1370   106.8271     2.4534
  438.0000    15.9553    12.3948    11.6536   -34.7730     7.6532     0.0398     0.1340   106.8390     2.4617
  438.5000    15.9700    12.3125    10.8046   -34.9116     7.6392     0.0444     0.1307   106.2573     2.4677
  439.0000    16.4328    12.3177    11.7456   -35.0506     7.6109     0.0487     0.1271   105.0822     2.4722
  439.5000    16.9977    12.3219    13.6803   -35.3376     7.6270     0.0512     0.1250   103.7587     2.4753
  440.0000    16.2006    12.4116    14.8700   -35.4762     7.6431     0.0535     0.1226   102.4352     2.4753
  440.5000    16.4316    12.5019    15.0841   -35.7636     7.6467     0.0490     0.1196   101.5568     2.4769
  441.0000    17.0150    12.4200    15.6217   -35.9886     7.6603     0.0492     0.1106   101.1235     2.4882
  441.5000    17.7412    12.4126    15.6320   -36.3359     7.6913     0.0553     0.0998   100.5419     2.5152
  442.0000    19.0168    12.3428    15.0946   -36.6233     7.7073     0.0584     0.0950    99.8119     2.5211
  442.5000    17.0322    12.1784    14.2612   -36.7645     7.6787     0.0615     0.0980    98.3400     2.5099
  443.0000    16.4594    12.0975    12.9892   -36.9031     7.6650     0.0616     0.1111    95.9779     2.4760
  443.5000    16.1272    12.0501    12.1278   -36.9348     7.6662     0.0587     0.1210    92.4289     2.4671
  444.0000    15.9113    11.9405    12.0486   -37.0298     7.6225     0.0543     0.1279    93.4793     2.4612
  444.5000    15.8071    11.7795    12.7409   -37.1682     7.6088     0.0484     0.1329    97.4971     2.4552
  445.0000    15.7945    11.5425    13.3786   -37.2197     7.6251     0.0440     0.1359    99.5860     2.4477
  445.5000    15.4946    11.3094    14.3425   -37.2961     7.6263     0.0426     0.1341   101.2299     2.4516
  446.0000    15.2858    11.0809    14.9566   -37.4345     7.6573     0.0427     0.1290   103.3189     2.4653
  446.5000    15.1857    10.9297    13.6782   -37.5729     7.7180     0.0413     0.1242   105.8530     2.4743
  447.0000    15.0862    10.7859    12.1681   -37.5625     7.7638     0.0414     0.1254   108.5354     2.4683
  447.5000    14.9874    10.8146    11.8420   -37.5521     7.7948     0.0415     0.1276   110.4731     2.4631
  448.0000    14.8893    10.9444    11.6851   -37.5400     7.8257     0.0431     0.1232   103.5145     2.4737
  448.5000    14.6911    11.0241    12.0340   -37.6811     7.8269     0.0447     0.1196    99.2237     2.4819
  449.0000    14.4944    10.9509    12.2758   -37.9660     7.8129     0.0494     0.1175    97.6035     2.4827
  449.5000    14.3002    10.8042    11.8659   -38.1071     7.7992     0.0540     0.1184    98.8022     2.4768
  450.0000    14.0117    10.5622    11.2332   -38.0944     7.8007     0.0556     0.1196   101.6330     2.4738
  450.5000    14.1136    10.3015    10.4882   -38.2355     7.7126     0.0527     0.1208   103.4253     2.4753
  451.0000    13.8131    10.0239    10.0670   -38.5828     7.6245     0.0543     0.1235   105.0691     2.4701
  451.5000    13.2728     9.8214     9.6628   -38.8080     7.5807     0.0513     0.1271   109.2353     2.4657
  452.0000    12.9154     9.5532     9.3391   -39.0952     7.6269     0.0469     0.1282   114.5883     2.4687
  452.5000    12.5676     9.0311     9.0888   -39.3949     7.6578     0.0427     0.1282   115.9355     2.4710
  453.0000    12.2291     8.5623     8.6638   -39.9920     7.6888     0.0399     0.1266   117.2826     2.4688
  453.5000    12.2333     8.1605     8.3159   -40.9966     7.7197     0.0370     0.1239   119.2232     2.4711
  454.0000    11.9853     7.8315     7.7109   -41.7330     7.7358     0.0356     0.1203   121.0154     2.4801
  454.5000    11.5035     7.3615     7.0417   -42.4643     7.7518     0.0358     0.1183   122.6593     2.4831
  455.0000    11.0401     6.9677     6.4880   -43.0493     7.7530     0.0314     0.1275   125.0450     2.4593
  455.5000    10.2355     6.5495     6.2338   -43.4855     7.7722     0.0255     0.1437   130.1013     2.4294
  456.0000     8.8561     6.0719     5.9014   -43.8194     7.7852     0.0197     0.1606   136.4930     2.4100
  456.5000     6.2253     5.4003     5.6254   -44.0091     7.7863     0.0138     0.1701   140.9558     2.3846
  457.0000     4.0204     5.1826     5.5890   -43.6944     7.8024     0.0064     0.1821   137.5552     2.3756
  457.5000     4.2329     5.3310     6.2023   -43.2583     7.8185    -0.0025     0.1855   132.6709     2.3734
  458.0000    10.3249     5.7218     7.0758   -42.9577     7.8197    -0.0204     0.1580   119.1812     2.3997
  458.5000    14.2913     6.2532     7.7460   -42.6572     7.8208     0.0068     0.1364   110.5877     2.4492
  459.0000    14.7987     6.6111     8.5993   -42.5054     7.8220     0.0145     0.1153   106.4452     2.4845
  459.5000    14.9051     6.9888     9.3542   -42.2048     7.8083     0.0176     0.1111   103.9348     2.5003
  460.0000    13.1666     7.6376     9.8142   -42.0530     7.7798     0.0192     0.1096   101.7211     2.5061
  460.5000    13.6352     8.3595     9.7410   -41.9013     7.7661     0.0178     0.1125   104.7076     2.4933
  461.0000    13.6399     8.9605     9.8411   -41.6007     7.7375     0.0195     0.1177   105.7506     2.4808
  461.5000    13.4562     9.4728    10.6183   -41.4389     7.7238     0.0232     0.1210   105.4657     2.4849
  462.0000    13.4620     9.8087    11.1530   -41.2976     7.7250     0.0258     0.1081   109.5826     2.4931
  462.5000    13.5600    10.1565    11.2127   -40.9965     7.7262     0.0274     0.1063   115.2572     2.4991
  463.0000    13.7534    10.3723    10.4691   -40.6959     7.7125     0.0305     0.1051   118.8991     2.5029
  463.5000    14.1437    10.6661    10.8436   -40.6935     7.7137     0.0322     0.0994   119.4596     2.5117
  464.0000    14.5451    11.0444    11.8684   -40.5412     7.7149     0.0338     0.0970   113.6851     2.5155
  464.5000    15.0615    11.3572    12.4626   -40.5382     7.7161     0.0340     0.1017   115.2033     2.5118
  465.0000    15.5963    11.5985    12.3812   -40.5353     7.7197     0.0341     0.1050   115.6375     2.5066
  465.5000    15.6017    11.8449    12.7359   -40.5323     7.7421     0.0342     0.1035   114.2997     2.4984
  466.0000    14.8701    12.0965    13.7482   -40.3810     7.7496     0.0321     0.1023   111.8036     2.4925
  466.5000    15.5049    12.2683    13.3799   -40.2288     7.7508     0.0285     0.1070   114.6373     2.4850
  467.0000    16.2789    12.3568    12.8427   -40.2258     7.7669     0.0256     0.1133   116.8747     2.4798
  467.5000    16.5111    12.4460    12.7589   -40.0740     7.7681     0.0210     0.1226   115.8479     2.4739
  468.0000    16.1779    12.5358    12.6509   -40.0714     7.7541     0.0154     0.1267   113.3375     2.4694
  468.5000    15.8501    12.6263    13.0402   -40.0685     7.7556     0.0155     0.1237   111.7172     2.4725
  469.0000    16.0776    12.7174    13.5051   -40.0651     7.7568     0.0157     0.1204   110.8389     2.4778
  469.5000    16.5338    12.8470    13.6053   -40.0625     7.7428     0.0158     0.1186   110.1088     2.4793
