~VERSION INFORMATION
 VERS.                2.0:   CWLS LOG ASCII STANDARD - VERSION 2.0
 WRAP.                 NO:   ONE LINE PER DEPTH STEP
~WELL INFORMATION
#MNEM.UNIT      DATA TYPE    INFORMATION
#----------   ------------   ------------------------------
 STRT.F           30.0000:   START DEPTH
 STOP.F          697.0000:   STOP DEPTH
 STEP.F            0.5000:   STEP LENGTH
 NULL.          -999.2500:   NO VALUE
 COMP. LAWRENCE/ALLISON INC:   COMPANY
 WELL.    81-66 SX #15-15:   WELL
 FLD .             TEAPOT:   FIELD
 LOC .      S15 T38N R78W:   LOCATION
 CNTY.            NATRONA:   COUNTY
 STAT.            WYOMING:   STATE
 CTRY. UNITED STATES OF AMERICA:   COUNTRY
 SRVC.           Gearhart:   SERVICE COMPANY
 DATE.        15-JUL-1987:   LOGDATE
 API .       490251117000:   API NUMBER
~CURVE INFORMATION
#MNEM.UNIT       API CODE    CURVE DESCRIPTION
#----------   ------------   ------------------------------
 DEPT.F                  :   
 GRR .GAPI   07 310 01 00:   GAMMA RAY
 ILD .OHMM   07 120 46 00:   INDUCTION LOG DEEP
 ILM .OHMM   07 120 44 00:   INDUCTION LOG MEDIUM
~PARAMETER INFORMATION
#MNEM.UNIT          VALUE    DESCRIPTION
#----------   ------------   ------------------------------
 PD  .                 GL:   PERMANENT DATUM
 EPD .F              5232:   ELEVATION PERMANENT DATUM
 LMF .                 KB:   LOG MEASURED FROM
 DAPD.F                 8:   FEET ABOVE PERMANENT DATUM
 DMF .                 KB:   DRILLING MEASURED FROM
 EKB .F              5240:   KELLING BUSHING
 EDF .F              5238:   DRILLING FLOOR
 EGL .F              5232:   GROUND LEVEL
 DATE.        28-AUG-1987:   RUN DATE
 RUN .                  1:   RUN NUMBER
 DD  .F               700:   DEPTH DRILLER
 DL  .F               706:   DEPTH LOGGER
 BLI .F               700:   BOTTOM LOG INTERVAL
 TLI .F                30:   TOP LOG INTERVAL
 CS  .IN            8.625:   CASING SIZE
 CBD .F                48:   CASING BOTTOM DRILLER
 CBL .F                48:   CASING BOTTOM LOGGER
 BS  .IN            7.875:   BIT SIZE
 BSD .F               700:   BIT SIZE AT DEPTH
 DFT .                AIR:   DRILLING FLUID TYPE
 TCS .HRS            0200:   TIME CURCULATED STOPPED
 TLAB.HRS            0449:   TIME LOGGER AT BOTTOM
 MRT .F                80:   MAXIMUM RECORDED TEMPERATURE
 LUN .               7597:   LOGGING UNIT NUMBER
 LUL .           GILLETTE:   LOGGING UNIT LOCATION
 ENGI.         WEATHERMON:   RECORDING ENGINEER
 WITN.             STRONG:   WITNESSED BY
 CLNT.            A2DTECH:   CLIENT CODE
 ORIG.       2", 5" PRINT:   ORIGIN OF DATA
 UWI .       490251117000:   UNIQUE WELL ID
 DICO. A2D Technologies, Inc.:   DIGITIZING COMPANY
~OTHER INFORMATION
~A   DEPT       GRR       ILD        ILM   
# ...
  485.0000    85.2366    16.9689    16.9804
  485.5000    86.4792    16.8591    16.9862
  486.0000    87.7218    16.8692    17.1108
  486.5000    87.4241    16.8772    17.1166
  487.0000    86.2817    16.8850    17.1224
  487.5000    85.4063    16.8932    17.2479
  488.0000    84.8254    16.9014    17.1340
  488.5000    83.0503    16.9112    17.1400
  489.0000    81.2672    16.9179    17.1470
  489.5000    80.9889    16.9273    17.1529
  490.0000    83.1473    16.8159    17.1587
  490.5000    86.8270    16.7878    16.9270
  491.0000    87.4493    16.6011    16.8137
  491.5000    87.1857    16.6089    16.4729
  492.0000    87.2181    16.3871    16.3641
  492.5000    87.8555    16.2811    16.3697
  493.0000    89.4007    16.1758    16.3754
  493.5000    90.9459    16.1854    16.2670
  494.0000    92.1885    16.0789    16.1596
  494.5000    88.8845    16.0884    16.0528
  495.0000    86.1624    15.9825    15.9468
  495.5000    85.9314    15.8810    15.8414
  496.0000    87.7872    15.7765    15.5204
  496.5000    89.0298    15.4596    15.3108
  497.0000    89.0621    15.2530    15.2096
  497.5000    88.7838    15.1544    15.2150
  498.0000    87.6139    15.1634    15.1143
  498.5000    86.4359    15.0636    15.1198
  499.0000    85.2022    15.0725    15.1258
  499.5000    82.8778    15.1850    15.1310
  500.0000    81.6998    15.0868    15.0297
  500.5000    80.8163    15.0940    14.9317
  501.0000    80.2435    14.9964    14.8331
  501.5000    81.4942    14.8726    14.7351
  502.0000    83.3419    14.7017    14.6377
  502.5000    83.6964    14.5036    14.4283
  503.0000    83.0883    14.2106    14.2239
  503.5000    82.5311    14.1188    13.9762
  504.0000    82.5715    14.0275    13.8843
  504.5000    83.2090    13.9368    13.6915
  505.0000    83.8464    13.8482    13.5199
  505.5000    85.6942    13.7588    13.5291
  506.0000    88.1471    13.5751    13.6311
  506.5000    89.9250    13.5818    13.6386
  507.0000    91.5422    13.4954    13.6460
  507.5000    92.7852    13.5019    13.5568
  508.0000    92.8178    13.4146    13.5316
  508.5000    92.8505    13.4210    13.4789
  509.0000    93.8054    13.4274    13.4866
  509.5000    94.1271    13.4338    13.4939
  510.0000    92.9566    13.4398    13.5014
  510.5000    92.3760    13.4466    13.5089
  511.0000    92.1060    13.4530    13.5165
  511.5000    92.1469    13.5061    13.5253
  512.0000    92.1795    13.5601    13.6272
  512.5000    92.2122    13.5667    13.6347
  513.0000    91.9341    13.5745    13.6421
  513.5000    91.6723    13.4868    13.6490
  514.0000    90.7973    13.4932    13.6570
  514.5000    89.9222    13.3130    13.4754
  515.0000    89.0469    13.1352    13.2962
  515.5000    88.7773    13.0487    13.2093
  516.0000    90.3966    12.7866    12.8457
  516.5000    93.3893    12.5281    12.5102
  517.0000    97.6580    12.3203    12.2582
  517.5000    99.8086    12.1959    12.1780
  518.0000    98.0259    12.2019    12.1863
  518.5000    95.6379    12.2943    12.2782
  519.0000    95.3599    12.6475    12.3708
  519.5000    95.4007    13.1017    12.6390
  520.0000    95.4333    13.7626    13.0942
  520.5000    94.5583    14.8650    13.7561
  521.0000    93.0781    15.9443    14.8599
  521.5000    90.0850    17.4629    16.5341
  522.0000    84.8767    19.1262    18.6688
  522.5000    78.2449    21.0943    21.0897
  523.0000    73.8523    22.7840    23.5895
  523.5000    72.9690    24.6345    26.3856
  524.0000    75.1279    26.0898    29.5132
  524.5000    76.0682    27.5382    32.1042
  525.0000    75.4958    28.3293    34.4394
  525.5000    74.0156    28.9410    36.1804
  526.0000    72.2328    28.9548    37.2231
  526.5000    71.6521    28.5681    37.5038
  527.0000    72.6007    28.1865    37.0018
  527.5000    73.5410    27.4255    35.7085
  528.0000    74.4814    26.3161    33.3740
  528.5000    72.6878    25.0764    31.3627
  529.0000    71.4876    23.8864    29.6787
  529.5000    70.3515    22.7517    28.0851
  530.0000    71.2919    22.1573    26.5771
  530.5000    74.0477    21.8613    25.6812
  531.0000    74.9881    21.7174    24.8155
  531.5000    74.7100    21.5770    24.1467
  532.0000    76.2637    21.4401    23.8252
  532.5000    77.8092    21.4504    23.3455
  533.0000    78.4470    21.2755    23.0350
  533.5000    78.7822    21.1735    23.0480
  534.0000    78.2098    21.0371    23.0633
  534.5000    78.5450    20.9011    23.3997
  535.0000    78.8805    20.9112    23.5761
  535.5000    78.9470    20.9214    23.9200
  536.0000    79.5588    20.7883    23.9330
  536.5000    80.1966    20.7982    23.9461
  537.0000    82.3473    20.8081    23.6276
  537.5000    83.8928    20.6724    23.3129
  538.0000    84.2280    20.5376    22.8436
  538.5000    84.5633    20.5490    22.5389
  539.0000    84.5959    20.4146    22.0857
  539.5000    84.3260    20.1443    21.9443
  540.0000    81.6355    20.0139    21.8038
  540.5000    79.8527    19.8847    21.6643
  541.0000    79.8854    19.8945    21.5256
  541.5000    80.5415    19.7656    21.4995
  542.0000    83.0095    19.5039    21.3995
  542.5000    83.9168    19.3779    21.1178
  543.0000    81.2345    19.1168    20.9798
  543.5000    80.0568    18.8614    20.5598
  544.0000    80.0895    18.3544    20.2864
  544.5000    80.1222    17.9836    19.8714
  545.0000    80.4574    17.4981    19.3243
  545.5000    81.0952    16.7902    18.6925
  546.0000    82.6407    16.1110    17.8124
  546.5000    85.0939    15.8894    16.9738
  547.0000    87.2446    15.6679    16.4017
  547.5000    88.7901    15.4759    16.0712
  548.0000    90.0495    15.4833    15.8575
  548.5000    91.2769    15.4907    15.7538
  549.0000    90.0454    15.6063    15.7646
  549.5000    87.1380    15.6138    15.7732
  550.0000    80.7921    15.7304    15.8369
  550.5000    79.3038    15.8478    15.9106
  551.0000    81.4626    15.8554    16.0211
  551.5000    86.6390    15.9738    16.2566
  552.0000    91.2102    15.9814    16.2654
  552.5000    90.6377    16.0226    16.2743
  553.0000    87.6447    16.1547    16.2832
  553.5000    82.5564    16.2213    16.2666
  554.0000    81.0789    16.2293    16.2735
  554.5000    81.1144    16.1216    16.1646
  555.0000    82.6626    16.0162    16.1715
  555.5000    83.9395    15.9116    16.1769
  556.0000    85.1629    15.8076    15.9585
  556.5000    84.8958    15.5967    15.8534
  557.0000    82.2080    15.4950    15.6403
  557.5000    80.4280    15.3850    15.5356
  558.0000    81.6737    15.1874    15.3271
  558.5000    84.7349    14.9832    15.2259
  559.0000    86.2832    14.6809    15.1251
  559.5000    85.7134    14.6869    14.9210
  560.0000    81.8213    14.5909    14.8224
  560.5000    80.6376    14.3557    14.7245
  561.0000    83.4050    14.2016    14.6084
  561.5000    84.9533    14.0596    14.4309
  562.0000    84.3836    13.9195    14.4358
  562.5000    82.3010    13.8286    14.3714
  563.0000    81.1262    13.7212    14.3451
  563.5000    82.3925    13.5551    14.2505
  564.0000    83.6188    13.4665    14.2554
  564.5000    83.3593    13.4716    14.1611
  565.0000    81.8819    13.3840    14.0675
  565.5000    80.4044    13.3893    14.0735
  566.0000    81.3475    13.3949    13.9805
  566.5000    83.5010    13.4005    13.9852
  567.0000    86.2595    13.4061    13.8928
  567.5000    88.7155    13.4125    13.8975
  568.0000    92.6844    13.4173    13.9023
  568.5000    94.5457    13.3289    13.9072
  569.0000    95.1770    13.3357    13.8162
  569.5000    93.7072    13.2484    13.8209
  570.0000    91.0195    13.2539    13.7284
  570.5000    87.4241    13.3521    13.7342
  571.0000    86.8455    13.3587    13.6433
  571.5000    86.5784    13.3642    13.5533
  572.0000    89.3458    13.2768    13.4637
  572.5000    90.8941    13.2822    13.4687
  573.0000    90.0218    13.1954    13.3797
  573.5000    88.8469    13.2008    13.3850
  574.0000    88.5798    13.1144    13.4831
  574.5000    89.8343    13.0288    13.4876
  575.0000    91.5629    12.9437    13.4922
  575.5000    93.8639    12.8591    13.5911
