~VERSION INFORMATION
 VERS.                2.0:   CWLS LOG ASCII STANDARD - VERSION 2.0
 WRAP.                 NO:   ONE LINE PER DEPTH STEP
~WELL INFORMATION
#MNEM.UNIT      DATA TYPE    INFORMATION
#----------   ------------   ------------------------------
 STRT.F           36.0000:   START DEPTH
 STOP.F          564.0000:   STOP DEPTH
 STEP.F            0.5000:   STEP LENGTH
 NULL.          -999.2500:   NO VALUE
 COMP.    FENIX & SCISSON:   COMPANY
 WELL.        NPR #73-S-3:   WELL
 FLD .             TEAPOT:   FIELD
 LOC .       S3 T38N R78W:   LOCATION
 CNTY.            NATRONA:   COUNTY
 STAT.            WYOMING:   STATE
 CTRY. UNITED STATES OF AMERICA:   COUNTRY
 SRVC.       Schlumberger:   SERVICE COMPANY
 DATE.        19-FEB-1977:   LOGDATE
 API .       490251027900:   API NUMBER
~CURVE INFORMATION
#MNEM.UNIT       API CODE    CURVE DESCRIPTION
#----------   ------------   ------------------------------
 DEPT.F                  :   
 SPR .MV     07 010 01 00:   SPONTANEOUS POTENTIAL
 ILD .OHMM   07 120 46 00:   INDUCTION LOG DEEP
 ILM .OHMM   07 120 44 00:   INDUCTION LOG MEDIUM
 LL8 .OHMM   07 220 08 00:   LATEROLOG-8 RES.
 CALD.IN     45 280 60 00:   CALIPER FROM DENSITY LOG
 CORR.G/C3   45 356 01 00:   DENSITY CORRECTION
 RHOB.G/C3   45 350 01 00:   BULK DENSITY
 DPHI.DEC    45 890 12 00:   DENSITY POROSITY SANDSTONE
 GRD .GAPI   45 310 01 00:   GAMMA RAY FROM DENSITY LOG
~PARAMETER INFORMATION
#MNEM.UNIT          VALUE    DESCRIPTION
#----------   ------------   ------------------------------
 PD  .                 GL:   PERMANENT DATUM
 EPD .F              5128:   ELEVATION PERMANENT DATUM
 LMF .                 GL:   LOG MEASURED FROM
 DAPD.F                 5:   FEET ABOVE PERMANENT DATUM
 DMF .                 KB:   DRILLING MEASURED FROM
 EKB .F              5133:   KELLING BUSHING
 EGL .F              5128:   GROUND LEVEL
 DATE.        19-FEB-1977:   RUN DATE
 RUN .                  1:   RUN NUMBER
 DD  .F               570:   DEPTH DRILLER
 DL  .F               565:   DEPTH LOGGER
 BLI .F               564:   BOTTOM LOG INTERVAL
 TLI .F                36:   TOP LOG INTERVAL
 CS  .IN            8.625:   CASING SIZE
 CBD .F                40:   CASING BOTTOM DRILLER
 CBL .F                41:   CASING BOTTOM LOGGER
 BS  .IN            7.875:   BIT SIZE
 BSD .F               570:   BIT SIZE AT DEPTH
 DFT .                FGM:   DRILLING FLUID TYPE
 DFD .                8.9:   DRILLING FLUID DENSITY
 DFV .                 31:   DRILLING FLUID VISCOSITY
 DFPH.                8.2:   DRILLING FLUID PH
 DFL .                9.2:   DRILLING FLUID LOSS
 MSS .            MUD PIT:   MUD SAMPLE SOURCE
 RMS .OHMM           .244:   RESISTIVITY MUD SAMPLE
 MST .F                78:   MUD SAMPLE TEMPERATURE
 RMF .OHMM           .233:   RESISTIVITY MUD FILTRATE SAMPLE
 MFST.F                68:   MUD FILTRATE SAMPLE TEMPERATURE
 RMC .OHMM            .36:   RESISTIVITY MUD CAKE
 MCST.F                78:   MUD CAKE SAMPLE TEMPERATURE
 MFSS.               MEAS:   MUD FILTRATE SAMPLE SOURCE
 MCSS.               CALC:   MUD CAKE SAMPLE SOURCE
 RMB .OHMM            .35:   RESISTIVITY MUD AT BHT
 BHT .F                55:   BOTTOM HOLE TEMPERATURE
 TCS .HRS               2:   TIME CURCULATED STOPPED
 MRT .F                55:   MAXIMUM RECORDED TEMPERATURE
 LUN .               7711:   LOGGING UNIT NUMBER
 LUL .               CSPR:   LOGGING UNIT LOCATION
 ENGI.                FIX:   RECORDING ENGINEER
 WITN.           VOORHEES:   WITNESSED BY
 CLNT.            A2DTECH:   CLIENT CODE
 ORIG.           5" PRINT:   ORIGIN OF DATA
 UWI .       490251027900:   UNIQUE WELL ID
 DICO. A2D Technologies, Inc.:   DIGITIZING COMPANY
~OTHER INFORMATION
~A   DEPT      SPR        ILD        ILM        LL8       CALD       CORR       RHOB       DPHI        GRD   
# ...
  510.5000   -49.7279    12.9530    12.8758    11.6580     8.1978     0.0151     2.4728     0.1084   103.4244
  511.0000   -49.4134    13.1407    13.0604    12.0714     8.2138     0.0113     2.4681     0.1114   103.2832
  511.5000   -49.2478    13.2397    13.2477    12.3289     8.2299     0.0151     2.4771     0.1068   103.7433
  512.0000   -48.9333    13.2479    13.3456    12.4199     8.2311     0.0182     2.4820     0.1005   104.3498
  512.5000   -48.6187    13.3477    13.4442    12.2562     8.2323     0.0220     2.4803     0.1065   104.5067
  513.0000   -48.3041    13.3560    13.4507    12.0947     8.2335     0.0205     2.4676     0.1128   102.7313
  513.5000   -47.9896    13.4566    13.4572    11.9339     8.2346     0.0160     2.4601     0.1133    98.8669
  514.0000   -47.8240    13.5579    13.4637    12.1064     8.2507     0.0266     2.4624     0.1109    98.1321
  514.5000   -47.8075    13.5664    13.2861    12.4499     8.2668     0.0281     2.4723     0.1100    97.9909
  515.0000   -47.9442    13.5748    12.7551    12.7154     8.2680     0.0222     2.4611     0.1091    98.0039
  515.5000   -48.0767    13.0316    12.9380    12.7215     8.2692     0.0214     2.4672     0.1108    98.3124
  516.0000   -48.3795    13.3138    13.3053    12.4679     8.2703     0.0192     2.4580     0.1147    98.6209
  516.5000   -48.6573    13.5068    13.4036    12.2193     8.2715     0.0178     2.4544     0.1192    99.6745
  517.0000   -49.2470    13.5152    13.0461    11.9743     8.2727     0.0178     2.4516     0.1195   102.2184
  517.5000   -49.9577    13.3366    12.8725    11.6566     8.2739     0.0178     2.4562     0.1165   106.4017
  518.0000   -50.5277    13.1624    12.7028    11.5016     8.2751     0.0164     2.4622     0.1158   108.4986
  518.5000   -50.8112    13.0802    12.6218    11.5085     8.2763     0.0104     2.4556     0.1188   107.6148
  519.0000   -51.2399    12.9985    12.4553    11.8350     8.2775     0.0089     2.4579     0.1140   104.3465
  519.5000   -51.2234    13.0086    12.2926    12.2547     8.2787     0.0135     2.4670     0.1155   102.8666
  520.0000   -51.2069    12.8367    12.2142    12.3452     8.2647     0.0105     2.4618     0.1145   102.5763
  520.5000   -51.3398    12.7566    12.2201    12.0991     8.2661     0.0181     2.4799     0.1100   101.8442
  521.0000   -51.6215    12.7665    12.2260    11.8565     8.2522     0.0256     2.4890     0.0970   100.6623
  521.5000   -51.7541    12.6868    11.9820    11.8636     8.2536     0.0219     2.4860     0.0988   101.1198
  522.0000   -51.7370    12.6947    11.5031    11.9498     8.2548     0.0302     2.4823     0.1003   105.4521
  522.5000   -51.8703    12.5269    11.1963    11.1627     8.2560     0.0445     2.5087     0.0882   106.0587
  523.0000   -51.7040    12.3652    11.0487    11.1681     8.2721     0.0543     2.5133     0.0816   106.6652
  523.5000   -51.5384    12.2018    10.9782    11.1735     8.2733     0.0588     2.5193     0.0745   107.7188
  524.0000   -51.3729    12.0425    10.7592    10.5808     8.2745     0.0544     2.5231     0.0737   108.3254
  524.5000   -51.2074    11.8036    10.5445    10.2976     8.2608     0.0461     2.5067     0.0831   106.6964
  525.0000   -50.8928    11.5714    10.3342    10.3748     8.2620     0.0289     2.4827     0.0949   106.2593
  525.5000   -50.4292    11.3419    10.3391    10.3798     8.2780     0.0312     2.4805     0.1019   107.7605
  526.0000   -50.2637    11.1920    10.3441    10.3849     8.2792     0.0297     2.4814     0.1016   109.7083
  526.5000   -49.9491    11.0458    10.2769    10.3899     8.2804     0.0320     2.4867     0.0962   111.5071
  527.0000   -49.9326    10.8285    10.2114    10.3224     8.2965     0.0336     2.4981     0.0892   112.2626
  527.5000   -49.7671    10.4686    10.0077    10.2567     8.2977     0.0313     2.4965     0.0946   111.5279
  528.0000   -49.7506    10.1906     9.8092    10.2629     8.2839     0.0517     2.5117     0.0831   109.7499
  528.5000   -49.7341     9.9885     9.6123    10.0570     8.2851     0.0562     2.5050     0.0861   109.3130
  529.0000   -49.7176     9.8565     9.4217     9.7902     8.2714     0.0675     2.4908     0.0951   109.7707
  529.5000   -49.7011     9.8642     9.2974     9.6600     8.2726     0.0983     2.5322     0.0810   111.4205
  530.0000   -49.6846     9.8703     9.1748     9.7325     8.3036     0.1074     2.5089     0.0924   113.5173
  530.5000   -49.6681     9.8764     9.1792     9.7372     8.3197     0.0232     2.4566     0.1173   114.8690
  531.0000   -49.8047     9.8826     9.0582     9.8091     8.2762     0.0128     2.4542     0.1194   115.4755
  531.5000   -49.9331     9.8887     8.9993     9.8815     8.2476     0.0212     2.4737     0.1065   115.3368
  532.0000   -50.0698     9.9632     8.9419     9.9545     8.2488     0.0228     2.4807     0.1022   115.1982
  532.5000   -50.3513    10.0382     8.9473    10.0280     8.2500     0.0257     2.4792     0.1040   116.2519
  533.0000   -50.9268    10.0445     8.9516    10.0328     8.2512     0.0218     2.4763     0.1013   118.0507
  533.5000   -51.3574    10.0507     8.9560     9.9677     8.2375     0.0158     2.4704     0.1079   118.6572
  534.0000   -51.6431     9.9864     8.8379     9.9042     8.2387     0.0131     2.4659     0.1102   117.3126
  534.5000   -51.7756     9.7899     8.7213     9.7749     8.2399     0.0139     2.4630     0.1123   115.3993
  535.0000   -51.7586     9.6620     8.4887     9.6461     8.2411     0.0200     2.4713     0.1096   114.7939
  535.5000   -51.7422     9.4704     8.4336     9.4538     8.2423     0.0207     2.4759     0.1054   112.4267
  536.0000   -51.5768     9.2826     8.4386     9.1388     8.2583     0.0327     2.4947     0.0981   111.8460
  536.5000   -51.4113     9.1599     8.3264     9.0173     8.2595     0.0403     2.4978     0.0912   111.7152
  537.0000   -51.2459     9.0403     8.0497     9.0227     8.2458     0.0351     2.4971     0.0933   114.6121
  537.5000   -51.0805     8.9236     7.8882     8.9652     8.2470     0.0298     2.4859     0.0968   116.5052
  538.0000   -50.7659     8.9291     7.8929     8.7865     8.2482     0.0269     2.4822     0.1010   115.9056
  538.5000   -50.6004     8.9347     7.9512     8.6103     8.2494     0.0262     2.4815     0.1013   114.7069
  539.0000   -50.2858     8.8775     7.9005     8.4979     8.2506     0.0232     2.4794     0.1040   113.0751
  539.5000   -50.2693     8.8221     7.6371     8.4427     8.2369     0.0165     2.4734     0.1088   112.5228
  540.0000   -50.2528     8.6485     7.1821     8.4478     8.2381     0.0128     2.4765     0.1054   113.3184
  540.5000   -50.0873     8.4188     7.0388     8.5102     8.2393     0.0181     2.4811     0.1009   115.2906
  541.0000   -50.0708     8.0832     6.9460     8.5730     8.2255     0.0196     2.4796     0.1030   116.7502
  541.5000   -50.2033     7.7610     6.9009     8.5771     8.2268     0.0181     2.4707     0.1069   117.0601
  542.0000   -50.3399     7.5031     6.9050     8.0113     8.2280     0.0152     2.4632     0.1126   117.3443
  542.5000   -50.9154     7.3531     6.9560     6.7962     8.2292     0.0197     2.4610     0.1092   117.5540
  543.0000   -51.2011     7.3588     7.1045     5.8453     8.2304     0.0258     2.4724     0.1068   122.4334
  543.5000   -51.4827     7.3634     7.7195     7.0892     8.2318     0.0310     2.4627     0.1152   131.8771
  544.0000   -51.3130     7.4701     8.6218     9.0839     8.2330     0.0348     2.4477     0.1233   146.7986
  544.5000   -51.2965     7.6834     9.1768     9.4709     8.2342     0.0259     2.4425     0.1212   148.7544
  545.0000   -51.1310     8.0677     9.5025     9.6729     8.2353     0.0169     2.4617     0.1166   149.5179
  545.5000   -50.9655     8.8894     9.7723     9.8791     8.2365     0.0117     2.4713     0.1117   149.8344
  546.0000   -50.7999     9.5288     9.9124    10.1594     8.2377     0.0125     2.4690     0.1063   150.1509
  546.5000   -50.6364    10.0054    10.1938    10.3050     8.2237     0.0110     2.4759     0.1070   150.0156
