~VERSION INFORMATION
 VERS.                2.0:   CWLS LOG ASCII STANDARD - VERSION 2.0
 WRAP.                 NO:   ONE LINE PER DEPTH STEP
~WELL INFORMATION
#MNEM.UNIT      DATA TYPE    INFORMATION
#----------   ------------   ------------------------------
 STRT.F            0.0000:   START DEPTH
 STOP.F          484.0000:   STOP DEPTH
 STEP.F            0.5000:   STEP LENGTH
 NULL.          -999.2500:   NO VALUE
 COMP. LAWRENCE/ALLISON INC:   COMPANY
 WELL.  NPR 3 #68-63-SX-3:   WELL
 FLD .             TEAPOT:   FIELD
 LOC .       S3 T38N R78W:   LOCATION
 CNTY.            NATRONA:   COUNTY
 STAT.            WYOMING:   STATE
 CTRY. UNITED STATES OF AMERICA:   COUNTRY
 SRVC.           Gearhart:   SERVICE COMPANY
 DATE.        29-JUN-1988:   LOGDATE
 API .       490251122900:   API NUMBER
~CURVE INFORMATION
#MNEM.UNIT       API CODE    CURVE DESCRIPTION
#----------   ------------   ------------------------------
 DEPT.F                  :   
 GRR .GAPI   07 310 01 00:   GAMMA RAY FROM RES. LOG.
 ILD .OHMM   07 120 46 00:   INDUCTION LOG DEEP
 ILM .OHMM   07 120 44 00:   INDUCTION LOG MEDIUM
 CALI.IN     70 280 01 00:   CALIPER
~PARAMETER INFORMATION
#MNEM.UNIT          VALUE    DESCRIPTION
#----------   ------------   ------------------------------
 PD  .                 GL:   PERMANENT DATUM
 EPD .F              5158:   ELEVATION PERMANENT DATUM
 LMF .                 KB:   LOG MEASURED FROM
 DAPD.F                10:   FEET ABOVE PERMANENT DATUM
 DMF .                 KB:   DRILLING MEASURED FROM
 EKB .F              5168:   KELLING BUSHING
 EGL .F              5158:   GROUND LEVEL
 DATE.            6-29-88:   RUN DATE
 RUN .                  1:   RUN NUMBER
 DD  .F               490:   DEPTH DRILLER
 DL  .F             492.5:   DEPTH LOGGER
 BLI .F               484:   BOTTOM LOG INTERVAL
 TLI .F                49:   TOP LOG INTERVAL
 CS  .IN            9.625:   CASING SIZE
 CBD .F                49:   CASING BOTTOM DRILLER
 CBL .F                49:   CASING BOTTOM LOGGER
 BS  .IN             8.75:   BIT SIZE
 BSD .F               490:   BIT SIZE AT DEPTH
 DFT .                AIR:   DRILLING FLUID TYPE
 TLAB.HRS            1000:   TIME LOGGER AT BOTTOM
 MRT .F                70:   MAXIMUM RECORDED TEMPERATURE
 LUN .               7597:   LOGGING UNIT NUMBER
 LUL .           GILLETTE:   LOGGING UNIT LOCATION
 ENGI.          HUCKFELDT:   RECORDING ENGINEER
 WITN.              FIVAS:   WITNESSED BY
 CLNT.            A2DTECH:   CLIENT CODE
 ORIG.  2", 5", 10" PRINT:   ORIGIN OF DATA
 UWI .       490251122900:   UNIQUE WELL ID
 DICO. A2D Technologies, Inc.:   DIGITIZING COMPANY
~OTHER INFORMATION
~A    DEPT      GRR       ILD        ILM       CALI   
# ...
  438.0000   101.5994    13.7054    13.3185  -999.2500
  438.5000   101.1161    13.6606    13.3436  -999.2500
  439.0000   100.8259    13.6159    13.1198  -999.2500
  439.5000   101.3212    13.5713    12.9763  -999.2500
  440.0000   101.6247    13.5269    12.9763  -999.2500
  440.5000   101.6227    13.4826    12.9763  -999.2500
  441.0000   101.6204    13.4385    12.9763  -999.2500
  441.5000   101.8082    13.3945    12.9766  -999.2500
  442.0000   102.0962    13.3513    12.9534  -999.2500
  442.5000   102.3874    13.2727    12.9182  -999.2500
  443.0000   102.6822    13.1884    12.8828  -999.2500
  443.5000   103.0876    13.1047    12.8561  -999.2500
  444.0000   103.6416    13.0215    12.6107  -999.2500
  444.5000   104.0581    12.9121    12.3808  -999.2500
  445.0000   104.1039    12.6632    12.1551  -999.2500
  445.5000   104.9436    12.4192    11.9335  -999.2500
  446.0000   108.2092    12.1799    11.7158  -999.2500
  446.5000   112.1318    11.9451    11.5033  -999.2500
  447.0000   111.2600    11.7149    11.3067  -999.2500
  447.5000   109.8922    11.4898    11.1332  -999.2500
  448.0000   108.5795    11.2847    10.9612  -999.2500
  448.5000   109.2841    11.1106    10.7919  -999.2500
  449.0000   109.7023    10.9500    10.6251  -999.2500
  449.5000   109.1289    10.7923    10.4610  -999.2500
  450.0000   108.5391    10.6369    10.2835  -999.2500
  450.5000   108.9969    10.4837    10.1708  -999.2500
  451.0000   109.6239    10.3796    10.1138  -999.2500
  451.5000   110.2629    10.3796    10.0570  -999.2500
  452.0000   111.0693    10.3796    10.0006  -999.2500
  452.5000   111.7758    10.3796     9.9446  -999.2500
  453.0000   111.2691    10.3796     9.9079  -999.2500
  453.5000   109.8314    10.3797    10.0147  -999.2500
  454.0000   108.9969    10.3799    10.0939  -999.2500
  454.5000   109.2393    10.3797    10.0939  -999.2500
  455.0000   109.4679    10.3818    10.0943  -999.2500
  455.5000   109.6833    10.2446    10.0953  -999.2500
  456.0000   110.9074    10.1309    10.0956  -999.2500
  456.5000   112.7646    10.0185     9.8167  -999.2500
  457.0000   114.2187     9.9079     9.5444  -999.2500
  457.5000   113.5688     9.7224     9.2508  -999.2500
  458.0000   112.1298     9.4972     9.0256  -999.2500
  458.5000   111.7433     9.2772     8.9498  -999.2500
  459.0000   112.7194     9.1412     8.8740  -999.2500
  459.5000   115.7382     9.0530     8.7815  -999.2500
  460.0000   117.4311     8.9656     8.6870  -999.2500
  460.5000   118.0927     8.8792     8.5681  -999.2500
  461.0000   117.4526     8.7930     8.3779  -999.2500
  461.5000   116.9228     8.7112     8.1925  -999.2500
  462.0000   116.8222     8.4626     8.0108  -999.2500
  462.5000   118.1846     8.2037     7.8354  -999.2500
  463.0000   117.7761     7.9510     7.6679  -999.2500
  463.5000   116.7954     7.7065     7.4255  -999.2500
  464.0000   114.9369     7.4949     7.0057  -999.2500
  464.5000   114.1792     7.5408     6.7032  -999.2500
  465.0000   113.6243     7.5650     6.7600  -999.2500
  465.5000   112.7074     7.7137     6.8396  -999.2500
  466.0000   111.7248     7.9612     7.1116  -999.2500
  466.5000   112.0519     8.2945     7.8022  -999.2500
  467.0000   113.5359     8.6417     8.4529  -999.2500
  467.5000   115.1711     8.9779     8.5736  -999.2500
  468.0000   115.8071     9.3022     8.8489  -999.2500
  468.5000   116.2238     9.8403     9.2735  -999.2500
  469.0000  -999.2500    10.2175     9.6521  -999.2500
  469.5000  -999.2500    10.3784     9.9432  -999.2500
  470.0000  -999.2500    10.5418    10.0309  -999.2500
  470.5000  -999.2500    10.5746    10.0839  -999.2500
  471.0000  -999.2500    10.5746    10.0995  -999.2500
  471.5000  -999.2500    10.5746    10.1130  -999.2500
  472.0000  -999.2500    10.5747    10.1266  -999.2500
  472.5000  -999.2500    10.5751    10.1402  -999.2500
  473.0000  -999.2500    10.5764    10.1537  -999.2500
  473.5000  -999.2500    10.4931    10.1672  -999.2500
  474.0000  -999.2500    10.4158    10.1809  -999.2500
  474.5000  -999.2500    10.3390    10.1873  -999.2500
  475.0000  -999.2500    10.2835    10.1421  -999.2500
  475.5000  -999.2500    10.2835    10.1095  -999.2500
  476.0000  -999.2500    10.2835    10.0443  -999.2500
  476.5000  -999.2500     9.9079     9.8680  -999.2500
  477.0000  -999.2500     9.9916     9.4994  -999.2500
  477.5000  -999.2500    10.0857     9.1972  -999.2500
  478.0000  -999.2500    10.1883     9.1972  -999.2500
  478.5000  -999.2500    10.1885     8.9456  -999.2500
  479.0000  -999.2500    10.1933     8.6801  -999.2500
  479.5000  -999.2500    10.0629     8.4550  -999.2500
  480.0000  -999.2500  -999.2500     8.4303  -999.2500
  480.5000  -999.2500  -999.2500     8.4056  -999.2500
  481.0000  -999.2500  -999.2500     8.3802  -999.2500
  481.5000  -999.2500  -999.2500     8.1137  -999.2500
  482.0000  -999.2500  -999.2500     7.6423  -999.2500
  482.5000  -999.2500  -999.2500     7.0595  -999.2500
  483.0000  -999.2500  -999.2500     6.5187  -999.2500
  483.5000  -999.2500  -999.2500     5.9787  -999.2500
  484.0000  -999.2500  -999.2500     5.4903  -999.2500
