~VERSION INFORMATION
 VERS.                2.0:   CWLS LOG ASCII STANDARD - VERSION 2.0
 WRAP.                 NO:   ONE LINE PER DEPTH STEP
~WELL INFORMATION
#MNEM.UNIT      DATA TYPE    INFORMATION
#----------   ------------   ------------------------------
 STRT.F           26.0000:   START DEPTH
 STOP.F          655.0000:   STOP DEPTH
 STEP.F            0.5000:   STEP LENGTH
 NULL.          -999.2500:   NO VALUE
 COMP. FENIX & SCISSON, INCORPORATED:   COMPANY
 WELL. RES 3 TEAPOT DOM #22S-11:   WELL
 FLD .             TEAPOT:   FIELD
 LOC .      S11 T38N R78W:   LOCATION
 CNTY.            NATRONA:   COUNTY
 STAT.            WYOMING:   STATE
 CTRY. UNITED STATES OF AMERICA:   COUNTRY
 SRVC.            Unknown:   SERVICE COMPANY
 DATE.        03-FEB-1978:   LOGDATE
 API .       490251057200:   API NUMBER
~CURVE INFORMATION
#MNEM.UNIT       API CODE    CURVE DESCRIPTION
#----------   ------------   ------------------------------
 DEPT.F                  :   
 ILD .OHMM   05 120 46 00:   INDUCTION LOG DEEP
 SN  .OHMM   05 040 16 00:   SHORT NORMAL 16"
 SPR .MV     05 010 01 00:   SPONTANEOUS POTENTIAL.
 CALD.IN     45 280 60 00:   CALIPER FROM DENSITY LOG
 CORR.G/C3   45 356 01 00:   DENSITY CORRECTION
 DPHI.DEC    45 890 12 00:   DENSITY POROSITY SANDSTONE
 GRD .GAPI   45 310 01 00:   GAMMA RAY FROM DENSITY LOG
 RHOB.G/C3   45 350 01 00:   BULK DENSITY
~PARAMETER INFORMATION
#MNEM.UNIT          VALUE    DESCRIPTION
#----------   ------------   ------------------------------
 PD  .                 GL:   PERMANENT DATUM
 EPD .F              5168:   ELEVATION PERMANENT DATUM
 LMF .                 KB:   LOG MEASURED FROM
 DMF .                 KB:   DRILLING MEASURED FROM
 EKB .F              5171:   KELLING BUSHING
 EGL .F              5168:   GROUND LEVEL
 DATE.        03-FEB-1978:   RUN DATE
 RUN .                  1:   RUN NUMBER
 DD  .F               650:   DEPTH DRILLER
 DL  .F               655:   DEPTH LOGGER
 BLI .F               655:   BOTTOM LOG INTERVAL
 TLI .F                40:   TOP LOG INTERVAL
 CS  .IN            8.625:   CASING SIZE
 CBD .F                39:   CASING BOTTOM DRILLER
 CBL .F                40:   CASING BOTTOM LOGGER
 BS  .IN            7.875:   BIT SIZE
 BSD .F               650:   BIT SIZE AT DEPTH
 DFT .                KCL:   DRILLING FLUID TYPE
 DFD .                8.6:   DRILLING FLUID DENSITY
 DFV .                 31:   DRILLING FLUID VISCOSITY
 DFPH.                9.5:   DRILLING FLUID PH
 DFL .               12.8:   DRILLING FLUID LOSS
 MSS .           FLOWLINE:   MUD SAMPLE SOURCE
 RMS .OHMM           0.38:   RESISTIVITY MUD SAMPLE
 MST .F                62:   MUD SAMPLE TEMPERATURE
 RMF .OHMM            4.4:   RESISTIVITY MUD FILTRATE SAMPLE
 MFST.F                62:   MUD FILTRATE SAMPLE TEMPERATURE
 RMC .OHMM            0.8:   RESISTIVITY MUD CAKE
 MCST.F                62:   MUD CAKE SAMPLE TEMPERATURE
 MFSS.               MEAS:   MUD FILTRATE SAMPLE SOURCE
 RMB .OHMM           0.35:   RESISTIVITY MUD AT BHT
 BHT .F                68:   BOTTOM HOLE TEMPERATURE
 TCS .HRS               1:   TIME CURCULATED STOPPED
 MRT .F                68:   MAXIMUM RECORDED TEMPERATURE
 LUN .               2958:   LOGGING UNIT NUMBER
 LUL .             CASPER:   LOGGING UNIT LOCATION
 ENGI.           REYNOLDS:   RECORDING ENGINEER
 WITN.         HARRINGTON:   WITNESSED BY
 CLNT.            A2DTECH:   CLIENT CODE
 ORIG.           5" PRINT:   ORIGIN OF DATA
 UWI .       490251057200:   UNIQUE WELL ID
 DICO. A2D Technologies, Inc.:   DIGITIZING COMPANY
~OTHER INFORMATION
~A   DEPT      ILD         SN        SPR       CALD       CORR       DPHI         GRD      RHOB   
   26.0000  -999.2500  -999.2500  -999.2500  -999.2500  -999.2500  -999.2500    76.9341  -999.2500
   26.5000  -999.2500  -999.2500  -999.2500  -999.2500  -999.2500  -999.2500    76.6189  -999.2500
   27.0000  -999.2500  -999.2500  -999.2500  -999.2500  -999.2500  -999.2500    77.5121  -999.2500
   27.5000  -999.2500  -999.2500  -999.2500  -999.2500  -999.2500  -999.2500    83.6923  -999.2500
   28.0000  -999.2500  -999.2500  -999.2500  -999.2500  -999.2500  -999.2500    84.1356  -999.2500
   28.5000  -999.2500  -999.2500  -999.2500  -999.2500  -999.2500  -999.2500    82.0043  -999.2500
   29.0000  -999.2500  -999.2500  -999.2500  -999.2500  -999.2500  -999.2500    81.5380  -999.2500
   29.5000  -999.2500  -999.2500  -999.2500  -999.2500  -999.2500  -999.2500    82.8811  -999.2500
   30.0000  -999.2500  -999.2500  -999.2500  -999.2500  -999.2500  -999.2500    84.5328  -999.2500
   30.5000  -999.2500  -999.2500  -999.2500  -999.2500  -999.2500  -999.2500    80.4378  -999.2500
   31.0000  -999.2500  -999.2500  -999.2500  -999.2500  -999.2500  -999.2500    76.4972  -999.2500
   31.5000  -999.2500  -999.2500  -999.2500  -999.2500  -999.2500  -999.2500    73.7650  -999.2500
   32.0000  -999.2500  -999.2500  -999.2500  -999.2500  -999.2500  -999.2500    71.6370  -999.2500
   32.5000  -999.2500  -999.2500  -999.2500  -999.2500  -999.2500  -999.2500    77.3629  -999.2500
   33.0000  -999.2500  -999.2500  -999.2500  -999.2500  -999.2500  -999.2500    82.0326  -999.2500
   33.5000  -999.2500  -999.2500  -999.2500  -999.2500  -999.2500  -999.2500    79.3004  -999.2500
   34.0000  -999.2500  -999.2500  -999.2500  -999.2500  -999.2500  -999.2500    77.9277  -999.2500
   34.5000  -999.2500  -999.2500  -999.2500  -999.2500  -999.2500  -999.2500    79.4218  -999.2500
   35.0000  -999.2500  -999.2500  -999.2500  -999.2500  -999.2500  -999.2500    80.9193  -999.2500
   35.5000  -999.2500  -999.2500  -999.2500  -999.2500  -999.2500  -999.2500    83.0209  -999.2500
   36.0000  -999.2500  -999.2500  -999.2500  -999.2500  -999.2500  -999.2500    85.2736  -999.2500
   36.5000  -999.2500  -999.2500  -999.2500  -999.2500  -999.2500  -999.2500    87.2242  -999.2500
   37.0000  -999.2500  -999.2500  -999.2500  -999.2500  -999.2500  -999.2500    86.1536  -999.2500
   37.5000  -999.2500  -999.2500  -999.2500  -999.2500  -999.2500  -999.2500    81.9109  -999.2500
   38.0000  -999.2500  -999.2500  -999.2500  -999.2500  -999.2500  -999.2500    78.0000  -999.2500
   38.5000  -999.2500  -999.2500  -999.2500  -999.2500  -999.2500  -999.2500    73.4221  -999.2500
   39.0000  -999.2500  -999.2500  -999.2500  -999.2500  -999.2500  -999.2500    72.8047  -999.2500
   39.5000  -999.2500  -999.2500  -999.2500  -999.2500  -999.2500  -999.2500    72.9426  -999.2500
   40.0000   268.7194     1.1293   -54.2553     8.2980     0.1460     0.2994    79.4249  -999.2500
   40.5000   187.3324     2.9814   -55.1672     8.2664     0.1766     0.2566    92.1006     2.1162
   41.0000   105.9455     3.6959   -55.4711     8.2199     0.1934     0.2201    95.8638     2.1431
   41.5000    24.5586     3.6695   -55.6231     8.1735     0.2008     0.1825    98.3077     2.2376
   42.0000     1.9107     5.4476   -55.7751     8.0967     0.2081     0.1846   101.5744     2.3373
   42.5000    17.4101     6.2136   -55.7751     7.9897     0.2005     0.1795    97.6338     2.3439
   43.0000    16.9861     6.5214   -55.7751     7.8979     0.1750     0.1741    93.6931     2.3551
   43.5000     8.2075     6.6572   -55.9271     7.8054     0.1355     0.1714    89.4492     2.3641
   44.0000     5.5219     6.7488   -55.9271     7.7441     0.0822     0.1788    92.4572     2.3655
   44.5000     4.6721     6.6397   -56.0790     7.7430     0.0522     0.2072    92.1420     2.3467
   45.0000     4.2670     6.2502   -57.9027     7.7419     0.0386     0.2205    93.0352     2.3091
   45.5000     3.9515     5.7899   -60.9422     7.7408     0.0370     0.2352    94.8347     2.2862
   46.0000     3.9226     5.6304   -63.8298     7.7700     0.0369     0.2466   100.8638     2.2504
   46.5000     3.9483     5.8279   -66.1300     7.7840     0.0427     0.2626   107.0942     2.2316
   47.0000     4.1162     5.2510   -67.0213     7.8740     0.0486     0.2728   109.5956     2.2180
   47.5000     4.5271     4.6338   -66.5653     8.1600     0.0215     0.2752   107.4676     2.1872
   48.0000     5.2060     5.1052   -68.8450     7.8863     0.0960     0.2800   101.4121     2.1826
   48.5000     5.1678     7.2226   -53.1915     7.8553     0.0720     0.2993    98.9821     2.1593
   49.0000     5.4231     7.8646   -50.2836     8.0354     0.0137     0.2996    98.5157     2.1427
   49.5000     6.3600     8.5236   -49.6960     8.1103     0.0404     0.2993    96.0857     2.2551
   50.0000     7.0555     8.8839   -49.5441     8.0484     0.0492     0.1749    94.8641     2.3173
   50.5000     8.3320     9.3889   -49.5441     8.0170     0.0491     0.1755    95.4748     2.3540
   51.0000     8.9899     9.7858   -49.3921     8.0008     0.0475     0.1767    94.6834     2.3524
   51.5000     9.2394    10.2706   -49.0881     8.0148     0.0504     0.1749    92.5554     2.3494
   52.0000     9.5020    10.6308   -48.6322     7.9983     0.0532     0.1728    91.6359     2.3560
   52.5000     9.8265    10.9277   -48.3283     7.9821     0.0531     0.1719    91.9249     2.3597
   53.0000    10.0293    11.5488   -47.8321     7.9810     0.0484     0.1716    92.2171     2.3611
   53.5000    10.2363    11.9605   -46.3526     7.9648     0.0378     0.1741    90.2271     2.3633
   54.0000    10.4487    12.3725   -45.5927     7.9485     0.0258     0.1834    92.9627     2.3655
   54.5000    10.7376    12.5434   -45.1368     7.9323     0.0182     0.1837    92.1711     2.3564
   55.0000    10.9593    12.7160   -44.8328     7.9310     0.0196     0.1894    89.1368     2.3421
   55.5000    11.1855    12.8019   -44.6809     7.9299     0.0239     0.1897    86.5556     2.3292
   56.0000    11.3374    12.5352   -44.6809     7.9288     0.0284     0.1918    84.4266     2.3262
   56.5000    11.5756    12.4460   -44.5289     7.9277     0.0311     0.1924    87.4346     2.3209
   57.0000    11.8232    12.2721   -44.5289     7.9266     0.0294     0.1919    86.3640     2.3245
   57.5000    12.0528    12.1848   -44.5289     7.9255     0.0248     0.1910    84.0850     2.3275
   58.0000    12.1331    12.1823   -44.5289     7.9244     0.0247     0.1883    83.0177     2.3266
   58.5000    12.2127    12.1798   -44.6809     7.8927     0.0261     0.1835    88.2883     2.3273
   59.0000    12.2921    12.1768   -44.5289     7.8765     0.0229     0.1784    92.3837     2.3355
   59.5000    12.4589    12.1743   -44.9678     7.8300     0.0153     0.1730    93.2480     2.3489
   60.0000    12.4537    12.1718   -44.9781     7.7987     0.0122     0.1782    92.9294     2.3578
   60.5000    12.5423    12.1694   -44.9884     7.7522     0.0121     0.1835    92.3120     2.3585
   61.0000    12.6174    12.1669   -44.9985     7.7358     0.0120     0.1853    91.6946     2.3438
   61.5000    12.7429    12.1644   -44.8572     7.7347     0.0148     0.1838    94.7427     2.3381
   62.0000    12.8731    12.1998   -44.8700     7.7033     0.0207     0.1874    96.2001     2.3388
   62.5000    12.9575    12.2441   -44.7286     7.7022     0.0220     0.1920    94.3709     2.3372
   63.0000    13.2237    12.3268   -44.7388     7.7163     0.0174     0.1893    92.8472     2.3311
   63.5000    13.4966    12.3334   -44.7491     7.7406     0.0143     0.1887    92.0787     2.3279
   64.0000    13.8712    12.4933   -44.7594     7.7825     0.0156     0.1992    91.0082     2.3355
   64.5000    14.2654    12.4908   -44.7697     7.8186     0.0185     0.2031    89.6355     2.3067
   65.0000    14.8554    12.5117   -44.7800     7.8480     0.0154     0.1968    89.1692     2.3046
   65.5000    15.2677    12.6601   -44.7906     7.8769     0.0108     0.1956    90.2134     2.3187
   66.0000    15.5829    12.7456   -44.8031     7.9061     0.0123     0.1962    90.0459     2.3247
