~VERSION INFORMATION
 VERS.                2.0:   CWLS LOG ASCII STANDARD - VERSION 2.0
 WRAP.                 NO:   ONE LINE PER DEPTH STEP
~WELL INFORMATION
#MNEM.UNIT      DATA TYPE    INFORMATION
#----------   ------------   ------------------------------
 STRT.F           28.0000:   START DEPTH
 STOP.F          463.0000:   STOP DEPTH
 STEP.F            0.5000:   STEP LENGTH
 NULL.          -999.2500:   NO VALUE
 COMP.    FENIX & SCISSON:   COMPANY
 WELL.  NPR-3 #74 S 10-10:   WELL
 FLD .        TEAPOT DOME:   FIELD
 LOC .      S10 T38N R78W:   LOCATION
 CNTY.            NATRONA:   COUNTY
 STAT.            WYOMING:   STATE
 CTRY. UNITED STATES OF AMERICA:   COUNTRY
 SRVC.           BIRDWELL:   SERVICE COMPANY
 DATE.        12-FEB-1978:   LOGDATE
 API .       490251057000:   API NUMBER
~CURVE INFORMATION
#MNEM.UNIT       API CODE    CURVE DESCRIPTION
#----------   ------------   ------------------------------
 DEPT.F                  :   
 ILD .OHMM   05 120 46 00:   INDUCTION LOG DEEP
 SN  .OHMM   05 040 16 00:   SHORT NORMAL 16"
 SPR .MV     05 010 01 00:   SPONTANEOUS POTENTIAL FROM RES.
 CALD.IN     45 280 60 00:   CALIPER FROM DENSITY LOG
 CORR.G/C3   45 356 01 00:   DENSITY CORRECTION
 DPHI.DEC    45 890 12 00:   DENSITY POROSITY SANDSTONE
 GRD .GAPI   45 310 01 00:   GAMMA RAY FROM DENSITY LOG
 RHOB.G/C3   45 350 01 00:   BULK DENSITY
~PARAMETER INFORMATION
#MNEM.UNIT          VALUE    DESCRIPTION
#----------   ------------   ------------------------------
 PD  .                 GL:   PERMANENT DATUM
 EPD .F              5183:   ELEVATION PERMANENT DATUM
 LMF .                 KB:   LOG MEASURED FROM
 DAPD.F                 4:   FEET ABOVE PERMANENT DATUM
 DMF .                 KB:   DRILLING MEASURED FROM
 EKB .F              5187:   KELLING BUSHING
 EGL .F              5183:   GROUND LEVEL
 DATE.        12-FEB-1978:   RUN DATE
 RUN .                  1:   RUN NUMBER
 DD  .F               465:   DEPTH DRILLER
 DL  .F               465:   DEPTH LOGGER
 BLI .F               463:   BOTTOM LOG INTERVAL
 TLI .F                40:   TOP LOG INTERVAL
 CS  .IN            8.625:   CASING SIZE
 CBD .F                39:   CASING BOTTOM DRILLER
 BS  .IN            7.875:   BIT SIZE
 BSD .F               465:   BIT SIZE AT DEPTH
 DFT .         LIGNO-SULF:   DRILLING FLUID TYPE
 DFD .                8.8:   DRILLING FLUID DENSITY
 DFV .                 34:   DRILLING FLUID VISCOSITY
 DFPH.                 10:   DRILLING FLUID PH
 DFL .                4.0:   DRILLING FLUID LOSS
 MSS .                PIT:   MUD SAMPLE SOURCE
 RMS .OHMM            1.3:   RESISTIVITY MUD SAMPLE
 MST .F                62:   MUD SAMPLE TEMPERATURE
 RMF .OHMM            1.4:   RESISTIVITY MUD FILTRATE SAMPLE
 MFST.F                62:   MUD FILTRATE SAMPLE TEMPERATURE
 MCST.F                62:   MUD CAKE SAMPLE TEMPERATURE
 MFSS.               MEAS:   MUD FILTRATE SAMPLE SOURCE
 RMB .OHMM            1.3:   RESISTIVITY MUD AT BHT
 BHT .F                62:   BOTTOM HOLE TEMPERATURE
 TCS .HRS               2:   TIME CURCULATED STOPPED
 MRT .F                70:   MAXIMUM RECORDED TEMPERATURE
 LUN .               2953:   LOGGING UNIT NUMBER
 LUL .             CASPER:   LOGGING UNIT LOCATION
 ENGI.            POINTER:   RECORDING ENGINEER
 WITN.          MC GINLEY:   WITNESSED BY
 CLNT.            A2DTECH:   CLIENT CODE
 ORIG.           5" PRINT:   ORIGIN OF DATA
 UWI .       490251057000:   UNIQUE WELL ID
 DICO. A2D Technologies, Inc.:   DIGITIZING COMPANY
~OTHER INFORMATION
~A   DEPT      ILD         SN        SPR       CALD       CORR       DPHI         GRD      RHOB   
# ...
  149.5000     9.2813     9.5859   -40.1351     7.9276     0.3400     0.1611    78.6979     2.3961
  150.0000     8.9679     9.4563   -40.1174     7.8678     0.3235     0.1587    79.4568     2.4414
  150.5000     8.6052     9.3934   -39.9543     7.7937     0.2662     0.1611    81.7233     2.4467
  151.0000     8.3145     9.2018   -39.9395     7.7796     0.2466     0.1587    83.2352     2.4056
  151.5000     8.0893     8.7070   -39.7761     7.7655     0.2405     0.1590    84.1447     2.3990
  152.0000     7.9249     8.5290   -39.6127     7.7664     0.2360     0.1503    84.7530     2.3960
  152.5000     7.8715     8.4132   -39.3008     7.7673     0.2314     0.1336    85.0602     2.4293
  153.0000     7.8193     8.2991   -39.2860     7.7682     0.2239     0.1203    84.7430     2.4520
  153.5000     7.8209     8.3012   -39.2712     7.7692     0.2103     0.1120    82.8144     2.4663
  154.0000     7.8225     8.3607   -39.2564     7.7701     0.1831     0.1096    77.6998     2.4754
  154.5000     7.8241     8.3624   -39.3908     7.7710     0.1664     0.1087    77.4030     2.4837
  155.0000     7.8800     8.3059   -39.3754     7.7869     0.1431     0.1111    78.4646     2.4867
  155.5000     7.9914     8.3659   -39.5097     7.8328     0.1081     0.1142    80.7296     2.4791
  156.0000     8.1043     8.4258   -39.6430     7.8637     0.0805     0.1214    82.2415     2.4716
  156.5000     8.2197     8.4862   -39.7768     7.8946     0.0594     0.1340    83.4522     2.4617
  157.0000     8.3929     8.5470   -39.7621     7.9105     0.0382     0.1397    84.2112     2.4504
  157.5000     8.5706     8.5488   -39.8960     7.9565     0.0337     0.1430    84.9701     2.4383
  158.0000     8.7577     8.6117   -39.8811     7.9874     0.0352     0.1400    85.4278     2.4284
  158.5000     8.8758     8.7364   -40.0149     8.0508     0.0427     0.1325    85.5843     2.4360
  159.0000     8.8164     8.7947   -39.8490     8.1268     0.0518     0.1265    85.5904     2.4466
  159.5000     8.7471     8.9194   -39.6857     8.1704     0.0578     0.1218    86.3506     2.4564
  160.0000     8.5794     8.9837   -39.5223     8.2013     0.0638     0.1197    88.0131     2.4624
  160.5000     8.6412     8.9856   -39.0617     8.2473     0.0683     0.1161    89.3745     2.4654
  161.0000     8.8241     9.0500   -38.4526     8.2632     0.0744     0.1129    91.0370     2.4700
  161.5000     8.9488     9.1149   -38.2892     8.2641     0.0821     0.1093    91.7959     2.4768
  162.0000     9.0753     9.3084   -38.1259     8.2649     0.0944     0.1135    91.8018     2.4875
  162.5000     9.0772     9.2455   -38.1111     8.2658     0.1090     0.1198    91.2053     2.4807
  163.0000     8.8927     9.2479   -38.0963     8.2667     0.1195     0.1195    88.9522     2.4702
  163.5000     8.7719     9.1854   -38.2338     8.2676     0.1421     0.1282    86.6991     2.4657
  164.0000     8.5936     9.0607   -38.3639     8.2384     0.1708     0.1358    86.1024     2.4581
  164.5000     8.5361     8.9377   -38.3491     8.2243     0.2100     0.1286    86.4097     2.4423
  165.0000     8.5383     8.9400   -38.6315     8.2252     0.2567     0.1283    87.0382     2.4484
  165.5000     8.4808     8.9419   -38.9176     8.2111     0.2869     0.1352    88.4458     2.4537
  166.0000     8.4241     8.9437   -39.2000     8.1821     0.2974     0.1373    93.2060     2.4522
  166.5000     8.4847     9.0078   -39.1815     8.1530     0.2974     0.1296    94.7179     2.4394
  167.0000     8.4865     9.0724   -39.0181     8.1539     0.2975     0.1212    94.4226     2.4521
  167.5000     8.5471     9.0742   -39.0045     8.1245     0.2943     0.1260    92.9225     2.4614
  168.0000     8.6082     9.0761   -38.9896     8.0953     0.2927     0.1179    88.8621     2.4667
  168.5000     8.6100     9.1412   -38.9738     8.0512     0.2895     0.1119    88.1135     2.4758
  169.0000     8.6117     9.1430   -38.9590     8.0222     0.2837     0.1032    87.8182     2.4857
  169.5000     8.5542     9.0817   -38.9442     7.9781     0.2671     0.0916    87.0726     2.5000
  170.0000     8.4970     9.1468   -39.0817     7.9640     0.2505     0.0961    86.6064     2.5152
  170.5000     8.3816     9.1487   -39.0632     7.9198     0.2339     0.1003    89.7953     2.5099
  171.0000     8.2686     9.1506   -39.1970     7.9182     0.2007     0.0916    90.1024     2.5077
  171.5000     8.2132     9.2166   -39.0337     7.9066     0.1871     0.0937    86.5804     2.5160
  172.0000     8.2150     9.2185   -39.0189     7.9077     0.1735     0.0951    85.8973     2.5282
  172.5000     8.2167     9.1562   -38.8555     7.9085     0.1494     0.0935    86.5071     2.5214
  173.0000     8.2184     9.1586   -38.8407     7.9094     0.1162     0.0950    86.6636     2.5069
  173.5000     8.1634     9.0343   -38.6773     7.9254     0.0921     0.1015    86.5189     2.5073
  174.0000     8.1651     8.9732   -38.5140     7.9263     0.0754     0.1046    86.3727     2.5117
  174.5000     8.0546     8.9135   -38.4992     7.9422     0.0617     0.1028    86.3801     2.4951
  175.0000     8.0008     8.9153   -38.1872     7.9581     0.0573     0.1013    86.3860     2.5004
  175.5000     8.0024     8.8551   -38.0238     7.9740     0.0467     0.1050    86.6931     2.5019
  176.0000     7.9460     8.6750   -37.8544     7.9899     0.0392     0.1140    84.7412     2.4944
  176.5000     7.7831     8.2656   -37.5483     8.0058     0.0377     0.1191    83.9659     2.4808
  177.0000     7.6290     7.8211   -37.5334     8.0367     0.0392     0.1242    84.9036     2.4778
  177.5000     7.5258     7.4520   -37.3700     8.0376     0.0497     0.1302    85.3615     2.4748
  178.0000     7.3647     7.2496   -37.3551     8.0384     0.0602     0.1384    85.3454     2.4582
  178.5000     7.2045     7.0039   -37.3408     8.0706     0.0648     0.1543    84.3204     2.4484
  179.0000     6.7889     6.6734   -37.4746     8.1328     0.0708     0.1681    83.2721     2.4190
  179.5000     5.9133     6.1417   -37.4591     8.2365     0.0934     0.1729    81.7720     2.3926
  180.0000     5.3688     5.8519   -37.2927     8.2974     0.1160     0.1879    76.9586     2.3822
  180.5000     4.8744     5.4989   -37.2780     8.4483     0.1522     0.1535    79.3742     2.3394
  181.0000     4.4563     4.8493   -37.2632     8.2692     0.1582     0.1814    83.2957     2.3745
  181.5000     4.2173     4.2801   -37.0998     8.1950     0.1109     0.2045    88.2715     2.4070
  182.0000     4.0468     3.9356   -37.2385     8.1806     0.1039     0.2273    89.0290     2.3700
  182.5000     3.8831     3.8067   -37.0715     8.1968     0.1069     0.2418    85.7231     2.3096
  183.0000     3.7519     3.7331   -36.6109     8.1826     0.1249     0.2595    80.0061     2.2454
  183.5000     3.5754     3.7339   -36.3026     8.1835     0.1415     0.2646    78.9578     2.2311
  184.0000     3.3837     3.7087   -36.5850     8.1694     0.1596     0.2247    79.1466     2.2371
  184.5000     3.2919     3.7096   -37.0123     8.1703     0.1717     0.1998    82.2843     2.2629
  185.0000     3.2699     3.7362   -36.9975     8.1712     0.1777     0.1959    84.2481     2.3014
  185.5000     3.5049     3.9777   -36.9827     8.1570     0.2018     0.1883    90.4287     2.3393
  186.0000     4.1961     4.6665   -36.9680     8.1281     0.2108     0.1568    92.0912     2.3484
  186.5000     4.7204     4.9681   -36.9532     8.1290     0.2048     0.1177    92.2477     2.4462
  187.0000     5.1299     5.5523   -37.0877     8.1146     0.1851     0.0949    91.5006     2.5044
  187.5000     5.4228     6.1197   -37.3694     8.1157     0.1623     0.0862    89.6993     2.5285
  188.0000     5.8122     6.5606   -37.5037     8.1316     0.1500     0.0928    90.3076     2.5291
  188.5000     6.2728     6.7465   -37.4884     8.1475     0.0991     0.1246    93.3256     2.5269
  189.0000     6.7233     6.9377   -37.1764     8.1634     0.0931     0.1040    95.1387     2.4657
  189.5000     6.7713     6.9392   -37.1616     8.1943     0.1232     0.1157    96.2028     2.4748
