~VERSION INFORMATION
 VERS.                2.0:   CWLS LOG ASCII STANDARD - VERSION 2.0
 WRAP.                 NO:   ONE LINE PER DEPTH STEP
~WELL INFORMATION
#MNEM.UNIT      DATA TYPE    INFORMATION
#----------   ------------   ------------------------------
 STRT.F           46.0000:   START DEPTH
 STOP.F         2100.0000:   STOP DEPTH
 STEP.F            0.5000:   STEP LENGTH
 NULL.          -999.2500:   NO VALUE
 COMP. LAWRENCE/ALLISON INC:   COMPANY
 WELL.    58-21 SX #10-10:   WELL
 FLD .             TEAPOT:   FIELD
 LOC .      S10 T38N R78W:   LOCATION
 CNTY.            NATRONA:   COUNTY
 STAT.            WYOMING:   STATE
 CTRY. UNITED STATES OF AMERICA:   COUNTRY
 SRVC.           Gearhart:   SERVICE COMPANY
 DATE.        06-JUL-1987:   LOGDATE
 API .       490251114400:   API NUMBER
~CURVE INFORMATION
#MNEM.UNIT       API CODE    CURVE DESCRIPTION
#----------   ------------   ------------------------------
 DEPT.F                  :   
 GR  .GAPI   81 310 01 00:   GAMMA RAY
 TGAS.UNITS  91 830 01 00:   TOTAL GAS FROM HOTWIRE
 ROP .MIN/FT 91 810 01 00:   RAT OF DRILLING PENETRATION
~PARAMETER INFORMATION
#MNEM.UNIT          VALUE    DESCRIPTION
#----------   ------------   ------------------------------
 PD  .                 GL:   PERMANENT DATUM
 EPD .F              5219:   ELEVATION PERMANENT DATUM
 LMF .                 KB:   LOG MEASURED FROM
 DAPD.F                 8:   FEET ABOVE PERMANENT DATUM
 DMF .                 KB:   DRILLING MEASURED FROM
 EKB .F              5227:   KELLING BUSHING
 EDF .F              5225:   DRILLING FLOOR
 EGL .F              5219:   GROUND LEVEL
 DATE.             7-6-87:   RUN DATE
 RUN .                  1:   RUN NUMBER
 DD  .F               610:   DEPTH DRILLER
 DL  .F             531.5:   DEPTH LOGGER
 BLI .F               526:   BOTTOM LOG INTERVAL
 TLI .F                50:   TOP LOG INTERVAL
 BS  .IN            7.875:   BIT SIZE
 BSD .F               610:   BIT SIZE AT DEPTH
 DFT .              WATER:   DRILLING FLUID TYPE
 LUN .               6084:   LOGGING UNIT NUMBER
 LUL .           GILLETTE:   LOGGING UNIT LOCATION
 ENGI.                COX:   RECORDING ENGINEER
 WITN.               LOWE:   WITNESSED BY
 CLNT.            A2DTECH:   CLIENT CODE
 ORIG.           5" PRINT:   ORIGIN OF DATA
 UWI .       490251114400:   UNIQUE WELL ID
 DICO. A2D Technologies, Inc.:   DIGITIZING COMPANY
~OTHER INFORMATION
~A   DEPT        GR      TGAS        ROP   
# ...
 2048.0000  -999.2500    27.3291     1.1187
 2048.5000  -999.2500    27.4129     1.1187
 2049.0000  -999.2500    27.5213     1.1187
 2049.5000  -999.2500    27.6314     1.1187
 2050.0000  -999.2500    27.7401     1.1187
 2050.5000  -999.2500    27.7984     1.1187
 2051.0000  -999.2500    27.6219     1.1187
 2051.5000  -999.2500    27.4498     1.1187
 2052.0000  -999.2500    27.2783     1.1187
 2052.5000  -999.2500    27.1068     1.1187
 2053.0000  -999.2500    26.9354     1.1187
 2053.5000  -999.2500    26.7638     1.1187
 2054.0000  -999.2500    26.5921     1.1187
 2054.5000  -999.2500    26.4202     1.1187
 2055.0000  -999.2500    26.3311     1.1187
 2055.5000  -999.2500    26.5682     1.1187
 2056.0000  -999.2500    26.8089     1.1187
 2056.5000  -999.2500    27.0487     1.1187
 2057.0000  -999.2500    27.2882     1.1187
 2057.5000  -999.2500    27.5277     1.1187
 2058.0000  -999.2500    27.7671     1.1187
 2058.5000  -999.2500    28.0069     1.1187
 2059.0000  -999.2500    28.2465     1.1187
 2059.5000  -999.2500    28.4641     1.1187
 2060.0000  -999.2500    28.6684     1.1187
 2060.5000  -999.2500    28.8737     1.1187
 2061.0000  -999.2500    29.0789     1.1187
 2061.5000  -999.2500    29.2842     1.1187
 2062.0000  -999.2500    29.4895     1.1187
 2062.5000  -999.2500    29.6947     1.1187
 2063.0000  -999.2500    29.9000     1.1187
 2063.5000  -999.2500    30.1004     1.1187
 2064.0000  -999.2500    30.2744     1.1187
 2064.5000  -999.2500    31.5621     1.1187
 2065.0000  -999.2500    32.9532     1.1187
 2065.5000  -999.2500    34.3489     1.1187
 2066.0000  -999.2500    35.7411     1.1187
 2066.5000  -999.2500    37.1330     1.1187
 2067.0000  -999.2500    38.5250     1.1187
 2067.5000  -999.2500    39.9169     1.1187
 2068.0000  -999.2500    41.3088     1.1187
 2068.5000  -999.2500    42.6991     1.1187
 2069.0000  -999.2500    44.0892     1.1187
 2069.5000  -999.2500    45.4719     1.1187
 2070.0000  -999.2500    49.2496     1.1188
 2070.5000  -999.2500    53.9256     1.1188
 2071.0000  -999.2500    58.6145     1.1189
 2071.5000  -999.2500    63.2601     1.1123
 2072.0000  -999.2500    67.3355     1.0617
 2072.5000  -999.2500    69.9540     1.0107
 2073.0000  -999.2500    72.6134     0.9596
 2073.5000  -999.2500    75.2630     0.9085
 2074.0000  -999.2500    77.9132     0.9091
 2074.5000  -999.2500    80.5667     0.9154
 2075.0000  -999.2500    83.2357     0.9213
 2075.5000  -999.2500    85.8800     0.9271
 2076.0000  -999.2500    85.9287     0.9347
 2076.5000  -999.2500    85.3721     0.9603
 2077.0000  -999.2500    84.8277     1.0100
 2077.5000  -999.2500    84.2886     1.0588
 2078.0000  -999.2500    83.7498     1.1089
 2078.5000  -999.2500    83.2110     1.1187
 2079.0000  -999.2500    82.6723     1.1174
 2079.5000  -999.2500    82.1339     1.1153
 2080.0000  -999.2500    81.5957     1.1133
 2080.5000  -999.2500    80.8722     1.1114
 2081.0000  -999.2500    80.0990     1.1094
 2081.5000  -999.2500    79.3251     1.1075
 2082.0000  -999.2500    78.5513     1.1066
 2082.5000  -999.2500    77.7776     1.1213
 2083.0000  -999.2500    77.0045     1.1306
 2083.5000  -999.2500    76.2333     1.1400
 2084.0000  -999.2500    75.4439     1.1342
 2084.5000  -999.2500    74.2226     1.0810
 2085.0000  -999.2500    72.9849     1.0286
 2085.5000  -999.2500    71.7491     0.9756
 2086.0000  -999.2500    70.5139     0.9432
 2086.5000  -999.2500    69.2788     0.9435
 2087.0000  -999.2500    68.0436     0.9438
 2087.5000  -999.2500    66.8084     0.9444
 2088.0000  -999.2500    65.5732     0.9449
 2088.5000  -999.2500    64.3382     0.9453
 2089.0000  -999.2500    63.1036     0.9458
 2089.5000  -999.2500    61.8493     0.9463
 2090.0000  -999.2500    61.0394     0.9468
 2090.5000  -999.2500    60.1342     0.9473
 2091.0000  -999.2500    59.2444     0.9478
 2091.5000  -999.2500    58.3521     0.9483
 2092.0000  -999.2500    57.4592     0.9488
 2092.5000  -999.2500    56.5726     0.9493
 2093.0000  -999.2500    55.8721     0.9498
 2093.5000  -999.2500    55.4640     0.9503
 2094.0000  -999.2500    55.0431     0.9508
 2094.5000  -999.2500    54.6238     0.9513
 2095.0000  -999.2500    54.2047     0.9518
 2095.5000  -999.2500    53.7856     0.9523
 2096.0000  -999.2500    53.3666     0.9527
 2096.5000  -999.2500    52.9475     0.9532
 2097.0000  -999.2500    52.5284     0.9537
 2097.5000  -999.2500    52.1093     0.9542
 2098.0000  -999.2500    51.6895     0.9547
 2098.5000  -999.2500    51.2698     0.9552
 2099.0000  -999.2500    50.8940     0.9557
 2099.5000  -999.2500    50.8895     0.9562
 2100.0000  -999.2500    50.8910     0.9563
