~VERSION INFORMATION
 VERS.                2.0:   CWLS LOG ASCII STANDARD - VERSION 2.0
 WRAP.                 NO:   ONE LINE PER DEPTH STEP
~WELL INFORMATION
#MNEM.UNIT      DATA TYPE    INFORMATION
#----------   ------------   ------------------------------
 STRT.F           40.0000:   START DEPTH
 STOP.F          534.0000:   STOP DEPTH
 STEP.F            0.5000:   STEP LENGTH
 NULL.          -999.2500:   NO VALUE
 COMP. LAWRENCE/ALLISON INC:   COMPANY
 WELL.   55-41 SX FI #3-3:   WELL
 FLD .             TEAPOT:   FIELD
 LOC .       S3 T38N R78W:   LOCATION
 CNTY.            NATRONA:   COUNTY
 STAT.            WYOMING:   STATE
 CTRY. UNITED STATES OF AMERICA:   COUNTRY
 SRVC.      Dresser Atlas:   SERVICE COMPANY
 DATE.        12-DEC-1983:   LOGDATE
 API .       490251089400:   API NUMBER
~CURVE INFORMATION
#MNEM.UNIT       API CODE    CURVE DESCRIPTION
#----------   ------------   ------------------------------
 DEPT.F                  :   
 RILD.OHMM   07 120 46 00:   INDUCTION LOG DEEP RESISTIVITY
 RILM.OHMM   07 120 44 00:   INDUCTION LOG MEDIUM RESISTIVITY
 RFOC.OHMM   07 220 04 00:   RESISTIVITY FOCUSED LOG
 CALD.IN     45 280 60 00:   CALIPER FROM DENSITY LOG
 GRD .GAPI   45 310 01 00:   GAMMA RAY FROM DENSITY LOG
 CORR.G/C3   45 356 01 00:   DENSITY CORRECTION
 DPHI.DEC    45 890 12 00:   DENSITY POROSITY SANDSTONE
 RHOB.G/C3   45 350 01 00:   BULK DENSITY
~PARAMETER INFORMATION
#MNEM.UNIT          VALUE    DESCRIPTION
#----------   ------------   ------------------------------
 PD  .                 GL:   PERMANENT DATUM
 EPD .F              5161:   ELEVATION PERMANENT DATUM
 LMF .                 KB:   LOG MEASURED FROM
 DAPD.F                10:   FEET ABOVE PERMANENT DATUM
 DMF .                 KB:   DRILLING MEASURED FROM
 EKB .F              5171:   KELLING BUSHING
 EGL .F              5161:   GROUND LEVEL
 DATE.        12-DEC-1983:   RUN DATE
 RUN .                  1:   RUN NUMBER
 DD  .F               490:   DEPTH DRILLER
 DL  .F               489:   DEPTH LOGGER
 BLI .F               487:   BOTTOM LOG INTERVAL
 CS  .IN            10.75:   CASING SIZE
 CBD .F                52:   CASING BOTTOM DRILLER
 CBL .F                46:   CASING BOTTOM LOGGER
 BS  .IN             8.75:   BIT SIZE
 BSD .F               490:   BIT SIZE AT DEPTH
 DFT .           AIR FOAM:   DRILLING FLUID TYPE
 TCS .HRS               3:   TIME CURCULATED STOPPED
 MRT .F                72:   MAXIMUM RECORDED TEMPERATURE
 LUN .               6274:   LOGGING UNIT NUMBER
 LUL .               GLTE:   LOGGING UNIT LOCATION
 ENGI.             RAUTIO:   RECORDING ENGINEER
 WITN.             GROOMS:   WITNESSED BY
 CLNT.            A2DTECH:   CLIENT CODE
 ORIG.           5" PRINT:   ORIGIN OF DATA
 UWI .       490251089400:   UNIQUE WELL ID
 DICO. A2D Technologies, Inc.:   DIGITIZING COMPANY
~OTHER INFORMATION
~A   DEPT     RILD       RILM       RFOC       CALD         GRD      CORR       DPHI       RHOB   
   40.0000  -999.2500  -999.2500  -999.2500  -999.2500    55.1929  -999.2500  -999.2500  -999.2500
   40.5000  -999.2500  -999.2500  -999.2500  -999.2500    53.4125  -999.2500  -999.2500  -999.2500
   41.0000  -999.2500  -999.2500  -999.2500  -999.2500    52.2997  -999.2500  -999.2500  -999.2500
   41.5000  -999.2500  -999.2500  -999.2500  -999.2500    51.8546  -999.2500  -999.2500  -999.2500
   42.0000  -999.2500  -999.2500  -999.2500  -999.2500    52.0772  -999.2500  -999.2500  -999.2500
   42.5000  -999.2500  -999.2500  -999.2500  -999.2500    52.5223  -999.2500  -999.2500  -999.2500
   43.0000  -999.2500  -999.2500  -999.2500  -999.2500    54.0801  -999.2500  -999.2500  -999.2500
   43.5000  -999.2500  -999.2500  -999.2500  -999.2500    55.8605  -999.2500  -999.2500  -999.2500
   44.0000  -999.2500  -999.2500  -999.2500  -999.2500    57.4184  -999.2500  -999.2500  -999.2500
   44.5000  -999.2500  -999.2500  -999.2500  -999.2500    58.0861  -999.2500  -999.2500  -999.2500
   45.0000  -999.2500  -999.2500  -999.2500  -999.2500    56.7507  -999.2500  -999.2500  -999.2500
   45.5000  -999.2500  -999.2500  -999.2500  -999.2500    54.3027  -999.2500  -999.2500  -999.2500
   46.0000  9970.2129 10044.6836  -999.2500  -999.2500    52.2997  -999.2500  -999.2500  -999.2500
   46.5000  9977.0322 10017.3721  -999.2500  -999.2500    50.2967  -999.2500  -999.2500  -999.2500
   47.0000    63.5861    59.7880  -999.2500  -999.2500    49.6291  -999.2500  -999.2500  -999.2500
   47.5000     2.2680     2.7138  -999.2500  -999.2500    52.0772  -999.2500  -999.2500  -999.2500
   48.0000     1.8205     3.1381  -999.2500  -999.2500    59.1988  -999.2500  -999.2500  -999.2500
   48.5000     2.0481     3.6792  -999.2500  -999.2500    63.6499  -999.2500  -999.2500  -999.2500
   49.0000     2.7561     4.0263  -999.2500    13.1073    66.5430     0.0703     0.1631     2.4186
   49.5000     3.6581     4.5293  -999.2500    13.1956    68.3234     0.0876     0.1514     2.4291
   50.0000     5.6111     6.0947  -999.2500    13.2692    69.2137     0.0951     0.1604     2.4022
   50.5000     4.8893     7.2961  -999.2500    13.3279    70.3264     0.0897     0.1553     2.4263
   51.0000     4.7299     7.5581  -999.2500    13.3718    71.8843     0.0761     0.1544     2.4241
   51.5000     4.9732     8.0584  -999.2500    13.4010    74.5549     0.0512     0.1585     2.4092
   52.0000     5.0742     8.7637  -999.2500    13.4597    76.3353     0.0345     0.1735     2.3838
   52.5000     5.0883     8.9296  -999.2500    13.5480    73.2196     0.0447     0.1705     2.4011
   53.0000     5.3961     8.2986  -999.2500    13.7399    68.9911     0.0736     0.1519     2.4281
   53.5000     6.0829     7.7654  -999.2500    14.1537    69.8813     0.0967     0.1444     2.4424
   54.0000     7.2810     7.2270  -999.2500    14.5822    71.8843     0.0937     0.1435     2.4342
   54.5000     8.1913     6.9386  -999.2500    14.8037    72.7745     0.0810     0.1604     2.3901
   55.0000     8.0847     6.8468  -999.2500    14.9364    71.2166     0.0772     0.1861     2.3616
   55.5000     7.6039     6.8521  -999.2500    15.0247    68.1009     0.0862     0.1886     2.3625
   56.0000     7.1025     6.8082  -999.2500    15.0391    65.2077     0.0788     0.1850     2.3726
   56.5000     6.7728     6.7202  -999.2500    15.0238    64.7626     0.0803     0.1730     2.3876
   57.0000     6.6836     6.6313  -999.2500    14.9198    67.2107     0.0885     0.1619     2.3997
   57.5000     6.6422     6.6823  -999.2500    14.7418    71.4392     0.0960     0.1511     2.4201
   58.0000     6.6479     6.7326  -999.2500    14.5047    75.0000     0.0975     0.1562     2.4287
   58.5000     6.6984     6.8302  -999.2500    14.2528    76.7804     0.0818     0.1655     2.4033
   59.0000     6.7493     6.8344  -999.2500    13.9565    76.7804     0.0863     0.1631     2.3988
   59.5000     6.7540     6.9335  -999.2500    13.7342    76.3353     0.0976     0.1541     2.4124
   60.0000     6.8523     6.9858  -999.2500    13.5414    76.1128     0.1073     0.1487     2.4289
   60.5000     6.9044     7.0384  -999.2500    13.3166    75.4451     0.1126     0.1567     2.4267
   61.0000     7.0050     7.0427  -999.2500    13.0632    75.2225     0.0909     0.1699     2.4141
   61.5000     7.1070     7.0470  -999.2500    12.8981    75.8902     0.0617     0.1794     2.3879
   62.0000     7.1611     7.1001  -999.2500    12.7793    78.1157     0.0198     0.1830     2.3722
   62.5000     7.1660     7.1045  -999.2500    12.6491    80.5638     0.0101     0.1803     2.3730
   63.0000     7.1709     7.1089  -999.2500    12.6216    81.6766     0.0251     0.1638     2.3843
   63.5000     7.1263     7.0642  -999.2500    12.8430    79.4510     0.0491     0.1506     2.4024
   64.0000     6.9855     7.0688  -999.2500    12.8574    76.3353     0.1067     0.1377     2.4459
   64.5000     6.9423     7.2208  -999.2500    12.7681    73.6647     0.1524     0.1407     2.4602
   65.0000     7.0434     7.2752  -999.2500    12.6493    70.9941     0.1329     0.1528     2.4228
   65.5000     7.1954     7.3300  -999.2500    12.5453    70.1039     0.0903     0.1661     2.4004
   66.0000     7.2501     7.3852  -999.2500    12.5153    73.2196     0.0357     0.1682     2.3944
   66.5000     7.3557     7.3898  -999.2500    12.5740    76.1128     0.0828     0.1454     2.4147
   67.0000     7.3608     7.3435  -999.2500    12.7215    77.0030     0.1069     0.1317     2.4492
   67.5000     7.3659     7.3482  -999.2500    12.8542    76.5579     0.1150     0.1311     2.4650
   68.0000     7.2700     7.3021  -999.2500    12.8687    77.2255     0.1095     0.1448     2.4449
   68.5000     7.2197     7.2511  -999.2500    12.7794    77.8932     0.0483     0.1630     2.4037
   69.0000     7.1243     7.1549  -999.2500    12.7050    79.0059     0.0327     0.1501     2.4098
   69.5000     7.0382     7.1168  -999.2500    12.6454    79.8961     0.0408     0.1388     2.4330
   70.0000     7.0443     7.1222  -999.2500    12.5858    81.4540     0.0537     0.1334     2.4578
   70.5000     7.0491     7.0766  -999.2500    12.5853    83.2394     0.0291     0.1432     2.4524
   71.0000     7.0539     7.0821  -999.2500    12.5998    85.6925     0.0119     0.1501     2.4360
   71.5000     7.0091     7.0367  -999.2500    12.6436    88.8207     0.0111     0.1459     2.4295
   72.0000     7.0151     7.0421  -999.2500    12.7023    90.3561     0.0358     0.1360     2.4337
   72.5000     7.0684     6.9970  -999.2500    12.7759    81.9985     0.0771     0.1207     2.4554
   73.0000     7.0732     7.0024  -999.2500    12.9382    75.8309     0.1541     0.1087     2.5121
   73.5000     7.0781     7.0067  -999.2500    13.3371    73.6474     0.1706     0.0965     2.5272
   74.0000     7.0829     7.0595  -999.2500    13.9432    73.7043     0.1736     0.1070     2.5048
   74.5000     7.0877     7.1126  -999.2500    13.9728    77.3816     0.1190     0.1682     2.4167
   75.0000     7.1416     7.1662  -999.2500    13.7944    82.1710     0.0726     0.1959     2.3416
   75.5000     7.1959     7.1706  -999.2500    13.3580    84.8737     0.0442     0.1992     2.3431
   76.0000     7.2506     7.1750  -999.2500    12.7363    87.0771     0.0352     0.1798     2.3597
   76.5000     7.3057     7.2291  -999.2500    12.3242    88.8303     0.0270     0.1322     2.4017
   77.0000     7.3107     7.2335  -999.2500    12.2542    89.7230     0.0345     0.1203     2.4617
   77.5000     7.3157     7.2380  -999.2500    12.2562    90.3561     0.0323     0.1190     2.4797
   78.0000     7.2705     7.2424  -999.2500    12.2829    89.6092     0.0308     0.1178     2.4828
   78.5000     7.1747     7.1971  -999.2500    12.2972    86.7660     0.0293     0.1166     2.4851
   79.0000     7.1303     7.2016  -999.2500    12.2968    80.0047     0.0263     0.1148     2.4889
   79.5000     7.1364     7.2558  -999.2500    12.2963    75.7755     0.0316     0.1091     2.4964
   80.0000     7.2403     7.3610  -999.2500    12.3107    73.9979     0.0570     0.0947     2.5100
