~VERSION INFORMATION
 VERS.                2.0:   CWLS LOG ASCII STANDARD - VERSION 2.0
 WRAP.                 NO:   ONE LINE PER DEPTH STEP
~WELL INFORMATION
#MNEM.UNIT      DATA TYPE    INFORMATION
#----------   ------------   ------------------------------
 STRT.F           84.0000:   START DEPTH
 STOP.F         1141.0000:   STOP DEPTH
 STEP.F            0.5000:   STEP LENGTH
 NULL.          -999.2500:   NO VALUE
 COMP.           U S NAVY:   COMPANY
 WELL.     NPR#3 #78-S-11:   WELL
 FLD .             TEAPOT:   FIELD
 LOC .      S11 T38N R78W:   LOCATION
 CNTY.            NATRONA:   COUNTY
 STAT.            WYOMING:   STATE
 CTRY. UNITED STATES OF AMERICA:   COUNTRY
 SRVC.       Schlumberger:   SERVICE COMPANY
 DATE.        28-AUG-1966:   LOGDATE
 API .       490250970700:   API NUMBER
~CURVE INFORMATION
#MNEM.UNIT       API CODE    CURVE DESCRIPTION
#----------   ------------   ------------------------------
 DEPT.F                  :   
 SPR .MV     05 010 01 00:   SPONTANEOUS POTENTIAL FROM RES.
 ASN .OHMM   05 041 16 00:   AMPLIFIED SHORT NORMAL 16"
 ILD .OHMM   05 120 46 00:   INDUCTION LOG DEEP
 CILD.MMHO   05 110 46 00:   CONDUCTIVITY INDUCTION LOG DEEP
 GRD .GAPI   45 310 01 00:   GAMMA RAY FROM DENSITY LOG
 CALD.IN     45 280 60 00:   CALIPER FROM DENSITY LOG
 DPHI.DEC    45 890 12 00:   DENSITY POROSITY SANDSTONE
 RHOB.G/C3   45 350 01 00:   BULK DENSITY
~PARAMETER INFORMATION
#MNEM.UNIT          VALUE    DESCRIPTION
#----------   ------------   ------------------------------
 PD  .                 GL:   PERMANENT DATUM
 EPD .F              5245:   ELEVATION PERMANENT DATUM
 LMF .                 KB:   LOG MEASURED FROM
 DAPD.F                 5:   FEET ABOVE PERMANENT DATUM
 DMF .                 KB:   DRILLING MEASURED FROM
 EKB .F              5250:   KELLING BUSHING
 EGL .F              5245:   GROUND LEVEL
 DATE.            8-28-66:   RUN DATE
 RUN .                  1:   RUN NUMBER
 DD  .F              1142:   DEPTH DRILLER
 DL  .F              1142:   DEPTH LOGGER
 BLI .F              1141:   BOTTOM LOG INTERVAL
 TLI .F                85:   TOP LOG INTERVAL
 CS  .IN            8.625:   CASING SIZE
 CBD .F                10:   CASING BOTTOM DRILLER
 BS  .IN             6.75:   BIT SIZE
 BSD .F              1142:   BIT SIZE AT DEPTH
 DFT .           CHEM GEL:   DRILLING FLUID TYPE
 DFD .               10.7:   DRILLING FLUID DENSITY
 DFV .                 40:   DRILLING FLUID VISCOSITY
 MSS .          FLOW LINE:   MUD SAMPLE SOURCE
 RMS .OHMM           1.58:   RESISTIVITY MUD SAMPLE
 MST .F                70:   MUD SAMPLE TEMPERATURE
 RMF .OHMM            .93:   RESISTIVITY MUD FILTRATE SAMPLE
 MFST.F                70:   MUD FILTRATE SAMPLE TEMPERATURE
 MFSS.                  M:   MUD FILTRATE SAMPLE SOURCE
 RMB .OHMM           1.19:   RESISTIVITY MUD AT BHT
 BHT .F                94:   BOTTOM HOLE TEMPERATURE
 TCS .HRS               1:   TIME CURCULATED STOPPED
 MRT .F                94:   MAXIMUM RECORDED TEMPERATURE
 LUN .               4507:   LOGGING UNIT NUMBER
 LUL .               CSPR:   LOGGING UNIT LOCATION
 ENGI.             KNOBEL:   RECORDING ENGINEER
 WITN.         MAY/TUTTLE:   WITNESSED BY
 CLNT.            A2DTECH:   CLIENT CODE
 ORIG.           5" PRINT:   ORIGIN OF DATA
 UWI .       490250970700:   UNIQUE WELL ID
 DICO. A2D Technologies, Inc.:   DIGITIZING COMPANY
~OTHER INFORMATION
~A   DEPT      SPR          ASN        ILD      CILD       GRD       CALD       DPHI       RHOB   
# ...
  205.5000   -49.4721     7.8112     6.9820   144.7884  -999.2500  -999.2500  -999.2500  -999.2500
  206.0000   -49.3213     7.6913     6.8318   148.5719  -999.2500  -999.2500  -999.2500  -999.2500
  206.5000   -49.3213     6.9559     6.7568   152.3553  -999.2500  -999.2500  -999.2500  -999.2500
  207.0000   -49.1704     6.8061     6.6817   158.7524  -999.2500  -999.2500  -999.2500  -999.2500
  207.5000   -49.0196     6.7012     6.5315   164.7744  -999.2500  -999.2500  -999.2500  -999.2500
  208.0000   -49.0196     6.6415     6.4565   169.0529  -999.2500  -999.2500  -999.2500  -999.2500
  208.5000   -48.8688     6.6268     6.3814   168.7895  -999.2500  -999.2500  -999.2500  -999.2500
  209.0000   -48.7179     6.6120     6.3814   163.6393  -999.2500  -999.2500  -999.2500  -999.2500
  209.5000   -48.7179     6.7775     6.3063   157.3232  -999.2500  -999.2500  -999.2500  -999.2500
  210.0000   -48.7179     6.8228     6.3814   150.9760  -999.2500  -999.2500  -999.2500  -999.2500
  210.5000   -48.8688     6.7331     6.3814   150.9684  -999.2500  -999.2500  -999.2500  -999.2500
  211.0000   -48.7179     6.7634     6.4565   156.2241  -999.2500  -999.2500  -999.2500  -999.2500
  211.5000   -48.7179     6.7787     6.4565   160.7279  -999.2500  -999.2500  -999.2500  -999.2500
  212.0000   -48.2655     6.8241     6.4565   162.9779  -999.2500  -999.2500  -999.2500  -999.2500
  212.5000   -47.5113     6.8394     6.4565   161.4648  -999.2500  -999.2500  -999.2500  -999.2500
  213.0000   -48.1146     6.8547     6.4565   162.2092  -999.2500  -999.2500  -999.2500  -999.2500
  213.5000   -48.2655     6.7198     6.3814   164.4573  -999.2500  -999.2500  -999.2500  -999.2500
  214.0000   -48.2655     6.5249     6.3063   167.4573  -999.2500  -999.2500  -999.2500  -999.2500
  214.5000   -48.2655     6.3901     6.2312   169.7073  -999.2500  -999.2500  -999.2500  -999.2500
  215.0000   -48.4163     6.3303     6.1562   171.9554  -999.2500  -999.2500  -999.2500  -999.2500
  215.5000   -48.2655     6.2556     6.0060   172.6998  -999.2500  -999.2500  -999.2500  -999.2500
  216.0000   -48.2655     6.2258     5.9309   172.6904  -999.2500  -999.2500  -999.2500  -999.2500
  216.5000   -48.4163     6.2261     5.8559   169.6754  -999.2500  -999.2500  -999.2500  -999.2500
  217.0000   -48.4163     6.2264     5.7057   166.6604  -999.2500  -999.2500  -999.2500  -999.2500
  217.5000   -48.4163     6.2568     5.5556   165.9029  -999.2500  -999.2500  -999.2500  -999.2500
  218.0000   -48.4163     6.3471     5.4805   168.1492  -999.2500  -999.2500  -999.2500  -999.2500
  218.5000   -48.4163     6.4075     5.4054   170.3973  -999.2500  -999.2500  -999.2500  -999.2500
  219.0000   -48.2655     6.3321     5.3303   173.3973  -999.2500  -999.2500  -999.2500  -999.2500
  219.5000   -48.2655     6.1222     5.3303   178.6530  -999.2500  -999.2500  -999.2500  -999.2500
  220.0000   -48.2655     6.0320     5.4054   183.9086  -999.2500  -999.2500  -999.2500  -999.2500
  220.5000   -48.1146     5.9390     5.4805   186.9106  -999.2500  -999.2500  -999.2500  -999.2500
  221.0000   -47.9638     5.7598     5.5556   186.1493  -999.2500  -999.2500  -999.2500  -999.2500
  221.5000   -47.8130     5.6563     5.6306   184.6380  -999.2500  -999.2500  -999.2500  -999.2500
  222.0000   -47.6621     5.6438     5.7938   183.8786  -999.2500  -999.2500  -999.2500  -999.2500
  222.5000   -47.6621     5.7793     5.9309   181.6155  -999.2500  -999.2500  -999.2500  -999.2500
  223.0000   -47.6621     6.0349     6.0811   178.6005  -999.2500  -999.2500  -999.2500  -999.2500
  223.5000   -47.6621     6.1703     6.0811   174.0817  -999.2500  -999.2500  -999.2500  -999.2500
  224.0000   -47.8130     6.2757     6.0811   168.0592  -999.2500  -999.2500  -999.2500  -999.2500
  224.5000   -48.1146     6.3961     6.0811   159.7810  -999.2500  -999.2500  -999.2500  -999.2500
  225.0000   -48.2655     6.5316     6.0811   156.0141  -999.2500  -999.2500  -999.2500  -999.2500
  225.5000   -48.4163     6.5169     6.0811   158.2622  -999.2500  -999.2500  -999.2500  -999.2500
  226.0000   -48.2655     6.4570     6.0060   161.2623  -999.2500  -999.2500  -999.2500  -999.2500
  226.5000   -48.2655     6.4273     5.9309   166.5179  -999.2500  -999.2500  -999.2500  -999.2500
  227.0000   -48.2655     6.4126     5.8559   169.5179  -999.2500  -999.2500  -999.2500  -999.2500
  227.5000   -48.1146     6.3679     5.6306   172.5179  -999.2500  -999.2500  -999.2500  -999.2500
  228.0000   -47.8130     6.2931     5.4805   175.5180  -999.2500  -999.2500  -999.2500  -999.2500
  228.5000   -47.8130     6.1583     5.1802   179.2699  -999.2500  -999.2500  -999.2500  -999.2500
  229.0000   -47.9638     5.9934     5.1051   182.2718  -999.2500  -999.2500  -999.2500  -999.2500
  229.5000   -47.9638     5.9486     5.0300   181.5105  -999.2500  -999.2500  -999.2500  -999.2500
  230.0000   -47.8130     6.0090     5.0300   178.4955  -999.2500  -999.2500  -999.2500  -999.2500
  230.5000   -47.8130     6.0544     5.1051   175.4805  -999.2500  -999.2500  -999.2500  -999.2500
  231.0000   -47.8181     6.1147     5.3303   172.4655  -999.2500  -999.2500  -999.2500  -999.2500
  231.5000   -47.8130     6.2201     5.7808   167.9467  -999.2500  -999.2500  -999.2500  -999.2500
  232.0000   -47.8130     6.3556     6.2312   164.1798  -999.2500  -999.2500  -999.2500  -999.2500
  232.5000   -47.6621     6.4910     6.8318   160.4129  -999.2500  -999.2500  -999.2500  -999.2500
  233.0000   -47.6621     6.8817     7.5826   156.6460  -999.2500  -999.2500  -999.2500  -999.2500
  233.5000   -47.6621     7.0321     7.6577   148.3678  -999.2500  -999.2500  -999.2500  -999.2500
  234.0000   -47.6621     7.0324     7.6577   144.6009  -999.2500  -999.2500  -999.2500  -999.2500
  234.5000   -47.6394     7.0177     7.5826   144.5934  -999.2500  -999.2500  -999.2500  -999.2500
  235.0000   -47.5113     6.9580     7.5075   144.5859  -999.2500  -999.2500  -999.2500  -999.2500
  235.5000   -47.5113     6.8982     7.4324   148.3378  -999.2500  -999.2500  -999.2500  -999.2500
  236.0000   -47.3605     6.7934     7.2823   155.0972  -999.2500  -999.2500  -999.2500  -999.2500
  236.5000   -47.3605     6.6886     6.7568   162.6085  -999.2500  -999.2500  -999.2500  -999.2500
  237.0000   -47.3605     6.4336     5.6306   169.3679  -999.2500  -999.2500  -999.2500  -999.2500
  237.5000   -47.3605     6.2387     5.1051   176.1273  -999.2500  -999.2500  -999.2500  -999.2500
  238.0000   -47.2097     5.9834     4.7297   184.3905  -999.2500  -999.2500  -999.2500  -999.2500
  238.5000   -47.2097     5.6964     4.6547   190.3981  -999.2500  -999.2500  -999.2500  -999.2500
  239.0000   -47.2097     5.5742     4.5796   196.4056  -999.2500  -999.2500  -999.2500  -999.2500
  239.5000   -47.2097     5.4576     4.6547   200.1575  -999.2500  -999.2500  -999.2500  -999.2500
  240.0000   -47.0588     5.5235     4.6547   197.8944  -999.2500  -999.2500  -999.2500  -999.2500
  240.5000   -47.0588     5.6297     4.7538   193.3756  -999.2500  -999.2500  -999.2500  -999.2500
  241.0000   -47.0588     5.7537     4.9690   187.3530  -999.2500  -999.2500  -999.2500  -999.2500
  241.5000   -47.0588     6.0010     5.2553   182.0824  -999.2500  -999.2500  -999.2500  -999.2500
  242.0000   -47.0588     6.1064     5.4805   177.5636  -999.2500  -999.2500  -999.2500  -999.2500
  242.5000   -47.0588     6.1667     5.8559   173.0448  -999.2500  -999.2500  -999.2500  -999.2500
  243.0000   -47.0588     6.2721     6.4565   168.5260  -999.2500  -999.2500  -999.2500  -999.2500
  243.5000   -47.0588     6.3625     6.9820   162.5035  -999.2500  -999.2500  -999.2500  -999.2500
  244.0000   -47.0588     6.4379     7.2823   156.4810  -999.2500  -999.2500  -999.2500  -999.2500
  244.5000   -46.9080     6.5283     7.3574   151.2103  -999.2500  -999.2500  -999.2500  -999.2500
  245.0000   -46.6063     6.6487     7.5075   150.4509  -999.2500  -999.2500  -999.2500  -999.2500
  245.5000   -46.4555     6.7241     7.5826   148.9397  -999.2500  -999.2500  -999.2500  -999.2500
