~VERSION INFORMATION
 VERS.                2.0:   CWLS LOG ASCII STANDARD - VERSION 2.0
 WRAP.                 NO:   ONE LINE PER DEPTH STEP
~WELL INFORMATION
#MNEM.UNIT      DATA TYPE    INFORMATION
#----------   ------------   ------------------------------
 STRT.F           28.0000:   START DEPTH
 STOP.F          461.0000:   STOP DEPTH
 STEP.F            0.5000:   STEP LENGTH
 NULL.          -999.2500:   NO VALUE
 COMP. FENIX & SCISSON INC:   COMPANY
 WELL.       NPR-3 #47S-3:   WELL
 FLD .             TEAPOT:   FIELD
 LOC .       S3 T38N R78W:   LOCATION
 CNTY.            NATRONA:   COUNTY
 STAT.            WYOMING:   STATE
 CTRY. UNITED STATES OF AMERICA:   COUNTRY
 SRVC.            Unknown:   SERVICE COMPANY
 DATE.        06-JUL-1978:   LOGDATE
 API .       490251066400:   API NUMBER
~CURVE INFORMATION
#MNEM.UNIT       API CODE    CURVE DESCRIPTION
#----------   ------------   ------------------------------
 DEPT.F                  :   
 SPR .MV     05 010 01 00:   SPONTANEOUS POTENTIAL FROM RES.
 ILD .OHMM   05 120 46 00:   INDUCTION LOG DEEP
 SN  .OHMM   05 040 16 00:   SHORT NORMAL 16"
 GRD .GAPI   45 310 01 00:   GAMMA RAY FROM DENSITY LOG
 CALD.IN     45 280 60 00:   CALIPER FROM DENSITY LOG
 CORR.G/C3   45 356 01 00:   DENSITY CORRECTION
 DEN .G/C3   45 350 01 00:   DENSTIY
 DPHI.DEC    45 890 12 00:   DENSITY POROSITY SANDSTONE
~PARAMETER INFORMATION
#MNEM.UNIT          VALUE    DESCRIPTION
#----------   ------------   ------------------------------
 PD  .                 GL:   PERMANENT DATUM
 EPD .F              5202:   ELEVATION PERMANENT DATUM
 LMF .                 KB:   LOG MEASURED FROM
 DAPD.F                 4:   FEET ABOVE PERMANENT DATUM
 DMF .                 KB:   DRILLING MEASURED FROM
 EKB .F              5206:   KELLING BUSHING
 EGL .F              5202:   GROUND LEVEL
 DATE.        06-JUL-1978:   RUN DATE
 RUN .                  1:   RUN NUMBER
 DD  .F               460:   DEPTH DRILLER
 DL  .F               461:   DEPTH LOGGER
 BLI .F               461:   BOTTOM LOG INTERVAL
 TLI .F                40:   TOP LOG INTERVAL
 CS  .IN            8.625:   CASING SIZE
 CBD .F                40:   CASING BOTTOM DRILLER
 CBL .F                40:   CASING BOTTOM LOGGER
 BS  .IN            7.875:   BIT SIZE
 BSD .F               460:   BIT SIZE AT DEPTH
 DFT .                KCL:   DRILLING FLUID TYPE
 DFD .                8.6:   DRILLING FLUID DENSITY
 DFV .                 33:   DRILLING FLUID VISCOSITY
 DFPH.                9.5:   DRILLING FLUID PH
 MSS .           FLOWLINE:   MUD SAMPLE SOURCE
 TCS .HRS               1:   TIME CURCULATED STOPPED
 LUN .               2858:   LOGGING UNIT NUMBER
 LUL .               CASP:   LOGGING UNIT LOCATION
 ENGI.           REYNOLDS:   RECORDING ENGINEER
 WITN.           MCGENLEY:   WITNESSED BY
 CLNT.            A2DTECH:   CLIENT CODE
 ORIG.           5" PRINT:   ORIGIN OF DATA
 UWI .       490251066400:   UNIQUE WELL ID
 DICO. A2D Technologies, Inc.:   DIGITIZING COMPANY
~OTHER INFORMATION
~A   DEPT      SPR        ILD         SN         GRD      CALD       CORR        DEN       DPHI   
# ...
  230.5000   -67.1882     7.3575     9.1077   112.1446     7.8046     0.0476     2.4880     0.1128
  231.0000   -67.1752     7.7265     9.3047   112.1596     7.8053     0.0507     2.4896     0.1128
  231.5000   -67.1621     7.8936     9.3759   112.4814     7.8061     0.0508     2.4905     0.1115
  232.0000   -67.2978     7.7380     9.4477   112.9556     7.8068     0.0509     2.4952     0.1081
  232.5000   -67.2842     7.6892     9.4547   113.4334     7.8076     0.0495     2.4976     0.1043
  233.0000   -67.2684     7.6963     9.4617   113.6015     7.7928     0.0512     2.4975     0.1028
  233.5000   -67.2554     7.7021     9.4687   113.6165     7.7937     0.0498     2.4954     0.1037
  234.0000   -67.2423     7.7610     9.4758   114.7034     7.7945     0.0514     2.4993     0.1092
  234.5000   -67.2292     7.7690     9.4177   115.9435     7.7952     0.0560     2.4955     0.1104
  235.0000   -67.2162     7.7726     9.4248   115.1928     7.7960     0.0666     2.4940     0.1086
  235.5000   -67.0543     7.7785     9.3671   114.2889     7.8123     0.0786     2.4964     0.1036
  236.0000   -67.0412     7.7307     9.3758   113.5382     7.8130     0.0804     2.5011     0.0977
  236.5000   -67.0282     7.6834     9.4476   113.7063     7.8138     0.0669     2.5066     0.0927
  237.0000   -67.1639     7.6905     9.5199   114.3339     7.8145     0.0519     2.5121     0.0910
  237.5000   -67.1503     7.6962     9.5928   115.1148     7.8153     0.0398     2.5138     0.1047
  238.0000   -67.1345     7.6477     9.7330   115.6426     7.8160     0.0344     2.5045     0.1010
  238.5000   -66.9726     7.6009     9.8075   115.4545     7.8168     0.0346     2.5038     0.1023
  239.0000   -66.9596     7.6605     9.9508   115.1595     7.8175     0.0347     2.5046     0.1096
  239.5000   -66.7977     7.6662     9.9582   115.6376     7.8183     0.0363     2.4939     0.1086
  240.0000   -66.6358     7.6719     9.9656   116.4183     7.8190     0.0379     2.4893     0.1089
  240.5000   -66.4739     7.7306     9.8365   117.0458     7.8198     0.0380     2.4886     0.1120
  241.0000   -66.4609     7.7898     9.7094   117.3633     7.8207     0.0367     2.4872     0.1147
  241.5000   -66.4478     7.7421     9.6480   116.4632     7.8214     0.0368     2.4857     0.1085
  242.0000   -66.4345     7.6365     9.4530   115.8656     7.8222     0.0354     2.4927     0.1066
  242.5000   -66.4211     7.4728     9.2733   115.4212     7.8229     0.0355     2.4935     0.1085
  243.0000   -66.4053     7.2446     9.2819   114.9545     7.8237     0.0327     2.4898     0.1174
  243.5000   -66.3923     6.7677     9.2234   114.3792     7.8244     0.0298     2.4860     0.1180
  244.0000   -66.2304     6.1930     9.1669   115.3167     7.8098     0.0284     2.4798     0.1210
  244.5000   -65.9197     6.0698     8.9879   115.1748     7.8106     0.0315     2.4632     0.1432
  245.0000   -65.9067     5.9104     8.7503   115.6530     7.8113     0.0376     2.4430     0.1516
  245.5000   -65.8936     5.8731     8.4605   117.1993     7.8121     0.0452     2.4252     0.1444
  246.0000   -65.2853     5.9192     8.1242   118.4394     7.8130     0.0423     2.4399     0.1299
  246.5000   -64.3794     5.9236     7.9641   119.5264     7.8138     0.0365     2.4547     0.1218
  247.0000   -64.0684     5.9280     7.8610   118.9288     7.8145     0.0366     2.4702     0.1193
  247.5000   -64.0551     5.8917     7.8669   117.5655     7.8153     0.0367     2.4749     0.1190
  248.0000   -63.8905     5.8961     8.2078   117.2741     7.8160     0.0383     2.4750     0.1199
  248.5000   -63.5798     5.8600     8.3246   116.6575     7.8012     0.0399     2.4727     0.1242
  249.0000   -63.2691     5.8646     8.1605   117.0926     7.8175     0.0401     2.4690     0.1303
  249.5000   -62.9584     5.8698     8.1106   118.5480     7.8029     0.0417     2.4590     0.1328
  250.0000   -62.7644     5.8750     8.1192   116.4954     7.8037     0.0492     2.4433     0.1427
  250.5000   -62.3354     5.8984     8.1514   114.2822     7.8097     0.0538     2.4382     0.1272
  251.0000   -61.8745     5.9243     8.1846   115.3647     7.8157     0.0435     2.4615     0.1155
  251.5000   -61.8599     5.8480     8.1901   114.1528     7.8223     0.0407     2.4739     0.1089
  252.0000   -61.5417     5.8931     8.2010   114.6227     7.8234     0.0408     2.4925     0.1092
  252.5000   -60.7490     6.0209     8.4314   115.5520     7.8244     0.0394     2.4956     0.1091
  253.0000   -58.8365     6.3233     8.6131   114.9500     7.8101     0.0395     2.4957     0.1082
  253.5000   -57.7803     6.8361     8.7987   114.0417     7.7959     0.0381     2.4958     0.1069
  254.0000   -57.7657     7.2697     8.8655   113.2865     7.7816     0.0383     2.4958     0.1072
  254.5000   -57.7512     7.4787     8.9327   114.0664     7.7827     0.0384     2.4966     0.1069
  255.0000   -57.7366     7.5364     8.9387   114.7014     7.7840     0.0385     2.4967     0.1059
  255.5000   -57.7221     7.3376     8.8833   115.3364     7.7850     0.0386     2.4929     0.1121
  256.0000   -57.7076     7.0951     8.7677   114.2500     7.7861     0.0403     2.4821     0.1189
  256.5000   -57.6930     6.7203     8.6537   113.7985     7.7871     0.0434     2.4752     0.1208
  257.0000   -57.6785     6.3217     8.5319   113.8117     7.7882     0.0465     2.4698     0.1239
  257.5000   -57.3561     6.0291     8.3161   113.5159     7.7892     0.0496     2.4653     0.1291
  258.0000   -56.9048     6.0341     8.0956   111.8393     7.7903     0.0512     2.4584     0.1363
  258.5000   -56.4407     5.9974     7.9355   114.3026     7.7913     0.0528     2.4499     0.1238
  259.0000   -55.2357     5.9202     7.7785   115.5383     7.7924     0.0529     2.4664     0.1133
  259.5000   -53.8819     5.8843     7.6773   116.7739     7.7934     0.0530     2.4794     0.1098
  260.0000   -52.9745     5.8902     7.6285   116.0187     7.7945     0.0531     2.4995     0.1021
  260.5000   -52.8148     6.1859     7.7942   112.9665     7.7956     0.0533     2.5058     0.0968
  261.0000   -53.0979     6.6321     8.2432   111.2768     7.7815     0.0534     2.5120     0.0940
  261.5000   -53.0797     7.1595     8.9717   109.6184     7.7825     0.0520     2.5190     0.0922
  262.0000   -52.6187     7.5709     9.4716   110.8546     7.7836     0.0521     2.5222     0.0906
  262.5000   -51.5625     7.8470     9.5434   109.4890     7.7690     0.0493     2.5099     0.0968
  263.0000   -51.3988     8.0140     9.6822   109.0374     7.7550     0.0464     2.5068     0.0980
  263.5000   -51.0834     8.0759     9.8230   109.5074     7.7561     0.0450     2.5061     0.0983
  264.0000   -50.4736     8.0824     9.8975   108.9080     7.7415     0.0422     2.5046     0.0985
  264.5000   -50.0126     8.0889     9.9725   108.3059     7.7428     0.0393     2.5016     0.1038
  265.0000   -49.9981     8.2076    10.0481   107.8570     7.7439     0.0379     2.4985     0.1062
  265.5000   -49.8347     8.2709    10.0549   107.8675     7.7449     0.0380     2.4968     0.1072
  266.0000   -49.3737     8.3348    10.0618   107.5691     7.7460     0.0382     2.4925     0.1087
  266.5000   -48.9128     8.3991    10.0701   107.6029     7.7471     0.0383     2.4894     0.1105
  267.0000   -48.4518     8.4060    10.0768   107.2863     7.7483     0.0399     2.4872     0.1130
  267.5000   -47.9908     8.4143    10.1532   107.9122     7.7494     0.0415     2.4857     0.1145
  268.0000   -47.6786     8.4211    10.1600   108.8535     7.7349     0.0461     2.4849     0.1148
  268.5000   -47.2173     8.3683    10.1669   109.8207     7.7362     0.0537     2.4850     0.1061
  269.0000   -46.9019     8.3767    10.1737   109.4752     7.7372     0.0598     2.4974     0.1048
  269.5000   -46.8874     8.3243    10.1805   109.1768     7.7383     0.0614     2.5013     0.0991
  270.0000   -46.7276     8.3327    10.1873   108.8837     7.7393     0.0615     2.5130     0.0959
  270.5000   -46.8619     8.3394    10.2646   107.6691     7.7404     0.0616     2.5130     0.0934
