~VERSION INFORMATION
 VERS.                2.0:   CWLS LOG ASCII STANDARD - VERSION 2.0
 WRAP.                 NO:   ONE LINE PER DEPTH STEP
~WELL INFORMATION
#MNEM.UNIT      DATA TYPE    INFORMATION
#----------   ------------   ------------------------------
 STRT.F            6.0000:   START DEPTH
 STOP.F          534.0000:   STOP DEPTH
 STEP.F            0.5000:   STEP LENGTH
 NULL.          -999.2500:   NO VALUE
 COMP. LAWRENCE/ALLISON INC:   COMPANY
 WELL.     NPR3 #33-66 SX:   WELL
 FLD .          MPR NO. 3:   FIELD
 LOC .      S10 T38N R78W:   LOCATION
 CNTY.            NATRONA:   COUNTY
 STAT.            WYOMING:   STATE
 CTRY. UNITED STATES OF AMERICA:   COUNTRY
 SRVC.           Gearhart:   SERVICE COMPANY
 DATE.        20-JUN-1986:   LOGDATE
 API .       490251109300:   API NUMBER
~CURVE INFORMATION
#MNEM.UNIT       API CODE    CURVE DESCRIPTION
#----------   ------------   ------------------------------
 DEPT.F                  :   
 GRR .GAPI   07 310 01 00:   GAMMA RAY
 RILD.OHMM   07 120 46 00:   INDUCTION LOG DEEP
 RILM.OHMM   07 120 44 00:   INDUCTION LOG MEDIUM
~PARAMETER INFORMATION
#MNEM.UNIT          VALUE    DESCRIPTION
#----------   ------------   ------------------------------
 PD  .                 GL:   PERMANENT DATUM
 EPD .F              5213:   ELEVATION PERMANENT DATUM
 LMF .                 KB:   LOG MEASURED FROM
 DMF .                 KB:   DRILLING MEASURED FROM
 EKB .F              5218:   KELLING BUSHING
 EGL .F              5213:   GROUND LEVEL
 DATE.        20-JUN-1986:   RUN DATE
 RUN .                  1:   RUN NUMBER
 DD  .F               555:   DEPTH DRILLER
 DL  .F               548:   DEPTH LOGGER
 BLI .F               539:   BOTTOM LOG INTERVAL
 CS  .IN            8.625:   CASING SIZE
 CBD .F                47:   CASING BOTTOM DRILLER
 CBL .F                39:   CASING BOTTOM LOGGER
 BS  .IN            7.875:   BIT SIZE
 BSD .F               555:   BIT SIZE AT DEPTH
 DFT .                AIR:   DRILLING FLUID TYPE
 TCS .HRS            0300:   TIME CURCULATED STOPPED
 TLAB.HRS            0500:   TIME LOGGER AT BOTTOM
 MRT .F                64:   MAXIMUM RECORDED TEMPERATURE
 LUN .               7609:   LOGGING UNIT NUMBER
 LUL .           GILLETTE:   LOGGING UNIT LOCATION
 ENGI.            WANGLER:   RECORDING ENGINEER
 WITN.              FIVAS:   WITNESSED BY
 CLNT.            A2DTECH:   CLIENT CODE
 ORIG.           5" PRINT:   ORIGIN OF DATA
 UWI .       490251109300:   UNIQUE WELL ID
 DICO. A2D Technologies, Inc.:   DIGITIZING COMPANY
~OTHER INFORMATION
~A    DEPT     GRR       RILD       RILM   
# ...
  188.0000    99.0854     8.8484     9.2551
  188.5000    96.6463     8.7242     9.3188
  189.0000   100.0000     8.6533     9.1876
  189.5000   104.5732     8.4810     8.9325
  190.0000   107.0122     8.2457     8.6845
  190.5000   108.2317     8.0169     8.5625
  191.0000   105.1829     7.8978     8.4422
  191.5000   102.7439     7.7934     8.3236
  192.0000   101.2195     7.7923     8.2067
  192.5000   101.5244     7.7967     8.1482
  193.0000   103.3537     7.9000     8.0902
  193.5000   104.2683     7.8989     8.0326
  194.0000   105.1829     7.8978     8.0882
  194.5000   107.6219     8.0080     8.1437
  195.0000   110.3659     8.1806     8.2000
  195.5000   112.1951     8.4113     8.3143
  196.0000   112.1951     8.6484     8.6094
  196.5000   110.9756     8.7658     8.8528
  197.0000   111.6708     8.8906     9.1030
  197.5000   112.1951     8.9493     9.2301
  198.0000   110.8903     8.8840     9.4251
  198.5000   108.1890     8.6998     9.5564
  199.0000   107.9268     8.5769     9.6226
  199.5000   109.1463     8.4569     9.5537
  200.0000   107.6219     8.2226     9.5395
  200.5000   107.6148     8.1566     9.4603
  201.0000   108.5366     8.0906     9.3471
  201.5000   109.7561     7.9904     9.1495
  202.0000   109.7561     7.7140     8.8936
  202.5000   109.4512     7.4994     8.5846
  203.0000   108.8415     7.2909     8.1710
  203.5000   106.0976     6.9896     7.7230
  204.0000   103.6585     6.7952     7.3510
  204.5000   103.6585     6.6994     7.0955
  205.0000   105.7927     6.6049     6.8489
  205.5000   107.3171     6.5574     6.7042
  206.0000   107.6219     6.5561     6.6550
  206.5000   108.2317     6.6471     6.7001
  207.0000   109.1463     6.9307     6.8874
  207.5000   109.7561     7.1760     7.1805
  208.0000   107.6219     7.4300     7.4861
  208.5000   102.1341     7.6930     7.8047
  209.0000   100.6098     7.9653     8.1368
  209.5000   102.4390     8.1898     8.4239
  210.0000   104.5561     8.2456     8.5998
  210.5000   106.6362     8.3017     8.5894
  211.0000   108.7570     8.4170     8.5938
  211.5000   109.3094     8.4748     8.7731
  212.0000   107.1172     8.5924     8.9563
  212.5000    99.5434     8.6510     9.2076
  213.0000    99.9940     8.7095     9.4659
  213.5000   103.5008     8.7076     9.7314
  214.0000   108.0872     8.7674     9.8653
  214.5000   107.9594     8.8888    10.0712
  215.0000   104.3507     8.9493    10.0677
  215.5000   100.9900     9.0736     9.9939
  216.0000   100.3690     9.1354     9.9904
  216.5000   100.6613     9.1976     9.9870
  217.0000   103.0844     9.2603     9.8446
  217.5000   106.7252     9.3233     9.8411
  218.0000   110.6704     9.3868     9.8377
  218.5000   114.0099     9.4508     9.8342
  219.0000   111.2550     9.5820     9.8308
  219.5000   108.1987     9.6473     9.8274
  220.0000   105.4468     9.6452     9.8239
  220.5000   106.0434     9.6432     9.8205
  221.0000   107.8578     9.6412     9.8170
  221.5000   109.6721     9.7069     9.8136
  222.0000   111.7908     9.7048     9.8102
  222.5000   111.4743     9.7028     9.8067
  223.0000   110.2445     9.7007     9.8033
  223.5000   107.7970     9.6311     9.7999
  224.0000   104.4363     9.6290     9.8654
  224.5000   103.2095     9.4171    10.0011
  225.0000   104.7164     9.1542    10.0679
  225.5000   106.2263     8.8478    10.0642
  226.0000   107.7362     8.4818     9.9774
  226.5000   108.6373     8.2459     9.6845
  227.0000   109.8428     8.0166     9.2425
  227.5000   110.1381     7.6317     8.7972
  228.0000   110.1229     7.0648     8.0852
  228.5000   110.1107     6.3594     7.3275
  229.0000   110.0986     5.6845     6.7344
  229.5000   110.0864     5.0458     6.1462
  230.0000   110.3817     4.6060     5.7284
  230.5000   110.3665     4.1461     5.1916
  231.0000   109.7456     3.8381     4.7381
  231.5000   105.4716     3.6283     4.2940
  232.0000   101.8065     3.4784     3.9190
  232.5000    99.0546     3.3581     3.6526
  233.0000    99.0424     3.3107     3.4523
  233.5000    98.4215     3.3569     3.4511
  234.0000    98.1049     3.4274     3.5232
  234.5000    96.5707     3.5485     3.6475
  235.0000    99.9071     3.6999     3.8564
  235.5000   105.0699     4.0799     4.1638
  236.0000   111.4505     4.4676     4.5911
  236.5000   112.3546     5.0664     5.4296
  237.0000   110.2085     5.4325     6.1141
  237.5000   109.8919     5.9487     6.7416
  238.0000   113.8372     6.3787     7.1778
  238.5000   117.4780     6.6975     7.4832
  239.0000   118.9909     6.9346     7.5861
  239.5000   118.6713     7.0313     7.6375
  240.0000   118.3548     6.9804     7.5808
  240.5000   118.3426     6.8819     7.4206
  241.0000   117.4172     6.7848     7.2131
  241.5000   115.8830     6.6425     7.0606
  242.0000   115.2650     6.4578     6.7677
  242.5000   119.2072     6.3223     6.5325
  243.0000   123.1524     6.1464     6.4847
  243.5000   127.0977     6.1023     6.4824
  244.0000   121.6060     6.0162     6.5262
  244.5000   118.2453     6.0572     6.6160
  245.0000   115.7979     6.0985     6.7070
  245.5000   117.6122     6.2703     6.7986
  246.0000   121.5574     6.5378     6.8927
  246.5000   125.8071     6.8168     7.0861
  247.0000   124.2728     7.1576     7.3870
  247.5000   119.6945     7.5682     7.8649
  248.0000   116.6382     7.9465     8.1996
  248.5000   115.7128     8.3438     8.4889
  249.0000   115.7006     8.6391     8.6661
  249.5000   115.6885     8.8206     8.8478
  250.0000   115.7875     8.8187     9.0070
  250.5000   115.9675     8.8175     9.2325
  251.0000   119.9209     8.7547     9.4580
  251.5000   127.8204     8.6924     9.7510
  252.0000   129.3151     8.5704     9.9567
  252.5000   124.1046     8.5095    10.0257
  253.0000   117.9969     8.3315     9.8845
  253.5000   116.1797     8.2722     9.5430
  254.0000   119.2328     8.0427     9.2780
  254.5000   121.9331     7.8745     8.8950
  255.0000   121.0046     7.7098     8.4682
  255.5000   120.6849     7.3918     8.0056
  256.0000   120.6575     7.0868     7.6215
  256.5000   120.3501     6.6533     7.2559
  257.0000   120.0162     6.2027     6.8595
  257.5000   118.4779     5.9053     6.4848
  258.0000   118.1735     5.6222     6.1737
  258.5000   118.4629     5.5433     5.8775
  259.0000   119.0565     5.4654     5.7143
  259.5000   119.6692     5.5806     5.7135
  260.0000   122.4759     5.7383     5.8340
  260.5000   126.0335     5.9432     6.0836
  261.0000   122.6038     6.2407     6.3438
  261.5000   119.5423     6.5105     6.6152
  262.0000   117.7476     6.8413     6.9954
  262.5000   121.4612     7.3345     7.2947
  263.0000   124.1888     7.7035     7.7682
  263.5000   125.6168     7.9720     8.1574
  264.0000   122.4434     8.0767     8.5661
  264.5000   117.6712     8.0755     8.8702
  265.0000   117.6864     8.1311     9.0573
  265.5000   121.4196     8.2446     9.2483
  266.0000   125.3659     8.4181     9.3120
  266.5000   126.1344     8.5355     9.0535
  267.0000   122.0578     8.7157     8.8632
  267.5000   119.0664     8.7757     8.7375
  268.0000   119.1233     8.8979     8.5534
  268.5000   120.0223     8.9594     8.3732
  269.0000   121.1877     8.9579     8.3178
  269.5000   122.0857     8.9566     8.3167
  270.0000   122.7195     8.9554     8.3233
  270.5000   123.2730     8.7681     8.4407
  271.0000   120.4323     8.5248     8.6549
  271.5000   118.6763     8.4642     8.8770
  272.0000   121.2744     8.2294     9.2313
  272.5000   127.3516     8.1709     9.4260
  273.0000   130.5029     8.1697     9.4247
  273.5000   126.9478     8.1116     9.4899
  274.0000   123.4703     8.1105     9.3563
  274.5000   123.4551     8.1093     9.2897
  275.0000   123.0847     8.1082     9.1592
  275.5000   122.8158     8.0505     9.0305
  276.0000   124.1767     7.9933     8.7798
  276.5000   126.7965     7.9922     8.4173
  277.0000   128.9681     7.8250     8.1265
  277.5000   131.6388     7.6079     7.9009
  278.0000   133.0905     7.3453     7.7355
  278.5000   132.1035     7.0917     7.6269
