~VERSION INFORMATION
 VERS.                2.0:   CWLS LOG ASCII STANDARD - VERSION 2.0
 WRAP.                 NO:   ONE LINE PER DEPTH STEP
~WELL INFORMATION
#MNEM.UNIT      DATA TYPE    INFORMATION
#----------   ------------   ------------------------------
 STRT.F            7.0000:   START DEPTH
 STOP.F          587.0000:   STOP DEPTH
 STEP.F            0.5000:   STEP LENGTH
 NULL.          -999.2500:   NO VALUE
 COMP. FENIX & SCISSON INC:   COMPANY
 WELL.        NPR-3 #63-3:   WELL
 FLD .             TEAPOT:   FIELD
 LOC .       S3 T38N R78W:   LOCATION
 CNTY.            NATRONA:   COUNTY
 STAT.            WYOMING:   STATE
 CTRY. UNITED STATES OF AMERICA:   COUNTRY
 SRVC.     Wedge Wireline:   SERVICE COMPANY
 DATE.        06-JAN-1978:   LOGDATE
 API .       490251044700:   API NUMBER
~CURVE INFORMATION
#MNEM.UNIT       API CODE    CURVE DESCRIPTION
#----------   ------------   ------------------------------
 DEPT.F                  :   
 ILD .OHMM   05 120 46 00:   INDUCTION LOG DEEP
 SN  .OHMM   05 040 16 00:   SHORT NORMAL
 SPR .MV     05 010 01 00:   SPONTANEOUS POTENTIAL FROM RES.
 CALD.IN     45 280 60 00:   CALIPER FROM DENSITY LOG
 CORR.G/C3   45 356 01 00:   DENSITY CORRECTION
 DPHI.DEC    45 890 12 00:   DENSITY POROSITY SANDSTONE
 GRD .GAPI   45 310 01 00:   GAMMA RAY FROM DENSITY LOG
 RHOB.G/C3   45 350 01 00:   BULK DENSITY
~PARAMETER INFORMATION
#MNEM.UNIT          VALUE    DESCRIPTION
#----------   ------------   ------------------------------
 PD  .                 GL:   PERMANENT DATUM
 EPD .F              5177:   ELEVATION PERMANENT DATUM
 LMF .                 KB:   LOG MEASURED FROM
 DMF .                 KB:   DRILLING MEASURED FROM
 EKB .F              5181:   KELLING BUSHING
 EGL .F              5177:   GROUND LEVEL
 DATE.        06-JAN-1978:   RUN DATE
 RUN .                  1:   RUN NUMBER
 DD  .F               590:   DEPTH DRILLER
 DL  .F               581:   DEPTH LOGGER
 BLI .F               576:   BOTTOM LOG INTERVAL
 TLI .F                20:   TOP LOG INTERVAL
 CS  .IN            9.625:   CASING SIZE
 CBD .F                19:   CASING BOTTOM DRILLER
 CBL .F                19:   CASING BOTTOM LOGGER
 BS  .IN            7.875:   BIT SIZE
 BSD .F               590:   BIT SIZE AT DEPTH
 DFT .                KCL:   DRILLING FLUID TYPE
 DFD .                8.5:   DRILLING FLUID DENSITY
 DFV .                 34:   DRILLING FLUID VISCOSITY
 DFPH.                9.0:   DRILLING FLUID PH
 DFL .                7.8:   DRILLING FLUID LOSS
 MSS .           FLOWLINE:   MUD SAMPLE SOURCE
 RMS .OHMM           0.22:   RESISTIVITY MUD SAMPLE
 MST .F                63:   MUD SAMPLE TEMPERATURE
 RMF .OHMM           0.24:   RESISTIVITY MUD FILTRATE SAMPLE
 MFST.F                63:   MUD FILTRATE SAMPLE TEMPERATURE
 RMC .OHMM           0.48:   RESISTIVITY MUD CAKE
 MCST.F                64:   MUD CAKE SAMPLE TEMPERATURE
 MFSS.               MEAS:   MUD FILTRATE SAMPLE SOURCE
 MCSS.               MEAS:   MUD CAKE SAMPLE SOURCE
 RMB .OHMM           0.19:   RESISTIVITY MUD AT BHT
 BHT .F                71:   BOTTOM HOLE TEMPERATURE
 TCS .HRS               3:   TIME CURCULATED STOPPED
 MRT .F                71:   MAXIMUM RECORDED TEMPERATURE
 LUN .               2958:   LOGGING UNIT NUMBER
 LUL .             CASPER:   LOGGING UNIT LOCATION
 ENGI.             MILLER:   RECORDING ENGINEER
 WITN.         HARRINGTON:   WITNESSED BY
 CLNT.            A2DTECH:   CLIENT CODE
 ORIG.           5" PRINT:   ORIGIN OF DATA
 UWI .       490251044700:   UNIQUE WELL ID
 DICO. A2D Technologies, Inc.:   DIGITIZING COMPANY
~OTHER INFORMATION
~A    DEPT     ILD         SN        SPR       CALD       CORR       DPHI         GRD      RHOB   
# ...
  250.0000     9.2438     7.4596   -50.2907     8.4487    -0.3697     0.1245   110.7202     2.4441
  250.5000     9.2870     7.6003   -49.9601     8.4457    -0.3636     0.1263   111.0244     2.4472
  251.0000     9.4402     7.7610   -49.7180     8.4416    -0.3696     0.1284   106.9490     2.4480
  251.5000     9.7082     7.9252   -49.4758     8.4375    -0.3772     0.1305   102.2401     2.4497
  252.0000     9.9829     8.0372   -49.2337     8.4333    -0.3923     0.1290   101.3675     2.4526
  252.5000    10.2654     8.2073   -49.0552     8.4292    -0.3816     0.1232   108.4299     2.4550
  253.0000    10.4114     8.2662   -48.8930     8.4251    -0.3755     0.1211   111.3780     2.4573
  253.5000    10.5594     8.2689   -48.7337     8.4224    -0.3754     0.1247   112.2703     2.4566
  254.0000    10.7096     8.2711   -48.7198     8.4082    -0.3799     0.1278   111.6162     2.4535
  254.5000    10.7881     8.2733   -48.7058     8.4087    -0.3844     0.1283   108.4777     2.4506
  255.0000    10.7916     8.2754   -48.6919     8.4091    -0.3874     0.1256   104.6710     2.4530
  255.5000    10.7952     8.2776   -48.8233     8.4095    -0.3859     0.1237   100.5706     2.4575
  256.0000    10.7988     8.2753   -48.9547     8.4100    -0.3752     0.1216    98.2324     2.4614
  256.5000    10.7281     8.2252   -48.9372     8.4105    -0.3661     0.1207   100.3434     2.4568
  257.0000    10.7318     8.1708   -49.3593     8.4109    -0.3645     0.1246   103.8377     2.4530
  257.5000    10.7361     8.0064   -49.4942     8.4113    -0.3660     0.1282   105.3145     2.4506
  258.0000    10.5926     7.8989   -49.7674     8.4117    -0.3690     0.1324   100.6296     2.4487
  258.5000    10.5233     7.8467   -50.0442     8.4122    -0.3704     0.1354    97.1166     2.4480
  259.0000    10.3826     7.7414   -50.4663     8.4273    -0.3719     0.1369    94.7784     2.4466
  259.5000    10.1735     7.6903   -50.8849     8.4277    -0.3703     0.1379    93.6148     2.4426
  260.0000    10.0375     7.5876   -51.1651     8.4282    -0.3673     0.1396   100.3837     2.4361
  260.5000     9.7685     7.4857   -51.5837     8.4286    -0.3627     0.1426   104.8002     2.4286
  261.0000     9.2474     7.3341   -51.8605     8.4291    -0.3566     0.1487   104.5177     2.4219
  261.5000     8.4575     7.0394   -52.0155     8.4295    -0.3645     0.1596   100.4174     2.4144
  262.0000     7.6291     6.7562   -51.9744     8.4299    -0.3822     0.1617    95.3970     2.4083
  262.5000     6.8346     6.5743   -51.3791     8.4304    -0.3989     0.1537    96.9184     2.4046
  263.0000     6.2945     6.3973   -50.4930     8.4308    -0.4109     0.1466    99.5728     2.4145
  263.5000     6.0833     6.2681   -49.7523     8.4312    -0.4141     0.1407   100.7560     2.4304
  264.0000     6.1274     6.3135   -49.1570     8.4317    -0.4077     0.1316    97.2458     2.4426
  264.5000     6.4769     6.4028   -48.9971     8.4322    -0.3987     0.1265    90.7959     2.4479
  265.0000     6.9415     6.5839   -48.9802     8.4326    -0.3911     0.1207    87.2857     2.4533
  265.5000     7.6560     6.9587   -48.9663     8.4330    -0.3819     0.1165    86.4131     2.4586
  266.0000     8.9035     7.2543   -48.9523     8.4334    -0.3728     0.1125    87.3082     2.4647
  266.5000     9.8089     7.5624   -48.9384     8.4339    -0.3590     0.1086    90.8437     2.4715
  267.0000    10.4402     7.7757   -48.9244     8.4344    -0.3454     0.1052    97.0223     2.4784
  267.5000    10.8100     7.9951   -48.9099     8.4347    -0.3408     0.1031   102.6627     2.4853
  268.0000    10.9637     8.1087   -48.8930     8.4352    -0.3438     0.1013   105.5645     2.4913
  268.5000    11.1258     8.2233   -48.8791     8.4356    -0.3498     0.1010   106.4568     2.4952
  269.0000    11.2786     8.2824   -48.5744     8.4361    -0.3498     0.1021   106.1743     2.4982
  269.5000    11.4389     8.2846   -48.5605     8.4366    -0.3437     0.1036   105.3045     2.4952
  270.0000    11.5219     8.2867   -48.5465     8.4370    -0.3421     0.1051   103.8473     2.4915
  270.5000    11.7665     8.2320   -48.5291     8.4374    -0.3451     0.1048   102.3929     2.4863
  271.0000    11.8519     8.2347   -48.5151     8.4378    -0.3496     0.1030   101.8139     2.4833
  271.5000    11.9578     8.2369   -48.3558     8.4319    -0.3533     0.1012   101.5315     2.4804
  272.0000    12.1923     8.2961   -48.3419     8.4240    -0.3571     0.1030   100.9582     2.4827
  272.5000    12.2807     8.2982   -48.3279     8.4245    -0.3586     0.1063   100.9694     2.4850
  273.0000    12.4553     8.3004   -48.4593     8.4293    -0.3585     0.1072   100.9809     2.4889
  273.5000    12.5456     8.3601   -48.4448     8.4400    -0.3600     0.1038   101.5820     2.4859
  274.0000    12.6366     8.3628   -48.4279     8.4405    -0.3599     0.1029   101.5933     2.4799
  274.5000    12.8164     8.3650   -48.4140     8.4410    -0.3599     0.1071   101.8982     2.4777
  275.0000    12.9102     8.4250   -48.2547     8.4414    -0.3598     0.1089   102.2031     2.4807
  275.5000    12.9145     8.4855   -48.2407     8.4418    -0.3613     0.1080   102.8018     2.4838
  276.0000    13.0081     8.4878   -48.2267     8.4422    -0.3628     0.1065   103.4031     2.4778
  276.5000    12.9230     8.4906   -48.1880     8.4427    -0.3643     0.1086   104.5891     2.4711
  277.0000    12.6604     8.4339   -48.0500     8.4432    -0.3672     0.1116   105.7751     2.4681
  277.5000    12.3234     8.4367   -48.0360     8.4436    -0.3702     0.1125   107.5484     2.4704
  278.0000    12.1576     8.3805   -48.0221     8.4440    -0.3732     0.1097   108.7344     2.4735
  278.5000    11.9137     8.3257   -48.1541     8.4444    -0.3747     0.1110   109.0396     2.4711
  279.0000    11.6737     8.2707   -48.2849     8.4450    -0.3762     0.1130   109.3470     2.4646
  279.5000    11.5175     8.1042   -48.5853     8.4453    -0.3791     0.1124   109.3583     2.4669
  280.0000    11.2081     7.9400   -48.8384     8.4458    -0.3821     0.1118   110.2506     2.4699
  280.5000    10.9077     7.8334   -49.2605     8.4462    -0.3851     0.1136   111.7302     2.4640
  281.0000    10.6880     7.6758   -49.6791     8.4320    -0.3851     0.1173   113.5135     2.4572
  281.5000    10.4718     7.5727   -49.9593     8.4325    -0.3790     0.1223   114.9860     2.4535
  282.0000    10.1912     7.4711   -50.3779     8.4329    -0.3697     0.1251   116.1720     2.4528
  282.5000     9.9173     7.4218   -50.7965     8.4333    -0.3585     0.1272   117.0643     2.4506
  283.0000     9.6437     7.3221   -51.0767     8.4191    -0.3440     0.1284   118.2503     2.4453
  283.5000     9.3276     7.2238   -51.4988     8.4195    -0.3348     0.1295   118.8489     2.4393
  284.0000     9.0145     7.0784   -52.0628     8.4199    -0.3257     0.1324   117.6466     2.4298
  284.5000     8.5927     6.9355   -52.4849     8.4205    -0.3196     0.1395   115.0563     2.4115
  285.0000     8.1905     6.8300   -52.7616     8.4355    -0.3120     0.1731   111.5433     2.3934
  285.5000     7.7003     6.5675   -53.2074     8.4506    -0.3089     0.1838   108.3239     2.3761
  286.0000     7.0146     6.2600   -53.6023     8.4510    -0.3073     0.2035   105.6920     2.3588
  286.5000     6.2233     5.9668   -53.7372     8.4515    -0.3103     0.2233   102.4287     2.3388
  287.0000     5.4235     5.6484   -53.8686     8.4520    -0.3194     0.2372    98.6688     2.3000
  287.5000     4.8587     5.0602   -53.8512     8.4524    -0.3314     0.2429    97.5053     2.2706
  288.0000     4.2931     4.4716   -53.6919     8.4528    -0.3481     0.2535    97.2200     2.2533
  288.5000     3.9528     4.1750   -53.3624     8.4532    -0.3783     0.2426   101.6394     2.2465
  289.0000     3.8473     3.9522   -52.9337     8.4537    -0.4055     0.2416   104.8811     2.2466
  289.5000     3.8489     3.8458   -52.6291     8.4542    -0.4207     0.2262   107.5801     2.2563
  290.0000     3.9578     3.8468   -52.3244     8.4545    -0.4174     0.1865   109.0180     2.2890
