~VERSION INFORMATION
 VERS.                2.0:   CWLS LOG ASCII STANDARD - VERSION 2.0
 WRAP.                 NO:   ONE LINE PER DEPTH STEP
~WELL INFORMATION
#MNEM.UNIT      DATA TYPE    INFORMATION
#----------   ------------   ------------------------------
 STRT.F            0.0000:   START DEPTH
 STOP.F         3315.0000:   STOP DEPTH
 STEP.F            0.5000:   STEP LENGTH
 NULL.          -999.2500:   NO VALUE
 COMP. LAWRENCE/ALLISON INC     84-AX-:   COMPANY
 WELL.          SHX3 #1-3:   WELL
 FLD .            WILDCAT:   FIELD
 LOC .       S3 T38N R78W:   LOCATION
 CNTY.            NATRONA:   COUNTY
 STAT.            WYOMING:   STATE
 CTRY. UNITED STATES OF AMERICA:   COUNTRY
 SRVC.      Dresser Atlas:   SERVICE COMPANY
 DATE.        20-JAN-1986:   LOGDATE
 API .       490251104200:   API NUMBER
~CURVE INFORMATION
#MNEM.UNIT       API CODE    CURVE DESCRIPTION
#----------   ------------   ------------------------------
 DEPT.F                  :   
 SPR .MV     07 010 01 00:   SPONTANEOUS POTENTIAL
 RILD.OHMM   07 120 46 00:   INDUCTION LOG DEEP RESISTIVITY
 RILM.OHMM   07 120 44 00:   INDUCTION LOG MEDIUM RESISTIVITY
 RFOC.OHMM   07 220 04 00:   RESISTIVITY FOCUSED LOG
 AC  .US/F   60 520 00 00:   ACCOUSTIC
 CALD.IN     45 280 60 00:   CALIPER FROM DENSITY
 CORR.G/C3   45 356 01 00:   DENSITY CORRECTION
 DEN .G/C3   45 350 01 00:   COMPENSATED BULK DENSTIY
 PORD.DEC    45 890 12 00:   POROSITY DENSITY SANDSTONE
 CNC .DEC    42 890 03 00:   NEUTRON POROSITY SANDSTONE
 GRR .GAPI   07 310 01 00:   GAMMA RAY
~PARAMETER INFORMATION
#MNEM.UNIT          VALUE    DESCRIPTION
#----------   ------------   ------------------------------
 PD  .                 GL:   PERMANENT DATUM
 EPD .F              5136:   ELEVATION PERMANENT DATUM
 LMF .                 KB:   LOG MEASURED FROM
 DAPD.F                11:   FEET ABOVE PERMANENT DATUM
 DMF .                 KB:   DRILLING MEASURED FROM
 EKB .F              5147:   KELLING BUSHING
 EGL .F              5136:   GROUND LEVEL
 DATE.        26-JAN-1986:   RUN DATE
 RUN .                  1:   RUN NUMBER
 DD  .F              3320:   DEPTH DRILLER
 DL  .F              3317:   DEPTH LOGGER
 BLI .F              3315:   BOTTOM LOG INTERVAL
 CS  .IN            8.625:   CASING SIZE
 CBD .F               550:   CASING BOTTOM DRILLER
 CBL .F               592:   CASING BOTTOM LOGGER
 BS  .IN            7.875:   BIT SIZE
 BSD .F              3320:   BIT SIZE AT DEPTH
 DFT .        POLYMER KCL:   DRILLING FLUID TYPE
 DFD .                9.1:   DRILLING FLUID DENSITY
 DFV .                 38:   DRILLING FLUID VISCOSITY
 DFPH.                 10:   DRILLING FLUID PH
 DFL .                8.5:   DRILLING FLUID LOSS
 MSS .           FLOWLINE:   MUD SAMPLE SOURCE
 RMS .OHMM           .435:   RESISTIVITY MUD SAMPLE
 MST .F                72:   MUD SAMPLE TEMPERATURE
 RMF .OHMM           .352:   RESISTIVITY MUD FILTRATE SAMPLE
 MFST.F                72:   MUD FILTRATE SAMPLE TEMPERATURE
 RMC .OHMM            .54:   RESISTIVITY MUD CAKE
 MCST.F                72:   MUD CAKE SAMPLE TEMPERATURE
 MFSS.               MEAS:   MUD FILTRATE SAMPLE SOURCE
 MCSS.               MEAS:   MUD CAKE SAMPLE SOURCE
 RMB .OHMM            .29:   RESISTIVITY MUD AT BHT
 BHT .F               108:   BOTTOM HOLE TEMPERATURE
 TCS .HRS               3:   TIME CURCULATED STOPPED
 MRT .F               108:   MAXIMUM RECORDED TEMPERATURE
 LUN .               6274:   LOGGING UNIT NUMBER
 LUL .               GLTE:   LOGGING UNIT LOCATION
 ENGI.             RAUTIO:   RECORDING ENGINEER
 WITN.             STRONG:   WITNESSED BY
 CLNT.            A2DTECH:   CLIENT CODE
 ORIG.       2", 5" PRINT:   ORIGIN OF DATA
 UWI .       490251104200:   UNIQUE WELL ID
 DICO. A2D Technologies, Inc.:   DIGITIZING COMPANY
~OTHER INFORMATION
~A    DEPT     SPR       RILD       RILM       RFOC         AC       CALD       CORR        DEN       PORD        CNC        GRR   
# ...
 3172.0000   -39.3525     5.4265     6.0874     8.1498    73.8078     8.2142     0.0166     2.5259     0.0774     0.1916    59.1168
 3172.5000   -39.1982     5.3507     5.7979     9.0429    73.6608     8.2133     0.0076     2.5166     0.0804     0.2118    57.4587
 3173.0000   -39.4978     5.2755     5.5222     7.5501    74.4934     8.2124     0.0151     2.5181     0.0786     0.2187    57.0094
 3173.5000   -39.4947     5.1653     5.2596     6.3039    75.9265     8.2115     0.0301     2.5211     0.0768     0.2241    58.0759
 3174.0000   -39.6430     4.9878     5.0095     5.8405    77.2091     8.2106     0.0376     2.5181     0.0780     0.2302    59.4435
 3174.5000   -39.7913     4.8163     4.7713     5.6410    79.1685     8.2248     0.0346     2.5151     0.0813     0.2335    59.7788
 3175.0000   -39.8135     4.6454     4.6723     5.3734    80.3008     8.2239     0.0316     2.5143     0.0819     0.2332    58.5479
 3175.5000   -39.9366     4.4658     4.6072     5.0830    80.9103     8.2228     0.0286     2.5150     0.0825     0.2341    57.1924
 3176.0000   -40.0841     4.3132     4.5731     4.9094    81.2120     8.2219     0.0285     2.5150     0.0822     0.2362    55.6855
 3176.5000   -40.0811     4.1658     4.4799     4.9776    80.8301     8.2364     0.0315     2.5150     0.0819     0.2362    55.0864
 3177.0000   -40.2302     4.0797     4.3502     5.1888    80.3799     8.2353     0.0361     2.5142     0.0815     0.2368    55.6976
 3177.5000   -40.3785     4.0232     4.1456     5.4850    80.2479     8.2344     0.0405     2.5082     0.0827     0.2377    57.3678
 3178.0000   -40.6780     3.9127     4.0029     5.4780    80.6294     8.2335     0.0367     2.4984     0.0894     0.2404    58.8867
 3178.5000   -40.9776     3.8318     3.8701     4.8617    82.2128     8.2326     0.0179     2.4871     0.0972     0.2422    59.3466
 3179.0000   -41.2772     3.7267     3.8161     4.4494    82.9691     8.2317     0.0149     2.4818     0.1008     0.2440    58.8988
 3179.5000   -41.4254     3.6244     3.8422     4.4222    83.4247     8.2308     0.0193     2.4810     0.1023     0.2452    57.5432
 3180.0000   -41.2704     3.5742     3.8685     4.4837    83.2788     8.2299     0.0354     2.4841     0.0992     0.2477    55.1287
 3180.5000   -41.1161     3.5739     3.8949     4.5146    82.7569     8.2290     0.0511     2.4902     0.0958     0.2507    54.2269
 3181.0000   -40.8105     3.5489     3.9487     4.4830    82.6099     8.2281     0.0600     2.4954     0.0923     0.2488    55.2921
 3181.5000   -40.6562     3.5487     3.9758     4.4517    82.7658     8.2272     0.0479     2.4983     0.0902     0.2390    56.3571
 3182.0000   -40.5020     3.5239     3.9751     4.4514    82.9207     8.2263     0.0374     2.4990     0.0890     0.2356    56.9683
 3182.5000   -40.6510     3.5237     3.9471     4.5763    82.1733     8.2102     0.0314     2.4983     0.0893     0.2413    55.7640
 3183.0000   -40.6472     3.5234     3.9192     4.7374    81.8770     8.2093     0.0223     2.4930     0.0911     0.2536    55.9213
 3183.5000   -40.7963     3.5477     3.8916     4.9043    81.7299     8.2085     0.0043     2.4847     0.0929     0.2524    56.9870
 3184.0000   -40.7925     3.5722     3.8641     4.7368    82.4122     8.2076    -0.0033     2.4786     0.0971     0.2506    57.2950
 3184.5000   -40.7895     3.6219     3.8906     4.5120    83.0934     8.2067    -0.0063     2.4764     0.1019     0.2533    57.1497
 3185.0000   -40.6352     3.6978     3.9172     4.5117    83.7745     8.2057     0.0027     2.4764     0.1043     0.2527    57.4634
 3185.5000   -40.6322     3.8281     4.0268     4.5429    84.2301     8.2048     0.0117     2.4778     0.1046     0.2461    58.0764
 3186.0000   -40.6292     3.9907     4.2267     4.4182    84.3117     8.2039     0.0072     2.4823     0.1037     0.2365    57.7490
 3186.5000   -40.4749     4.2988     4.5298     4.2085    84.1474     8.2030    -0.0244     2.4869     0.1019     0.2216    56.5591
 3187.0000   -40.3206     4.7239     4.9226     4.3266    82.4607     8.2019    -0.0274     2.4929     0.0983     0.2078    55.9588
 3187.5000   -40.1664     5.3032     5.3867     4.8341    80.1883     8.2164    -0.0184     2.4989     0.0937     0.2048    54.8659
 3188.0000   -39.8608     6.3958     5.6540     5.9517    75.5317     8.2153    -0.0109     2.5019     0.0898     0.2029    52.4596
 3188.5000   -39.7065     7.0480     5.8529     6.9806    74.2580     8.2144    -0.0034     2.5011     0.0874     0.1968    50.8128
 3189.0000   -39.4009     7.1958     6.1009     7.4297    73.9617     8.2288     0.0011     2.4965     0.0889     0.1932    49.7569
 3189.5000   -39.2466     7.1953     6.3155     7.7448    73.9661     8.2277    -0.0022     2.4927     0.0913     0.1924    48.8523
 3190.0000   -39.0923     6.9978     6.4031     7.9621    73.9706     8.2268    -0.0050     2.4905     0.0949     0.1942    48.2903
 3190.5000   -38.9380     6.7119     6.4098     8.1855    74.0502     8.2259     0.0116     2.4920     0.0967     0.2210    50.1994
 3191.0000   -38.7837     6.3489     6.3129     8.2993    74.5810     8.2250     0.0296     2.4973     0.0937     0.2231    52.4336
 3191.5000   -38.9320     6.0895     6.1820     8.1820    75.6381     8.2241     0.0431     2.5025     0.0903     0.2216    52.6959
 3192.0000   -39.1084     5.9636     6.0537     7.8329    76.9211     8.2232     0.0461     2.5070     0.0873     0.2219    52.7020
 3192.5000   -39.5304     5.8810     5.9282     6.8533    77.6775     8.2377     0.0341     2.5078     0.0852     0.2282    52.7080
 3193.0000   -39.9813     5.7196     5.7651     6.2803    77.8323     8.2365     0.0220     2.4995     0.0858     0.2325    52.3822
 3193.5000   -40.1303     5.5241     5.5676     6.2431    77.9871     8.2357     0.0130     2.4919     0.0880     0.2301    51.6623
 3194.0000   -40.2786     5.3725     5.3765     6.3297    78.2172     8.2348     0.0039     2.4881     0.0923     0.2276    52.4248
 3194.5000   -40.1236     5.2250     5.2655     6.3735    78.4472     8.2339    -0.0051     2.4866     0.0969     0.2243    53.7924
 3195.0000   -39.9693     5.1170     5.2647     6.1985    78.6020     8.2330    -0.0111     2.4858     0.0981     0.2144    53.4959
 3195.5000   -40.1183     5.0813     5.3410     5.8636    78.6065     8.2321    -0.0157     2.4858     0.0987     0.2080    51.0813
 3196.0000   -40.4171     5.0809     5.4160     5.6242    78.6109     8.2312    -0.0157     2.4881     0.0993     0.2056    49.2719
 3196.5000   -40.5662     5.0806     5.5301     5.5850    78.5402     8.2151    -0.0112     2.4926     0.0990     0.2047    48.9739
 3197.0000   -40.7137     5.1156     5.6010     5.9856    78.3191     8.2142    -0.0052     2.4978     0.0966     0.2044    49.8891
 3197.5000   -40.7107     5.1509     5.6001     6.2395    77.7973     8.2133     0.0070     2.5023     0.0929     0.2065    51.4080
 3198.0000   -40.7077     5.1505     5.4839     6.2826    76.7491     8.2100     0.0175     2.5038     0.0872     0.2086    53.2295
 3198.5000   -40.7047     5.1145     5.2961     6.2821    76.3774     8.1962     0.0236     2.5007     0.0857     0.2167    54.7484
 3199.0000   -40.7017     5.0437     5.1504     6.3694    76.3821     8.1802     0.0354     2.4985     0.0884     0.2310    56.2673
 3199.5000   -40.5474     4.9738     5.0787     6.4579    76.6121     8.1793     0.0474     2.5008     0.0899     0.2442    57.6349
 3200.0000   -40.3938     4.8710     5.0429     6.2808    77.2180     8.1946     0.0538     2.5042     0.0905     0.2439    58.2974
 3200.5000   -40.5411     4.8328     4.9903     5.7671    78.4754     8.2057     0.0583     2.5085     0.0872     0.2360    58.9335
 3201.0000   -40.6901     4.7945     4.9384     5.3881    79.4094     8.2167     0.0470     2.5129     0.0844     0.2285    59.5696
 3201.5000   -40.8384     4.7696     5.0070     5.2083    80.0913     8.2204     0.0351     2.5143     0.0820     0.2167    60.2350
 3202.0000   -40.6833     4.8025     5.1120     5.4796    80.0965     8.2189     0.0263     2.5105     0.0829     0.2158    58.8810
