~VERSION INFORMATION
 VERS.                2.0:   CWLS LOG ASCII STANDARD - VERSION 2.0
 WRAP.                 NO:   ONE LINE PER DEPTH STEP
~WELL INFORMATION
#MNEM.UNIT      DATA TYPE    INFORMATION
#----------   ------------   ------------------------------
 STRT.F           20.0000:   START DEPTH
 STOP.F          436.5000:   STOP DEPTH
 STEP.F            0.5000:   STEP LENGTH
 NULL.          -999.2500:   NO VALUE
 COMP. FENIX & SCISSON INC:   COMPANY
 WELL. NPR 3 SX-10 #55-10:   WELL
 FLD .        YEAPOT DOME:   FIELD
 LOC .      S10 T38N R78W:   LOCATION
 CNTY.            NATRONA:   COUNTY
 STAT.            WYOMING:   STATE
 CTRY. UNITED STATES OF AMERICA:   COUNTRY
 SRVC.           BIRDWELL:   SERVICE COMPANY
 DATE.        06-JUN-1978:   LOGDATE
 API .       490251062900:   API NUMBER
~CURVE INFORMATION
#MNEM.UNIT       API CODE    CURVE DESCRIPTION
#----------   ------------   ------------------------------
 DEPT.F                  :   
 GRD .GAPI   45 310 01 00:   GAMMA RAY FROM DENSITY LOG
 CALD.IN     45 280 60 00:   CALIPER FROM DENSITY LOG
 RHOB.G/C3   45 350 01 00:   BULK DENSITY
 DPHI.DEC    45 890 12 00:   DENSITY POROSITY SANDSTONE
 CORR.G/C3   45 356 01 00:   DENSITY CORRECTION
 SPR .MV     05 010 01 00:   SPONTANEOUS POTENTIAL FROM RES.
 SN  .OHMM   05 040 16 00:   SHORT NORMAL 16"
 ILD .OHMM   05 120 46 00:   INDUCTION LOG DEEP
~PARAMETER INFORMATION
#MNEM.UNIT          VALUE    DESCRIPTION
#----------   ------------   ------------------------------
 PD  .                 GL:   PERMANENT DATUM
 EPD .F              5202:   ELEVATION PERMANENT DATUM
 LMF .                 KB:   LOG MEASURED FROM
 DAPD.F                 4:   FEET ABOVE PERMANENT DATUM
 DMF .                 KB:   DRILLING MEASURED FROM
 EKB .F              5206:   KELLING BUSHING
 EGL .F              5202:   GROUND LEVEL
 DATE.             6-6-78:   RUN DATE
 RUN .                  1:   RUN NUMBER
 DD  .F               425:   DEPTH DRILLER
 DL  .F               436:   DEPTH LOGGER
 BLI .F               432:   BOTTOM LOG INTERVAL
 TLI .F                40:   TOP LOG INTERVAL
 CS  .IN            8.625:   CASING SIZE
 CBD .F                40:   CASING BOTTOM DRILLER
 CBL .F                40:   CASING BOTTOM LOGGER
 BS  .IN            7.875:   BIT SIZE
 BSD .F               425:   BIT SIZE AT DEPTH
 DFT .            KCL/OIL:   DRILLING FLUID TYPE
 DFD .                8.6:   DRILLING FLUID DENSITY
 DFV .                 34:   DRILLING FLUID VISCOSITY
 DFPH.                 10:   DRILLING FLUID PH
 DFL .                7.6:   DRILLING FLUID LOSS
 MSS .                PIT:   MUD SAMPLE SOURCE
 TCS .HRS               4:   TIME CURCULATED STOPPED
 LUN .               2958:   LOGGING UNIT NUMBER
 LUL .               CASP:   LOGGING UNIT LOCATION
 ENGI.            POINTER:   RECORDING ENGINEER
 WITN.           MCGINLEY:   WITNESSED BY
 CLNT.            A2DTECH:   CLIENT CODE
 ORIG. 1", 2", 2.5", 5" PRINT:   ORIGIN OF DATA
 UWI .       490251062900:   UNIQUE WELL ID
 DICO. A2D Technologies, Inc.:   DIGITIZING COMPANY
~OTHER INFORMATION
~A   DEPT       GRD      CALD       RHOB       DPHI       CORR        SPR         SN        ILD   
# ...
  222.5000   104.3499     7.9746     2.4839     0.1205     0.0325   -64.7027     7.0118     4.9861
  223.0000   101.5597     8.0311     2.4823     0.1205     0.0325   -70.9496     7.0000     5.1884
  223.5000   101.6458     8.0850     2.4813     0.1213     0.0325   -80.1433     6.9883     5.1145
  224.0000   101.9491     8.1414     2.4779     0.1261     0.0325   -83.8294     6.9764     5.0470
  224.5000   102.4249     8.1941     2.4688     0.1306     0.0326   -84.7704     6.9410     5.1884
  225.0000   102.1458     8.2523     2.4598     0.1351     0.0326   -85.7782     6.7894     5.0007
  225.5000   101.4481     8.2836     2.4506     0.1396     0.0356   -86.8622     6.6420     4.7708
  226.0000   100.8126     8.2772     2.4437     0.1441     0.0395   -86.4564     6.4976     4.5514
  226.5000   100.1675     8.2754     2.4365     0.1489     0.0433   -84.9103     6.3564     4.3422
  227.0000    99.5192     8.2729     2.4454     0.1443     0.0471   -82.4441     6.2183     4.1594
  227.5000    98.8821     8.2698     2.4655     0.1353     0.0490   -80.1134     6.1239     4.1812
  228.0000    98.0720     8.2674     2.4767     0.1268     0.0500   -79.7529     6.1948     4.2023
  228.5000    97.3265     8.2646     2.4792     0.1245     0.0509   -79.5405     6.2497     4.2228
  229.0000    97.2518     8.2619     2.4826     0.1223     0.0519   -78.9893     6.3368     4.3027
  229.5000    97.1554     8.2592     2.4880     0.1205     0.0516   -78.3469     6.5824     4.4871
  230.0000    97.0759     8.2565     2.4955     0.1148     0.0496   -75.7876     6.8374     4.6795
  230.5000    97.0136     8.2538     2.5022     0.1100     0.0477   -73.2596     7.1023     4.8801
  231.0000    96.6967     8.2511     2.5093     0.1047     0.0387   -70.7440     7.3774     5.0893
  231.5000    95.8934     8.2484     2.5088     0.1068     0.0327   -70.6057     7.6401     5.3075
  232.0000    95.4777     8.2458     2.5071     0.1091     0.0251   -70.6063     7.7629     5.5350
  232.5000    95.8938     8.2430     2.5038     0.1115     0.0262   -70.5928     7.8792     5.7492
  233.0000    96.2912     8.2420     2.5003     0.1142     0.0277   -70.5763     7.9972     5.8096
  233.5000    96.9416     8.2421     2.5000     0.1142     0.0296   -70.5598     8.0765     5.8707
  234.0000    97.8844     8.2421     2.4999     0.1142     0.0312   -70.5433     8.0865     5.9324
  234.5000    98.9390     8.2421     2.5001     0.1142     0.0329   -70.5269     8.0961     5.9650
  235.0000    99.0001     8.2421     2.4999     0.1142     0.0346   -70.5104     8.1058     5.9776
  235.5000    98.0638     8.2421     2.5009     0.1121     0.0363   -70.4939     8.1156     5.9903
  236.0000    97.9634     8.2421     2.5039     0.1093     0.0355   -70.4773     8.1253     6.0031
  236.5000    98.6192     8.2421     2.5050     0.1071     0.0345   -70.4603     8.1352     6.0160
  237.0000    99.1815     8.2421     2.5015     0.1086     0.0334   -70.4364     8.1471     6.0289
  237.5000    99.7573     8.2421     2.4982     0.1119     0.0327   -70.7016     8.1343     6.0418
  238.0000   100.3396     8.2421     2.4947     0.1153     0.0333   -71.0716     8.1160     6.0547
  238.5000   100.9713     8.2421     2.4913     0.1182     0.0339   -72.2331     8.0978     6.0677
  239.0000   101.2413     8.2421     2.4879     0.1189     0.0345   -73.0603     8.0797     6.0807
  239.5000   100.8631     8.2421     2.4847     0.1197     0.0351   -73.6508     8.0616     6.0937
  240.0000   100.5078     8.2420     2.4862     0.1190     0.0357   -73.8470     8.0436     6.1066
  240.5000    99.5677     8.2422     2.4898     0.1184     0.0363   -74.0469     8.0256     6.1202
  241.0000    98.4814     8.2420     2.4914     0.1177     0.0361   -74.8166     8.0076     6.1617
  241.5000    97.3583     8.2419     2.4885     0.1173     0.0346   -75.6711     7.9897     6.2182
  242.0000    96.9173     8.2430     2.4857     0.1198     0.0332   -76.1658     7.9718     6.2748
  242.5000    97.0620     8.2296     2.4828     0.1222     0.0317   -76.5828     7.9539     6.3318
  243.0000    97.1294     8.1938     2.4800     0.1247     0.0302   -76.6543     7.9361     6.3894
  243.5000    97.2185     8.1581     2.4757     0.1271     0.0287   -76.6544     7.8804     6.4125
  244.0000    97.3479     8.1243     2.4577     0.1349     0.0287   -76.6534     7.7699     5.8543
  244.5000    97.0296     8.0862     2.4377     0.1480     0.0285   -76.6536     7.5411     5.4297
  245.0000    96.1695     8.0837     2.4160     0.1611     0.0287   -76.6540     7.1783     5.0358
  245.5000    95.0982     8.0828     2.3970     0.1742     0.0291   -76.6639     6.8329     4.7756
  246.0000    97.1469     8.0835     2.3790     0.1821     0.0421   -76.1904     6.5042     4.8595
  246.5000   100.0680     8.0834     2.4159     0.1836     0.0556   -75.4729     6.2955     4.9253
  247.0000   102.3438     8.0830     2.4548     0.1509     0.0435   -74.3531     6.2955     4.9920
  247.5000   103.5095     8.0832     2.4903     0.1230     0.0292   -73.2322     6.3538     5.0596
  248.0000   105.3749     8.0846     2.5062     0.0992     0.0289   -72.1037     6.9378     5.1281
  248.5000   107.4144     8.0792     2.5212     0.0960     0.0254   -70.6549     7.6604     5.6952
  249.0000   108.9835     8.1237     2.5292     0.0973     0.0184   -67.9570     8.4583     6.4125
  249.5000   101.4735     8.1975     2.5203     0.1021     0.0113   -63.8426     9.2717     6.7771
  250.0000    92.8967     8.2641     2.5118     0.1069     0.0101   -56.3036     9.5329     7.1419
  250.5000    88.1047     8.3343     2.5029     0.1118     0.0168   -45.0429     9.7948     7.5263
  251.0000    87.7909     8.3606     2.4943     0.1158     0.0231   -35.8856     9.8910     7.8892
  251.5000    86.6224     8.3514     2.4920     0.1149     0.0298   -35.6137     9.9909     8.1931
  252.0000    86.2391     8.3462     2.4915     0.1142     0.0327   -35.4497    10.0928     8.5089
  252.5000    86.4678     8.3407     2.4840     0.1198     0.0309   -35.2343    10.1959     8.8368
  253.0000    86.5742     8.3345     2.4769     0.1247     0.0294   -34.7552    10.3000     8.9337
  253.5000    85.5310     8.3291     2.4676     0.1300     0.0298   -34.2806    10.4052     8.9337
  254.0000    83.9516     8.3231     2.4547     0.1383     0.0341   -33.8058    10.8601     8.9337
  254.5000    82.4015     8.3213     2.4371     0.1474     0.0384   -33.3318    11.5923     9.2286
  255.0000    80.8499     8.3214     2.4187     0.1565     0.0407   -32.8591    12.2945     9.9319
  255.5000    79.0870     8.3214     2.4084     0.1656     0.0403   -32.3624    12.9249    10.6887
  256.0000    75.6473     8.3214     2.3976     0.1742     0.0397   -31.3599    13.5940    11.5031
  256.5000    71.5817     8.3214     2.3921     0.1741     0.0268   -30.3086    14.2969    12.3797
  257.0000    67.5504     8.3215     2.3880     0.1775     0.0203   -29.5701    14.6708    13.3230
  257.5000    63.1105     8.3214     2.3783     0.1852     0.0221   -29.1235    15.0715    13.7368
  258.0000    57.5621     8.3213     2.3641     0.1930     0.0231   -29.0351    15.4830    13.9005
  258.5000    56.5047     8.3186     2.3517     0.2008     0.0243   -28.8526    15.7604    13.9005
  259.0000    56.6926     8.3158     2.3393     0.2088     0.0209   -28.2812    15.9264    13.9005
  259.5000    56.8609     8.3130     2.3431     0.2050     0.0160   -27.6948    16.0941    13.9005
  260.0000    55.8353     8.3102     2.3482     0.2011     0.0106   -27.5293    16.2636    13.9005
  260.5000    56.7323     8.3074     2.3474     0.1978     0.0117   -27.4912    16.4350    13.9005
  261.0000    58.9411     8.3046     2.3412     0.2029     0.0181   -27.4565    16.6088    13.9005
  261.5000    61.0390     8.3018     2.3364     0.2078     0.0238   -27.4204    16.7284    13.9005
  262.0000    61.7932     8.2990     2.3426     0.2051     0.0299   -27.3841    16.7701    13.9005
  262.5000    61.9706     8.2962     2.3514     0.1998     0.0328   -27.3477    16.8111    13.9003
