~VERSION INFORMATION
 VERS.                2.0:   CWLS LOG ASCII STANDARD - VERSION 2.0
 WRAP.                 NO:   ONE LINE PER DEPTH STEP
~WELL INFORMATION
#MNEM.UNIT      DATA TYPE    INFORMATION
#----------   ------------   ------------------------------
 STRT.F           30.0000:   START DEPTH
 STOP.F          481.0000:   STOP DEPTH
 STEP.F            0.5000:   STEP LENGTH
 NULL.          -999.2500:   NO VALUE
 COMP. FENIX & SCISSON INC:   COMPANY
 WELL.       NPR-3 #47-10:   WELL
 FLD .             TEAPOT:   FIELD
 LOC .      S10 T38N R78W:   LOCATION
 CNTY.            NATRONA:   COUNTY
 STAT.            WYOMING:   STATE
 CTRY. UNITED STATES OF AMERICA:   COUNTRY
 SRVC.           BIRDWELL:   SERVICE COMPANY
 DATE.        16-JUN-1978:   LOGDATE
 API .       490251064800:   API NUMBER
~CURVE INFORMATION
#MNEM.UNIT       API CODE    CURVE DESCRIPTION
#----------   ------------   ------------------------------
 DEPT.F                  :   
 SPR .MV     05 010 01 00:   SPONTANEOUS POTENTIAL FROM RES.
 SN  .OHMM   05 040 16 00:   SHORT NORMAL 16"
 ILD .OHMM   05 120 46 00:   INDUCTION LOG DEEP
 CALD.IN     45 280 60 00:   CALIPER FROM DENSITY LOG
 GRD .GAPI   45 310 01 00:   GAMMA RAY FROM DENSITY LOG
 CORR.G/C3   45 356 01 00:   DENSITY CORRECTION
 DPHI.DEC    45 890 12 00:   DENSITY POROSITY SANDSTONE
 DEN .G/C3   45 350 01 00:   COMPENSATED BULK DENSITY
~PARAMETER INFORMATION
#MNEM.UNIT          VALUE    DESCRIPTION
#----------   ------------   ------------------------------
 PD  .                 GL:   PERMANENT DATUM
 EPD .F              5200:   ELEVATION PERMANENT DATUM
 LMF .                 KB:   LOG MEASURED FROM
 DAPD.F                 4:   FEET ABOVE PERMANENT DATUM
 DMF .                 KB:   DRILLING MEASURED FROM
 EKB .F              5204:   KELLING BUSHING
 EGL .F              5200:   GROUND LEVEL
 DATE.        16-JUN-1978:   RUN DATE
 RUN .                  1:   RUN NUMBER
 DD  .F               513:   DEPTH DRILLER
 DL  .F               481:   DEPTH LOGGER
 BLI .F               475:   BOTTOM LOG INTERVAL
 TLI .F                40:   TOP LOG INTERVAL
 CS  .IN            8.625:   CASING SIZE
 CBD .F                40:   CASING BOTTOM DRILLER
 CBL .F                40:   CASING BOTTOM LOGGER
 BS  .IN            7.875:   BIT SIZE
 BSD .F               513:   BIT SIZE AT DEPTH
 DFT .                KCL:   DRILLING FLUID TYPE
 DFD .                8.6:   DRILLING FLUID DENSITY
 DFV .                 30:   DRILLING FLUID VISCOSITY
 DFPH.                 10:   DRILLING FLUID PH
 DFL .                 16:   DRILLING FLUID LOSS
 MSS .           FLOWLINE:   MUD SAMPLE SOURCE
 RMS .OHMM            .36:   RESISTIVITY MUD SAMPLE
 MST .F                72:   MUD SAMPLE TEMPERATURE
 RMF .OHMM            .34:   RESISTIVITY MUD FILTRATE SAMPLE
 MFST.F                70:   MUD FILTRATE SAMPLE TEMPERATURE
 RMC .OHMM            .52:   RESISTIVITY MUD CAKE
 MCST.F                72:   MUD CAKE SAMPLE TEMPERATURE
 MFSS.               MEAS:   MUD FILTRATE SAMPLE SOURCE
 MCSS.               MEAS:   MUD CAKE SAMPLE SOURCE
 RMB .OHMM            .32:   RESISTIVITY MUD AT BHT
 BHT .F                82:   BOTTOM HOLE TEMPERATURE
 TCS .HRS            0400:   TIME CURCULATED STOPPED
 MRT .F                82:   MAXIMUM RECORDED TEMPERATURE
 LUN .               2958:   LOGGING UNIT NUMBER
 LUL .               CASP:   LOGGING UNIT LOCATION
 ENGI.           REYNOLDS:   RECORDING ENGINEER
 WITN.           MCGINLEY:   WITNESSED BY
 CLNT.            A2DTECH:   CLIENT CODE
 ORIG.           5" PRINT:   ORIGIN OF DATA
 UWI .       490251064800:   UNIQUE WELL ID
 DICO. A2D Technologies, Inc.:   DIGITIZING COMPANY
~OTHER INFORMATION
~A   DEPT      SPR         SN        ILD       CALD         GRD      CORR       DPHI        DEN   
   30.0000  -999.2500  -999.2500  -999.2500  -999.2500    59.2554  -999.2500  -999.2500  -999.2500
   30.5000  -999.2500  -999.2500  -999.2500  -999.2500    59.5686  -999.2500  -999.2500  -999.2500
   31.0000  -999.2500  -999.2500  -999.2500  -999.2500    63.0161  -999.2500  -999.2500  -999.2500
   31.5000  -999.2500  -999.2500  -999.2500  -999.2500    69.5980  -999.2500  -999.2500  -999.2500
   32.0000  -999.2500  -999.2500  -999.2500  -999.2500    76.1798  -999.2500  -999.2500  -999.2500
   32.5000  -999.2500  -999.2500  -999.2500  -999.2500    79.1795  -999.2500  -999.2500  -999.2500
   33.0000  -999.2500  -999.2500  -999.2500  -999.2500    79.6420  -999.2500  -999.2500  -999.2500
   33.5000  -999.2500  -999.2500  -999.2500  -999.2500    80.4030  -999.2500  -999.2500  -999.2500
   34.0000  -999.2500  -999.2500  -999.2500     8.1618    81.1781  -999.2500  -999.2500  -999.2500
   34.5000  -999.2500  -999.2500  -999.2500     7.5820    81.9498  -999.2500  -999.2500  -999.2500
   35.0000  -999.2500  -999.2500  -999.2500     7.6282    81.7939  -999.2500  -999.2500  -999.2500
   35.5000  -999.2500  -999.2500  -999.2500     8.5073    77.1817  -999.2500  -999.2500  -999.2500
   36.0000  -999.2500  -999.2500  -999.2500     8.6275    71.9725  -999.2500  -999.2500  -999.2500
   36.5000  -999.2500  -999.2500  -999.2500     7.8251    71.6849  -999.2500  -999.2500  -999.2500
   37.0000  -999.2500  -999.2500  -999.2500     6.8739    73.7928  -999.2500  -999.2500  -999.2500
   37.5000  -999.2500  -999.2500  -999.2500     6.0120    93.5090  -999.2500  -999.2500  -999.2500
   38.0000  -999.2500  -999.2500  -999.2500     5.7304    94.5684  -999.2500  -999.2500  -999.2500
   38.5000  -999.2500  -999.2500  -999.2500     5.8209    94.7324  -999.2500  -999.2500  -999.2500
   39.0000  -999.2500  -999.2500  -999.2500     5.9709    94.2956  -999.2500  -999.2500  -999.2500
   39.5000  -999.2500  -999.2500  -999.2500     6.0465    94.0149  -999.2500  -999.2500  -999.2500
   40.0000   -42.7932  -999.2500     1.4664     6.1518    93.7316     0.0768  -999.2500  -999.2500
   40.5000   -42.3477  -999.2500     1.2304     6.3316    93.2985     0.0858  -999.2500  -999.2500
   41.0000   -41.7521  -999.2500     0.9013     6.5113    93.4736     0.0918  -999.2500  -999.2500
   41.5000   -41.3066  -999.2500     0.9522     6.6208    93.7761     0.1008  -999.2500  -999.2500
   42.0000   -40.7110  -999.2500     1.9127     6.9798    92.8984     0.1128  -999.2500  -999.2500
   42.5000   -40.8661  -999.2500     2.3202     7.9734    90.8235     0.2083  -999.2500  -999.2500
   43.0000   -41.0213  -999.2500     2.6308     8.5996    84.4203     0.2396  -999.2500  -999.2500
   43.5000   -40.4256  -999.2500     3.3209     8.8835    79.8081     0.1707  -999.2500  -999.2500
   44.0000   -38.2817  -999.2500     3.9731     8.0514    82.8078     0.1272  -999.2500  -999.2500
   44.5000   -39.0843  -999.2500     4.4054     7.4871    92.6732     0.0461  -999.2500  -999.2500
   45.0000   -39.8400  -999.2500     4.9187     7.3841    98.5088     0.0462  -999.2500     2.2053
   45.5000   -40.5957     0.6022     5.5682     7.1769   102.7026     0.0463     0.2976     2.2524
   46.0000   -41.8019     0.6451     6.0894     7.0739   104.3554     0.0434     0.2619     2.3093
   46.5000   -43.9090     0.9562     6.5681     7.0153   102.8812     0.0345     0.2212     2.3370
   47.0000   -45.7157     1.5722     6.8437     7.0763   102.8958     0.0331     0.2008     2.3468
   47.5000   -47.0721     1.8298     6.5184     7.1072   102.9129     0.0421     0.2005     2.3476
   48.0000   -48.1315     2.2197     6.0811     7.1382   102.3044     0.0481     0.2020     2.3461
   48.5000   -48.8971     2.4614     5.7920     7.1393   100.5722     0.0482     0.1996     2.3589
   49.0000   -49.4895     2.8475     5.6322     7.1852    95.7940     0.0483     0.1882     2.3769
   49.5000   -49.4945     3.1798     5.5915     7.2304    96.7042     0.0558     0.1777     2.3867
   50.0000   -49.0324     3.4609     5.5896     7.2768    97.6368     0.0902     0.1740     2.3890
   50.5000   -49.3744     3.7852     5.6654     7.4117    98.0787     0.0844     0.1758     2.3955
   51.0000   -50.1334     4.0808     5.7427     7.6507    98.3894     0.0384     0.1632     2.4294
   51.5000   -50.4154     4.5130     5.9017     7.7855    96.0176     0.0293     0.1482     2.4169
   52.0000   -50.4214     4.8012     6.0650     7.3995    99.9185     0.0294     0.1287     2.4057
   52.5000   -50.2750     5.1432     6.2328     7.3258   101.7258     0.0294     0.1632     2.4319
   53.0000   -50.4314     5.5096     6.4052     7.2822   102.1898     0.0295     0.1494     2.4320
   53.5000   -50.7366     5.9021     6.5819     7.2383   101.7583     0.0296     0.1477     2.4321
   54.0000   -51.3422     6.1501     6.6713     7.1352   102.6701     0.0297     0.1466     2.4321
   54.5000   -51.9478     6.1484     6.7153     6.9575   103.2833     0.0312     0.1493     2.4314
   55.0000   -52.4032     6.1466     6.7129     6.8540   103.4488     0.0343     0.1468     2.4307
   55.5000   -52.8587     6.2304     6.7106     6.9444   104.9576     0.0388     0.1492     2.4248
   56.0000   -53.1639     6.3157     6.6162     6.8858   104.2276     0.0523     0.1564     2.4204
   56.5000   -53.4692     6.3577     6.5232     6.6188   101.4081     0.0971     0.1599     2.4196
   57.0000   -53.3240     6.1822     6.4314     6.3072   100.0810     0.0554     0.1596     2.4333
   57.5000   -53.3290     5.9705     6.3850     6.3081   100.5450     0.0241     0.1473     2.4669
   58.0000   -53.1826     5.6479     6.3827     6.3238   105.9344     0.0292     0.1389     2.4304
   58.5000   -53.1888     5.3797     6.3366     6.4148   109.8355     0.0408     0.1521     2.4345
   59.0000   -53.1938     5.2315     6.3344     6.6256   109.9968     0.0438     0.1478     2.4488
   59.5000   -53.1988     5.1940     6.3406     6.7148   106.9165     0.0499     0.1454     2.4538
   60.0000   -53.3539     5.2285     6.3740     6.7460   100.5075     0.0574     0.1328     2.4733
   60.5000   -53.6592     5.3025     6.5047     6.7921    95.8609     0.0619     0.1262     2.4868
   61.0000   -53.8143     5.0831     6.6387     6.8353    89.6181     0.0635     0.1183     2.4958
   61.5000   -53.8193     5.1528     6.7754     6.9106    90.2314     0.0740     0.1043     2.4981
   62.0000   -53.8243     5.4470     6.9156     7.1793    94.1283     0.0770     0.1124     2.4847
   62.5000   -53.8292     5.7580     7.0088     7.2990   105.3385     0.0309     0.1126     2.4818
   63.0000   -53.9844     6.0084     7.1039     7.0916   106.3955     0.0265     0.1153     2.4677
   63.5000   -54.1395     6.3900     7.1014     7.0627   105.2218     0.0266     0.1323     2.4490
   64.0000   -54.1445     6.8295     7.0990     7.1382   104.7903     0.0297     0.1416     2.4498
   64.5000   -54.1495     7.0189     7.0966     7.3028   105.2543     0.0327     0.1386     2.4499
   65.0000   -54.1544     7.0169     7.0941     7.4227   105.8676     0.0345     0.1376     2.4522
   65.5000   -54.3096     6.6376     6.8984     7.3492   104.9883     0.0391     0.1367     2.4493
   66.0000   -54.3145     6.2789     6.7080     7.2757   104.7061     0.0479     0.1367     2.4471
   66.5000   -54.3195     6.4086     6.7057     7.2317   105.0208     0.0688     0.1431     2.4480
   67.0000   -54.0242     6.4959     6.6573     7.2177   102.4998     0.0301     0.1314     2.4701
   67.5000   -53.8790     6.6306     6.7017     7.2635   100.5716     0.0317     0.1219     2.4675
   68.0000   -53.8844     6.7209     6.6989     7.3536   100.8905     0.0273     0.1420     2.4376
   68.5000   -53.5887     6.8120     6.7897     7.0310   101.0831     0.0154     0.1437     2.4385
   69.0000   -53.2933     6.8101     6.8351     6.8764   100.6245     0.0081     0.1404     2.4370
   69.5000   -53.2983     6.8081     6.8801     6.8056    97.6557     0.0066     0.1446     2.4356
   70.0000   -53.1532     6.7593     6.9248     6.7323    95.7316     0.0097     0.1451     2.4349
