~VERSION INFORMATION
 VERS.                2.0:   CWLS LOG ASCII STANDARD - VERSION 2.0
 WRAP.                 NO:   ONE LINE PER DEPTH STEP
~WELL INFORMATION
#MNEM.UNIT      DATA TYPE    INFORMATION
#----------   ------------   ------------------------------
 STRT.F            8.5000:   START DEPTH
 STOP.F         2140.0000:   STOP DEPTH
 STEP.F            0.5000:   STEP LENGTH
 NULL.          -999.2500:   NO VALUE
 COMP. LAWRENCE/ALLISON INC:   COMPANY
 WELL.   11-61 SHX #61-11:   WELL
 FLD .             TEAPOT:   FIELD
 LOC .      S11 T38N R78W:   LOCATION
 CNTY.            NATRONA:   COUNTY
 STAT.            WYOMING:   STATE
 CTRY. UNITED STATES OF AMERICA:   COUNTRY
 SRVC.      NL McCullough:   SERVICE COMPANY
 DATE.        04-MAY-1988:   LOGDATE
 API .       490251115600:   API NUMBER
~CURVE INFORMATION
#MNEM.UNIT       API CODE    CURVE DESCRIPTION
#----------   ------------   ------------------------------
 DEPT.F                  :   
 GRR .GAPI   81 310 01 00:   GAMMY RAY
 ROP .FT/HR  91 810 01 00:   RAT OF DRILLING PENETRATION
 TGAS.TC/CC  91 830 01 00:   TOTAL GAS UNIT
~PARAMETER INFORMATION
#MNEM.UNIT          VALUE    DESCRIPTION
#----------   ------------   ------------------------------
 PD  .                 GL:   PERMANENT DATUM
 EPD .F              5135:   ELEVATION PERMANENT DATUM
 LMF .                 KB:   LOG MEASURED FROM
 DAPD.F                 8:   FEET ABOVE PERMANENT DATUM
 DMF .                 KB:   DRILLING MEASURED FROM
 EKB .F              5143:   KELLING BUSHING
 EGL .F              5135:   GROUND LEVEL
 DATE.        04-MAY-1988:   RUN DATE
 RUN .                  1:   RUN NUMBER
 DD  .F              2140:   DEPTH DRILLER
 DL  .F               572:   DEPTH LOGGER
 BLI .F               568:   BOTTOM LOG INTERVAL
 CS  .IN              5.5:   CASING SIZE
 CBD .F               622:   CASING BOTTOM DRILLER
 BSD .F              2140:   BIT SIZE AT DEPTH
 DFT .         KCL/ WATER:   DRILLING FLUID TYPE
 TCS .HRS               1:   TIME CURCULATED STOPPED
 ENGI.               DALY:   RECORDING ENGINEER
 WITN.           MR. LOWL:   WITNESSED BY
 CLNT.            A2DTECH:   CLIENT CODE
 ORIG.           5" PRINT:   ORIGIN OF DATA
 UWI .       490251115600:   UNIQUE WELL ID
 DICO. A2D Technologies, Inc.:   DIGITIZING COMPANY
~OTHER INFORMATION
~A    DEPT      GRR       ROP       TGAS   
# ...
  736.5000  -999.2500     0.1680    -0.0716
  737.0000  -999.2500     0.1677    -0.0830
  737.5000  -999.2500     0.1725    -0.0943
  738.0000  -999.2500     0.1804    -0.1057
  738.5000  -999.2500     0.1858    -0.1189
  739.0000  -999.2500     0.1855     0.2491
  739.5000  -999.2500     0.1852     0.2377
  740.0000  -999.2500     0.1849     0.2251
  740.5000  -999.2500     0.1846     0.2151
  741.0000  -999.2500     0.1560     0.2038
  741.5000  -999.2500     0.1463     0.1918
  742.0000  -999.2500     0.1460    -0.1967
  742.5000  -999.2500     0.1457    -0.5852
  743.0000  -999.2500     0.1454    -0.5963
  743.5000  -999.2500     0.1452    -0.6075
  744.0000  -999.2500     0.1449    -0.6189
  744.5000  -999.2500     0.1352    -0.6302
  745.0000  -999.2500     0.1349    -0.6415
  745.5000  -999.2500     0.1346    -0.6547
  746.0000  -999.2500     0.1343    -0.6658
  746.5000  -999.2500     0.1340    -0.2968
  747.0000  -999.2500     0.1338    -0.3107
  747.5000  -999.2500     0.1335     0.0566
  748.0000  -999.2500     0.1238     0.1786
  748.5000  -999.2500     0.1235     0.4135
  749.0000  -999.2500     0.1137     0.3996
  749.5000  -999.2500     0.1134     0.3885
  750.0000  -999.2500     0.1131     0.3774
  750.5000  -999.2500     0.1123     0.3660
  751.0000  -999.2500     0.1115     0.2994
  751.5000  -999.2500     0.1108    -0.0361
  752.0000  -999.2500     0.1100    -0.0445
  752.5000  -999.2500     0.1092     0.0530
  753.0000  -999.2500     0.1085     0.1440
  753.5000  -999.2500     0.1077     0.2350
  754.0000  -999.2500     0.1069     0.3260
  754.5000  -999.2500     0.1061     0.4169
  755.0000  -999.2500     0.1054     0.5079
  755.5000  -999.2500     0.1046     0.5989
  756.0000  -999.2500     0.1038     0.6899
  756.5000  -999.2500     0.1030     0.7808
  757.0000  -999.2500     0.1023     0.8718
  757.5000  -999.2500     0.1015     0.9628
  758.0000  -999.2500     0.1007     1.0537
  758.5000  -999.2500     0.1000     1.1447
  759.0000  -999.2500     0.0992     1.2357
  759.5000  -999.2500     0.0984     2.0471
  760.0000  -999.2500     0.1264     2.7881
  760.5000  -999.2500     0.1643     2.7682
  761.0000  -999.2500     0.1834     2.7484
  761.5000  -999.2500     0.2025     2.7285
  762.0000  -999.2500     0.2215     2.7086
  762.5000  -999.2500     0.2217     2.6887
  763.0000  -999.2500     0.2221     2.6688
  763.5000  -999.2500     0.2225     2.6489
  764.0000  -999.2500     0.2229     2.6290
  764.5000  -999.2500     0.2233     2.6091
  765.0000  -999.2500     0.2237     2.5892
  765.5000  -999.2500     0.2241     2.5693
  766.0000  -999.2500     0.2245     2.5494
  766.5000  -999.2500     0.2249     2.5295
  767.0000  -999.2500     0.2254     2.5097
  767.5000  -999.2500     0.2258     2.4898
  768.0000  -999.2500     0.2262     2.4699
  768.5000  -999.2500     0.2266     2.4500
  769.0000  -999.2500     0.2270     2.4301
  769.5000  -999.2500     0.2274     2.4102
  770.0000  -999.2500     0.2278     2.3903
  770.5000  -999.2500     0.2282     2.3704
  771.0000  -999.2500     0.2286     2.3505
  771.5000  -999.2500     0.2290     2.3306
  772.0000  -999.2500     0.2294     2.3107
  772.5000  -999.2500     0.2298     2.2909
  773.0000  -999.2500     0.2302     2.2710
  773.5000  -999.2500     0.2306     2.2511
  774.0000  -999.2500     0.2311     2.2312
  774.5000  -999.2500     0.2315     2.2113
  775.0000  -999.2500     0.2319     2.1914
  775.5000  -999.2500     0.2323     2.1715
  776.0000  -999.2500     0.2327     2.1516
  776.5000  -999.2500     0.2331     2.1317
  777.0000  -999.2500     0.2335     2.1118
  777.5000  -999.2500     0.2339     2.0919
  778.0000  -999.2500     0.2343     2.0720
  778.5000  -999.2500     0.2347     2.0522
  779.0000  -999.2500     0.2351     2.0323
  779.5000  -999.2500     0.2355     2.0124
  780.0000  -999.2500     0.2359     1.9925
  780.5000  -999.2500     0.2363     1.9726
  781.0000  -999.2500     0.2368     1.9527
  781.5000  -999.2500     0.2372     1.9328
  782.0000  -999.2500     0.2376     0.4074
  782.5000  -999.2500     0.2380    -0.7358
  783.0000  -999.2500     0.2384    -0.3694
  783.5000  -999.2500     0.2388    -0.3832
  784.0000  -999.2500     0.2392    -0.3942
  784.5000  -999.2500     0.1923    -0.4053
  785.0000  -999.2500     0.1925    -0.4163
  785.5000  -999.2500     0.1927    -0.4273
  786.0000  -999.2500     0.1929    -0.4384
  786.5000  -999.2500     0.1930    -0.4494
  787.0000  -999.2500     0.1932    -0.4604
  787.5000  -999.2500     0.1934    -0.0943
  788.0000  -999.2500     0.1936    -0.1057
  788.5000  -999.2500     0.1938     0.2584
  789.0000  -999.2500     0.1940     0.2474
  789.5000  -999.2500     0.1942     0.2377
  790.0000  -999.2500     0.1943     0.2264
  790.5000  -999.2500     0.1945     0.2151
  791.0000  -999.2500     0.1947     0.2032
  791.5000  -999.2500     0.1949     0.1925
  792.0000  -999.2500     0.1951     0.1811
  792.5000  -999.2500     0.1953     0.1692
  793.0000  -999.2500     0.1955     0.1563
  793.5000  -999.2500     0.1957     0.5227
  794.0000  -999.2500     0.2053     0.4729
  794.5000  -999.2500     0.2055     0.1232
  795.0000  -999.2500     0.2057     0.1132
  795.5000  -999.2500     0.2064     0.1019
  796.0000  -999.2500     0.2155     0.0901
  796.5000  -999.2500     0.2345     0.0791
  797.0000  -999.2500     0.2442     0.2654
  797.5000  -999.2500     0.2564     0.4340
  798.0000  -999.2500     0.2634     0.4226
  798.5000  -999.2500     0.2730     0.4095
  799.0000  -999.2500     0.2732     0.3985
  799.5000  -999.2500     0.2734     0.3887
  800.0000  -999.2500     0.2736     0.3764
  800.5000  -999.2500     0.2738    -0.0113
  801.0000  -999.2500     0.2740    -0.0230
  801.5000  -999.2500     0.2742    -0.0340
  802.0000  -999.2500     0.2744    -0.0453
  802.5000  -999.2500     0.2745    -0.0566
  803.0000  -999.2500     0.2747     0.3075
  803.5000  -999.2500     0.2749     0.6738
  804.0000  -999.2500     0.2751     1.0401
  804.5000  -999.2500     0.2753     0.9613
  805.0000  -999.2500     0.2660     0.8411
  805.5000  -999.2500     0.2756     0.7210
  806.0000  -999.2500     0.2654     0.6008
  806.5000  -999.2500     0.2644     0.4806
  807.0000  -999.2500     0.2634     0.3604
  807.5000  -999.2500     0.2624     0.2403
  808.0000  -999.2500     0.2614     0.1201
  808.5000  -999.2500     0.2604    -0.0001
  809.0000  -999.2500     0.2594    -0.1203
  809.5000  -999.2500     0.2584    -0.2404
  810.0000  -999.2500     0.2575    -0.3606
  810.5000  -999.2500     0.2565    -0.4808
  811.0000  -999.2500     0.2555    -0.6009
  811.5000  -999.2500     0.2545    -0.7211
  812.0000  -999.2500     0.2535    -0.8413
  812.5000  -999.2500     0.2525    -0.9615
  813.0000  -999.2500     0.2515    -1.0816
  813.5000  -999.2500     0.2505     1.5094
  814.0000  -999.2500     0.2495     1.5094
  814.5000  -999.2500     0.2485     1.5094
  815.0000  -999.2500     0.2475     1.5094
  815.5000  -999.2500     0.2465     1.5094
  816.0000  -999.2500     0.2455     1.5094
  816.5000  -999.2500     0.2445     1.5094
  817.0000  -999.2500     0.2436     1.8868
  817.5000  -999.2500     0.2426     1.5094
  818.0000  -999.2500     0.2416     0.0000
  818.5000  -999.2500     0.2406    -1.1321
  819.0000  -999.2500     0.2396    -0.7547
  819.5000  -999.2500     0.2386    -0.3774
  820.0000  -999.2500     0.2376    -0.3774
  820.5000  -999.2500     0.2366     0.0000
  821.0000  -999.2500     0.2358     0.0188
  821.5000  -999.2500     0.2075     0.3774
  822.0000  -999.2500     0.1887     0.0000
  822.5000  -999.2500     0.1887     0.0000
  823.0000  -999.2500     0.1887     0.3774
  823.5000  -999.2500     0.1887     0.3774
  824.0000  -999.2500     0.1792     0.3774
  824.5000  -999.2500     0.1792     0.3774
  825.0000  -999.2500     0.1792     0.3774
  825.5000  -999.2500     0.1698     0.7547
  826.0000  -999.2500     0.1698     1.5094
  826.5000  -999.2500     0.1698     1.8868
  827.0000  -999.2500     0.1698     1.8868
