~VERSION INFORMATION
 VERS.                2.0:   CWLS LOG ASCII STANDARD - VERSION 2.0
 WRAP.                 NO:   ONE LINE PER DEPTH STEP
~WELL INFORMATION
#MNEM.UNIT      DATA TYPE    INFORMATION
#----------   ------------   ------------------------------
 STRT.F          779.5000:   START DEPTH
 STOP.F         2194.0000:   STOP DEPTH
 STEP.F            0.5000:   STEP LENGTH
 NULL.          -999.2500:   NO VALUE
 COMP. LAWRENCE/ALLISON INC:   COMPANY
 WELL.        27 X #10-10:   WELL
 FLD .             TEAPOT:   FIELD
 LOC .      S10 T38N R78W:   LOCATION
 CNTY.            NATRONA:   COUNTY
 STAT.            WYOMING:   STATE
 CTRY. UNITED STATES OF AMERICA:   COUNTRY
 SRVC.            Unknown:   SERVICE COMPANY
 DATE.        21-AUG-1987:   LOGDATE
 API .       490251118900:   API NUMBER
~CURVE INFORMATION
#MNEM.UNIT       API CODE    CURVE DESCRIPTION
#----------   ------------   ------------------------------
 DEPT.F                  :   
 ROP .MIN/FT 91 810 01 00:   RATE OF DRILLING PENETRATION
 TGAS.UNITS  91 830 01 00:   TOTAL GAS FROM HOTWIRE
~PARAMETER INFORMATION
#MNEM.UNIT          VALUE    DESCRIPTION
#----------   ------------   ------------------------------
 EKB .F              5237:   KELLING BUSHING
 EGL .F              5236:   GROUND LEVEL
 DATE.        21-AUG-1987:   RUN DATE
 BLI .F              2180:   BOTTOM LOG INTERVAL
 TLI .F               780:   TOP LOG INTERVAL
 LUN .              T-148:   LOGGING UNIT NUMBER
 ENGI.            R. HUSK:   RECORDING ENGINEER
 WITN.           C. TOWER:   WITNESSED BY
 CLNT.            A2DTECH:   CLIENT CODE
 ORIG.           5" PRINT:   ORIGIN OF DATA
 UWI .       490251118900:   UNIQUE WELL ID
 DICO. A2D Technologies, Inc.:   DIGITIZING COMPANY
~OTHER INFORMATION
~A   DEPT      ROP         TGAS 
# ...
 1508.5000     0.4886    62.3759
 1509.0000     0.4881    62.3869
 1509.5000     0.4943    62.3978
 1510.0000     0.4978    62.4088
 1510.5000     0.4973    62.4197
 1511.0000     0.4968    62.4307
 1511.5000     0.4876    62.4416
 1512.0000     0.4848    62.4526
 1512.5000     0.4842    62.4635
 1513.0000     0.4837    62.4745
 1513.5000     0.4832    62.4854
 1514.0000     0.4719    62.4964
 1514.5000     0.4713    62.5073
 1515.0000     0.4708    62.5182
 1515.5000     0.4702    62.5292
 1516.0000     0.4697    62.5401
 1516.5000     0.4692    62.5511
 1517.0000     0.4686    62.5620
 1517.5000     0.4681    62.5730
 1518.0000     0.4675    62.5839
 1518.5000     0.4670    62.5949
 1519.0000     0.4665    62.6058
 1519.5000     0.4659    62.6168
 1520.0000     0.5005    62.6277
 1520.5000     0.5084    62.6167
 1521.0000     0.5081    62.6058
 1521.5000     0.5078    62.5948
 1522.0000     0.5076    62.5838
 1522.5000     0.5073    62.5728
 1523.0000     0.4959    62.5618
 1523.5000     0.4851    62.5508
 1524.0000     0.4784    62.5398
 1524.5000     0.4807    62.5288
 1525.0000     0.4843    62.5178
 1525.5000     0.4761    62.5068
 1526.0000     0.4646    62.4958
 1526.5000     0.4618    62.4848
 1527.0000     0.4615    62.4738
 1527.5000     0.4613    62.4628
 1528.0000     0.4610    62.4518
 1528.5000     0.4608    62.4409
 1529.0000     0.4601    62.4299
 1529.5000     0.4494    62.4189
 1530.0000     0.4478    62.4079
 1530.5000     0.4381    62.3969
 1531.0000     0.4486    62.3859
 1531.5000     0.4483    62.3749
 1532.0000     0.4481    62.3639
 1532.5000     0.4478    62.3529
 1533.0000     0.4475    62.3419
 1533.5000     0.4472    62.3309
 1534.0000     0.4470    62.3199
 1534.5000     0.4523    62.3089
 1535.0000     0.4573    62.2979
 1535.5000     0.4570    62.2869
 1536.0000     0.4567    62.2760
 1536.5000     0.4564    62.2650
 1537.0000     0.4562    62.2540
 1537.5000     0.4559    62.2430
 1538.0000     0.4556    62.2320
 1538.5000     0.4553    62.2210
 1539.0000     0.4551    62.2100
 1539.5000     0.4548    62.1990
 1540.0000     0.4545    62.3314
 1540.5000     0.4540    63.2088
 1541.0000     0.4535    63.0431
 1541.5000     0.4529    62.1564
 1542.0000     0.4524    61.7076
 1542.5000     0.4518    61.4749
 1543.0000     0.4513    61.2461
 1543.5000     0.4508    61.2353
 1544.0000     0.4502    60.7865
 1544.5000     0.4474    60.7757
 1545.0000     0.4383    60.7648
 1545.5000     0.4378    60.7540
 1546.0000     0.4372    61.1811
 1546.5000     0.4367    61.1703
 1547.0000     0.4361    61.1595
 1547.5000     0.4356    61.1477
 1548.0000     0.4385    61.1378
 1548.5000     0.4453    61.1269
 1549.0000     0.4448    61.1161
 1549.5000     0.4443    61.1053
 1550.0000     0.4437    61.0944
 1550.5000     0.4432    61.0836
 1551.0000     0.4426    61.0728
 1551.5000     0.4421    61.0619
 1552.0000     0.4416    61.0511
 1552.5000     0.4410    61.0401
 1553.0000     0.4405    61.0292
 1553.5000     0.4399    61.0182
 1554.0000     0.4394    61.0073
 1554.5000     0.4389    60.9942
 1555.0000     0.4383    60.9834
 1555.5000     0.4378    60.9725
 1556.0000     0.4372    61.4024
 1556.5000     0.4367    61.3888
 1557.0000     0.4361    61.8186
 1557.5000     0.4356    62.2458
 1558.0000     0.4351    62.2322
 1558.5000     0.4413    62.2214
 1559.0000     0.4448    62.6512
 1559.5000     0.4443    62.6377
 1560.0000     0.4220    62.6344
 1560.5000     0.4212    62.6504
 1561.0000     0.4204    62.6664
 1561.5000     0.4197    62.6824
 1562.0000     0.4297    62.6983
 1562.5000     0.4288    62.7143
 1563.0000     0.4296    62.7303
 1563.5000     0.4382    62.7463
 1564.0000     0.4372    62.7623
 1564.5000     0.4364    62.7783
 1565.0000     0.4356    62.7943
 1565.5000     0.4348    62.8102
 1566.0000     0.4380    62.8262
 1566.5000     0.4484    62.8422
 1567.0000     0.4683    62.8582
 1567.5000     0.4960    62.8742
 1568.0000     0.5121    62.8902
 1568.5000     0.5165    62.9062
 1569.0000     0.5221    62.9221
 1569.5000     0.5325    62.9381
 1570.0000     0.5429    62.9541
 1570.5000     0.5457    62.9701
 1571.0000     0.5449    62.9861
 1571.5000     0.5357    63.0021
 1572.0000     0.5323    63.0181
 1572.5000     0.5424    63.0340
 1573.0000     0.5416    63.0500
 1573.5000     0.5408    62.6340
 1574.0000     0.5400    63.1119
 1574.5000     0.5720    63.1439
 1575.0000     0.6376    63.1758
 1575.5000     0.6784    63.2080
 1576.0000     0.6775    63.2409
 1576.5000     0.6750    63.2798
 1577.0000     0.6588    63.3118
 1577.5000     0.6218    63.7817
 1578.0000     0.5761    63.3677
 1578.5000     0.5370    63.4077
 1579.0000     0.5211    62.9937
 1579.5000     0.5244    63.0337
 1580.0000     0.5303    63.1331
 1580.5000     0.5295    63.3322
 1581.0000     0.5287    63.5313
 1581.5000     0.5279    63.7304
 1582.0000     0.5269    63.4129
 1582.5000     0.5261    62.9535
 1583.0000     0.5362    62.4942
 1583.5000     0.5354    62.4729
 1584.0000     0.5346    62.0135
 1584.5000     0.5338    61.9922
 1585.0000     0.5330    61.9708
 1585.5000     0.5322    61.9489
 1586.0000     0.5314    61.4901
 1586.5000     0.5307    61.9067
 1587.0000     0.5407    61.8800
 1587.5000     0.5398    61.8586
 1588.0000     0.5390    61.8373
 1588.5000     0.5381    61.8159
 1589.0000     0.5373    61.7956
 1589.5000     0.5365    61.7696
 1590.0000     0.5357    62.1898
 1590.5000     0.5349    62.1679
 1591.0000     0.5341    62.1417
 1591.5000     0.5333    62.1203
 1592.0000     0.5381    62.0990
 1592.5000     0.5365    62.0776
 1593.0000     0.5308    62.0563
 1593.5000     0.5368    62.0349
 1594.0000     0.5400    62.4568
 1594.5000     0.5392    62.4301
 1595.0000     0.5463    61.9708
 1595.5000     0.5484    61.9489
 1596.0000     0.5475    61.9227
 1596.5000     0.5467    61.9014
 1597.0000     0.5567    61.8800
 1597.5000     0.5451    61.8586
 1598.0000     0.5335    61.8373
 1598.5000     0.5219    61.8159
 1599.0000     0.5097    61.7946
 1599.5000     0.4647    61.3352
 1600.0000     0.4329    60.8741
 1600.5000     0.3991    60.9198
 1601.0000     0.3881    60.9694
 1601.5000     0.3981    61.0191
 1602.0000     0.3992    61.0688
 1602.5000     0.4097    61.1185
 1603.0000     0.4202    61.1681
 1603.5000     0.4272    61.2178
 1604.0000     0.4264    61.2675
 1604.5000     0.4256    61.3139
 1605.0000     0.4248    61.3139
 1605.5000     0.4240    60.8759
 1606.0000     0.4232    60.8759
 1606.5000     0.4223    60.8759
 1607.0000     0.4215    60.8759
 1607.5000     0.4282    60.4380
 1608.0000     0.4387    60.0000
 1608.5000     0.4576    60.0000
 1609.0000     0.4939    60.0000
 1609.5000     0.5040    60.0000
 1610.0000     0.5032    60.0000
 1610.5000     0.5024    60.0000
 1611.0000     0.5014    60.0000
 1611.5000     0.4780    60.4380
 1612.0000     0.4545    60.4380
 1612.5000     0.4311    60.4380
 1613.0000     0.4118    60.8759
 1613.5000     0.4110    60.8759
 1614.0000     0.4102    60.8759
 1614.5000     0.4094    60.8759
 1615.0000     0.4085    60.8759
 1615.5000     0.4077    61.3139
 1616.0000     0.4069    61.3139
 1616.5000     0.4061    61.3139
 1617.0000     0.4053    61.3139
 1617.5000     0.4045    61.3139
 1618.0000     0.4107    61.7518
 1618.5000     0.4137    61.7518
 1619.0000     0.4129    61.7518
 1619.5000     0.4121    61.7518
 1620.0000     0.4005    61.7518
 1620.5000     0.4007    61.7006
 1621.0000     0.4118    61.6331
 1621.5000     0.4112    61.5656
 1622.0000     0.4015    61.4981
 1622.5000     0.4018    61.4306
 1623.0000     0.4021    61.3630
 1623.5000     0.4023    61.2955
 1624.0000     0.4026    61.2280
 1624.5000     0.4029    61.1605
 1625.0000     0.4031    61.0930
 1625.5000     0.4034    61.0255
 1626.0000     0.3975    60.9580
 1626.5000     0.3864    60.8904
 1627.0000     0.3826    60.8978
 1627.5000     0.3828    60.4901
 1628.0000     0.4001    60.5292
 1628.5000     0.4375    60.5605
 1629.0000     0.4594    60.5918
 1629.5000     0.4922    60.6241
