~VERSION INFORMATION
 VERS.                2.0:   CWLS LOG ASCII STANDARD - VERSION 2.0
 WRAP.                 NO:   ONE LINE PER DEPTH STEP
~WELL INFORMATION
#MNEM.UNIT      DATA TYPE    INFORMATION
#----------   ------------   ------------------------------
 STRT.F           36.0000:   START DEPTH
 STOP.F         2324.5000:   STOP DEPTH
 STEP.F            0.5000:   STEP LENGTH
 NULL.          -999.2500:   NO VALUE
 COMP. FENIX & SCISSON INC:   COMPANY
 WELL.           SX #57-3:   WELL
 FLD .             TEAPOT:   FIELD
 LOC .       S3 T38N R78W:   LOCATION
 CNTY.            NATRONA:   COUNTY
 STAT.            WYOMING:   STATE
 CTRY. UNITED STATES OF AMERICA:   COUNTRY
 SRVC.           BIRDWELL:   SERVICE COMPANY
 DATE.        15-JUN-1978:   LOGDATE
 API .       490251028800:   API NUMBER
~CURVE INFORMATION
#MNEM.UNIT       API CODE    CURVE DESCRIPTION
#----------   ------------   ------------------------------
 DEPT.F                  :   
 CALD.IN     45 280 60 00:   CALIPER FROM DENSITY LOG
 GRD .GAPI   45 310 01 00:   GAMMA RAY FROM DENSITY LOG
 CORR.G/C3   45 356 01 00:   DENSITY CORRECTION
 RHOB.G/C3   45 350 01 00:   BULK DENSITY
 DPHI.DEC    45 890 12 00:   DENSITY POROSITY SANDSTONE
 SPR .MV     07 010 01 00:   SPONTANEOUS POTENTIAL
 ILD .OHMM   07 120 46 00:   INDUCTION LOG DEEP
 ILM .OHMM   07 120 44 00:   INDUCTION LOG MEDIUM
 SGRD.OHMM   07 220 05 00:   SHALLOW GUARD RESISTIVITY
~PARAMETER INFORMATION
#MNEM.UNIT          VALUE    DESCRIPTION
#----------   ------------   ------------------------------
 PD  .                 GL:   PERMANENT DATUM
 EPD .F              5184:   ELEVATION PERMANENT DATUM
 LMF .                 KB:   LOG MEASURED FROM
 DAPD.F                10:   FEET ABOVE PERMANENT DATUM
 DMF .                 KB:   DRILLING MEASURED FROM
 EKB .F              5184:   KELLING BUSHING
 EGL .F              5184:   GROUND LEVEL
 DATE.            6-15-78:   RUN DATE
 RUN .                  1:   RUN NUMBER
 DD  .F              2340:   DEPTH DRILLER
 DL  .F              2324:   DEPTH LOGGER
 BLI .F              2324:   BOTTOM LOG INTERVAL
 TLI .F                50:   TOP LOG INTERVAL
 CS  .IN            9.625:   CASING SIZE
 CBD .F               600:   CASING BOTTOM DRILLER
 CBL .F               601:   CASING BOTTOM LOGGER
 BS  .IN             8.75:   BIT SIZE
 BSD .F              2340:   BIT SIZE AT DEPTH
 DFT .           AIR MIST:   DRILLING FLUID TYPE
 BHT .F                68:   BOTTOM HOLE TEMPERATURE
 MRT .F                68:   MAXIMUM RECORDED TEMPERATURE
 LUN .               2958:   LOGGING UNIT NUMBER
 LUL .               CASP:   LOGGING UNIT LOCATION
 ENGI.           REYNOLDS:   RECORDING ENGINEER
 WITN.           MCGINLEY:   WITNESSED BY
 CLNT.            A2DTECH:   CLIENT CODE
 ORIG.   2" 2.5" 5" PRINT:   ORIGIN OF DATA
 UWI .       490251028800:   UNIQUE WELL ID
 DICO. A2D Technologies, Inc.:   DIGITIZING COMPANY
~OTHER INFORMATION
~A   DEPT       CALD      GRD        CORR      RHOB         DPHI      SPR        ILD        ILM       SGRD   
# ...
 1605.5000     8.3175   152.4384     0.0642     2.5325     0.0121  -999.2500  -999.2500  -999.2500  -999.2500
 1606.0000     8.3387   152.8208     0.0652     2.5345     0.0073  -999.2500  -999.2500  -999.2500  -999.2500
 1606.5000     8.3568   151.0787     0.0664     2.5368     0.0025  -999.2500  -999.2500  -999.2500  -999.2500
 1607.0000     8.4219   148.6334     0.0675     2.5418     0.0021  -999.2500  -999.2500  -999.2500  -999.2500
 1607.5000     8.4881   149.7985     0.0686     2.5468     0.0041  -999.2500  -999.2500  -999.2500  -999.2500
 1608.0000     8.5060   152.6070     0.0697     2.5498     0.0044  -999.2500  -999.2500  -999.2500  -999.2500
 1608.5000     8.4934   154.8828     0.0708     2.5475     0.0032  -999.2500  -999.2500  -999.2500  -999.2500
 1609.0000     8.4823   150.4955     0.0713     2.5453     0.0074  -999.2500  -999.2500  -999.2500  -999.2500
 1609.5000     8.4773   146.2757     0.0697     2.5431     0.0086  -999.2500  -999.2500  -999.2500  -999.2500
 1610.0000     8.4360   141.8146     0.0662     2.5408    -0.0024  -999.2500  -999.2500  -999.2500  -999.2500
 1610.5000     8.3683   137.9433     0.0634     2.5436    -0.0018  -999.2500  -999.2500  -999.2500  -999.2500
 1611.0000     8.3753   138.4492     0.0633     2.5470    -0.0011  -999.2500  -999.2500  -999.2500  -999.2500
 1611.5000     8.4203   139.4739     0.0632     2.5505    -0.0010  -999.2500  -999.2500  -999.2500  -999.2500
 1612.0000     8.4584   139.6220     0.0632     2.5541    -0.0014  -999.2500  -999.2500  -999.2500  -999.2500
 1612.5000     8.4978   138.3808     0.0615     2.5535     0.0007  -999.2500  -999.2500  -999.2500  -999.2500
 1613.0000     8.5108   140.7826     0.0595     2.5530     0.0052  -999.2500  -999.2500  -999.2500  -999.2500
 1613.5000     8.5098   142.5680     0.0575     2.5500     0.0098  -999.2500  -999.2500  -999.2500  -999.2500
 1614.0000     8.5096   138.0565     0.0555     2.5448     0.0097  -999.2500  -999.2500  -999.2500  -999.2500
 1614.5000     8.5100   135.1207     0.0561     2.5405     0.0079  -999.2500  -999.2500  -999.2500  -999.2500
 1615.0000     8.5017   135.8440     0.0569     2.5369     0.0101  -999.2500  -999.2500  -999.2500  -999.2500
 1615.5000     8.4899   136.7797     0.0578     2.5392     0.0121  -999.2500  -999.2500  -999.2500  -999.2500
 1616.0000     8.4784   139.4568     0.0585     2.5385     0.0024  -999.2500  -999.2500  -999.2500  -999.2500
 1616.5000     8.4668   141.4510     0.0590     2.5329     0.0044  -999.2500  -999.2500  -999.2500  -999.2500
 1617.0000     8.4550   142.6694     0.0545     2.5398     0.0066  -999.2500  -999.2500  -999.2500  -999.2500
 1617.5000     8.4440   145.5603     0.0506     2.5477     0.0087  -999.2500  -999.2500  -999.2500  -999.2500
 1618.0000     8.4312   150.3885     0.0463     2.5426     0.0109  -999.2500  -999.2500  -999.2500  -999.2500
 1618.5000     8.4423   154.2874     0.0419     2.5380     0.0126  -999.2500  -999.2500  -999.2500  -999.2500
 1619.0000     8.4653   158.7080     0.0393     2.5326     0.0124  -999.2500  -999.2500  -999.2500  -999.2500
 1619.5000     8.4875   158.9616     0.0396     2.5303     0.0115  -999.2500  -999.2500  -999.2500  -999.2500
 1620.0000     8.5080   155.7301     0.0395     2.5319     0.0106  -999.2500  -999.2500  -999.2500  -999.2500
 1620.5000     8.5066   153.4971     0.0395     2.5351     0.0098  -999.2500  -999.2500  -999.2500  -999.2500
 1621.0000     8.4676   154.1924     0.0401     2.5384     0.0089  -999.2500  -999.2500  -999.2500  -999.2500
 1621.5000     8.4327   154.2422     0.0417     2.5411     0.0081  -999.2500  -999.2500  -999.2500  -999.2500
 1622.0000     8.3968   151.5632     0.0432     2.5428     0.0045  -999.2500  -999.2500  -999.2500  -999.2500
 1622.5000     8.3614   149.0674     0.0448     2.5463     0.0008  -999.2500  -999.2500  -999.2500  -999.2500
 1623.0000     8.3523   148.8927     0.0464     2.5485     0.0016  -999.2500  -999.2500  -999.2500  -999.2500
 1623.5000     8.3533   149.9374     0.0479     2.5476     0.0032  -999.2500  -999.2500  -999.2500  -999.2500
 1624.0000     8.3527   152.5998     0.0495     2.5468     0.0017  -999.2500  -999.2500  -999.2500  -999.2500
 1624.5000     8.3499   156.8338     0.0510     2.5465    -0.0019  -999.2500  -999.2500  -999.2500  -999.2500
 1625.0000     8.3169   162.2117     0.0505     2.5504    -0.0055  -999.2500  -999.2500  -999.2500  -999.2500
 1625.5000     8.2884   160.5664     0.0494     2.5553    -0.0037  -999.2500  -999.2500  -999.2500  -999.2500
 1626.0000     8.2574   158.2702     0.0483     2.5598    -0.0008  -999.2500  -999.2500  -999.2500  -999.2500
 1626.5000     8.2460   158.1672     0.0468     2.5562     0.0011  -999.2500  -999.2500  -999.2500  -999.2500
 1627.0000     8.2922   158.7738     0.0438     2.5527    -0.0011  -999.2500  -999.2500  -999.2500  -999.2500
 1627.5000     8.3370   159.4289     0.0408     2.5524    -0.0033  -999.2500  -999.2500  -999.2500  -999.2500
 1628.0000     8.3844   162.3589     0.0378     2.5546    -0.0054  -999.2500  -999.2500  -999.2500  -999.2500
 1628.5000     8.4302   166.6041     0.0360     2.5574    -0.0068  -999.2500  -999.2500  -999.2500  -999.2500
 1629.0000     8.4763   165.1028     0.0377     2.5602    -0.0055  -999.2500  -999.2500  -999.2500  -999.2500
 1629.5000     8.5260   162.3306     0.0392     2.5617    -0.0042  -999.2500  -999.2500  -999.2500  -999.2500
 1630.0000     8.5329   162.3091     0.0409     2.5598    -0.0029  -999.2500  -999.2500  -999.2500  -999.2500
 1630.5000     8.4744   162.8060     0.0427     2.5578    -0.0027  -999.2500  -999.2500  -999.2500  -999.2500
 1631.0000     8.4985   162.4721     0.0433     2.5551    -0.0032  -999.2500  -999.2500  -999.2500  -999.2500
 1631.5000     8.5318   160.9689     0.0427     2.5550    -0.0037  -999.2500  -999.2500  -999.2500  -999.2500
 1632.0000     8.5552   157.0119     0.0421     2.5564    -0.0030  -999.2500  -999.2500  -999.2500  -999.2500
 1632.5000     8.5630   155.6550     0.0416     2.5577     0.0006  -999.2500  -999.2500  -999.2500  -999.2500
 1633.0000     8.5729   158.6215     0.0410     2.5577     0.0090  -999.2500  -999.2500  -999.2500  -999.2500
 1633.5000     8.5843   162.5273     0.0405     2.5518     0.0126  -999.2500  -999.2500  -999.2500  -999.2500
 1634.0000     8.5807   164.3207     0.0399     2.5439     0.0132  -999.2500  -999.2500  -999.2500  -999.2500
 1634.5000     8.5618   160.3861     0.0401     2.5361     0.0134  -999.2500  -999.2500  -999.2500  -999.2500
 1635.0000     8.5438   156.9071     0.0421     2.5323     0.0134  -999.2500  -999.2500  -999.2500  -999.2500
 1635.5000     8.5262   155.6318     0.0441     2.5329     0.0131  -999.2500  -999.2500  -999.2500  -999.2500
 1636.0000     8.5106   157.3511     0.0460     2.5339     0.0127  -999.2500  -999.2500  -999.2500  -999.2500
 1636.5000     8.5089   159.3086     0.0480     2.5344     0.0123  -999.2500  -999.2500  -999.2500  -999.2500
 1637.0000     8.5218   163.5535     0.0502     2.5338     0.0120  -999.2500  -999.2500  -999.2500  -999.2500
 1637.5000     8.5501   169.2710     0.0507     2.5333     0.0119  -999.2500  -999.2500  -999.2500  -999.2500
 1638.0000     8.5770   167.7798     0.0478     2.5328     0.0088  -999.2500  -999.2500  -999.2500  -999.2500
 1638.5000     8.6034   164.7078     0.0452     2.5360     0.0054  -999.2500  -999.2500  -999.2500  -999.2500
 1639.0000     8.6267   161.4464     0.0425     2.5410     0.0024  -999.2500  -999.2500  -999.2500  -999.2500
 1639.5000     8.6205   159.6837     0.0397     2.5463     0.0037  -999.2500  -999.2500  -999.2500  -999.2500
 1640.0000     8.6113   163.0693     0.0396     2.5484     0.0047  -999.2500  -999.2500  -999.2500  -999.2500
 1640.5000     8.6013   167.0215     0.0407     2.5470     0.0000  -999.2500  -999.2500  -999.2500  -999.2500
 1641.0000     8.5919   167.5534     0.0417     2.5468    -0.0043  -999.2500  -999.2500  -999.2500  -999.2500
 1641.5000     8.5822   165.1662     0.0428     2.5549    -0.0070  -999.2500  -999.2500  -999.2500  -999.2500
