~VERSION INFORMATION
 VERS.                2.0:   CWLS LOG ASCII STANDARD - VERSION 2.0
 WRAP.                 NO:   ONE LINE PER DEPTH STEP
~WELL INFORMATION
#MNEM.UNIT      DATA TYPE    INFORMATION
#----------   ------------   ------------------------------
 STRT.F           85.0000:   START DEPTH
 STOP.F          780.0000:   STOP DEPTH
 STEP.F            0.5000:   STEP LENGTH
 NULL.          -999.2500:   NO VALUE
 COMP. U S NAVY-INTEX OIL:   COMPANY
 WELL.        NPR #47-S-2:   WELL
 FLD .             TEAPOT:   FIELD
 LOC .       S2 T38N R78W:   LOCATION
 CNTY.            NATRONA:   COUNTY
 STAT.            WYOMING:   STATE
 CTRY. UNITED STATES OF AMERICA:   COUNTRY
 SRVC.       Schlumberger:   SERVICE COMPANY
 DATE.        30-JUN-1962:   LOGDATE
 API .       490250640200:   API NUMBER
~CURVE INFORMATION
#MNEM.UNIT       API CODE    CURVE DESCRIPTION
#----------   ------------   ------------------------------
 DEPT.F                  :   
 SPR .MV     05 010 01 00:   SPONTANEOUS POTENTIAL FROM RES.
 ASN .OHMM   05 041 18 00:   AMPLIFIED SHORT NORMAL 18"
 ILD .OHMM   05 120 46 00:   INDUCTION LOG DEEP
 CILD.MMHO   05 110 46 00:   CONDUCTIVITY INDUCTION LOG DEEP
 CALM.IN     15 280 01 00:   CALIPER FROM MICRO LOG
 GR  .GAPI   30 310 01 00:   GAMMA RAY
~PARAMETER INFORMATION
#MNEM.UNIT          VALUE    DESCRIPTION
#----------   ------------   ------------------------------
 PD  .                 KB:   PERMANENT DATUM
 LMF .                 KB:   LOG MEASURED FROM
 DMF .                 KB:   DRILLING MEASURED FROM
 EKB .F              5175:   KELLING BUSHING
 EGL .F              5170:   GROUND LEVEL
 DATE.          6-30-1962:   RUN DATE
 RUN .                  1:   RUN NUMBER
 DD  .F               775:   DEPTH DRILLER
 DL  .F               781:   DEPTH LOGGER
 BLI .F               780:   BOTTOM LOG INTERVAL
 TLI .F                86:   TOP LOG INTERVAL
 BS  .IN             6.75:   BIT SIZE
 BSD .F               775:   BIT SIZE AT DEPTH
 DFT .            GEL-OIL:   DRILLING FLUID TYPE
 DFD .                 10:   DRILLING FLUID DENSITY
 DFV .                 50:   DRILLING FLUID VISCOSITY
 DFL .                3.6:   DRILLING FLUID LOSS
 MSS .           FLOWLINE:   MUD SAMPLE SOURCE
 RMS .OHMM           5.75:   RESISTIVITY MUD SAMPLE
 MST .F                69:   MUD SAMPLE TEMPERATURE
 RMF .OHMM           4.96:   RESISTIVITY MUD FILTRATE SAMPLE
 MFST.F                69:   MUD FILTRATE SAMPLE TEMPERATURE
 RMC .OHMM           4.80:   RESISTIVITY MUD CAKE
 MCST.F                69:   MUD CAKE SAMPLE TEMPERATURE
 RMB .OHMM           5.13:   RESISTIVITY MUD AT BHT
 BHT .F                78:   BOTTOM HOLE TEMPERATURE
 TCS .HRS               1:   TIME CURCULATED STOPPED
 MRT .F                78:   MAXIMUM RECORDED TEMPERATURE
 LUN .               2503:   LOGGING UNIT NUMBER
 LUL .              CSPR.:   LOGGING UNIT LOCATION
 ENGI.             KNOBEL:   RECORDING ENGINEER
 WITN.          JORGENSEN:   WITNESSED BY
 CLNT.            A2DTECH:   CLIENT CODE
 ORIG.      2" & 5" PRINT:   ORIGIN OF DATA
 UWI .       490250640200:   UNIQUE WELL ID
 DICO. A2D Technologies, Inc.:   DIGITIZING COMPANY
~OTHER INFORMATION
~A   DEPT      SPR        ASN        ILD         CILD     CALM         GR   
# ...
  397.0000   -27.0833     9.4925     9.0433   116.5414  -999.2500  -999.2500
  397.5000   -27.2321     9.6564     9.1181   115.0376  -999.2500  -999.2500
  398.0000   -27.2321     9.6713     9.1928   113.5338  -999.2500  -999.2500
  398.5000   -27.0833     9.7012     9.3423   112.0301  -999.2500  -999.2500
  399.0000   -27.0833     9.8359     9.3423   110.5263  -999.2500  -999.2500
  399.5000   -27.0833    10.0003     9.4170   107.5188  -999.2500  -999.2500
  400.0000   -27.0833    10.1946     9.4918   106.0150  -999.2500  -999.2500
  400.5000   -26.9306    10.1420     9.4918   102.2556  -999.2500  -999.2500
  401.0000   -26.9286    10.1796     9.4918   102.2556  -999.2500  -999.2500
  401.5000   -27.2232    10.1796     9.4918   102.2556  -999.2500  -999.2500
  402.0000   -27.3691    10.2545     9.4170   103.0075  -999.2500  -999.2500
  402.5000   -27.3611    10.1796     9.3423   103.7594  -999.2500  -999.2500
  403.0000   -27.2143    10.1796     9.3423   103.7594  -999.2500  -999.2500
  403.5000   -27.2044    10.0993     9.3423   104.5113  -999.2500  -999.2500
  404.0000   -27.0596    10.0447     9.3423   105.2632  -999.2500  -999.2500
  404.5000   -26.9078     9.9902     9.2676   106.0150  -999.2500  -999.2500
  405.0000   -26.9048     9.9551     9.1928   107.5188  -999.2500  -999.2500
  405.5000   -26.9017     9.9637     9.1928   108.2707  -999.2500  -999.2500
  406.0000   -26.8988     9.9701     9.2676   109.0226  -999.2500  -999.2500
  406.5000   -26.7470     9.9551     9.2676   109.7744  -999.2500  -999.2500
  407.0000   -26.7440     9.9551     9.1928   109.7744  -999.2500  -999.2500
  407.5000   -26.5922     9.9251     9.1928   109.7744  -999.2500  -999.2500
  408.0000   -26.4405     9.8653     9.1928   110.5263  -999.2500  -999.2500
  408.5000   -26.4375     9.8353     9.1928   110.5263  -999.2500  -999.2500
  409.0000   -26.2857     9.8204     9.1928   110.5263  -999.2500  -999.2500
  409.5000   -26.2827     9.8054     9.1928   111.2782  -999.2500  -999.2500
  410.0000   -26.2798     9.7754     9.1928   112.0301  -999.2500  -999.2500
  410.5000   -26.4257     9.7156     9.1181   112.0301  -999.2500  -999.2500
  411.0000   -26.5715     9.6557     9.0433   112.7820  -999.2500  -999.2500
  411.5000   -26.5685     9.5659     8.9592   113.5338  -999.2500  -999.2500
  412.0000   -26.4167     9.4910     8.8830   114.2857  -999.2500  -999.2500
  412.5000   -26.4137     9.4162     8.7444   115.0376  -999.2500  -999.2500
  413.0000   -26.2619     9.3413     8.6697   115.0376  -999.2500  -999.2500
  413.5000   -26.2590     9.2964     8.6697   115.0376  -999.2500  -999.2500
  414.0000   -26.2560     9.2665     8.7444   115.0376  -999.2500  -999.2500
  414.5000   -26.4019     9.2665     8.8191   114.2857  -999.2500  -999.2500
  415.0000   -26.5478     9.3263     8.8939   114.2857  -999.2500  -999.2500
  415.5000   -26.6936     9.4162     8.9686   114.2857  -999.2500  -999.2500
  416.0000   -26.6899     9.4760     8.9686   114.2857  -999.2500  -999.2500
  416.5000   -26.6869     9.4461     8.9686   114.2857  -999.2500  -999.2500
  417.0000   -26.5351     9.3713     8.8939   115.0376  -999.2500  -999.2500
  417.5000   -26.5322     9.2964     8.8191   115.7895  -999.2500  -999.2500
  418.0000   -26.5292     9.2515     8.8191   115.7895  -999.2500  -999.2500
  418.5000   -26.5262     9.1916     8.7444   116.5414  -999.2500  -999.2500
  419.0000   -26.5233     9.1467     8.6697   119.5489  -999.2500  -999.2500
  419.5000   -26.6698     9.1168     8.5202   121.8045  -999.2500  -999.2500
  420.0000   -26.6661     9.1018     8.4454   124.0602  -999.2500  -999.2500
  420.5000   -26.6632     9.0120     8.2960   127.0677  -999.2500  -999.2500
  421.0000   -26.6602     8.8623     8.0717   130.8271  -999.2500  -999.2500
  421.5000   -26.5084     8.6826     7.9223   133.8346  -999.2500  -999.2500
  422.0000   -26.3566     8.4581     7.6981   136.8421  -999.2500  -999.2500
  422.5000   -26.2048     8.0988     7.5486   141.3534  -999.2500  -999.2500
  423.0000   -26.0531     7.8144     7.4738   146.6165  -999.2500  -999.2500
  423.5000   -26.0501     7.6796     7.3991   149.6241  -999.2500  -999.2500
  424.0000   -26.0471     7.5898     7.3991   149.7542  -999.2500  -999.2500
  424.5000   -26.0441     7.5449     7.4738   148.1203  -999.2500  -999.2500
  425.0000   -26.1907     7.5749     7.6981   145.8647  -999.2500  -999.2500
  425.5000   -26.0382     7.7844     7.9223   142.8571  -999.2500  -999.2500
  426.0000   -26.0352     8.3084     8.1465   139.8496  -999.2500  -999.2500
  426.5000   -25.8834     8.5030     8.3707   136.0902  -999.2500  -999.2500
  427.0000   -25.8805     8.5030     8.5202   133.0827  -999.2500  -999.2500
  427.5000   -25.8775     8.5479     8.4454   130.0752  -999.2500  -999.2500
  428.0000   -26.0233     8.6826     8.4454   127.8195  -999.2500  -999.2500
  428.5000   -26.0204     8.7425     8.3707   126.3158  -999.2500  -999.2500
  429.0000   -26.0174     8.7725     8.3707   127.0677  -999.2500  -999.2500
  429.5000   -26.0144     8.8623     8.2960   127.8195  -999.2500  -999.2500
  430.0000   -25.8626     8.8473     8.2960   127.8195  -999.2500  -999.2500
  430.5000   -25.8597     8.6377     8.2960   127.8195  -999.2500  -999.2500
  431.0000   -25.7079     8.7275     8.3707   127.0677  -999.2500  -999.2500
  431.5000   -25.5561     8.7275     8.3707   126.3158  -999.2500  -999.2500
  432.0000   -25.2555     8.7126     8.4454   125.5639  -999.2500  -999.2500
  432.5000   -25.1037     8.6826     8.4454   124.8120  -999.2500  -999.2500
  433.0000   -24.9527     8.6228     8.5202   123.3083  -999.2500  -999.2500
  433.5000   -25.3962     8.6530     8.5202   122.5564  -999.2500  -999.2500
  434.0000   -25.8389     9.1332     8.5202   121.8045  -999.2500  -999.2500
  434.5000   -26.1335     9.2814     8.5202   121.0526  -999.2500  -999.2500
  435.0000   -26.2801     8.9501     8.5202   121.8045  -999.2500  -999.2500
  435.5000   -26.4259     8.6976     8.5202   122.5564  -999.2500  -999.2500
  436.0000   -26.2734     9.0002     8.5202   123.3083  -999.2500  -999.2500
  436.5000   -26.4200     9.2076     8.4454   124.8120  -999.2500  -999.2500
  437.0000   -26.8627     9.0525     8.4454   126.3158  -999.2500  -999.2500
  437.5000   -27.3069     8.8747     8.3707   127.8195  -999.2500  -999.2500
  438.0000   -27.6016     8.8323     8.3707   128.5714  -999.2500  -999.2500
  438.5000   -27.5979     8.8174     8.2960   128.6293  -999.2500  -999.2500
  439.0000   -27.4461     8.8007     8.2960   127.8195  -999.2500  -999.2500
  439.5000   -27.2943     8.7275     8.2960   127.0677  -999.2500  -999.2500
  440.0000   -27.2913     8.7126     8.2960   127.0677  -999.2500  -999.2500
  440.5000   -27.2883     8.7297     8.2960   126.3158  -999.2500  -999.2500
  441.0000   -27.2854     8.7598     8.2960   126.3158  -999.2500  -999.2500
  441.5000   -27.4320     8.7874     8.3707   126.3158  -999.2500  -999.2500
  442.0000   -27.2794     8.7874     8.3707   126.3158  -999.2500  -999.2500
  442.5000   -27.2765     8.7725     8.3707   126.3158  -999.2500  -999.2500
  443.0000   -27.2735     8.7696     8.3707   126.3158  -999.2500  -999.2500
  443.5000   -27.1217     8.7425     8.3707   125.5639  -999.2500  -999.2500
  444.0000   -26.9699     8.7126     8.3707   125.5639  -999.2500  -999.2500
  444.5000   -26.8182     8.6826     8.2960   125.5639  -999.2500  -999.2500
  445.0000   -26.8152     8.6527     8.2212   126.3158  -999.2500  -999.2500
  445.5000   -26.8122     8.5778     8.1465   126.3158  -999.2500  -999.2500
  446.0000   -26.6604     8.5928     8.1465   127.0677  -999.2500  -999.2500
  446.5000   -26.3598     8.6826     8.0717   127.8195  -999.2500  -999.2500
  447.0000   -26.3569     8.6826     8.0717   128.5714  -999.2500  -999.2500
  447.5000   -26.3539     8.5778     8.1465   129.3233  -999.2500  -999.2500
  448.0000   -26.3509     8.4880     8.1465   129.3233  -999.2500  -999.2500
  448.5000   -26.4975     8.4431     8.1465   130.0752  -999.2500  -999.2500
