~VERSION INFORMATION
 VERS.                2.0:   CWLS LOG ASCII STANDARD - VERSION 2.0
 WRAP.                 NO:   ONE LINE PER DEPTH STEP
~WELL INFORMATION
#MNEM.UNIT      DATA TYPE    INFORMATION
#----------   ------------   ------------------------------
 STRT.F           65.0000:   START DEPTH
 STOP.F          860.0000:   STOP DEPTH
 STEP.F            0.5000:   STEP LENGTH
 NULL.          -999.2500:   NO VALUE
 COMP.          U.S. NAVY:   COMPANY
 WELL. NPR 3 TEAPOT DOM #71-S-34:   WELL
 FLD .             TEAPOT:   FIELD
 LOC .      S34 T39N R78W:   LOCATION
 CNTY.            NATRONA:   COUNTY
 STAT.            WYOMING:   STATE
 CTRY. UNITED STATES OF AMERICA:   COUNTRY
 SRVC. Schlumberger Well Surveying Corp:   SERVICE COMPANY
 DATE.        22-FEB-1961:   LOGDATE
 API .       490250657300:   API NUMBER
~CURVE INFORMATION
#MNEM.UNIT       API CODE    CURVE DESCRIPTION
#----------   ------------   ------------------------------
 DEPT.F                  :   
 GR  .GAPI   30 310 01 00:   GAMMA RAY
 ASN .OHMM   05 041 16 00:   AMPLIFIED SHORT NORMAL 16"
 CILD.MMHO   05 110 46 00:   CONDUCTIVITY INDUCTION LOG DEEP
 ILD .OHMM   05 120 46 00:   INDUCTION LOG DEEP
 SPR .MV     05 010 01 00:   SPONTANEOUS POTENTIAL FROM RES.
~PARAMETER INFORMATION
#MNEM.UNIT          VALUE    DESCRIPTION
#----------   ------------   ------------------------------
 LMF .                 KB:   LOG MEASURED FROM
 DMF .                 KB:   DRILLING MEASURED FROM
 EKB .F              5067:   KELLING BUSHING
 EGL .F              5063:   GROUND LEVEL
 DATE.        22-FEB-1961:   RUN DATE
 RUN .                  1:   RUN NUMBER
 DD  .F               861:   DEPTH DRILLER
 DL  .F               861:   DEPTH LOGGER
 BLI .F               860:   BOTTOM LOG INTERVAL
 TLI .F                80:   TOP LOG INTERVAL
 CBD .F                12:   CASING BOTTOM DRILLER
 BS  .IN            7.875:   BIT SIZE
 BSD .F               861:   BIT SIZE AT DEPTH
 DFT .       GEL-OIL EMUL:   DRILLING FLUID TYPE
 DFD .                9.6:   DRILLING FLUID DENSITY
 DFV .                 38:   DRILLING FLUID VISCOSITY
 DFPH.                  9:   DRILLING FLUID PH
 DFL .               15.4:   DRILLING FLUID LOSS
 MSS .           FLOWLINE:   MUD SAMPLE SOURCE
 RMS .OHMM           0.86:   RESISTIVITY MUD SAMPLE
 MST .F                68:   MUD SAMPLE TEMPERATURE
 RMF .OHMM           0.52:   RESISTIVITY MUD FILTRATE SAMPLE
 MFST.F                68:   MUD FILTRATE SAMPLE TEMPERATURE
 RMC .OHMM           1.98:   RESISTIVITY MUD CAKE
 MCST.F                68:   MUD CAKE SAMPLE TEMPERATURE
 MFSS.               MEAS:   MUD FILTRATE SAMPLE SOURCE
 MCSS.               MEAS:   MUD CAKE SAMPLE SOURCE
 RMB .OHMM           0.77:   RESISTIVITY MUD AT BHT
 BHT .F                78:   BOTTOM HOLE TEMPERATURE
 TCS .HRS               1:   TIME CURCULATED STOPPED
 MRT .F                78:   MAXIMUM RECORDED TEMPERATURE
 LUN .               2523:   LOGGING UNIT NUMBER
 LUL .               CSPR:   LOGGING UNIT LOCATION
 ENGI.             KNOBEL:   RECORDING ENGINEER
 WITN.          JORGENSEN:   WITNESSED BY
 CLNT.            A2DTECH:   CLIENT CODE
 ORIG.      2" , 5" PRINT:   ORIGIN OF DATA
 UWI .       490250657300:   UNIQUE WELL ID
 DICO. A2D Technologies, Inc.:   DIGITIZING COMPANY
~OTHER INFORMATION
~A   DEPT       GR          ASN       CILD        ILD      SPR   
# ...
  248.0000  -999.2500     7.7922   159.7283     5.8338   -24.4640
  248.5000  -999.2500     7.7925   160.3252     5.8350   -24.4608
  249.0000  -999.2500     7.7792   161.0893     5.7576   -24.4577
  249.5000  -999.2500     7.7454   161.1115     5.7591   -24.4545
  250.0000  -999.2500     7.7308   161.8338     5.7210   -24.4511
  250.5000  -999.2500     7.7356   162.0337     5.6829   -24.4483
  251.0000  -999.2500     7.7628   162.5784     5.6844   -24.4451
  251.5000  -999.2500     7.7868   162.5588     5.6853   -24.4420
  252.0000  -999.2500     7.7947   162.5392     5.7649   -24.3887
  252.5000  -999.2500     7.7794   161.7327     5.8124   -24.3528
  253.0000  -999.2500     7.7640   161.7163     5.8785   -24.4326
  253.5000  -999.2500     7.7956   160.9125     6.0037   -24.4295
  254.0000  -999.2500     7.8804   158.7617     6.1181   -24.4260
  254.5000  -999.2500     7.9663   155.7327     6.1677   -24.4232
  255.0000  -999.2500     8.0470   152.2311     6.3208   -24.4201
  255.5000  -999.2500     8.1310   148.8911     6.4237   -24.4169
  256.0000  -999.2500     8.2072   145.8829     6.6364   -24.4138
  256.5000  -999.2500     8.2983   142.8331     6.8003   -24.3815
  257.0000  -999.2500     8.3690   139.8040     7.0551   -24.2508
  257.5000  -999.2500     8.5806   135.6763     7.4238   -24.2477
  258.0000  -999.2500     8.7082   130.6426     7.5340   -24.2445
  258.5000  -999.2500     8.8254   123.5175     7.7403   -24.2409
  259.0000  -999.2500     8.9572   116.8068     7.8683   -24.2382
  259.5000  -999.2500     9.0440   113.4364     8.0942   -24.2351
  260.0000  -999.2500     9.1455   109.7171     8.2916   -24.2320
  260.5000  -999.2500     9.2061   108.9146     8.4091   -24.2286
  261.0000  -999.2500     9.2401   108.8950     8.4587   -24.1612
  261.5000  -999.2500     9.0683   109.6563     8.2953   -24.0887
  262.0000  -999.2500     8.9381   113.5055     8.1646   -24.0627
  262.5000  -999.2500     8.7598   127.6450     7.8272   -24.0596
  263.0000  -999.2500     8.5058   137.1343     6.8519   -24.0564
  263.5000  -999.2500     8.2382   152.2139     6.0980   -24.0533
  264.0000  -999.2500     7.8648   174.6062     3.8340   -24.0889
  264.5000  -999.2500     7.4911   230.1265     2.6916   -24.1551
  265.0000  -999.2500     6.5665   274.1508     2.2610   -24.2006
  265.5000  -999.2500     5.6748   325.7994     2.0085   -24.1971
  266.0000  -999.2500     4.7643   407.1626     1.8568   -24.1944
  266.5000  -999.2500     4.1809   457.8918     1.7238   -24.1912
  267.0000  -999.2500     3.6105   494.9617     1.6466   -24.1881
  267.5000  -999.2500     3.3991   516.2161     1.5693   -24.1850
  268.0000  -999.2500     3.3603   522.4107     1.6491   -24.1818
  268.5000  -999.2500     3.3681   513.8674     1.7581   -24.1787
  269.0000  -999.2500     3.4219   480.4667     1.8864   -24.1755
  269.5000  -999.2500     3.7994   436.1381     2.0925   -24.1724
  270.0000  -999.2500     4.5091   386.1273     2.4321   -24.1693
  270.5000  -999.2500     5.0676   353.0346     3.0655   -24.1914
  271.0000  -999.2500     5.5291   277.5218     3.9420   -24.3196
  271.5000  -999.2500     6.3171   230.7705     5.1746   -24.3166
  272.0000  -999.2500     8.2298   184.5361     6.5175   -24.3135
  272.5000  -999.2500     9.0699   133.6798     7.2473   -24.3103
  273.0000  -999.2500     9.9294   114.6929     7.7736   -24.3409
  273.5000  -999.2500    10.3598    99.4395     8.4403   -24.4609
  274.0000  -999.2500    10.5315    89.8591     9.7696   -24.4577
  274.5000  -999.2500    10.5318    86.2030    10.4418   -24.4545
  275.0000  -999.2500    10.5321    87.7090    10.4428   -24.4513
  275.5000  -999.2500    10.4541    90.3011    10.3628   -24.4483
  276.0000  -999.2500    10.4545    92.3825    10.2372   -24.4451
  276.5000  -999.2500    10.4548    95.3722    10.0119   -24.4420
  277.0000  -999.2500    10.4551    99.6447     9.5855   -24.4389
  277.5000  -999.2500    10.4554   102.1356     9.1536   -24.4357
  278.0000  -999.2500    10.4557   104.3313     8.8725   -24.4326
  278.5000  -999.2500    10.4561   106.8403     8.7271   -24.4295
  279.0000  -999.2500    10.5346   108.1926     8.7281   -24.4263
  279.5000  -999.2500    10.6171   107.3846     8.7292   -24.4232
  280.0000  -999.2500    10.7439   105.8517     8.8244   -24.4197
  280.5000  -999.2500    10.8707   103.2405     9.0793   -24.4169
  281.0000  -999.2500    11.0053    99.4869     9.3598   -24.4138
  281.5000  -999.2500    11.1621    97.6633     9.5890   -24.4107
  282.0000  -999.2500    11.3189    95.5319     9.9279   -24.4075
  282.5000  -999.2500    11.4758    93.8937    10.3039   -24.4044
  283.0000  -999.2500    11.5334    91.2305    10.4859   -24.4010
  283.5000  -999.2500    11.6329    87.6342    10.6979   -24.3205
  284.0000  -999.2500    11.7584    86.8339    10.8203   -24.2382
  284.5000  -999.2500    11.9465    86.8141    10.9483   -24.2346
  285.0000  -999.2500    12.1033    86.3244    11.0934   -24.2320
  285.5000  -999.2500    12.1388    85.8242    11.1259   -24.2288
  286.0000  -999.2500    12.2604    85.1860    11.2524   -24.2257
  286.5000  -999.2500    12.4173    85.1685    11.3036   -24.2226
  287.0000  -999.2500    12.4175    85.1489    11.4114   -24.2194
  287.5000  -999.2500    12.4961    85.1293    11.4911   -24.1924
  288.0000  -999.2500    12.4964    84.8903    11.5308   -24.1045
  288.5000  -999.2500    12.5085    84.3051    11.5717   -24.0533
  289.0000  -999.2500    12.5753    84.2868    11.6515   -24.0502
  289.5000  -999.2500    12.6297    84.2359    11.7445   -24.0469
  290.0000  -999.2500    12.7324    83.7949    11.8090   -24.0439
  290.5000  -999.2500    12.7810    83.4444    11.8736   -24.0408
  291.0000  -999.2500    12.8595    83.4243    11.9382   -24.0373
  291.5000  -999.2500    12.8899    82.7887    12.0491   -24.0345
  292.0000  -999.2500    12.9267    82.2919    12.0502   -24.0313
  292.5000  -999.2500    13.0111    81.7962    12.1297   -24.0282
  293.0000  -999.2500    13.1256    81.7790    12.1311   -24.0251
  293.5000  -999.2500    13.2041    81.3571    12.1321   -24.0219
  294.0000  -999.2500    13.2044    80.9561    12.1333   -24.0188
  294.5000  -999.2500    13.3260    80.9365    12.1344   -24.0157
  295.0000  -999.2500    13.3615    80.1316    12.1473   -24.0121
  295.5000  -999.2500    13.4401    80.1136    12.2153   -24.0094
  296.0000  -999.2500    13.4717    80.0940    12.2163   -24.0063
  296.5000  -999.2500    13.5985    79.2872    12.2962   -24.0031
  297.0000  -999.2500    13.7253    78.2367    12.4242   -24.0000
  297.5000  -999.2500    13.8521    76.8997    12.5522   -23.9967
  298.0000  -999.2500    13.9894    74.4566    12.6913   -23.9937
  298.5000  -999.2500    14.1840    71.7831    12.8866   -23.9906
  299.0000  -999.2500    14.3890    67.4345    13.1082   -23.9870
  299.5000  -999.2500    14.6163    64.9412    13.5570   -23.9843
  300.0000  -999.2500    15.0600    61.1285    14.0805   -23.9812
  300.5000  -999.2500    15.8689    59.4570    14.8131   -23.8213
  301.0000  -999.2500    16.6491    55.6347    16.0305   -23.8072
  301.5000  -999.2500    17.2858    52.2896    16.7547   -23.7308
  302.0000  -999.2500    18.0608    49.1327    17.7900   -23.6544
  302.5000  -999.2500    18.4392    48.5696    18.2909   -23.5779
  303.0000  -999.2500    18.5308    51.0684    17.9012   -23.5110
  303.5000  -999.2500    18.4294    55.2259    16.6928   -23.3542
  304.0000  -999.2500    18.0359    58.7459    15.9979   -23.3542
  304.5000  -999.2500    17.2798    61.9737    15.1211   -23.3542
  305.0000  -999.2500    16.7324    65.5172    13.6364   -23.3542
  305.5000  -999.2500    15.9463    70.4895    12.9612   -23.3542
  306.0000  -999.2500    14.6986    72.8788    12.6024   -23.5225
  306.5000  -999.2500    14.5094    74.5428    12.4608   -23.6677
  307.0000  -999.2500    14.2827    75.9636    12.3430   -23.8814
  307.5000  -999.2500    14.0560    78.2852    12.2917   -24.1392
  308.0000  -999.2500    13.8293    81.6719    12.2257   -24.2947
  308.5000  -999.2500    13.6027    83.0055    12.1473   -24.3414
