~VERSION INFORMATION
 VERS.                2.0:   CWLS LOG ASCII STANDARD - VERSION 2.0
 WRAP.                 NO:   ONE LINE PER DEPTH STEP
~WELL INFORMATION
#MNEM.UNIT      DATA TYPE    INFORMATION
#----------   ------------   ------------------------------
 STRT.F           28.0000:   START DEPTH
 STOP.F          693.0000:   STOP DEPTH
 STEP.F            0.5000:   STEP LENGTH
 NULL.          -999.2500:   NO VALUE
 COMP. FENIX & SCISSON INC:   COMPANY
 WELL.       NPR-3 #63-15:   WELL
 FLD .             TEAPOT:   FIELD
 LOC .      S15 T38N R78W:   LOCATION
 CNTY.            NATRONA:   COUNTY
 STAT.            WYOMING:   STATE
 CTRY. UNITED STATES OF AMERICA:   COUNTRY
 SRVC.            Unknown:   SERVICE COMPANY
 DATE.        10-JUN-1978:   LOGDATE
 API .       490251063800:   API NUMBER
~CURVE INFORMATION
#MNEM.UNIT       API CODE    CURVE DESCRIPTION
#----------   ------------   ------------------------------
 DEPT.F                  :   
 SPR .MV     05 010 01 00:   SPONTANEOUS POTENTIAL FROM RES.
 SN  .OHMM   05 040 16 00:   SHORT NORMAL 16"
 ILD .OHMM   05 120 46 00:   INDUCTION LOG DEEP
 CALD.IN     45 280 60 00:   CALIPER FROM DENSITY LOG
 GRD .GAPI   45 310 01 00:   GAMMA RAY FROM DENSITY LOG
 CORR.G/C3   45 356 01 00:   DENSITY CORRECTION
 DPHI.DEC    45 890 12 00:   DENSITY POROSITY SANDSTONE
 DEN .G/C3   45 350 01 00:   DENSITY
~PARAMETER INFORMATION
#MNEM.UNIT          VALUE    DESCRIPTION
#----------   ------------   ------------------------------
 PD  .                 GL:   PERMANENT DATUM
 EPD .F              5265:   ELEVATION PERMANENT DATUM
 LMF .                 KB:   LOG MEASURED FROM
 DAPD.F                 4:   FEET ABOVE PERMANENT DATUM
 DMF .                 KB:   DRILLING MEASURED FROM
 EKB .F              5269:   KELLING BUSHING
 EGL .F              5265:   GROUND LEVEL
 DATE.        10-JUN-1978:   RUN DATE
 RUN .                  1:   RUN NUMBER
 DD  .F               690:   DEPTH DRILLER
 DL  .F               697:   DEPTH LOGGER
 BLI .F               690:   BOTTOM LOG INTERVAL
 TLI .F                35:   TOP LOG INTERVAL
 CS  .IN            8.625:   CASING SIZE
 CBD .F                40:   CASING BOTTOM DRILLER
 CBL .F                35:   CASING BOTTOM LOGGER
 BS  .IN            7.875:   BIT SIZE
 BSD .F               690:   BIT SIZE AT DEPTH
 DFT .                KCL:   DRILLING FLUID TYPE
 DFD .                8.7:   DRILLING FLUID DENSITY
 DFV .                 34:   DRILLING FLUID VISCOSITY
 DFPH.                 10:   DRILLING FLUID PH
 DFL .               11.6:   DRILLING FLUID LOSS
 MSS .            MUD PIT:   MUD SAMPLE SOURCE
 RMS .OHMM            .32:   RESISTIVITY MUD SAMPLE
 MST .F                74:   MUD SAMPLE TEMPERATURE
 RMF .OHMM            .28:   RESISTIVITY MUD FILTRATE SAMPLE
 MFST.F                78:   MUD FILTRATE SAMPLE TEMPERATURE
 RMC .OHMM            .36:   RESISTIVITY MUD CAKE
 MCST.F                78:   MUD CAKE SAMPLE TEMPERATURE
 MFSS.               MEAS:   MUD FILTRATE SAMPLE SOURCE
 MCSS.               MEAS:   MUD CAKE SAMPLE SOURCE
 BHT .F                80:   BOTTOM HOLE TEMPERATURE
 TCS .HRS            0100:   TIME CURCULATED STOPPED
 MRT .F                80:   MAXIMUM RECORDED TEMPERATURE
 LUN .               2958:   LOGGING UNIT NUMBER
 LUL .               CASP:   LOGGING UNIT LOCATION
 ENGI.             MILLER:   RECORDING ENGINEER
 WITN.           MCGINLEY:   WITNESSED BY
 CLNT.            A2DTECH:   CLIENT CODE
 ORIG.           5" PRINT:   ORIGIN OF DATA
 UWI .       490251063800:   UNIQUE WELL ID
 DICO. A2D Technologies, Inc.:   DIGITIZING COMPANY
~OTHER INFORMATION
~A   DEPT      SPR         SN        ILD       CALD        GRD       CORR       DPHI        DEN   
# ...
  392.5000    -9.6771     6.3040     6.0436     7.4500    86.6422     0.0087     0.1198     2.4726
  393.0000    -9.6610     6.6669     6.8255     7.4813    85.3135     0.0089     0.1144     2.4713
  393.5000    -9.6449     6.9538     7.1689     7.5125    86.1204     0.0090     0.1126     2.4766
  394.0000    -9.6287     7.0064     7.2733     7.5737    89.0547     0.0091     0.1095     2.4834
  394.5000    -9.7623     7.0107     7.2778     7.6050    91.1818     0.0092     0.1029     2.4873
  395.0000    -9.7455     7.0638     7.2822     7.4566    89.2560     0.0108     0.0941     2.4971
  395.5000    -9.7260     7.1675     7.2867     7.3371    85.0915     0.0109     0.0920     2.5099
  396.0000    -9.7099     7.2217     7.2911     7.2946    82.5651     0.0111     0.0998     2.5137
  396.5000    -9.6938     7.3268     7.3463     7.3112    85.4192    -0.0023     0.1130     2.5040
  397.0000    -9.6776     7.3822     7.3508     7.3574    86.9263    -0.0097     0.1130     2.4831
  397.5000    -9.6615     7.4380     7.3553     7.4336    87.3886    -0.0017     0.1147     2.4861
  398.0000    -9.6454     7.4425     7.3605     7.4648    87.4032     0.0010     0.1201     2.4772
  398.5000    -9.6292     7.4988     7.4158     7.4661    87.4179     0.0012     0.1168     2.4758
  399.0000    -9.7635     7.6079     7.4202     7.4974    86.1343     0.0013     0.1143     2.4781
  399.5000    -9.7467     7.6654     7.4256     7.5286    84.6147     0.0014     0.1092     2.4812
  400.0000    -9.7305     7.6701     7.4807     7.5449    85.1684     0.0072     0.1050     2.4885
  400.5000    -9.9173     7.7474     7.4046     7.5764    86.8829     0.0171     0.1015     2.4951
  401.0000   -10.1041     7.8248     7.3342     7.5927    89.5855     0.0273     0.0980     2.5039
  401.5000   -10.2808     7.8993     7.2638     7.6239    88.8379     0.0289     0.0952     2.5115
  402.0000   -10.2606     7.9585     7.1925     7.6851    84.8219     0.0290     0.0946     2.5146
  402.5000   -10.2444     7.9080     7.1468     7.7460    85.3090     0.0231     0.1009     2.5034
  403.0000   -10.2283     7.9123     7.1551     7.6578    87.5637     0.0112     0.1042     2.4967
  403.5000   -10.2121     7.9166     7.2624     7.6292    89.3707     0.0008     0.1029     2.4968
  404.0000   -10.1959     7.9209     7.2092     7.6455    89.5359     0.0010     0.0993     2.5006
  404.5000   -10.3295     7.9252     7.0151     7.5121    89.5519     0.0071     0.0978     2.5068
  405.0000   -10.3133     7.9295     7.0199     7.5736    89.5678     0.0162     0.0977     2.5098
  405.5000   -10.4509     7.9338     7.0237     7.6198    89.4343     0.0131     0.1004     2.5046
  406.0000   -10.5804     7.9379     6.9781     7.6660    86.7542     0.0060     0.1022     2.4972
  406.5000   -10.5642     7.9432     6.8868     7.6973    87.2316     0.0046     0.1040     2.4927
  407.0000   -10.5479     7.8916     6.8421     7.7285    86.6506     0.0032     0.1051     2.4943
  407.5000   -10.5314     7.7348     6.7516     7.7299    85.4685     0.0048     0.1051     2.4981
  408.0000   -10.5150     7.5800     6.6633     7.7611    85.3352     0.0109     0.1045     2.4982
  408.5000   -10.4955     7.4789     6.5752     7.7774    86.9969     0.0171     0.1038     2.4929
  409.0000   -10.4793     7.3292     6.4883     7.7937    89.1024     0.0217     0.1038     2.4871
  409.5000   -10.4631     7.1330     6.3145     7.7476    89.7154     0.0218     0.1057     2.4864
  410.0000   -10.4469     7.0388     6.1425     7.7364    87.9403     0.0219     0.1134     2.4850
  410.5000   -10.5845     6.9458     5.9752     7.7830    87.3592     0.0205     0.1193     2.4813
  411.0000   -10.7180     6.9017     5.7412     7.7993    89.1702     0.0162     0.1277     2.4716
  411.5000   -10.9972     6.6715     5.7041     7.8156    90.2309     0.0058     0.1349     2.4567
  412.0000   -10.9811     6.4037     5.6283     7.7869    92.1872     0.0029     0.1436     2.4462
  412.5000   -11.2643     6.1893     5.3996     7.7430    94.2927     0.0030     0.1487     2.4296
  413.0000   -11.3978     5.8134     5.1390     7.8195    91.6221     0.0031     0.1532     2.4216
  413.5000   -11.3817     5.3805     4.8085     7.8208    92.8321     0.0063     0.1571     2.4119
  414.0000   -11.3653     4.9687     4.3969     7.8072    94.1913     0.0064     0.1729     2.3940
  414.5000   -11.4990     4.6070     4.2203     7.8085    94.5060     0.0050     0.1948     2.3761
  415.0000   -11.4788     4.3013     3.9400     7.7053    94.0994     0.0036     0.2104     2.3484
  415.5000   -11.4626     4.0280     3.0937     7.6914    85.8849     0.0022     0.2296     2.3274
  416.0000   -11.1471     3.6724     2.6764     7.6930    82.4681     0.0039     0.2597     2.2862
  416.5000   -10.3824     3.4051     2.3640     7.6644    80.8422     0.0055     0.2762     2.2459
  417.0000   -10.2165     2.9471     2.2378     7.6504    80.7089     0.0161     0.2873     2.2038
  417.5000   -10.0506     2.6387     2.2391     7.6969    80.2771     0.0297     0.2806     2.1933
  418.0000   -10.0345     2.6782     2.2403     7.7432    78.6513     0.0464     0.2560     2.1979
  418.5000   -10.0183     2.7587     2.2415     8.1425    76.8761     0.0840     0.2027     2.2453
  419.0000   -10.0021     2.9325     2.2427     8.3692    78.8030     0.0843     0.1804     2.3159
  419.5000    -9.9860     3.0374     2.3433     7.8143    86.3151     0.0642     0.1549     2.3768
  420.0000    -9.9698     3.2120     2.6586     7.6440    92.0027    -0.0042     0.1332     2.4159
  420.5000   -10.1033     3.5163     3.0051     7.6453    93.2126     0.0215     0.1215     2.4552
  421.0000   -10.0868     3.8494     3.5751     7.6466    94.8704     0.0126     0.1154     2.4679
  421.5000   -10.2207     4.2433     4.0800     7.6326    96.0804     0.0052     0.1145     2.4762
  422.0000   -10.3542     4.6452     4.7213     7.6343    97.2903     0.0068     0.1145     2.4793
  422.5000   -10.1843     5.3376     5.0977     7.6356    96.8585     0.0114     0.1150     2.4756
  423.0000   -10.1681     5.6048     5.1005     7.6369    93.7205     0.0145     0.1159     2.4764
  423.5000   -10.1520     5.4555     5.0674     7.6532    91.9651     0.0132     0.1174     2.4757
  424.0000   -10.2895     5.5345     4.9666     7.6545    92.2835     0.0088     0.1245     2.4683
  424.5000   -10.2693     5.6147     4.7015     7.6558    92.7472     0.0073     0.1329     2.4646
  425.0000   -10.4028     5.5790     4.2992     7.6422    93.2110     0.0060     0.1350     2.4550
  425.5000   -10.3867     5.4624     4.1840     7.6588    95.3165     0.0107     0.1314     2.4468
  426.0000    -9.4723     5.1711     4.1282     7.6601    97.4220     0.0213     0.1298     2.4499
  426.5000    -9.3064     5.0032     4.1019     7.6614    97.4597     0.0304     0.1373     2.4544
  427.0000    -9.2903     4.9707     4.1047     7.6627    94.4688     0.0215     0.1360     2.4440
  427.5000    -9.2740     4.9741     4.1070     7.6940    89.0497     0.0066     0.1319     2.4471
  428.0000    -9.2575     5.0113     4.1955     7.7399    82.1166     0.0067     0.1177     2.4667
  428.5000    -9.2410     5.1192     4.2859     7.6367    83.1774     0.0099     0.1162     2.4758
  429.0000    -9.2215     5.4136     4.4720     7.5333    87.8202     0.0085     0.1161     2.4782
  429.5000    -9.2054     5.5685     4.6386     7.4747    89.1794     0.0056     0.1137     2.4812
  430.0000    -9.1892     6.0122     4.8972     7.4610    87.4043     0.0061     0.1083     2.4872
  430.5000    -9.1730     6.3141     5.2150     7.4627    87.4203     0.0067     0.1085     2.4926
  431.0000    -9.1568     6.4500     5.5534     7.4640    89.8243     0.0073     0.1085     2.4964
  431.5000    -9.1407     6.5435     5.8729     7.4952    90.5866     0.0076     0.1048     2.4972
  432.0000    -9.1245     6.7308     5.9995     7.5265    91.5780     0.0062     0.1060     2.4965
  432.5000    -9.2621     6.8757     6.2574     7.5125    94.0552     0.0078     0.1084     2.4944
