~VERSION INFORMATION
 VERS.                2.0:   CWLS LOG ASCII STANDARD - VERSION 2.0
 WRAP.                 NO:   ONE LINE PER DEPTH STEP
~WELL INFORMATION
#MNEM.UNIT      DATA TYPE    INFORMATION
#----------   ------------   ------------------------------
 STRT.F           32.0000:   START DEPTH
 STOP.F          557.0000:   STOP DEPTH
 STEP.F            0.5000:   STEP LENGTH
 NULL.          -999.2500:   NO VALUE
 COMP. FENIX & SCISSON U.S. NAVY:   COMPANY
 WELL.   S-3 NPR #3 #31-3:   WELL
 FLD .              NPR-3:   FIELD
 LOC .       S3 T38N R78W:   LOCATION
 CNTY.            NATRONA:   COUNTY
 STAT.            WYOMING:   STATE
 CTRY. UNITED STATES OF AMERICA:   COUNTRY
 SRVC.              Welex:   SERVICE COMPANY
 DATE.        05-MAR-1977:   LOGDATE
 API .       490251039500:   API NUMBER
~CURVE INFORMATION
#MNEM.UNIT       API CODE    CURVE DESCRIPTION
#----------   ------------   ------------------------------
 DEPT.F                  :   
 CALD.IN     45 280 60 00:   CALIPER FROM DENSITY LOG
 DPHI.DEC    45 890 12 00:   DENSITY POROSITY SANDSTONE
 DRHO.G/C3   45 356 01 00:   DENSITY CORRECTION
 GRD .GAPI   45 310 01 00:   GAMMA RAY FROM DENSITY LOG
 RHOB.G/C3   45 350 01 00:   BULK DENSITY
 ILD .OHMM   07 120 46 00:   INDUCTION LOG DEEP
 ILM .OHMM   07 120 44 00:   INDUCTION LOG MEDIUM
 SGRD.OHMM   07 220 05 00:   SHALLOW GUARD RESISTIVITY
 SPR .MV     07 010 01 00:   SPONTANEOUS POTENTIAL FROM RES.
~PARAMETER INFORMATION
#MNEM.UNIT          VALUE    DESCRIPTION
#----------   ------------   ------------------------------
 PD  .                 GL:   PERMANENT DATUM
 EPD .F              5178:   ELEVATION PERMANENT DATUM
 LMF .                 GL:   LOG MEASURED FROM
 DMF .                 GL:   DRILLING MEASURED FROM
 EGL .F              5178:   GROUND LEVEL
 DATE.        05-MAR-1977:   RUN DATE
 RUN .                  1:   RUN NUMBER
 DD  .F               560:   DEPTH DRILLER
 DL  .F               560:   DEPTH LOGGER
 BLI .F               558:   BOTTOM LOG INTERVAL
 TLI .F                40:   TOP LOG INTERVAL
 CS  .IN            8.625:   CASING SIZE
 CBD .F                43:   CASING BOTTOM DRILLER
 CBL .F                43:   CASING BOTTOM LOGGER
 BS  .IN            7.875:   BIT SIZE
 BSD .F               560:   BIT SIZE AT DEPTH
 DFT .                KCL:   DRILLING FLUID TYPE
 DFD .                8.8:   DRILLING FLUID DENSITY
 DFV .                 32:   DRILLING FLUID VISCOSITY
 MSS .           FLOWLINE:   MUD SAMPLE SOURCE
 RMS .OHMM           1.46:   RESISTIVITY MUD SAMPLE
 MST .F                48:   MUD SAMPLE TEMPERATURE
 RMF .OHMM          0.972:   RESISTIVITY MUD FILTRATE SAMPLE
 MFST.F                48:   MUD FILTRATE SAMPLE TEMPERATURE
 RMC .OHMM           2.32:   RESISTIVITY MUD CAKE
 MCST.F                48:   MUD CAKE SAMPLE TEMPERATURE
 MFSS.               MEAS:   MUD FILTRATE SAMPLE SOURCE
 MCSS.               MEAS:   MUD CAKE SAMPLE SOURCE
 RMB .OHMM           1.03:   RESISTIVITY MUD AT BHT
 BHT .F                68:   BOTTOM HOLE TEMPERATURE
 TCS .HRS               2:   TIME CURCULATED STOPPED
 MRT .F                68:   MAXIMUM RECORDED TEMPERATURE
 LUN .               8611:   LOGGING UNIT NUMBER
 LUL .           GILLETTE:   LOGGING UNIT LOCATION
 ENGI.          D. LAWSON:   RECORDING ENGINEER
 WITN.     MR. STUEBINGER:   WITNESSED BY
 CLNT.            A2DTECH:   CLIENT CODE
 ORIG.           5" PRINT:   ORIGIN OF DATA
 UWI .       490251039500:   UNIQUE WELL ID
 DICO. A2D Technologies, Inc.:   DIGITIZING COMPANY
~OTHER INFORMATION
~A   DEPT       CALD     DPHI        DRHO        GRD        RHOB      ILD        ILM       SGRD        SPR   
# ...
  506.5000     8.0004     0.1283     0.0023   102.9131     2.4289    10.2297    12.5019    12.7156   -18.4062
  507.0000     8.0021     0.1295     0.0024   103.3718     2.4275    10.2353    12.4208    12.6331   -18.3916
  507.5000     8.0037     0.1319     0.0026   102.9365     2.4246    10.1002    12.2586    12.4663   -18.2281
  508.0000     7.9904     0.1372     0.0027   101.1598     2.4096    10.1059    12.2653    12.3033   -18.2135
  508.5000     7.9771     0.1366     0.0028    99.9791     2.4172    10.1126    12.1017    12.1409   -18.1989
  509.0000     7.9791     0.1348    -0.0001   101.3533     2.4090    10.0470    11.9437    12.1475   -18.1843
  509.5000     7.9807     0.1318     0.0000   103.3918     2.4175    10.0538    11.8678    11.8223   -18.3185
  510.0000     7.9823     0.1284     0.0032   108.3630     2.4259     9.9886    11.7924    11.6662   -18.3038
  510.5000     7.9839     0.1245     0.0033   105.6921     2.4347     9.8568    11.5567    11.5120   -18.4380
  511.0000     7.9855     0.1185     0.0094   101.8261     2.4558     9.5931    11.3995    11.2039   -18.2709
  511.5000     7.9871     0.1149     0.0156   104.2252     2.4611     9.2095    11.1761    11.0560   -18.4087
  512.0000     7.9888     0.1118     0.0217   105.7243     2.4626     9.0867    11.0006    10.9100   -18.3905
  512.5000     7.9904     0.1088     0.0248   104.2486     2.4635     8.9668    10.7351    10.7659   -18.3758
  513.0000     7.9771     0.1082     0.0265   102.9190     2.4650     8.7887    10.5934    10.6237   -18.3612
  513.5000     7.9787     0.1076     0.0281   101.2914     2.4658     8.6727    10.4522    10.4834   -18.3466
  514.0000     7.9804     0.1063     0.0282   101.0021     2.4689     8.6176    10.2445    10.3450   -18.3320
  514.5000     7.9823     0.1045     0.0298   104.5935     2.4720     8.3836    10.0397    10.0694   -18.3173
  515.0000     7.9839     0.1015     0.0314   107.8839     2.4758     7.9293     9.8389     9.9351   -18.1539
  515.5000     7.9702     0.0979     0.0316   111.2002     2.4811     7.4995     9.5097     9.7376   -18.1393
  516.0000     7.9722     0.0960     0.0347   114.2741     2.4857     7.0194     9.1916     9.5414   -17.9758
  516.5000     7.9738     0.0996     0.0348   117.3108     2.4812     6.3752     8.7621     9.3518   -17.8124
  517.0000     8.0052     0.1020     0.0349   118.3658     2.4776     5.8708     8.3526     9.1646   -17.6488
  517.5000     8.0068     0.1049     0.0351   117.7813     2.4746     5.5578     7.8529     8.7967   -17.3363
  518.0000     8.0084     0.1130     0.0352   121.3698     2.4573     5.2616     7.1817     8.3275   -17.3185
  518.5000     8.0100     0.1222     0.0353   124.5111     2.4391     5.0505     6.5660     7.3055   -17.3038
  519.0000     8.0116     0.1306     0.0339   128.2486     2.4209     4.9154     5.6165     5.9805   -17.2892
  519.5000     8.0132     0.1425     0.0295   130.4958     2.3917     4.8835     5.0511     4.5960   -17.2746
  520.0000     8.0149     0.1503     0.0266   130.0604     2.3933     4.9208     5.3101     4.5081   -17.2600
  520.5000     8.0165     0.1410     0.0237   127.0915     2.4061     5.0615     5.9757     7.6931   -17.5466
  521.0000     8.0185     0.1263     0.0208   115.6278     2.4654     5.3523     6.6784    10.4259   -17.8296
  521.5000     7.9903     0.1075     0.0270   105.9524     2.4969     5.7394     7.4638    10.0780   -18.1126
  522.0000     7.9919     0.0907     0.0301   102.3756     2.5000     6.0717     8.0025    10.1535   -18.0943
  522.5000     7.9935     0.0912     0.0317   101.8029     2.4940     6.3929     8.4039    10.4442   -18.0797
  523.0000     7.9654     0.0950     0.0303   105.6924     2.4866     7.0740     8.8255    10.5955   -18.0651
  523.5000     7.9670     0.0986     0.0274   108.5357     2.4807     7.5846     9.2044    10.4541   -18.0504
  524.0000     7.9686     0.1004     0.0246   109.8857     2.4792     8.0203     9.4677    10.1055   -18.0357
  524.5000     7.9702     0.0997     0.0247   107.5129     2.4838     8.2497     9.6047     9.7672   -17.8720
  525.0000     7.9718     0.0943     0.0248   110.5082     2.4959     8.3691     9.6100     9.6382   -17.8571
  525.5000     7.9585     0.0910     0.0265   111.1160     2.4976     8.4903     9.6152     9.9829   -17.6907
  526.0000     7.9601     0.0960     0.0281   109.0413     2.4870     8.6132     9.8221    10.4841   -17.6760
  526.5000     7.9766     0.1017     0.0282   105.7743     2.4766     8.7379    10.0367    10.8591   -17.6614
  527.0000     7.9485     0.1020     0.0268   104.8888     2.4797     8.8644    10.4643    11.2476   -17.6468
  527.5000     7.9505     0.1007     0.0269   107.2880     2.4812     8.9927    10.7637    11.5695   -17.6322
  528.0000     7.9223     0.0971     0.0286   109.0880     2.4815     9.1862    11.1497    11.5758   -17.7663
  528.5000     7.9388     0.0935     0.0332   110.6011     2.4994     9.2550    11.3896    11.5823   -17.9042
  529.0000     7.9553     0.0854     0.0393   109.9721     2.5069     9.3282    11.6347    11.7742   -17.8859
  529.5000     7.9569     0.0851     0.0440   109.1231     2.5025     9.4113    11.7218    12.2565   -17.8713
  530.0000     7.9585     0.0924     0.0471   110.0319     2.4906     9.5314    11.8915    12.5204   -18.1548
  530.5000     7.9601     0.1032     0.0472   110.9378     2.4771     9.6694    12.0636    12.4391   -18.1396
  531.0000     7.9617     0.1114     0.0473   110.6486     2.4607     9.8093    12.0702    12.4476   -17.9762
  531.5000     7.9633     0.1263     0.0474   108.8748     2.4390     9.9513    12.0768    12.6280   -17.8125
  532.0000     7.9798     0.1382     0.0461   107.8433     2.4144    10.0954    12.2516    12.9895   -17.7976
  532.5000     7.9963     0.1573     0.0432   107.7030     2.3889    10.1710    12.6021    13.2692   -17.7799
  533.0000     7.9979     0.1567     0.0373   108.0157     2.3845    10.2471    12.6089    13.1831   -17.7652
  533.5000     7.9996     0.1495     0.0329   107.7293     2.3981    10.3955    12.3568    12.8319   -17.7506
  534.0000     8.0015     0.1393     0.0300   107.1446     2.4101    10.4011    12.2783    12.8389   -18.0373
  534.5000     7.9436     0.1279     0.0271   107.1566     2.4312    10.5517    12.6296    13.2982   -18.0190
  535.0000     7.8113     0.1177     0.0257   106.5574     2.4567    10.7045    13.0090    13.7738   -18.0044
  535.5000     7.7827     0.1134     0.0243   103.8033     2.4613    10.7103    13.3932    14.1681   -18.1422
  536.0000     7.8294     0.1158     0.0245   100.6373     2.4521    10.7162    13.3697    13.9810   -17.9788
  536.5000     7.8905     0.1212     0.0246    99.1586     2.4465    10.7221    13.1041    13.4111   -18.2618
  537.0000     7.8921     0.1217     0.0187    98.8693     2.4435    10.6409    12.8421    13.0511   -18.2435
  537.5000     7.9235     0.1211     0.0173    97.6917     2.4444    10.5147    12.6709    12.8880   -18.2289
  538.0000     7.9548     0.1193     0.0159    83.9925     2.4482    10.4465    12.6795    12.8968   -18.2142
  538.5000     7.9564     0.1156     0.0160    68.8030     2.4557    10.4536    12.7745    13.2660   -18.0506
  539.0000     7.9580     0.1125     0.0162    53.3155     2.4678    10.4592    12.8701    13.3654   -18.0169
  539.5000     7.9597     0.1070     0.0163    51.3898     2.4769    10.4649    13.0564    13.4656   -18.0216
  540.0000     7.9315     0.1006     0.0164    51.5499     2.4769    10.4706    13.1542    13.6607   -18.1557
  540.5000     7.9335     0.0976     0.0195  -999.2500     2.4815    10.3310    13.2527    13.4784   -18.1375
  541.0000     7.9351     0.0933     0.0196  -999.2500     2.4890    10.1947    13.1685    13.3004   -18.1228
  541.5000     7.9367     0.0903     0.0228  -999.2500     2.4959    10.2016    12.9947    12.9461   -18.1082
  542.0000     7.9383     0.0945     0.0259  -999.2500     2.4922     9.9976    12.7349    12.5979   -17.9448
  542.5000     7.9548     0.0981     0.0290  -999.2500     2.4877     9.6631    12.3901    12.2606   -17.7813
