~VERSION INFORMATION
 VERS.                2.0:   CWLS LOG ASCII STANDARD - VERSION 2.0
 WRAP.                 NO:   ONE LINE PER DEPTH STEP
~WELL INFORMATION
#MNEM.UNIT      DATA TYPE    INFORMATION
#----------   ------------   ------------------------------
 STRT.F            8.5000:   START DEPTH
 STOP.F          642.0000:   STOP DEPTH
 STEP.F            0.5000:   STEP LENGTH
 NULL.          -999.2500:   NO VALUE
 COMP. FENIX & SCISSON INC:   COMPANY
 WELL. 26-36 S11 W1 #26-36 SX11:   WELL
 FLD .             TEAPOT:   FIELD
 LOC .      S11 T38N R78W:   LOCATION
 CNTY.            NATRONA:   COUNTY
 STAT.            WYOMING:   STATE
 CTRY. UNITED STATES OF AMERICA:   COUNTRY
 SRVC.      Dresser Atlas:   SERVICE COMPANY
 DATE.        16-JUL-1980:   LOGDATE
 API .       490251083500:   API NUMBER
~CURVE INFORMATION
#MNEM.UNIT       API CODE    CURVE DESCRIPTION
#----------   ------------   ------------------------------
 DEPT.F                  :   
 NPHI.DEC    42 890 03 00:   NEUTRON POROSITY SANDSTONE
 RHOB.G/C3   45 350 01 00:   BULK DENSITY
 CORR.G/C3   45 356 01 00:   DENSITY CORRECTION
 GRD .GAPI   45 310 01 00:   GAMMA RAY FROM DENSITY LOG
 CALD.IN     45 280 60 00:   CALIPER
 SPR .MV     07 010 01 00:   SPONTANEOUS POTENTIAL
 SFL .OHMM   07 220 01 00:   SHALLOW FOCUSED LOG RESISTIVITY
 ILD .OHMM   07 120 46 00:   INDUCTION LOG DEEP
 ILM .OHMM   07 120 44 00:   INDUCTION LOG MEDIUM
 DPHI.DEC    45 890 12 00:   DENSITY POROSITY SANDSTONE
~PARAMETER INFORMATION
#MNEM.UNIT          VALUE    DESCRIPTION
#----------   ------------   ------------------------------
 PD  .                 GL:   PERMANENT DATUM
 EPD .F              5184:   ELEVATION PERMANENT DATUM
 LMF .                 KB:   LOG MEASURED FROM
 DAPD.F                 5:   FEET ABOVE PERMANENT DATUM
 DMF .                 KB:   DRILLING MEASURED FROM
 EKB .F              5189:   KELLING BUSHING
 EGL .F              5184:   GROUND LEVEL
 DATE.            7-16-80:   RUN DATE
 RUN .                  1:   RUN NUMBER
 DD  .F               630:   DEPTH DRILLER
 DL  .F               637:   DEPTH LOGGER
 BLI .F               635:   BOTTOM LOG INTERVAL
 TLI .F                 8:   TOP LOG INTERVAL
 BS  .IN            7.875:   BIT SIZE
 BSD .F               630:   BIT SIZE AT DEPTH
 DFT .           CHEM GEL:   DRILLING FLUID TYPE
 DFD .                9.2:   DRILLING FLUID DENSITY
 DFV .                 65:   DRILLING FLUID VISCOSITY
 DFPH.                 10:   DRILLING FLUID PH
 DFL .                  8:   DRILLING FLUID LOSS
 MSS .           FLOWLINE:   MUD SAMPLE SOURCE
 RMS .OHMM            .61:   RESISTIVITY MUD SAMPLE
 MST .F                60:   MUD SAMPLE TEMPERATURE
 RMC .OHMM            .62:   RESISTIVITY MUD CAKE
 MCST.F                58:   MUD CAKE SAMPLE TEMPERATURE
 MFSS.               MEAS:   MUD FILTRATE SAMPLE SOURCE
 MCSS.               MEAS:   MUD CAKE SAMPLE SOURCE
 RMB .OHMM            .41:   RESISTIVITY MUD AT BHT
 BHT .F                90:   BOTTOM HOLE TEMPERATURE
 TCS .HRS               5:   TIME CURCULATED STOPPED
 MRT .F                90:   MAXIMUM RECORDED TEMPERATURE
 LUN .               6109:   LOGGING UNIT NUMBER
 LUL .              GLTTE:   LOGGING UNIT LOCATION
 ENGI.            GARONER:   RECORDING ENGINEER
 WITN.              AMEND:   WITNESSED BY
 CLNT.            A2DTECH:   CLIENT CODE
 ORIG.           5" PRINT:   ORIGIN OF DATA
 UWI .       490251083500:   UNIQUE WELL ID
 DICO. A2D Technologies, Inc.:   DIGITIZING COMPANY
~OTHER INFORMATION
~A    DEPT    NPHI       RHOB       CORR        GRD       CALD        SPR        SFL          ILD      ILM       DPHI   
# ...
  310.0000     0.2874     2.4655     0.0048    78.0381     7.8751   -37.0536    12.3769     8.5604     9.0475     0.1255
  310.5000     0.2874     2.4718     0.0059    77.7368     7.8952   -36.8074    12.1865     8.5500     9.0486     0.1197
  311.0000     0.2925     2.4717     0.0068    77.4527     7.9154   -36.8205    11.7102     8.5514     9.0386     0.1176
  311.5000     0.2978     2.4760     0.0134    77.4640     7.9303   -37.0863    12.5055     8.7214     9.2170     0.1259
  312.0000     0.2993     2.4843     0.0204    78.0970     7.9300   -37.3421    12.8424     8.7206     9.2085     0.1177
  312.5000     0.2780     2.4777     0.0155    77.9217     7.9300   -37.5979    11.9284     8.5741     9.2141     0.1072
  313.0000     0.2675     2.4723     0.0080    78.2010     7.9300   -37.8591    12.0179     8.3920     9.0204     0.1005
  313.5000     0.2607     2.5006     0.0150    79.1167     7.9300   -38.1139    12.6075     8.2141     8.8313     0.1047
  314.0000     0.2567     2.5096     0.0224    78.3231     7.9300   -38.3708    12.2133     8.0404     8.6467     0.0997
  314.5000     0.2689     2.5086     0.0214    77.4787     7.9300   -38.6411    11.6198     7.8705     8.4663     0.0980
  315.0000     0.2827     2.5047     0.0199    77.1318     7.9300   -38.7657    11.0552     7.7045     8.2898     0.1117
  315.5000     0.2982     2.5128     0.0213    77.8835     7.9300   -38.7505    10.5180     7.5421     8.1169     0.1173
  316.0000     0.2995     2.5004     0.0218    78.5223     7.9308   -38.6308    10.0069     7.3831     7.9473     0.1263
  316.5000     0.3070     2.4903     0.0207    78.2256     7.9332   -38.5127     9.5206     7.2468     7.8021     0.1190
  317.0000     0.3138     2.4769     0.0180    77.8498     7.9356   -38.3636     9.2121     7.2468     7.8021     0.1087
  317.5000     0.3116     2.4704     0.0158    78.2854     7.9380   -38.3565    11.2858     7.2468     7.8021     0.0984
  318.0000     0.3102     2.4880     0.0162    79.2972     7.9405   -38.3514    11.1991     7.3338     7.8409     0.1015
  318.5000     0.3012     2.5058     0.0223    79.3302     7.9429   -38.3535    10.9682     7.4494     7.9466     0.1138
  319.0000     0.2981     2.5146     0.0280    78.7470     7.9453   -38.3573    10.7420     7.5667     8.0538     0.1214
  319.5000     0.3003     2.5028     0.0213    78.2943     7.9477   -38.3079    10.4826     7.6594     8.1624     0.1227
  320.0000     0.3058     2.4860     0.0137    78.4743     7.9498   -38.2106    10.6615     7.6594     8.2725     0.1253
  320.5000     0.3070     2.4750     0.0100    78.8969     7.9457   -38.1162    11.0862     7.6594     8.4000     0.1278
  321.0000     0.2979     2.4725     0.0099    79.2935     7.9413   -38.0233    11.4961     7.7332     8.4000     0.1240
  321.5000     0.2982     2.4688     0.0088    79.3988     7.9370   -37.9516    11.2675     7.8200     8.4000     0.1187
  322.0000     0.2976     2.4658     0.0051    79.5437     7.9328   -37.9506    11.0582     7.9077     8.4000     0.1169
  322.5000     0.3024     2.4742     0.0019    80.6117     7.9285   -37.9731    10.8527     7.9965     8.4544     0.1140
  323.0000     0.3057     2.4832     0.0020    81.6821     7.9242   -38.0564    10.6811     8.0863     8.5041     0.1146
  323.5000     0.3029     2.4844     0.0031    82.7505     7.9199   -38.1379    11.0281     8.1770     8.5541     0.1169
  324.0000     0.2978     2.4863     0.0051    83.3298     7.9156   -38.2205    11.3423     8.2688     8.6040     0.1108
  324.5000     0.2856     2.4875     0.0071    82.3556     7.9113   -38.3032    11.6649     8.3616     8.6546     0.1068
  325.0000     0.2778     2.4878     0.0080    81.2852     7.9100   -38.3853    11.9307     8.4000     8.7155     0.1020
  325.5000     0.2735     2.4955     0.0079    80.1764     7.9100   -38.4684    11.9270     8.4000     8.7073     0.0975
  326.0000     0.2742     2.5035     0.0115    79.2565     7.9100   -38.5501    11.9311     8.4000     8.6870     0.0940
  326.5000     0.2778     2.5115     0.0171    78.3398     7.9100   -38.6324    11.9284     8.3834     8.6667     0.1036
  327.0000     0.2789     2.5197     0.0227    78.7012     7.9100   -38.7184    11.7921     8.3461     8.6464     0.1111
  327.5000     0.2761     2.5219     0.0257    79.4791     7.9100   -38.7595    11.5866     8.3089     8.6261     0.1116
  328.0000     0.2753     2.5109     0.0210    80.2498     7.9100   -38.7555    11.3847     8.2719     8.6061     0.1100
  328.5000     0.2780     2.4999     0.0163    80.8576     7.9100   -38.7551    11.1863     8.2350     8.5858     0.1098
  329.0000     0.2791     2.4985     0.0118    80.4389     7.9089   -38.7585    10.9913     8.1983     8.5653     0.1055
  329.5000     0.2791     2.4985     0.0134    80.0850     7.9069   -38.7526    10.7998     8.1618     8.5560     0.1024
  330.0000     0.2811     2.4985     0.0178    80.7748     7.9049   -38.7449    10.6779     8.1257     8.5564     0.1016
  330.5000     0.2859     2.5011     0.0149    81.9416     7.9030   -38.5561    10.9170     8.0962     8.5566     0.1104
  331.0000     0.2898     2.5061     0.0121    83.0841     7.9010   -38.3754    11.3520     8.0961     8.5563     0.1160
  331.5000     0.2910     2.5104     0.0119    82.3019     7.8990   -38.1870    11.6604     8.0955     8.5564     0.1195
  332.0000     0.2873     2.4997     0.0132    81.2887     7.8970   -37.9929    11.4199     8.0955     8.5568     0.1281
  332.5000     0.2792     2.4880     0.0155    80.3330     7.8951   -38.0347    11.1844     8.0956     8.5562     0.1361
  333.0000     0.2767     2.4763     0.0177    80.1294     7.8931   -38.3002    10.9538     8.0951     8.5552     0.1386
  333.5000     0.2811     2.4646     0.0131    80.9134     7.8911   -38.5563    10.8768     8.0948     8.5320     0.1283
  334.0000     0.2827     2.4532     0.0081    81.7144     7.8925   -38.8098    11.1780     8.0734     8.5099     0.1201
  334.5000     0.2834     2.4548     0.0039    82.2218     7.8983   -39.0737    11.5329     8.0482     8.4867     0.1140
  335.0000     0.2854     2.4671     0.0070    80.3343     7.9040   -39.1629    11.7102     8.0230     8.4640     0.1116
  335.5000     0.2847     2.4793     0.0119    81.3236     7.9098   -39.1573    11.4672     7.9979     8.4413     0.1120
  336.0000     0.2842     2.4915     0.0124    82.6242     7.9156   -39.1568    11.2542     7.9729     8.4187     0.1124
  336.5000     0.2816     2.4946     0.0235    81.5153     7.9213   -39.1583    11.0451     7.9472     8.3961     0.1156
  337.0000     0.2787     2.4937     0.0212    80.4801     7.9271   -39.1572    10.8768     7.8717     8.3735     0.1107
  337.5000     0.2865     2.4900     0.0184    81.6033     7.9329   -39.1571    10.8768     7.7944     8.3510     0.1043
  338.0000     0.2891     2.4872     0.0160    82.4075     7.9386   -39.1570    10.8768     7.7180     8.3287     0.0983
  338.5000     0.2854     2.4975     0.0198    81.4508     7.9444   -39.1566    10.7847     7.6422     8.3066     0.0937
  339.0000     0.2855     2.5092     0.0278    80.4997     7.9501   -39.1566    10.6733     7.5671     8.2845     0.0920
  339.5000     0.2865     2.5155     0.0356    79.5209     7.9559   -39.1572    10.5630     7.4928     8.2623     0.1000
  340.0000     0.2913     2.5250     0.0437    79.5842     7.9616   -39.1574    10.4834     7.4192     8.1844     0.1012
  340.5000     0.2962     2.5159     0.0458    80.4537     7.9675   -39.1579    10.4828     7.3087     7.9636     0.1048
  341.0000     0.2922     2.5115     0.0464    81.3240     7.9674   -39.1593    10.6628     7.1613     7.7488     0.1024
  341.5000     0.2890     2.5101     0.0470    81.5201     7.9627   -39.1571    10.8811     7.0168     7.5397     0.1075
  342.0000     0.2794     2.5063     0.0476    80.3710     7.9580   -39.1596    10.8768     6.8752     7.3363     0.1102
  342.5000     0.2724     2.5052     0.0492    79.2204     7.9534   -39.1652    10.2422     6.7365     7.1670     0.1201
  343.0000     0.2758     2.5015     0.0513    78.3167     7.9487   -39.0334     9.6108     6.6006     7.0244     0.1266
