~VERSION INFORMATION
 VERS.                2.0:   CWLS LOG ASCII STANDARD - VERSION 2.0
 WRAP.                 NO:   ONE LINE PER DEPTH STEP
~WELL INFORMATION
#MNEM.UNIT      DATA TYPE    INFORMATION
#----------   ------------   ------------------------------
 STRT.F           82.0000:   START DEPTH
 STOP.F         1194.0000:   STOP DEPTH
 STEP.F            0.5000:   STEP LENGTH
 NULL.          -999.2500:   NO VALUE
 COMP.       INTEX OIL CO:   COMPANY
 WELL.   76S-11 NPR #3-11:   WELL
 FLD .             TEAPOT:   FIELD
 LOC .      S11 T38N R78W:   LOCATION
 CNTY.            NATRONA:   COUNTY
 STAT.            WYOMING:   STATE
 CTRY. UNITED STATES OF AMERICA:   COUNTRY
 SRVC.       Schlumberger:   SERVICE COMPANY
 DATE.        30-AUG-1966:   LOGDATE
 API .       490250972800:   API NUMBER
~CURVE INFORMATION
#MNEM.UNIT       API CODE    CURVE DESCRIPTION
#----------   ------------   ------------------------------
 DEPT.F                  :   
 SPR .MV     05 010 01 00:   SPONTANEOUS POTENTIAL FROM RES.
 CILD.MMHO   05 110 46 00:   CONDUCTIVITY INDUCTION LOG DEEP
 ILD .OHMM   05 120 46 00:   INDUCTION LOG DEEP
 ASN .OHMM   05 041 16 00:   AMPLIFIED SHORT NORMAL 16"
 CALD.IN     45 280 60 00:   CALIPER FROM DENSITY LOG
 CORR.G/C3   45 356 01 00:   DENSITY CORRECTION
 RHOB.G/C3   45 350 01 00:   BULK DENSITY
 DPHI.DEC    45 890 12 00:   DENSITY POROSITY SANDSTONE
 GRD .GAPI   45 310 01 00:   GAMMA RAY FROM DENSITY LOG
~PARAMETER INFORMATION
#MNEM.UNIT          VALUE    DESCRIPTION
#----------   ------------   ------------------------------
 PD  .                 GL:   PERMANENT DATUM
 EPD .F              5261:   ELEVATION PERMANENT DATUM
 LMF .                 KB:   LOG MEASURED FROM
 DAPD.F                 5:   FEET ABOVE PERMANENT DATUM
 DMF .                 KB:   DRILLING MEASURED FROM
 EKB .F              5266:   KELLING BUSHING
 EGL .F              5261:   GROUND LEVEL
 DATE.            8-30-66:   RUN DATE
 RUN .                  1:   RUN NUMBER
 DD  .F              1191:   DEPTH DRILLER
 DL  .F              1191:   DEPTH LOGGER
 BLI .F              1190:   BOTTOM LOG INTERVAL
 TLI .F                87:   TOP LOG INTERVAL
 CS  .IN            8.625:   CASING SIZE
 CBD .F                10:   CASING BOTTOM DRILLER
 BS  .IN             6.75:   BIT SIZE
 BSD .F              1191:   BIT SIZE AT DEPTH
 DFT .           CHEM-GEL:   DRILLING FLUID TYPE
 DFD .                9.8:   DRILLING FLUID DENSITY
 DFV .                 60:   DRILLING FLUID VISCOSITY
 MSS .         CIRCULATED:   MUD SAMPLE SOURCE
 RMS .OHMM            .76:   RESISTIVITY MUD SAMPLE
 MST .F                85:   MUD SAMPLE TEMPERATURE
 RMF .OHMM            .46:   RESISTIVITY MUD FILTRATE SAMPLE
 MFST.F                88:   MUD FILTRATE SAMPLE TEMPERATURE
 MFSS.                  M:   MUD FILTRATE SAMPLE SOURCE
 RMB .OHMM           .695:   RESISTIVITY MUD AT BHT
 BHT .F                93:   BOTTOM HOLE TEMPERATURE
 TCS .HRS               1:   TIME CURCULATED STOPPED
 MRT .F                93:   MAXIMUM RECORDED TEMPERATURE
 LUN .               3527:   LOGGING UNIT NUMBER
 LUL .               CSPR:   LOGGING UNIT LOCATION
 ENGI.               HAUG:   RECORDING ENGINEER
 WITN.                MAY:   WITNESSED BY
 CLNT.            A2DTECH:   CLIENT CODE
 ORIG. 2", 2.5", 5" PRINT:   ORIGIN OF DATA
 UWI .       490250972800:   UNIQUE WELL ID
 DICO. A2D Technologies, Inc.:   DIGITIZING COMPANY
~OTHER INFORMATION
~A   DEPT      SPR        CILD       ILD          ASN     CALD       CORR       RHOB       DPHI        GRD   
# ...
  556.5000   -51.1338   373.1936     2.4590     3.4281     7.2486     0.0174     2.3612     0.1803    99.6751
  557.0000   -51.3128   386.5269     2.3032     3.3298     7.2505     0.0233     2.3541     0.1773   101.1651
  557.5000   -51.5321   411.6766     2.1766     3.1497     7.2523     0.0199     2.3386     0.1873   100.8153
  558.0000   -51.6712   449.1434     2.0397     2.9796     7.2541     0.0245     2.3340     0.1931   100.8826
  558.5000   -51.4470   484.8428     1.9060     2.8662     7.2559     0.0248     2.3220     0.1978   101.7313
  559.0000   -51.2003   521.6966     1.7748     2.7313     7.2577     0.0200     2.3046     0.2082   102.5585
  559.5000   -50.9588   541.4172     1.6299     2.6340     7.2595     0.0226     2.2967     0.2152   103.4700
  560.0000   -50.7215   529.4411     1.5293     2.5898     7.2613     0.0316     2.2879     0.2215   104.2777
  560.5000   -50.7338   497.5050     1.5959     2.6151     7.2631     0.0232     2.2604     0.2300   104.9476
  561.0000   -50.8012   478.2235     1.7076     2.7550     7.2649     0.0161     2.2285     0.2554   103.4988
  561.5000   -50.8508   455.5888     1.9254     2.8489     7.2668     0.0337     2.2373     0.2570   102.0977
  562.0000   -50.9080   416.3860     2.2399     3.1152     7.2686     0.0450     2.2566     0.2475   100.6515
  562.5000   -50.9627   377.0116     2.5114     3.5114     7.2704     0.0233     2.2895     0.2327    99.4598
  563.0000   -51.0177   337.6372     2.8007     3.8258     7.2722     0.0101     2.3379     0.1897   100.1393
  563.5000   -51.0761   304.8902     3.1035     4.0603     7.2740     0.0129     2.3854     0.1609   100.7881
  564.0000   -51.0776   277.0459     3.1705     4.1077     7.2758     0.0161     2.3925     0.1578   101.8031
  564.5000   -50.9488   265.9680     3.1875     4.1185     7.2777     0.0233     2.3878     0.1621   103.3421
  565.0000   -51.0165   276.9461     3.2298     4.0994     7.2793     0.0364     2.3861     0.1637   104.9634
  565.5000   -51.4704   293.3258     3.2178     4.0260     7.2813     0.0497     2.3929     0.1599   106.5247
  566.0000   -51.3749   309.7056     3.0015     3.9520     7.2717     0.0621     2.3969     0.1574   108.1001
  566.5000   -51.0395   328.8423     2.8004     3.8575     7.2572     0.0746     2.3898     0.1597   107.9705
  567.0000   -50.9766   350.5625     2.5959     3.6426     7.2430     0.0717     2.3874     0.1615   107.7772
  567.5000   -51.2796   375.7238     2.3972     3.4440     7.2285     0.0778     2.3926     0.1608   110.2420
  568.0000   -51.4770   411.7067     2.1890     3.2555     7.2145     0.0653     2.3822     0.1600   112.9937
  568.5000   -51.3790   453.0507     1.9975     3.1056     7.2036     0.0489     2.3582     0.1738   115.8253
  569.0000   -51.2568   511.0286     1.7684     2.9869     7.2162     0.0537     2.3477     0.1876   117.7224
  569.5000   -51.1435   508.5572     1.6321     2.8555     7.2271     0.0614     2.3414     0.1899   119.3459
  570.0000   -51.0236   500.1986     1.6487     2.7737     7.2394     0.0520     2.3254     0.1973   120.8267
  570.5000   -50.9135   486.1467     1.7035     2.8632     7.2509     0.0408     2.3142     0.2056   122.4453
  571.0000   -50.7853   456.3984     1.8490     2.9852     7.2626     0.0496     2.3117     0.2089   119.1732
  571.5000   -50.7339   432.6347     1.9763     3.1063     7.2752     0.0630     2.3045     0.2131   114.1261
  572.0000   -50.9789   396.7515     2.2821     3.2624     7.2829     0.0746     2.2944     0.2152   109.2429
  572.5000   -51.1979   358.1961     2.6722     3.7226     7.2834     0.0642     2.3085     0.2112   104.2613
  573.0000   -51.4327   319.6407     3.0385     4.2835     7.2848     0.0421     2.3240     0.1917   103.7959
  573.5000   -51.4852   279.9401     3.4185     4.8280     7.2862     0.0394     2.4028     0.1605   105.9014
  574.0000   -51.4158   231.0379     3.7891     5.0191     7.2874     0.0377     2.4200     0.1355   107.4370
  574.5000   -51.3756   225.4063     4.1948     5.1354     7.2887     0.0318     2.4391     0.1300   108.3388
  575.0000   -51.3161   220.4876     4.2776     5.2763     7.2900     0.0228     2.4253     0.1369   108.8522
  575.5000   -51.3404   219.0619     4.2988     5.4156     7.2913     0.0172     2.4154     0.1438   108.5609
  576.0000   -51.4109   215.5546     4.3478     5.5352     7.2926     0.0241     2.4149     0.1465   108.3397
  576.5000   -51.4636   210.1772     4.5053     5.7802     7.2939     0.0355     2.4289     0.1367   108.1306
  577.0000   -51.5622   203.3732     4.7217     5.9696     7.2952     0.0439     2.4437     0.1286   107.8814
  577.5000   -51.6945   196.5694     4.9194     6.2297     7.2965     0.0403     2.4526     0.1229   107.6214
  578.0000   -51.8587   189.7655     5.1386     6.5276     7.2977     0.0313     2.4560     0.1260   106.6729
  578.5000   -51.8456   183.9957     5.2763     6.7973     7.2990     0.0193     2.4374     0.1313   105.5058
  579.0000   -51.7071   179.4139     5.3218     6.9618     7.3003     0.0234     2.4375     0.1355   104.3582
  579.5000   -51.5693   176.1477     5.3927     7.1007     7.3016     0.0342     2.4461     0.1280   103.1236
  580.0000   -51.5964   176.9319     5.4292     7.2235     7.3029     0.0415     2.4568     0.1205   102.4549
  580.5000   -51.9271   177.6518     5.4661     7.2330     7.3042     0.0318     2.4540     0.1229   102.9928
  581.0000   -52.0492   178.1437     5.5435     7.2136     7.3055     0.0175     2.4347     0.1288   104.7902
  581.5000   -51.8703   178.1437     5.5115     7.2608     7.3068     0.0152     2.4411     0.1331   106.5426
  582.0000   -51.7604   178.1437     5.4936     7.3239     7.3081     0.0387     2.4640     0.1331   108.2235
  582.5000   -51.7600   178.7675     5.4684     7.2735     7.3094     0.0538     2.4841     0.1130   108.9641
  583.0000   -51.9226   179.6075     5.4474     7.2422     7.3107     0.0457     2.4693     0.1063   109.6857
  583.5000   -52.0366   180.1397     5.4242     7.2105     7.3120     0.0250     2.4537     0.1125   110.0612
  584.0000   -52.2559   181.7345     5.4021     7.1795     7.3133     0.0201     2.4463     0.1166   109.6003
  584.5000   -52.1915   183.0994     5.3795     7.1491     7.3146     0.0329     2.4595     0.1142   110.0026
  585.0000   -52.0692   184.4644     5.3571     7.1186     7.3159     0.0397     2.4742     0.1117   110.8378
  585.5000   -51.9537   185.8294     5.3347     7.0862     7.3172     0.0488     2.4875     0.1018   111.7360
  586.0000   -51.9360   187.1944     5.3123     7.0488     7.3185     0.0619     2.5014     0.0937   111.6839
  586.5000   -52.0522   188.5593     5.2897     7.0112     7.3197     0.0625     2.4936     0.0978   110.5262
  587.0000   -52.1407   189.9243     5.2674     6.9748     7.3213     0.0466     2.4640     0.1081   110.8451
  587.5000   -52.2604   191.2893     5.2444     6.9357     7.3195     0.0326     2.4575     0.1140   112.5571
  588.0000   -52.3075   192.6543     5.2229     6.9021     7.3160     0.0306     2.4617     0.1134   114.1659
  588.5000   -52.3204   192.1585     5.1986     6.8564     7.3127     0.0358     2.4725     0.1127   115.7139
  589.0000   -52.1970   190.7186     5.1793     6.8432     7.3096     0.0404     2.4808     0.1118   117.0251
  589.5000   -52.0937   189.2786     5.1495     6.8624     7.3063     0.0355     2.4714     0.1130   115.8771
  590.0000   -52.1251   187.8386     5.1668     6.9413     7.3032     0.0242     2.4562     0.1158   114.8552
  590.5000   -52.2418   185.5596     5.2660     7.0647     7.3000     0.0197     2.4463     0.1186   113.6984
  591.0000   -52.3677   182.4582     5.3608     7.1691     7.2967     0.0382     2.4466     0.1197   112.6136
  591.5000   -52.5098   179.1417     5.4595     7.2816     7.2936     0.0721     2.4697     0.1129   111.3923
  592.0000   -52.3357   174.0044     5.5553     7.3905     7.2903     0.0912     2.4906     0.1072   107.8290
  592.5000   -51.9714   168.4845     5.6516     7.5001     7.2871     0.0930     2.5036     0.1016   105.5287
