~VERSION INFORMATION
 VERS.                2.0:   CWLS LOG ASCII STANDARD - VERSION 2.0
 WRAP.                 NO:   ONE LINE PER DEPTH STEP
~WELL INFORMATION
#MNEM.UNIT      DATA TYPE    INFORMATION
#----------   ------------   ------------------------------
 STRT.F           33.0000:   START DEPTH
 STOP.F         1310.0000:   STOP DEPTH
 STEP.F            0.5000:   STEP LENGTH
 NULL.          -999.2500:   NO VALUE
 COMP. FENIX & SCISSON INC:   COMPANY
 WELL.    NPR-3 #76-14 SX:   WELL
 FLD .        TEAPOT DOME:   FIELD
 LOC .      S14 T38N R78W:   LOCATION
 CNTY.            NATRONA:   COUNTY
 STAT.            WYOMING:   STATE
 CTRY. UNITED STATES OF AMERICA:   COUNTRY
 SRVC.            Unknown:   SERVICE COMPANY
 DATE.        12-APR-1978:   LOGDATE
 API .       490251061200:   API NUMBER
~CURVE INFORMATION
#MNEM.UNIT       API CODE    CURVE DESCRIPTION
#----------   ------------   ------------------------------
 DEPT.F                  :   
 SPR .MV     05 010 01 00:   SPONTANEOUS POTENTIAL FROM RES.
 SN  .OHMM   05 040 16 00:   SHORT NORMAL 16"
 ILD .OHMM   05 120 46 00:   INDUCTION LOG DEEP
 CALD.IN     45 280 60 00:   CALIPER FROM DENSITY LOG
 GRD .GAPI   45 310 01 00:   GAMMA RAY FROM DENSITY LOG
 DPOR.DEC    45 890 12 00:   DENSITY POROSITY SANDSTONE
 CORR.G/C3   45 356 01 00:   DENSITY CORRECTION
 RHOB.G/C3   45 350 01 00:   BULK DENSITY
~PARAMETER INFORMATION
#MNEM.UNIT          VALUE    DESCRIPTION
#----------   ------------   ------------------------------
 PD  .                 GL:   PERMANENT DATUM
 EPD .F              5332:   ELEVATION PERMANENT DATUM
 LMF .                 KB:   LOG MEASURED FROM
 DMF .                 KB:   DRILLING MEASURED FROM
 EKB .F              5336:   KELLING BUSHING
 EGL .F              5332:   GROUND LEVEL
 DATE.          4-12-1978:   RUN DATE
 RUN .                  1:   RUN NUMBER
 DD  .F              1300:   DEPTH DRILLER
 DL  .F              1302:   DEPTH LOGGER
 BLI .F              1298:   BOTTOM LOG INTERVAL
 TLI .F                50:   TOP LOG INTERVAL
 CS  .IN            8.625:   CASING SIZE
 CBD .F                40:   CASING BOTTOM DRILLER
 CBL .F                46:   CASING BOTTOM LOGGER
 BS  .IN            7.875:   BIT SIZE
 BSD .F              1300:   BIT SIZE AT DEPTH
 DFT .                KCL:   DRILLING FLUID TYPE
 DFD .                8.5:   DRILLING FLUID DENSITY
 DFV .                 28:   DRILLING FLUID VISCOSITY
 MSS .            MUD PIT:   MUD SAMPLE SOURCE
 RMS .OHMM           1.45:   RESISTIVITY MUD SAMPLE
 MST .F                50:   MUD SAMPLE TEMPERATURE
 RMF .OHMM           1.25:   RESISTIVITY MUD FILTRATE SAMPLE
 MFST.F                62:   MUD FILTRATE SAMPLE TEMPERATURE
 RMC .OHMM           1.65:   RESISTIVITY MUD CAKE
 MCST.F                61:   MUD CAKE SAMPLE TEMPERATURE
 MFSS.           MEASURED:   MUD FILTRATE SAMPLE SOURCE
 MCSS.           MEASURED:   MUD CAKE SAMPLE SOURCE
 RMB .OHMM            .93:   RESISTIVITY MUD AT BHT
 BHT .F                78:   BOTTOM HOLE TEMPERATURE
 TCS .HRS               6:   TIME CURCULATED STOPPED
 MRT .F                78:   MAXIMUM RECORDED TEMPERATURE
 LUN .               2958:   LOGGING UNIT NUMBER
 LUL .                CAS:   LOGGING UNIT LOCATION
 ENGI.             MILLER:   RECORDING ENGINEER
 WITN.           MCGINLEY:   WITNESSED BY
 CLNT.            A2DTECH:   CLIENT CODE
 ORIG.      2" , 5" PRINT:   ORIGIN OF DATA
 UWI .       490251061200:   UNIQUE WELL ID
 DICO. A2D Technologies, Inc.:   DIGITIZING COMPANY
~OTHER INFORMATION
~A   DEPT      SPR         SN        ILD       CALD         GRD      DPOR       CORR       RHOB   
# ...
 1126.5000   -26.8353    13.9502    11.5930     7.5697    35.0612     0.1173     0.0453     2.4713
 1127.0000   -26.9731    13.8571    11.5046     7.5704    35.0868     0.1243     0.0425     2.4591
 1127.5000   -27.1108    13.7627    11.4169     7.5700    35.2693     0.1313     0.0405     2.4472
 1128.0000   -27.2486    13.5124    11.3298     7.5700    35.5845     0.1383     0.0385     2.4346
 1128.5000   -27.3864    13.2606    11.2434     7.5700    35.8997     0.1453     0.0366     2.4191
 1129.0000   -27.5245    13.0214    11.1577     7.5700    36.1055     0.1525     0.0346     2.4036
 1129.5000   -27.6637    12.9519    11.0726     7.5700    35.8517     0.1522     0.0327     2.3877
 1130.0000   -27.7949    12.8846    10.9882     7.5700    34.2672     0.1465     0.0324     2.3860
 1130.5000   -27.7509    12.8176    10.9222     7.5700    32.7429     0.1418     0.0332     2.3983
 1131.0000   -27.6280    12.7510    10.9043     7.5700    33.5909     0.1416     0.0341     2.4072
 1131.5000   -27.3426    12.6848    10.8863     7.5700    36.2951     0.1425     0.0350     2.4085
 1132.0000   -27.0659    12.5815    10.8685     7.5701    38.1270     0.1433     0.0359     2.4069
 1132.5000   -26.7868    12.4641    10.8506     7.5708    38.1995     0.1424     0.0368     2.4053
 1133.0000   -26.5110    12.3477    10.8328     7.5681    38.3203     0.1381     0.0377     2.4049
 1133.5000   -26.5124    12.2325    10.8149     7.4370    38.4389     0.1338     0.0376     2.4103
 1134.0000   -26.5294    12.1183    10.7972     7.2965    38.5485     0.1295     0.0372     2.4212
 1134.5000   -26.5451    12.0052    10.7794     7.3101    38.6732     0.1272     0.0368     2.4252
 1135.0000   -26.5603    11.9835    10.7617     7.3991    39.7835     0.1268     0.0365     2.4258
 1135.5000   -26.5755    11.9835    10.7441     7.4900    43.8776     0.1264     0.0361     2.4258
 1136.0000   -26.5908    11.9835    10.7271     7.5817    47.8222     0.1259     0.0358     2.4279
 1136.5000   -26.6060    11.9835    10.7032     7.6243    48.2943     0.1254     0.0354     2.4308
 1137.0000   -26.6213    11.9835    10.6805     7.6458    47.3244     0.1249     0.0350     2.4330
 1137.5000   -26.6365    11.9835    10.6577     7.6672    45.2921     0.1244     0.0347     2.4332
 1138.0000   -26.6517    11.9835    10.6287     7.6888    43.3076     0.1239     0.0343     2.4335
 1138.5000   -26.6670    11.9835    10.6311     7.6750    41.8735     0.1236     0.0340     2.4338
 1139.0000   -26.6822    11.9835    10.6344     7.6580    41.9063     0.1244     0.0328     2.4351
 1139.5000   -26.6975    11.9835    10.6378     7.6411    42.2845     0.1266     0.0313     2.4368
 1140.0000   -26.7127    11.9835    10.6411     7.6242    43.6231     0.1288     0.0298     2.4389
 1140.5000   -26.7279    11.9835    10.6444     7.6100    45.0376     0.1310     0.0284     2.4319
 1141.0000   -26.7432    11.9835    10.6477     7.6331    43.9341     0.1333     0.0269     2.4265
 1141.5000   -26.7584    11.9835    10.6511     7.6577    42.0743     0.1355     0.0254     2.4258
 1142.0000   -26.7737    11.9835    10.6544     7.6823    42.4268     0.1370     0.0239     2.4248
 1142.5000   -26.7889    11.9835    10.6577     7.7068    43.7051     0.1379     0.0225     2.4195
 1143.0000   -26.8041    11.9835    10.6611     7.7313    43.7173     0.1388     0.0210     2.4139
 1143.5000   -26.8194    11.9835    10.6644     7.7558    43.4923     0.1397     0.0202     2.4118
 1144.0000   -26.8346    11.9835    10.6677     7.7806    43.4458     0.1401     0.0224     2.4108
 1144.5000   -26.8499    11.9835    10.6711     7.7883    43.6774     0.1392     0.0247     2.4121
 1145.0000   -26.8651    11.9835    10.6744     7.7859    44.6190     0.1349     0.0269     2.4133
 1145.5000   -26.8803    11.9835    10.6777     7.7833    45.4506     0.1317     0.0291     2.4146
 1146.0000   -26.8956    11.9835    10.6811     7.7807    44.6690     0.1317     0.0313     2.4158
 1146.5000   -26.9108    11.9835    10.6844     7.7781    43.8339     0.1317     0.0335     2.4176
 1147.0000   -26.9261    11.9835    10.6877     7.7755    43.0052     0.1313     0.0343     2.4192
 1147.5000   -26.9413    11.9835    10.6911     7.7729    43.1347     0.1293     0.0348     2.4208
 1148.0000   -26.9565    11.9835    10.6944     7.7705    45.1206     0.1257     0.0353     2.4256
 1148.5000   -26.9718    11.9835    10.6978     7.7608    46.9121     0.1224     0.0359     2.4373
 1149.0000   -26.9870    11.9835    10.7011     7.7475    47.4471     0.1229     0.0364     2.4419
 1149.5000   -27.0023    11.9835    10.7045     7.7341    46.1787     0.1260     0.0369     2.4390
 1150.0000   -27.0175    11.9835    10.7078     7.7206    45.2814     0.1291     0.0374     2.4331
 1150.5000   -27.0327    11.9835    10.7112     7.7071    45.4417     0.1309     0.0380     2.4272
 1151.0000   -27.0480    11.9835    10.7145     7.6933    45.6437     0.1312     0.0385     2.4247
 1151.5000   -27.0633    11.9835    10.7179     7.6838    45.8463     0.1310     0.0390     2.4262
 1152.0000   -27.0784    11.9835    10.7213     7.6754    46.0447     0.1306     0.0395     2.4280
 1152.5000   -27.0940    11.9835    10.7246     7.6724    46.6071     0.1303     0.0394     2.4300
 1153.0000   -27.0779    11.9835    10.7266     7.6895    47.2843     0.1319     0.0381     2.4298
 1153.5000   -27.0411    11.9835    10.7001     7.7064    47.8571     0.1335     0.0368     2.4231
 1154.0000   -27.0039    11.9835    10.6773     7.7233    47.7014     0.1345     0.0355     2.4215
 1154.5000   -26.9667    11.9835    10.6545     7.7229    46.5238     0.1341     0.0342     2.4225
 1155.0000   -26.9295    11.9835    10.6318     7.7053    45.3611     0.1337     0.0328     2.4235
 1155.5000   -26.8923    11.9835    10.6092     7.6877    44.2043     0.1313     0.0307     2.4263
 1156.0000   -26.8552    11.9835    10.5866     7.6701    43.1407     0.1284     0.0255     2.4319
 1156.5000   -26.8180    11.9836    10.5641     7.6525    42.9056     0.1273     0.0204     2.4349
 1157.0000   -26.7808    11.9836    10.5416     7.6349    42.1646     0.1272     0.0174     2.4352
 1157.5000   -26.7437    11.9846    10.5192     7.6173    40.6796     0.1270     0.0166     2.4355
 1158.0000   -26.7065    11.9479    10.4968     7.5996    39.2597     0.1277     0.0157     2.4360
 1158.5000   -26.6693    11.8464    10.4744     7.5823    39.3020     0.1310     0.0221     2.4307
 1159.0000   -26.6322    11.7458    10.4521     7.5706    39.7254     0.1344     0.0306     2.4234
 1159.5000   -26.5950    11.6461    10.4299     7.5780    40.3625     0.1377     0.0389     2.4202
 1160.0000   -26.5578    11.5473    10.4077     7.5853    42.3720     0.1393     0.0448     2.4171
 1160.5000   -26.5207    11.4493    10.3855     7.5982    44.4198     0.1401     0.0507     2.4128
 1161.0000   -26.4949    11.3380    10.3634     7.6225    45.3177     0.1426     0.0566     2.4086
 1161.5000   -26.4837    11.3439    10.3413     7.6468    43.4171     0.1461     0.0626     2.4059
 1162.0000   -26.4724    11.3508    10.3384     7.6707    38.2480     0.1473     0.0714     2.3967
 1162.5000   -26.4611    11.3577    10.3384     7.6814    33.9557     0.1527     0.0841     2.3870
 1163.0000   -26.4498    11.3646    10.3385     7.6295    35.6031     0.1598     0.0968     2.3786
 1163.5000   -26.4385    11.3716    10.3385     7.5790    37.5020     0.1669     0.1122     2.3716
 1164.0000   -26.4272    11.3785    10.3385     7.5742    39.4346     0.1734     0.1426     2.3592
 1164.5000   -26.4160    11.3854    10.3385     7.6159    39.2676     0.1006     0.2221     2.3478
 1165.0000   -26.4047    11.3924    10.3385     7.8237    36.2564     0.1131     0.2288     2.4065
 1165.5000   -26.3934    11.3993    10.3385     8.5132    34.1714     0.1383     0.0710     2.4647
 1166.0000   -26.3821    11.4062    10.3385     7.6583    34.5504     0.1366     0.0419     2.4209
 1166.5000   -26.3708    11.4132    10.3385     7.6903    36.4613     0.1351     0.0430     2.4165
