~VERSION INFORMATION
 VERS.                2.0:   CWLS LOG ASCII STANDARD - VERSION 2.0
 WRAP.                 NO:   ONE LINE PER DEPTH STEP
~WELL INFORMATION
#MNEM.UNIT      DATA TYPE    INFORMATION
#----------   ------------   ------------------------------
 STRT.F           31.0000:   START DEPTH
 STOP.F         1450.0000:   STOP DEPTH
 STEP.F            0.5000:   STEP LENGTH
 NULL.          -999.2500:   NO VALUE
 COMP. FENIX & SCISSON INC:   COMPANY
 WELL.    NPR-3 SX #86-14:   WELL
 FLD .             TEAPOT:   FIELD
 LOC .      S14 T38N R78W:   LOCATION
 CNTY.            NATRONA:   COUNTY
 STAT.            WYOMING:   STATE
 CTRY. UNITED STATES OF AMERICA:   COUNTRY
 SRVC.            Unknown:   SERVICE COMPANY
 DATE.        05-APR-1978:   LOGDATE
 API .       490251060800:   API NUMBER
~CURVE INFORMATION
#MNEM.UNIT       API CODE    CURVE DESCRIPTION
#----------   ------------   ------------------------------
 DEPT.F                  :   
 CALD.IN     45 280 60 00:   CALIPER
 GRD .GAPI   45 310 01 00:   GAMMA RAY FROM DENSITY LOG
 RHOB.G/C3   45 350 01 00:   BULK DENSITY
 CORR.G/C3   45 356 01 00:   DENSITY CORRECTION
 DPHI.DEC    45 890 12 00:   DENSITY POROSITY SANDSTONE
 SPR .MV     05 010 01 00:   SPONTANEOUS POTENTIAL FROM RES.
 SN  .OHMM   05 040 16 00:   SHORT NORMAL 16"
 ILD .OHMM   05 120 46 00:   INDUCTION LOG DEEP
~PARAMETER INFORMATION
#MNEM.UNIT          VALUE    DESCRIPTION
#----------   ------------   ------------------------------
 PD  .                 GL:   PERMANENT DATUM
 EPD .F              5367:   ELEVATION PERMANENT DATUM
 LMF .                 KB:   LOG MEASURED FROM
 DMF .                 KB:   DRILLING MEASURED FROM
 EKB .F              5371:   KELLING BUSHING
 EGL .F              5369:   GROUND LEVEL
 DATE.           4-5-1978:   RUN DATE
 RUN .                  1:   RUN NUMBER
 DD  .F              1455:   DEPTH DRILLER
 DL  .F              1446:   DEPTH LOGGER
 BLI .F              1440:   BOTTOM LOG INTERVAL
 TLI .F               100:   TOP LOG INTERVAL
 CS  .IN            8.625:   CASING SIZE
 CBD .F                40:   CASING BOTTOM DRILLER
 BS  .IN            7.875:   BIT SIZE
 BSD .F              1455:   BIT SIZE AT DEPTH
 DFT .                KCL:   DRILLING FLUID TYPE
 DFD .                8.6:   DRILLING FLUID DENSITY
 DFV .                 31:   DRILLING FLUID VISCOSITY
 DFPH.                 10:   DRILLING FLUID PH
 DFL .                8.4:   DRILLING FLUID LOSS
 MSS .           FLOWLINE:   MUD SAMPLE SOURCE
 RMS .OHMM            .95:   RESISTIVITY MUD SAMPLE
 MST .F                54:   MUD SAMPLE TEMPERATURE
 RMF .OHMM            .95:   RESISTIVITY MUD FILTRATE SAMPLE
 MFST.F                62:   MUD FILTRATE SAMPLE TEMPERATURE
 RMC .OHMM             .8:   RESISTIVITY MUD CAKE
 MCST.F                62:   MUD CAKE SAMPLE TEMPERATURE
 MFSS.               MEAS:   MUD FILTRATE SAMPLE SOURCE
 RMB .OHMM            .66:   RESISTIVITY MUD AT BHT
 BHT .F                78:   BOTTOM HOLE TEMPERATURE
 TCS .HRS               6:   TIME CURCULATED STOPPED
 MRT .F                78:   MAXIMUM RECORDED TEMPERATURE
 LUN .               2958:   LOGGING UNIT NUMBER
 LUL .               CASP:   LOGGING UNIT LOCATION
 ENGI.             MILLER:   RECORDING ENGINEER
 WITN.           MCGINLEY:   WITNESSED BY
 CLNT.            A2DTECH:   CLIENT CODE
 ORIG.        2" 5" PRINT:   ORIGIN OF DATA
 UWI .       490251060800:   UNIQUE WELL ID
 DICO. A2D Technologies, Inc.:   DIGITIZING COMPANY
~OTHER INFORMATION
~A   DEPT     CALD         GRD      RHOB       CORR       DPHI        SPR         SN        ILD   
# ...
  881.5000     8.1920    90.5046     2.4320     0.0222     0.1219   -55.3867     7.8589     6.3255
  882.0000     8.1929    90.8701     2.4333     0.0208     0.1202   -55.3891     7.8463     6.3071
  882.5000     8.1938    92.1612     2.4352     0.0195     0.1214   -55.3892     7.8337     6.2863
  883.0000     8.1947    93.7294     2.4340     0.0183     0.1230   -55.3892     7.8228     6.2654
  883.5000     8.1957    93.8739     2.4427     0.0192     0.1254   -55.3892     7.8150     6.2445
  884.0000     8.1966    91.8009     2.4309     0.0205     0.1298   -55.3892     7.8074     6.2237
  884.5000     8.1975    89.7759     2.4198     0.0261     0.1330   -55.3892     7.7999     6.2093
  885.0000     8.1984    88.7360     2.4452     0.0261     0.1218   -55.3892     7.7923     6.2097
  885.5000     8.1994    88.5998     2.4339     0.0317     0.1123   -55.3892     7.7848     6.2097
  886.0000     8.2003    87.4823     2.4279     0.0362     0.1119   -55.3892     7.7772     6.1722
  886.5000     8.2012    88.7336     2.4467     0.0359     0.1126   -55.3892     7.7697     6.1212
  887.0000     8.2021    89.9035     2.4471     0.0356     0.1114   -55.3892     7.7623     6.0706
  887.5000     8.2030    87.7946     2.4516     0.0354     0.1110   -55.3892     7.7535     6.0203
  888.0000     8.2040    85.2621     2.4486     0.0351     0.1136   -55.3893     7.7763     5.9705
  888.5000     8.2049    84.6806     2.4436     0.0348     0.1162   -55.3897     7.8079     5.9291
  889.0000     8.2058    84.2927     2.4433     0.0346     0.1150   -55.3893     7.8396     5.9865
  889.5000     8.2067    84.4831     2.4432     0.0345     0.1142   -55.3591     7.8713     6.0364
  890.0000     8.2077    85.5250     2.4411     0.0246     0.1146   -55.1972     7.9045     6.0868
  890.5000     8.2086    86.5166     2.4356     0.0195     0.1127   -55.0387     7.9432     6.1375
  891.0000     8.2095    89.2916     2.4421     0.0179     0.1108   -54.8809     7.9822     6.1888
  891.5000     8.2127    91.2859     2.4701     0.0103     0.1145   -54.7754     8.0213     6.2672
  892.0000     8.2187    88.8817     2.4471     0.0025     0.1230   -54.7427     8.0757     6.3651
  892.5000     8.2246    88.2385     2.4239     0.0008     0.1233   -54.7092     8.1193     6.4646
  893.0000     8.2306    88.0816     2.4303     0.0021     0.1243   -54.6758     8.0818     6.5656
  893.5000     8.2366    87.9416     2.4364     0.0034     0.1287   -54.6424     8.0450     6.6349
  894.0000     8.2425    87.7998     2.4228     0.0048     0.1238   -54.6090     8.0755     6.6587
  894.5000     8.2485    87.5499     2.4250     0.0060     0.1206   -54.5756     8.1246     6.6825
  895.0000     8.2545    86.0911     2.4336     0.0025     0.1286   -54.5422     8.1741     6.7598
  895.5000     8.2605    82.6406     2.4325    -0.0014     0.1261   -54.5089     8.2238     6.8766
  896.0000     8.2664    80.3734     2.4245    -0.0024     0.1213   -54.4754     8.2713     6.9955
  896.5000     8.2685    84.8181     2.4301     0.0067     0.1180   -54.4420     8.2491     7.1164
  897.0000     8.2599    88.6839     2.4437     0.0057     0.1150   -54.4087     8.2231     7.1337
  897.5000     8.2514    90.2124     2.4515     0.0026     0.1177   -54.3912     8.1972     7.0536
  898.0000     8.2429    90.5400     2.4429     0.0004     0.1210   -54.3912     8.1714     6.9989
  898.5000     8.2345    90.6103     2.4351     0.0020     0.1245   -54.3912     8.1456     6.9447
  899.0000     8.2260    88.6724     2.4293     0.0034     0.1250   -54.3912     8.1200     6.8911
  899.5000     8.2176    85.0802     2.4314     0.0040     0.1238   -54.3912     8.0944     6.8747
  900.0000     8.2091    85.1935     2.4349     0.0036     0.1262   -54.3914     8.0689     6.8748
  900.5000     8.2007    86.2784     2.4262     0.0031     0.1284   -54.3925     8.0435     6.7737
  901.0000     8.1921    85.8501     2.4265     0.0028     0.1294   -54.3891     8.0182     6.6634
  901.5000     8.1795    85.4842     2.4168     0.0023     0.1318   -54.1464     7.9931     6.5549
  902.0000     8.1654    85.2101     2.4186     0.0083     0.1289   -53.8775     7.9712     6.5035
  902.5000     8.1513    84.8989     2.4243     0.0190     0.1214   -53.6088     7.9775     6.4974
  903.0000     8.1371    84.8638     2.4308     0.0298     0.1139   -53.3402     7.9836     6.4858
  903.5000     8.1230    84.0340     2.4417     0.0407     0.1076   -53.0703     7.9896     6.4742
  904.0000     8.1088    84.2224     2.4552     0.0413     0.1050   -52.8040     7.9956     6.4626
  904.5000     8.0946    86.8353     2.4675     0.0401     0.1140   -52.8424     8.0016     6.4510
  905.0000     8.0847    88.7424     2.4495     0.0392     0.1147   -52.9311     8.0076     6.4436
  905.5000     8.0769    89.1700     2.4304     0.0440     0.1137   -53.0191     8.0136     6.4437
  906.0000     8.0691    91.1372     2.4482     0.0606     0.1130   -53.1075     8.0196     6.4434
  906.5000     8.0613    93.0785     2.4506     0.0521     0.1130   -53.1893     8.0256     6.4431
  907.0000     8.0534    92.5012     2.4472     0.0496     0.1085   -53.1315     8.0317     6.4430
  907.5000     8.0515    86.6665     2.4573     0.0478     0.0990   -53.0678     8.0377     6.5630
  908.0000     8.0555    85.3639     2.4699     0.0333     0.1049   -53.0047     8.0445     6.6655
  908.5000     8.0596    85.4829     2.4740     0.0182     0.1121   -52.9421     8.0383     6.7486
  909.0000     8.0637    85.5390     2.4548     0.0043     0.1191   -52.8783     8.0301     6.7749
  909.5000     8.0678    85.5818     2.4387     0.0044     0.1221   -52.8207     8.0217     6.8113
  910.0000     8.0718    85.6192     2.4261     0.0112     0.1206   -52.4603     8.0134     6.8032
  910.5000     8.0759    85.6473     2.4352     0.0179     0.1115   -51.9608     8.0052     6.7900
  911.0000     8.0800    85.7969     2.4510     0.0157     0.1095   -51.4586     7.9969     6.7769
  911.5000     8.0840    87.7357     2.4574     0.0128     0.1109   -51.4006     7.9886     6.7638
  912.0000     8.0881    89.6285     2.4522     0.0128     0.1122   -51.4224     7.9805     6.7513
  912.5000     8.0904    91.4958     2.4483     0.0166     0.1136   -51.4440     7.9718     6.7067
  913.0000     8.0911    93.0737     2.4472     0.0200     0.1146   -51.4646     7.9894     6.6579
  913.5000     8.0919    93.6838     2.4497     0.0184     0.1099   -51.4851     8.0112     6.6096
  914.0000     8.0926    92.4036     2.4557     0.0166     0.1098   -51.5056     8.0331     6.5633
  914.5000     8.0934    89.5766     2.4532     0.0148     0.1122   -51.5262     8.0433     6.4434
  915.0000     8.0941    86.9712     2.4548     0.0164     0.1148   -51.5470     7.9735     6.3314
  915.5000     8.0949    86.6312     2.4444     0.0212     0.1062   -51.5678     7.9252     6.2218
  916.0000     8.0956    86.5247     2.4525     0.0187     0.1132   -51.5861     7.8773     6.1144
  916.5000     8.0963    85.3666     2.4583     0.0123     0.1214   -51.4552     7.8248     6.0398
  917.0000     8.0971    82.9940     2.4407     0.0080     0.1214   -51.0487     7.8359     6.0533
  917.5000     8.0978    82.0455     2.4357     0.0127     0.1184   -50.6458     7.8518     6.0637
  918.0000     8.0986    84.2719     2.4425     0.0181     0.1194   -50.2465     7.8677     6.0742
  918.5000     8.0993    86.5908     2.4382     0.0186     0.1211   -50.0411     7.8835     6.0846
  919.0000     8.1001    87.9258     2.4333     0.0189     0.1199   -50.3005     7.8971     6.0959
  919.5000     8.1008    89.4070     2.4331     0.0193     0.1187   -50.5535     7.8357     6.0434
  920.0000     8.1015    93.7420     2.4436     0.0197     0.1174   -50.7905     7.7812     5.9842
  920.5000     8.1023    94.4050     2.4495     0.0200     0.1168   -50.7400     7.7271     5.9980
  921.0000     8.1030    89.9507     2.4314     0.0233     0.1161   -50.6792     7.6814     6.0127
  921.5000     8.1038    89.4724     2.4386     0.0284     0.1151   -50.6197     7.7010     6.0274
