~VERSION INFORMATION
 VERS.                2.0:   CWLS LOG ASCII STANDARD - VERSION 2.0
 WRAP.                 NO:   ONE LINE PER DEPTH STEP
~WELL INFORMATION
#MNEM.UNIT      DATA TYPE    INFORMATION
#----------   ------------   ------------------------------
 STRT.F           20.0000:   START DEPTH
 STOP.F          488.0000:   STOP DEPTH
 STEP.F            0.5000:   STEP LENGTH
 NULL.          -999.2500:   NO VALUE
 COMP.    FENIX & SCISSON:   COMPANY
 WELL.  SX-3 NPR #3-3 #43:   WELL
 FLD .             TEAPOT:   FIELD
 LOC .       S3 T38N R78W:   LOCATION
 CNTY.            NATRONA:   COUNTY
 STAT.            WYOMING:   STATE
 CTRY. UNITED STATES OF AMERICA:   COUNTRY
 SRVC.           BIRDWELL:   SERVICE COMPANY
 DATE.        04-JAN-1978:   LOGDATE
 API .       490251044800:   API NUMBER
~CURVE INFORMATION
#MNEM.UNIT       API CODE    CURVE DESCRIPTION
#----------   ------------   ------------------------------
 DEPT.F                  :   
 ILD .OHMM   05 120 46 00:   INDUCTION LOG DEEP
 SN  .OHMM   05 040 16 00:   SHORT NORMAL 16"
 SPR .MV     05 010 01 00:   SPONTANEOUS POTENTIAL FROM RES.
 CALD.IN     45 280 60 00:   CALIPER FROM DENSITY LOG
 DPHI.DEC    45 890 12 00:   DENSITY POROSITY SANDSTONE
 DRHO.G/C3   45 356 01 00:   DENSITY CORRECTION
 GRD .GAPI   45 310 01 00:   GAMMA RAY FROM DENSITY LOG
 RHOB.G/C3   45 350 01 00:   BULK DENSITY
~PARAMETER INFORMATION
#MNEM.UNIT          VALUE    DESCRIPTION
#----------   ------------   ------------------------------
 PD  .                 GL:   PERMANENT DATUM
 LMF .                 KB:   LOG MEASURED FROM
 DAPD.F                 4:   FEET ABOVE PERMANENT DATUM
 DMF .                 KB:   DRILLING MEASURED FROM
 EKB .F              5163:   KELLING BUSHING
 EGL .F              5159:   GROUND LEVEL
 DATE.        04-JAN-1978:   RUN DATE
 RUN .                  1:   RUN NUMBER
 DD  .F               490:   DEPTH DRILLER
 DL  .F               490:   DEPTH LOGGER
 BLI .F               485:   BOTTOM LOG INTERVAL
 TLI .F                20:   TOP LOG INTERVAL
 CS  .IN            8.625:   CASING SIZE
 CBD .F                40:   CASING BOTTOM DRILLER
 CBL .F                44:   CASING BOTTOM LOGGER
 BS  .IN            7.875:   BIT SIZE
 BSD .F               490:   BIT SIZE AT DEPTH
 DFT .                KCL:   DRILLING FLUID TYPE
 DFD .                8.4:   DRILLING FLUID DENSITY
 DFV .                 32:   DRILLING FLUID VISCOSITY
 DFPH.                 11:   DRILLING FLUID PH
 DFL .                  8:   DRILLING FLUID LOSS
 MSS .                PIT:   MUD SAMPLE SOURCE
 RMS .OHMM           0.32:   RESISTIVITY MUD SAMPLE
 MST .F                62:   MUD SAMPLE TEMPERATURE
 RMF .OHMM           0.30:   RESISTIVITY MUD FILTRATE SAMPLE
 MFST.F                62:   MUD FILTRATE SAMPLE TEMPERATURE
 RMC .OHMM           0.35:   RESISTIVITY MUD CAKE
 MCST.F                62:   MUD CAKE SAMPLE TEMPERATURE
 MFSS.               MEAS:   MUD FILTRATE SAMPLE SOURCE
 MCSS.               MEAS:   MUD CAKE SAMPLE SOURCE
 RMB .OHMM           0.26:   RESISTIVITY MUD AT BHT
 BHT .F                75:   BOTTOM HOLE TEMPERATURE
 TCS .HRS               2:   TIME CURCULATED STOPPED
 MRT .F                75:   MAXIMUM RECORDED TEMPERATURE
 LUN .               2958:   LOGGING UNIT NUMBER
 LUL .             CASPER:   LOGGING UNIT LOCATION
 ENGI.             HUGHES:   RECORDING ENGINEER
 WITN.         HARRINGTON:   WITNESSED BY
 CLNT.            A2DTECH:   CLIENT CODE
 ORIG.           5" PRINT:   ORIGIN OF DATA
 UWI .       490251044800:   UNIQUE WELL ID
 DICO. A2D Technologies, Inc.:   DIGITIZING COMPANY
~OTHER INFORMATION
~A   DEPT      ILD         SN        SPR       CALD       DPHI       DRHO         GRD      RHOB   
# ...
  263.0000    10.7689     9.4124   -55.8219     8.3104     0.0961     0.0215   118.7660     2.5102
  263.5000    10.7682     9.4124   -55.8177     8.2959     0.0992     0.0193   117.1657     2.4945
  264.0000    10.7675     9.4124   -55.8135     8.2961     0.1030     0.0223   115.5653     2.4947
  264.5000    10.9170     9.4778   -55.8083     8.2962     0.1003     0.0328   115.1328     2.5065
  265.0000    10.9923     9.4778   -55.8041     8.2964     0.0950     0.0396   117.0376     2.4841
  265.5000    11.0681     9.4778   -55.7999     8.2819     0.0907     0.0434   121.2767     2.4901
  266.0000    11.3787     9.4778   -55.7947     8.2820     0.0958     0.0306   120.2603     2.4962
  266.5000    11.3778     9.4778   -55.7905     8.2822     0.1059     0.0112   115.8862     2.4999
  267.0000    11.6162     9.4794   -55.7863     8.2823     0.1125     0.0149   117.2070     2.4925
  267.5000    11.6963     9.4837   -55.7811     8.2825     0.1143     0.0225   119.6943     2.4708
  268.0000    11.6954     9.4880   -55.7769     8.2826     0.1080     0.0337   121.0136     2.4693
  268.5000    11.6946     9.4924   -55.7727     8.2828     0.1011     0.0300   118.3914     2.4776
  269.0000    11.6939     9.4967   -55.7514     8.2829     0.0942     0.0277   117.9590     2.4881
  269.5000    11.6929     9.5010   -55.6129     8.2831     0.0915     0.0360   119.4257     2.4994
  270.0000    11.6922     9.5041   -55.4584     8.2686     0.0902     0.0383   117.8254     2.5046
  270.5000    11.6914     9.5047   -55.3038     8.2688     0.0938     0.0241   114.9112     2.5032
  271.0000    11.9363     9.5053   -55.1482     8.2689     0.0926     0.0331   113.7488     2.4972
  271.5000    12.0187     9.5721   -55.1440     8.2691     0.0893     0.0368   114.3396     2.5010
  272.0000    12.3558     9.5727   -55.1398     8.2692     0.0896     0.0241   113.9072     2.5070
  272.5000    12.3548     9.5733   -55.1346     8.2693     0.0935     0.0204   112.0149     2.5100
  273.0000    12.0160     9.5739   -55.1308     8.2695     0.0970     0.0264   110.2569     2.5078
  273.5000    10.3150     9.5747   -55.1262     8.2843     0.0970     0.0347   110.8594     2.4936
  274.0000     9.6056     9.5093   -55.1210     8.2844     0.0988     0.0422   115.5364     2.4839
  274.5000     9.1031     9.5100   -55.1168     8.2845     0.1039     0.0490   122.4033     2.4817
  275.0000     9.1025     8.6331   -55.1126     8.2993     0.1075     0.0594   120.8029     2.4930
  275.5000     9.1019     7.8372   -54.8066     8.3140     0.1167     0.0639   115.5543     2.4668
  276.0000     9.1012     7.6237   -54.6521     8.3288     0.1511     0.0348   113.9526     2.4594
  276.5000     9.1006     7.5717   -54.4975     8.3289     0.1795    -0.0094   116.2953     2.4085
  277.0000     9.2913     7.6248   -53.8917     8.3291     0.1472    -0.0101   121.7022     2.3577
  277.5000     9.5519     7.8393   -53.2851     8.3292     0.1107     0.0176   125.2114     2.3644
  278.0000    10.0962     8.2857   -53.2809     8.3294     0.0801     0.0438   124.1950     2.4318
  278.5000    11.0481     9.1285   -53.2767     8.3149     0.0753     0.0468   125.9537     2.4903
  279.0000    12.4590    10.3391   -52.8203     8.3150     0.0768     0.0326   127.1504     2.5201
  279.5000    14.5783    11.3125   -52.6658     8.3152     0.0813     0.0334   114.8712     2.5284
  280.0000    14.9876    11.5504   -52.5112     8.3007     0.0837     0.0379   102.7599     2.5217
  280.5000    14.9864    11.6313   -52.2052     8.3009     0.0849     0.0409    99.1158     2.5142
  281.0000    14.9852    11.7940   -52.0507     8.3156     0.0851     0.0379   100.5812     2.5105
  281.5000    14.9843    11.9592   -50.9938     8.3012     0.0860     0.0273   109.7782     2.5046
  282.0000    14.9833    12.1265   -49.6352     8.3013     0.0908     0.0327   113.7309     2.5046
  282.5000    15.4035    12.3815   -47.8265     8.3015     0.0984     0.0447   103.3728     2.5039
  283.0000    15.8361    12.6419   -46.6193     8.3016     0.1015     0.0492   101.1885     2.4994
  283.5000    17.0901    13.1785   -45.0802     8.3018     0.1045     0.0515    99.7342     2.4950
  284.0000    18.2066    13.7376   -43.7528     8.3019     0.1111     0.0605   109.0842     2.4853
  284.5000    19.7667    14.3205   -42.6959     8.2875     0.1170     0.0703   113.9072     2.4688
  285.0000    21.0385    14.9281   -41.7694     8.2876     0.1320     0.0800   112.3068     2.4515
  285.5000    23.3436    15.7784   -39.9798     8.2877     0.1433     0.0860   103.9034     2.4450
  286.0000    25.3675    16.7926   -38.7726     8.2879     0.1469     0.0597    97.5747     2.4323
  286.5000    27.1876    17.8720   -37.7158     8.2734     0.1999     0.0464    91.5948     2.4031
  287.0000    28.5382    18.5019   -37.5601     8.2736     0.1956     0.0509    89.2632     2.3889
  287.5000    29.9555    18.7611   -36.9544     8.2737     0.2007     0.0427    88.2482     2.3284
  288.0000    29.9535    19.0236   -36.0480     8.2739     0.2148     0.0300    70.1529     2.3082
  288.5000    30.7941    19.2898   -34.2383     8.2594     0.2034     0.0325    70.7423     2.3000
  289.0000    31.0208    19.5596   -32.7303     8.2596     0.1971     0.0450    72.6456     2.3077
  289.5000    31.8761    19.9713   -31.5231     8.2597     0.2034     0.0532    75.8628     2.3165
  290.0000    32.5447    20.2507   -30.9173     8.2745     0.2135     0.0383    79.5193     2.3091
  290.5000    33.2263    20.5340   -30.7618     8.2746     0.2138     0.0300    80.1088     2.3009
  291.0000    33.4553    20.6778   -30.7576     8.2748     0.2138     0.0263    79.6764     2.2957
  291.5000    33.4527    20.8227   -30.7534     8.2749     0.2093     0.0308    79.5358     2.3002
  292.0000    33.4505    21.1144   -30.7482     8.2750     0.1734     0.0391    80.7106     2.3174
  292.5000    33.4478    21.2622   -30.7440     8.2680     0.1632     0.0473    81.3001     2.3339
  293.0000    33.4456    21.5597   -30.7398     8.2607     0.1551     0.0558    81.0136     2.3646
  293.5000    33.4435    21.8807   -30.7346     8.2609     0.1445     0.0624    78.0994     2.3998
  294.0000    33.4568    22.1676   -30.7304     8.2756     0.1365     0.0676    74.2219     2.4103
  294.5000    34.8595    22.3229   -30.7262     8.2758     0.1308     0.0624    76.0680     2.4044
  295.0000    36.3383    22.4792   -30.7210     8.2759     0.1296     0.0512    84.6867     2.3887
  295.5000    37.8799    22.7938   -30.7168     8.2614     0.1314     0.0400    92.8674     2.3767
  296.0000    38.6732    23.1131   -30.5623     8.2616     0.1643     0.0325    95.8277     2.3753
  296.5000    38.9405    23.5991   -30.5570     8.2618     0.1670     0.0355    87.7703     2.3753
  297.0000    39.2084    23.7643   -30.4025     8.2619     0.1604     0.0430    77.8488     2.3791
  297.5000    39.4787    23.9308   -30.2479     8.2621     0.1562     0.0523    75.6645     2.3828
  298.0000    39.4755    24.0988   -30.2436     8.2768     0.1744     0.0625    69.6090     2.3799
  298.5000    41.1502    24.1004   -30.2385     8.2769     0.1765     0.0461    65.1660     2.3679
  299.0000    42.0126    24.1019   -30.2343     8.2771     0.1741     0.0236    71.0109     2.3418
  299.5000    42.3023    24.1036   -30.0777     8.2772     0.2183     0.0117    80.2135     2.3060
  300.0000    42.2984    23.9390   -30.0750     8.2774     0.2644     0.0064    85.7664     2.2484
  300.5000    42.0005    23.6121   -30.2226     8.2775     0.2446     0.0177    88.9746     2.2215
  301.0000    40.7238    23.2890   -30.3694     8.2774     0.2425     0.0275    87.5120     2.2334
  301.5000    39.1749    22.9710   -30.5177     8.2774     0.2216     0.0365    79.9180     2.2748
  302.0000    37.8348    22.6570   -31.1158     8.2774     0.1991     0.0410    75.9736     2.3113
  302.5000    36.7949    22.1936   -31.7145     8.2774     0.1857     0.0313    72.4672     2.3263
  303.0000    35.7824    21.7394   -32.3132     8.2774     0.1702     0.0335    76.4053     2.3428
