~VERSION INFORMATION
 VERS.                2.0:   CWLS LOG ASCII STANDARD - VERSION 2.0
 WRAP.                 NO:   ONE LINE PER DEPTH STEP
~WELL INFORMATION
#MNEM.UNIT      DATA TYPE    INFORMATION
#----------   ------------   ------------------------------
 STRT.F           30.0000:   START DEPTH
 STOP.F          750.0000:   STOP DEPTH
 STEP.F            0.5000:   STEP LENGTH
 NULL.          -999.2500:   NO VALUE
 COMP. FENIX & SCISSON INC:   COMPANY
 WELL. TEAPOT DOME SX #38-11:   WELL
 FLD .             TEAPOT:   FIELD
 LOC .      S11 T38N R78W:   LOCATION
 CNTY.            NATRONA:   COUNTY
 STAT.            WYOMING:   STATE
 CTRY. UNITED STATES OF AMERICA:   COUNTRY
 SRVC.            Unknown:   SERVICE COMPANY
 DATE.        23-FEB-1978:   LOGDATE
 API .       490251058200:   API NUMBER
~CURVE INFORMATION
#MNEM.UNIT       API CODE    CURVE DESCRIPTION
#----------   ------------   ------------------------------
 DEPT.F                  :   
 CALD.IN     45 280 60 00:   CALIPER FROM DENSITY LOG
 GRD .GAPI   45 310 01 00:   GAMMA RAY FROM DENSITY LOG
 RHOB.G/C3   45 350 01 00:   BULK DENSITY
 DPHI.DEC    45 890 12 00:   DENSITY POROSITY SANDSTONE
 CORR.G/C3   45 356 01 00:   DENSITY CORRECTION
 SPR .MV     07 010 01 00:   SPONTANEOUS POTENTIAL FROM RES. LOG
 SN  .OHMM   07 040 16 00:   SHORT NORMAL 16'
 ILD .OHMM   07 120 46 00:   INDUCTION LOG DEEP
~PARAMETER INFORMATION
#MNEM.UNIT          VALUE    DESCRIPTION
#----------   ------------   ------------------------------
 PD  .                 GL:   PERMANENT DATUM
 EPD .F              5204:   ELEVATION PERMANENT DATUM
 LMF .                 KB:   LOG MEASURED FROM
 DAPD.F                 4:   FEET ABOVE PERMANENT DATUM
 DMF .                 KB:   DRILLING MEASURED FROM
 EKB .F              5208:   KELLING BUSHING
 EGL .F              5204:   GROUND LEVEL
 DATE.            2-23-78:   RUN DATE
 RUN .                  1:   RUN NUMBER
 DD  .F               755:   DEPTH DRILLER
 DL  .F               751:   DEPTH LOGGER
 BLI .F               745:   BOTTOM LOG INTERVAL
 TLI .F                45:   TOP LOG INTERVAL
 CS  .IN            8.625:   CASING SIZE
 CBD .F                40:   CASING BOTTOM DRILLER
 CBL .F                40:   CASING BOTTOM LOGGER
 BS  .IN            7.875:   BIT SIZE
 BSD .F               755:   BIT SIZE AT DEPTH
 DFT .         LIGNO SULF:   DRILLING FLUID TYPE
 DFD .                8.7:   DRILLING FLUID DENSITY
 DFV .                 33:   DRILLING FLUID VISCOSITY
 DFPH.                 10:   DRILLING FLUID PH
 DFL .                  4:   DRILLING FLUID LOSS
 MSS .          FLOW LINE:   MUD SAMPLE SOURCE
 RMS .OHMM              2:   RESISTIVITY MUD SAMPLE
 MST .F                60:   MUD SAMPLE TEMPERATURE
 RMF .OHMM            1.9:   RESISTIVITY MUD FILTRATE SAMPLE
 MFST.F                62:   MUD FILTRATE SAMPLE TEMPERATURE
 RMC .OHMM            3.5:   RESISTIVITY MUD CAKE
 MCST.F                60:   MUD CAKE SAMPLE TEMPERATURE
 MFSS.               MEAS:   MUD FILTRATE SAMPLE SOURCE
 MCSS.               MEAS:   MUD CAKE SAMPLE SOURCE
 RMB .OHMM           1.69:   RESISTIVITY MUD AT BHT
 BHT .F                71:   BOTTOM HOLE TEMPERATURE
 TCS .HRS               3:   TIME CURCULATED STOPPED
 MRT .F                71:   MAXIMUM RECORDED TEMPERATURE
 LUN .               2958:   LOGGING UNIT NUMBER
 LUL .               CASP:   LOGGING UNIT LOCATION
 ENGI.            POINTER:   RECORDING ENGINEER
 WITN.           MCGINLEY:   WITNESSED BY
 CLNT.            A2DTECH:   CLIENT CODE
 ORIG.       2", 5" PRINT:   ORIGIN OF DATA
 UWI .       490251058200:   UNIQUE WELL ID
 DICO. A2D Technologies, Inc.:   DIGITIZING COMPANY
~OTHER INFORMATION
~A   DEPT     CALD         GRD      RHOB       DPHI       CORR        SPR         SN        ILD   
# ...
  273.0000     8.4164    93.6827     2.4731     0.1040     0.0289   -34.0462     9.6027     8.1547
  273.5000     8.4153    98.7395     2.4757     0.1027     0.0289   -33.4278     9.5467     8.1779
  274.0000     8.4142   103.8276     2.4794     0.0998     0.0289   -33.9580     9.4484     8.2010
  274.5000     8.4131   104.7272     2.4863     0.0988     0.0268   -34.4270     9.3501     8.2242
  275.0000     8.4120   105.3080     2.4877     0.0997     0.0234   -34.8657     9.2552     8.2475
  275.5000     8.4109   105.6395     2.4886     0.1005     0.0199   -35.3106     9.3898     8.2708
  276.0000     8.4098   101.5743     2.4870     0.1014     0.0165   -35.2557     9.5270     8.3093
  276.5000     8.4087    97.7780     2.4851     0.1011     0.0131   -35.0617     9.6661     8.4244
  277.0000     8.4076    97.1004     2.4840     0.1007     0.0109   -34.4909     9.8073     8.5410
  277.5000     8.4065    97.3518     2.4851     0.1003     0.0109   -33.8553     9.9505     8.6593
  278.0000     8.4054    95.2451     2.4847     0.1014     0.0108   -34.1922    10.0958     8.7792
  278.5000     8.4043    93.3639     2.4799     0.1030     0.0107   -34.7776    10.2433     8.9008
  279.0000     8.4031    93.8976     2.4818     0.1046     0.0106   -34.2141    10.3929     9.0240
  279.5000     8.4021    95.7431     2.4790     0.1062     0.0105   -33.9683    10.5311     9.1490
  280.0000     8.4009    97.5174     2.4632     0.1073     0.0104   -33.8572    10.5423     9.2757
  280.5000     8.3998    99.1904     2.4603     0.1078     0.0103   -33.9120    10.5802     9.4041
  281.0000     8.3987   100.7453     2.4646     0.1084     0.0103   -35.2673    10.6182     9.5344
  281.5000     8.3976   102.2984     2.4682     0.1090     0.0102   -34.7880    10.6563     9.6664
  282.0000     8.3965   102.8697     2.4698     0.1091     0.0101   -33.7756    10.6946     9.7816
  282.5000     8.3954   102.6769     2.4715     0.1094     0.0100   -34.9279    10.7330     9.7987
  283.0000     8.3943   100.8856     2.4709     0.1097     0.0099   -34.7281    10.7715     9.8170
  283.5000     8.3932    97.1180     2.4672     0.1109     0.0098   -35.0459    10.8102     9.8353
  284.0000     8.3921    95.8020     2.4583     0.1120     0.0098   -35.1070    10.8491     9.8534
  284.5000     8.3910    95.8801     2.4554     0.1132     0.0097   -33.8464    10.8883     9.8718
  285.0000     8.3909    95.9729     2.4622     0.1126     0.0096   -34.5451    10.9271     9.8723
  285.5000     8.3591    96.0786     2.4656     0.1119     0.0095   -35.2072    10.9271     9.7739
  286.0000     8.2917    96.1179     2.4617     0.1126     0.0094   -35.8131    10.6298     9.7041
  286.5000     8.2296    94.3692     2.4573     0.1138     0.0093   -35.7378    10.4232     9.6348
  287.0000     8.2780    92.5266     2.4566     0.1116     0.0092   -34.2780    10.2206     9.5659
  287.5000     8.3284    90.7578     2.4582     0.1090     0.0091   -34.3097    10.1494     9.5145
  288.0000     8.3859    92.9220     2.4713     0.1078     0.0091   -35.1056    10.1494     9.4423
  288.5000     8.3903    97.1333     2.4705     0.1072     0.0091   -34.9837    10.1494     9.3329
  289.0000     8.3898    98.9918     2.4735     0.1066     0.0060   -34.3830    10.1494     9.2248
  289.5000     8.3897    98.5390     2.4779     0.1058     0.0025   -34.8524    10.1494     9.1697
  290.0000     8.3897    98.1839     2.4781     0.1058    -0.0012   -35.3057    10.1494     9.0854
  290.5000     8.3897    98.8317     2.4658     0.1058     0.0036   -35.7620    10.1494     9.0513
  291.0000     8.3897    99.5375     2.4555     0.1058     0.0078   -35.5671    10.1494     9.0203
  291.5000     8.3897    95.5925     2.4619     0.1058     0.0121   -35.3179    10.1493     8.9894
  292.0000     8.3897    89.8535     2.4735     0.1062     0.0129   -35.0709    10.1501     8.9587
  292.5000     8.3897    86.7011     2.4764     0.1063     0.0130   -34.8242    10.0979     8.9280
  293.0000     8.3897    90.2667     2.4772     0.1051     0.0130   -34.5775    10.0290     8.8975
  293.5000     8.3897    97.5764     2.4741     0.1038     0.0153   -34.3749     9.9604     8.8671
  294.0000     8.3897   104.9403     2.4716     0.1031     0.0192   -34.6203     9.8924     8.8367
  294.5000     8.3897   107.6557     2.4771     0.1013     0.0209   -34.8756     9.8248     8.8065
  295.0000     8.3897   107.0428     2.4828     0.0994     0.0209   -35.1412     9.7577     8.7764
  295.5000     8.3897   104.7623     2.4856     0.0995     0.0207   -34.6506     9.6917     8.7463
  296.0000     8.3897   102.4666     2.4847     0.1000     0.0206   -33.8880     9.6503     8.7165
  296.5000     8.3897   100.2259     2.4881     0.1005     0.0205   -34.5234     9.6095     8.6868
  297.0000     8.3897   100.4809     2.4857     0.1010     0.0204   -35.3815     9.5689     8.6761
  297.5000     8.3897   103.9205     2.4860     0.1022     0.0203   -34.7976     9.5285     8.6433
  298.0000     8.3897   106.1653     2.4826     0.1014     0.0202   -35.3854     9.4882     8.6051
  298.5000     8.3897   105.1939     2.4836     0.1004     0.0201   -35.0004     9.4480     8.5670
  299.0000     8.3908   104.4917     2.4848     0.0993     0.0200   -34.0162     9.3618     8.5286
  299.5000     8.3920   104.8699     2.4860     0.0986     0.0199   -35.2542     9.1299     8.4686
  300.0000     8.3932   105.3521     2.4864     0.1006     0.0198   -34.7071     8.9038     8.3969
  300.5000     8.3944   105.6281     2.4829     0.1027     0.0196   -34.5469     8.8373     8.3263
  301.0000     8.3956   105.2836     2.4792     0.1049     0.0195   -34.7169     8.9717     8.2566
  301.5000     8.3968   104.9572     2.4754     0.1071     0.0194   -34.0835     9.0854     8.0590
  302.0000     8.3981   105.2161     2.4724     0.1085     0.0193   -34.1925     9.0854     7.9207
  302.5000     8.3993   106.2800     2.4703     0.1096     0.0192   -34.7174     8.7534     7.7726
  303.0000     8.4005   106.3036     2.4684     0.1107     0.0191   -34.4607     8.5091     7.6272
  303.5000     8.4017   106.3107     2.4634     0.1119     0.0190   -34.2213     8.2716     7.4841
  304.0000     8.4029   106.3102     2.4585     0.1130     0.0194   -33.9795     8.1330     7.3454
  304.5000     8.4041   107.3605     2.4540     0.1141     0.0216   -33.8396     8.1117     7.2787
  305.0000     8.4053   108.5427     2.4515     0.1149     0.0237   -34.4893     8.0826     7.2792
  305.5000     8.4066   108.6644     2.4507     0.1135     0.0259   -35.1554     8.0578     7.3853
  306.0000     8.4076   107.4170     2.4556     0.1068     0.0280   -35.4358     8.0568     7.4647
  306.5000     8.4087   105.1172     2.4654     0.0974     0.0280   -35.6987     8.2810     7.5449
  307.0000     8.3910   103.3123     2.4765     0.0994     0.0233   -33.7311     8.5880     7.6260
  307.5000     8.3559   103.1633     2.4862     0.1028     0.0188   -33.8540     8.9193     7.7080
  308.0000     8.3344   103.5441     2.4802     0.1092     0.0152   -34.1603     8.9232     7.7908
  308.5000     8.3552   105.3736     2.4725     0.1165     0.0209   -33.5597     8.9274     7.8746
  309.0000     8.3747   105.3122     2.4648     0.1016     0.0280   -34.1049     8.9315     7.9842
  309.5000     8.3896   104.0714     2.4742     0.0961     0.0350   -34.2599     8.9356     7.9453
  310.0000     8.3867   103.7259     2.4870     0.0899     0.0386   -33.5485     8.9398     7.8953
  310.5000     8.3843   106.5902     2.5002     0.0934     0.0381   -33.7165     8.9439     7.8456
  311.0000     8.3819   110.7695     2.5025     0.0968     0.0377   -33.9195     8.9481     7.7962
  311.5000     8.3795   114.9968     2.4928     0.1002     0.0373   -34.1221     8.9522     7.7662
  312.0000     8.3771   115.7744     2.4848     0.1037     0.0353   -34.3280     8.9564     7.8559
  312.5000     8.3748   113.1043     2.4800     0.1058     0.0219   -34.5010     8.9605     7.9475
  313.0000     8.3724   110.1952     2.4728     0.1091     0.0084   -34.6698     8.9647     7.9842
