~VERSION INFORMATION
 VERS.                2.0:   CWLS LOG ASCII STANDARD - VERSION 2.0
 WRAP.                 NO:   ONE LINE PER DEPTH STEP
~WELL INFORMATION
#MNEM.UNIT      DATA TYPE    INFORMATION
#----------   ------------   ------------------------------
 STRT.F            0.0000:   START DEPTH
 STOP.F         1027.0000:   STOP DEPTH
 STEP.F            0.1000:   STEP LENGTH
 NULL.          -999.2500:   NO VALUE
 COMP.       F D SERV INC:   COMPANY
 WELL.   77-1 X 27 #77-27:   WELL
 FLD .             TEAPOT:   FIELD
 LOC .      S27 T39N R78W:   LOCATION
 CNTY.            NATRONA:   COUNTY
 STAT.            WYOMING:   STATE
 CTRY. UNITED STATES OF AMERICA:   COUNTRY
 SRVC.      Western Atlas:   SERVICE COMPANY
 DATE.        04-NOV-1991:   LOGDATE
 API .       490252248600:   API NUMBER
~CURVE INFORMATION
#MNEM.UNIT       API CODE    CURVE DESCRIPTION
#----------   ------------   ------------------------------
 DEPT.F                  :   
 GRR .GAPI   07 310 01 00:   GAMMA RAY
 RILD.OHMM   07 120 46 00:   INDUCTION LOG DEEP RESISTIVITY
 RFOC.OHMM   07 220 04 00:   RESISTIVITY FOCUSED LOG
 RILM.OHMM   07 120 44 00:   INDUCTION LOG MEDIUM RESISTIVITY
 SPR .MV     07 010 01 00:   SPONTANEOUS POTENTIAL
~PARAMETER INFORMATION
#MNEM.UNIT          VALUE    DESCRIPTION
#----------   ------------   ------------------------------
 PD  .                 GL:   PERMANENT DATUM
 EPD .F              5077:   ELEVATION PERMANENT DATUM
 LMF .                 KB:   LOG MEASURED FROM
 DAPD.F                10:   FEET ABOVE PERMANENT DATUM
 DMF .                 KB:   DRILLING MEASURED FROM
 EKB .F              5087:   KELLING BUSHING
 EDF .F              5086:   DRILLING FLOOR
 EGL .F              5077:   GROUND LEVEL
 DATE.        04-NOV-1991:   RUN DATE
 RUN .                  1:   RUN NUMBER
 DD  .F              1030:   DEPTH DRILLER
 DL  .F              1030:   DEPTH LOGGER
 BLI .F              1027:   BOTTOM LOG INTERVAL
 CS  .IN            9.625:   CASING SIZE
 CBD .F                50:   CASING BOTTOM DRILLER
 CBL .F                52:   CASING BOTTOM LOGGER
 BS  .IN             8.75:   BIT SIZE
 BSD .F              1030:   BIT SIZE AT DEPTH
 DFT .          KCL WATER:   DRILLING FLUID TYPE
 MSS .           FLOWLINE:   MUD SAMPLE SOURCE
 RMS .OHMM            .24:   RESISTIVITY MUD SAMPLE
 MST .F                72:   MUD SAMPLE TEMPERATURE
 RMB .OHMM            .19:   RESISTIVITY MUD AT BHT
 BHT .F                90:   BOTTOM HOLE TEMPERATURE
 TCS .HRS               2:   TIME CURCULATED STOPPED
 MRT .F                90:   MAXIMUM RECORDED TEMPERATURE
 LUN .            HL-6274:   LOGGING UNIT NUMBER
 LUL .             CASPER:   LOGGING UNIT LOCATION
 ENGI.             RAUTIO:   RECORDING ENGINEER
 WITN.             STRONG:   WITNESSED BY
 CLNT.            A2DTECH:   CLIENT CODE
 ORIG.           5" PRINT:   ORIGIN OF DATA
 UWI .       490252248600:   UNIQUE WELL ID
 DICO. A2D Technologies, Inc.:   DIGITIZING COMPANY
~OTHER INFORMATION
~A    DEPT      GRR      RILD       RFOC       RILM        SPR   
# ...
   48.8000    66.8414  -999.2500  -999.2500  -999.2500  -999.2500
   48.9000    66.4414  -999.2500  -999.2500  -999.2500  -999.2500
   49.0000    66.0991  -999.2500  -999.2500  -999.2500  -999.2500
   49.1000    65.8595  -999.2500  -999.2500  -999.2500  -999.2500
   49.2000    65.7658  -999.2500  -999.2500  -999.2500  -999.2500
   49.3000    65.7658  -999.2500  -999.2500  -999.2500  -999.2500
   49.4000    65.7658  -999.2500  -999.2500  -999.2500  -999.2500
   49.5000    65.7658  -999.2500  -999.2500  -999.2500  -999.2500
   49.6000    65.9243  -999.2500  -999.2500  -999.2500  -999.2500
   49.7000    66.1099  -999.2500  -999.2500  -999.2500  -999.2500
   49.8000    66.2955  -999.2500  -999.2500  -999.2500  -999.2500
   49.9000    66.5207  -999.2500  -999.2500  -999.2500  -999.2500
   50.0000    66.8919  -999.2500  -999.2500  -999.2500  -999.2500
   50.1000    67.3243  -999.2500  -999.2500  -999.2500  -999.2500
   50.2000    67.7567  -999.2500  -999.2500  -999.2500  -999.2500
   50.3000    68.1890  -999.2500  -999.2500  -999.2500  -999.2500
   50.4000    68.7880  -999.2500  -999.2500  -999.2500  -999.2500
   50.5000    69.6471  -999.2500  -999.2500  -999.2500  -999.2500
   50.6000    70.0560  -999.2500  -999.2500  -999.2500  -999.2500
   50.7000    70.8857  -999.2500  -999.2500  -999.2500  -999.2500
   50.8000    71.9351  -999.2500  -999.2500  -999.2500  -999.2500
   50.9000    73.2126  -999.2500  -999.2500  -999.2500  -999.2500
   51.0000    74.6036  -999.2500  -999.2500  -999.2500  -999.2500
   51.1000    75.7212  -999.2500  -999.2500  -999.2500  -999.2500
   51.2000    77.3838  -999.2500  -999.2500  -999.2500  -999.2500
   51.3000    78.7530  -999.2500  -999.2500  -999.2500  -999.2500
   51.4000    79.9405  -999.2500  -999.2500  -999.2500  -999.2500
   51.5000    80.9842  -999.2500  -999.2500  -999.2500  -999.2500
   51.6000    81.8841  -999.2500  -999.2500  -999.2500  -999.2500
   51.7000    82.6884  -999.2500  -999.2500  -999.2500  -999.2500
   51.8000    83.5324  -999.2500  -999.2500  -999.2500  -999.2500
   51.9000    84.3291  -999.2500  -999.2500  -999.2500  -999.2500
   52.0000    85.2432     0.3626     0.2227     0.4540    40.9132
   52.1000    86.1667     0.4213     0.2991     0.5456    38.9222
   52.2000    86.5433     0.5159     0.4289     0.6031    37.1066
   52.3000    87.2039     0.6928     0.5819     0.6965    35.4844
   52.4000    87.5045     0.8911     0.6932     0.9397    33.7058
   52.5000    87.9842     0.9512     0.8176     1.0795    31.4783
   52.6000    88.5396     1.0113     0.9427     1.1609    28.9286
   52.7000    89.0401     1.2734     1.0780     1.2462    26.6467
   52.8000    89.2398     1.5250     1.2308     1.3268    24.7821
   52.9000    89.5841     1.5677     1.4417     1.4138    23.1821
   53.0000    89.6937     1.5460     1.6624     1.5165    21.9007
   53.1000    89.7854     1.5124     1.8566     1.5942    20.4990
   53.2000    89.9225     1.4846     2.0211     1.6857    18.8623
   53.3000    89.9414     1.4421     2.1726     1.7734    18.3810
   53.4000    90.3769     1.3832     2.3297     1.8559    17.7012
   53.5000    90.5308     1.3235     2.5015     1.9432    16.6270
   53.6000    90.8288     1.2818     2.7096     2.0578    15.1513
   53.7000    91.6258     1.3013     2.8654     2.1427    13.4278
   53.8000    93.0129     1.3545     2.9480     2.2341    11.5269
   53.9000    93.9893     1.4183     3.0324     2.3189    10.2018
   54.0000    95.0360     1.4818     3.0672     2.3961     8.7245
   54.1000    95.8781     1.5679     3.1164     2.4654     7.4190
   54.2000    96.5252     1.6413     3.1700     2.5661     6.3417
   54.3000    97.0285     1.7500     3.2116     2.6586     5.3690
   54.4000    97.3994     1.9065     3.2324     2.7419     4.6407
   54.5000    97.8291     2.1091     3.2725     2.8329     3.7358
   54.6000    97.9859     2.3296     3.3242     2.9527     2.8497
   54.7000    98.2868     2.4765     3.3680     3.1198     1.8270
   54.8000    98.6577     2.6534     3.4066     3.3250     0.4743
   54.9000    98.9953     2.9433     3.4507     3.5759    -0.0120
   55.0000    99.1893     3.2690     3.5100     3.9288    -0.0456
   55.1000    99.5450     3.5936     3.5813     4.3766    -0.0792
   55.2000    99.6432     3.9220     3.5981     4.8243    -0.1127
   55.3000    99.8363     4.0835     3.6438     5.2721    -0.1497
   55.4000   100.0973     4.2451     3.7065     5.7199    -1.7269
   55.5000   100.0991     4.8461     3.7703     6.0514    -3.2799
   55.6000   100.1012     7.1049     3.8385     5.9478    -4.3665
   55.7000   100.1027     7.3511     3.9092     5.8147    -5.4044
   55.8000    99.9871     7.1517     3.9837     5.7086    -6.2669
   55.9000    99.8044     6.8120     4.0583     5.6294    -6.8800
   56.0000    99.6216     6.4950     4.1328     5.5654    -7.5627
   56.1000    99.4343     6.2401     4.2074     5.4871    -7.8883
   56.2000    99.2562     5.9729     4.2819     5.2849    -8.1737
   56.3000    99.2126     5.7039     4.3565     4.8960    -8.5285
   56.4000    99.2144     5.3377     4.4310     4.6167    -8.9904
   56.5000    99.2162     4.9314     4.5056     4.4571    -9.3593
   56.6000    99.2523     4.5561     4.5652     4.3750    -9.8495
   56.7000    99.6705     4.3091     4.5337     4.3509   -10.2422
   56.8000    99.6721     4.2513     4.4585     4.3508   -10.6096
   56.9000    99.7941     4.2119     4.3643     4.3710   -10.9769
   57.0000    99.9805     4.1499     4.3055     4.4111   -11.3613
   57.1000   100.2057     4.0883     4.2732     4.4813   -11.8909
   57.2000   100.5802     4.0381     4.2299     4.5844   -12.1158
   57.3000   101.3129     3.9659     4.2299     4.6953   -12.3603
   57.4000   101.4847     3.9445     4.2299     4.8506   -12.6048
   57.5000   101.3851     3.9880     4.2299     4.9984   -12.9142
   57.6000   101.2024     4.4273     4.2299     5.1123   -13.3988
   57.7000   101.0197     5.1462     4.2299     5.1826   -13.8297
   57.8000   100.8164     5.6687     4.2299     5.2121   -14.3367
   57.9000   100.8180     5.9701     4.2299     5.2459   -14.8751
   58.0000   100.6967     6.0586     4.2491     5.2716   -15.3653
   58.1000   100.5964     6.1629     4.2734     5.3016   -15.8555
   58.2000   100.5982     6.2536     4.2978     5.3317   -16.3688
   58.3000   100.6011     6.3026     4.3223     5.3621   -16.6018
   58.4000   100.7874     6.2662     4.3489     5.3928   -16.8463
   58.5000   100.9737     6.2661     4.3949     5.4232   -16.9641
   58.6000   101.2643     6.2659     4.4632     5.4301   -16.9629
   58.7000   101.5716     6.2460     4.5274     5.4472   -16.9714
   58.8000   101.7580     6.2103     4.5862     5.4676   -17.1100
   58.9000   101.9623     6.1706     4.6638     5.4675   -17.1090
   59.0000   102.1306     6.0937     4.7263     5.4673   -17.0289
   59.1000   102.1910     6.0006     4.8168     5.4391   -16.9569
   59.2000   102.0222     5.8988     4.9278     5.4081   -16.9054
   59.3000   101.6104     5.8140     5.0298     5.3915   -16.6551
   59.4000   101.0508     5.7479     5.1112     5.3837   -16.4116
   59.5000    99.9463     5.6826     5.1723     5.3529   -15.5988
   59.6000    99.2090     5.6062     5.1723     5.3167   -14.5473
   59.7000    98.1811     5.5288     5.1723     5.2675   -13.4404
   59.8000    97.0757     5.4350     5.1571     5.2077   -12.3060
   59.9000    96.0216     5.3313     5.1365     5.1596   -10.8095
   60.0000    95.2254     5.2156     5.1365     5.1254   -10.5888
   60.1000    94.8880     5.1221     5.1365     5.0639   -10.2590
   60.2000    94.7784     5.0945     5.1114     5.0366    -9.7770
   60.3000    94.8683     5.0655     5.1010     5.0078    -9.1616
   60.4000    95.0547     5.0365     5.1010     4.9792    -8.5485
   60.5000    95.2410     5.0161     5.0950     4.9508    -7.9578
   60.6000    95.4616     5.0160     5.0658     4.9225    -7.4649
   60.7000    95.6137     5.0158     5.0658     4.8903    -6.7778
   60.8000    95.9099     4.9913     5.0658     4.8664    -6.0842
   60.9000    96.2116     4.9809     5.0658     4.8386    -5.5045
