~VERSION INFORMATION
 VERS.                2.0:   CWLS LOG ASCII STANDARD - VERSION 2.0
 WRAP.                 NO:   ONE LINE PER DEPTH STEP
~WELL INFORMATION
#MNEM.UNIT      DATA TYPE    INFORMATION
#----------   ------------   ------------------------------
 STRT.F           12.0000:   START DEPTH
 STOP.F          510.0000:   STOP DEPTH
 STEP.F            0.5000:   STEP LENGTH
 NULL.          -999.2500:   NO VALUE
 COMP. LAWRENCE-ALLISON &AS:   COMPANY
 WELL. NPR 3 #51-41SX10UP4:   WELL
 FLD .            NATRONA:   FIELD
 LOC .      S10 T38N R78W:   LOCATION
 CNTY.            NATRONA:   COUNTY
 STAT.            WYOMING:   STATE
 CTRY. UNITED STATES OF AMERICA:   COUNTRY
 SRVC.      Dresser Atlas:   SERVICE COMPANY
 DATE.        15-DEC-1984:   LOGDATE
 API .       490251100000:   API NUMBER
~CURVE INFORMATION
#MNEM.UNIT       API CODE    CURVE DESCRIPTION
#----------   ------------   ------------------------------
 DEPT.F                  :   
 RD  .OHMM   11 220 10 00:   RESISTIVITY DEEP
 RS  .OHMM   11 220 09 00:   RESISTIVITY SHALLOW
 SPR .MV     11 010 01 00:   SPONTANEOUS POTENTIAL FROM RES.
 DT  .US/F   60 520 00 00:   INTERVAL TRANSIT TIME
 CALD.IN     45 280 60 00:   CALIPER FROM DENSITY LOG
 CNC .DEC    42 890 00 00:   NEUTRON POROSITY
 CORR.G/C3   45 356 01 00:   DENSITY CORRECTION
 GRD .GAPI   45 310 01 00:   GAMMA RAY FROM DENSITY LOG
 PORD.DEC    45 890 00 00:   POROSITY DENSITY
 RHOB.G/C3   45 350 01 00:   BULK DENSITY
~PARAMETER INFORMATION
#MNEM.UNIT          VALUE    DESCRIPTION
#----------   ------------   ------------------------------
 PD  .                 GL:   PERMANENT DATUM
 EPD .F              5207:   ELEVATION PERMANENT DATUM
 LMF .                 GL:   LOG MEASURED FROM
 DMF .                 GL:   DRILLING MEASURED FROM
 EGL .F              5207:   GROUND LEVEL
 DATE.        15-DEC-1984:   RUN DATE
 RUN .                  1:   RUN NUMBER
 DD  .F               515:   DEPTH DRILLER
 DL  .F               511:   DEPTH LOGGER
 BLI .F               510:   BOTTOM LOG INTERVAL
 TLI .F                20:   TOP LOG INTERVAL
 CS  .IN            8.625:   CASING SIZE
 CBD .F                20:   CASING BOTTOM DRILLER
 CBL .F                20:   CASING BOTTOM LOGGER
 BS  .IN            7.875:   BIT SIZE
 BSD .F               515:   BIT SIZE AT DEPTH
 DFT .          KCL/WATER:   DRILLING FLUID TYPE
 MSS .           FLOWLINE:   MUD SAMPLE SOURCE
 RMS .OHMM           .129:   RESISTIVITY MUD SAMPLE
 MST .F                94:   MUD SAMPLE TEMPERATURE
 RMF .OHMM            .10:   RESISTIVITY MUD FILTRATE SAMPLE
 MFST.F                94:   MUD FILTRATE SAMPLE TEMPERATURE
 RMC .OHMM            .16:   RESISTIVITY MUD CAKE
 MCST.F                94:   MUD CAKE SAMPLE TEMPERATURE
 MFSS.               CALC:   MUD FILTRATE SAMPLE SOURCE
 MCSS.               CALC:   MUD CAKE SAMPLE SOURCE
 TCS .HRS               2:   TIME CURCULATED STOPPED
 MRT .F               100:   MAXIMUM RECORDED TEMPERATURE
 LUN .               6270:   LOGGING UNIT NUMBER
 LUL .                 FM:   LOGGING UNIT LOCATION
 ENGI.            LEBSOCK:   RECORDING ENGINEER
 WITN.          DAN LUERS:   WITNESSED BY
 CLNT.            A2DTECH:   CLIENT CODE
 ORIG.           5" PRINT:   ORIGIN OF DATA
 UWI .       490251100000:   UNIQUE WELL ID
 DICO. A2D Technologies, Inc.:   DIGITIZING COMPANY
~OTHER INFORMATION
~A   DEPT       RD         RS        SPR         DT       CALD          CNC     CORR         GRD      PORD       RHOB   
# ...
   45.5000 24876.4570    26.8135   -62.5875   109.3734     7.9087     0.2930    -0.0086   100.3393     0.1429     2.4391
   46.0000 24893.6484    26.8243   -62.7340   109.7573     7.9093     0.2822    -0.0191    97.8323     0.1434     2.4385
   46.5000 24910.8398    26.6504   -62.7322   110.8959     7.9098     0.2840     0.0052    99.7697     0.1440     2.4364
   47.0000 24928.0312    26.4777   -62.7308   111.3736     7.9104     0.2945     0.0113   104.5219     0.1452     2.4290
   47.5000 24945.2207    26.3060   -62.7290   111.5899     7.8961     0.3085     0.0084   105.7185     0.1524     2.4231
   48.0000 24962.4121    26.1355   -62.7276   111.6719     7.8967     0.3127    -0.0321   105.0390     0.1550     2.4194
   48.5000 24979.6035    26.1486   -62.7262   111.6013     7.9123     0.2977    -0.0184   102.7814     0.1547     2.4240
   49.0000 24996.7949    26.1591   -62.8730   111.5324     7.9129     0.2877     0.0058   101.0151     0.1511     2.4264
   49.5000 25013.9863    26.1696   -62.8712   111.2387     7.9134     0.2832     0.0164   100.4311     0.1496     2.4249
   50.0000 25031.1777    26.1801   -62.8698   110.6415     7.9140     0.2856     0.0000   103.4084     0.1534     2.4243
   50.5000 24534.4277    26.1910   -62.7204   110.6483     7.9146     0.2856    -0.0059   111.4198     0.1546     2.4251
   51.0000 24554.9297    26.2038   -63.3104   110.6562     7.9300     0.2789    -0.0058   112.9128     0.1498     2.4267
   51.5000 24571.3398    26.2143   -63.6048   110.9647     7.9157     0.2756    -0.0057   112.6084     0.1492     2.4276
   52.0000 24587.7656    26.2248   -63.8996   111.1977     7.8868     0.2786    -0.0115   104.0497     0.1501     2.4277
   52.5000 24604.1992    26.0522   -63.7499   111.8835     7.8575     0.2855    -0.0114    99.9130     0.1499     2.4383
   53.0000 24447.1543    26.0653   -63.3047   112.1919     7.8582     0.2833     0.0053   100.0726     0.1437     2.4474
   53.5000 24467.5820    26.2564   -62.5419   112.5004     7.8885     0.2887     0.0250   101.1211     0.1377     2.4505
   54.0000 24653.8418    26.0862   -62.1181   112.8104     7.9187     0.3181     0.0371   102.3178     0.1361     2.4528
   54.5000 24674.1660    25.9171   -62.2646   113.7981     7.9193     0.3181     0.0372   104.9959     0.1349     2.4529
   55.0000 24857.5664    25.7517   -62.4111   115.8424     7.9199     0.2965     0.0310   106.3407     0.1340     2.4507
   55.5000 24703.0332    25.7620   -62.7055   118.9433     7.8612     0.2829     0.0254   104.9798     0.1346     2.4491
   56.0000 24549.4609    25.9509   -62.7041   119.4781     7.8618     0.2784     0.0316   104.1415     0.1385     2.4464
   56.5000 24569.9707    25.7801   -62.9985   119.1828     7.8624     0.3174     0.0422   106.5262     0.1396     2.4563
   57.0000 24586.3945    25.9717   -63.3146   117.6357     7.8480     0.3201     0.0514   106.5376     0.1339     2.4691
   57.5000 24602.8281    25.8033   -63.8832   113.4617     7.8487     0.2948     0.0560   106.5491     0.1219     2.4752
   58.0000 24619.8203    25.8962   -64.1773   110.7513     7.8344     0.2807     0.0471   104.7828     0.1224     2.4746
   58.5000 24639.8418    25.8241   -64.4721   110.7578     7.8648     0.2792     0.0305   102.4239     0.1227     2.4784
   59.0000 24656.3105    25.8371   -64.4703   110.9153     7.8505     0.2948     0.0202   100.6479     0.1218     2.4845
   59.5000 24498.9355    25.8474   -64.3082   111.0728     7.8361     0.3046     0.0204   100.0765     0.1193     2.4891
   60.0000 24519.4062    25.6773   -64.4773   111.0794     7.8368     0.3010     0.0310   104.8315     0.1145     2.4922
   60.5000 24535.7949    25.8682   -65.0578   110.7840     7.8374     0.2839     0.0507   111.9541     0.1115     2.4931
   61.0000 24552.1934    25.8782   -65.2039   110.4887     7.8380     0.2839     0.0629   113.1508     0.1133     2.4939
   61.5000 24739.0957    25.8889   -65.6466   111.1006     7.8534     0.2874     0.0811   111.9771     0.1124     2.4941
   62.0000 24759.4902    26.0791   -65.7928   112.6921     7.8391     0.2907     0.0765   110.9515     0.1087     2.4971
   62.5000 24776.0391    26.2726   -66.2351   113.6798     7.8102     0.2937     0.0369   112.2963     0.1084     2.4920
   63.0000 24792.5996    26.2832   -65.9379   113.6109     7.8107     0.3093     0.0242   111.9723     0.1140     2.4838
   63.5000 24809.1699    26.2937   -65.6405   112.7872     7.8113     0.3111     0.0334   109.6554     0.1180     2.4824
   64.0000 24825.7520    26.3043   -65.6388   111.1688     7.8119     0.2897     0.0380   107.8891     0.1188     2.4795
   64.5000 24842.3457    26.1311   -65.6374   109.5567     7.8125     0.2765     0.0035   104.9376     0.1191     2.4781
   65.0000 24858.9492    26.1442   -65.6360   108.2048     7.8131     0.2837    -0.0071   103.0232     0.1203     2.4767
   65.5000 24876.1191    26.1548   -65.6345   106.9283     7.8137     0.2894     0.0038   103.1828     0.1221     2.4723
   66.0000 24720.9199    26.1657   -65.6331   105.7273     7.8143     0.2872     0.0387   104.3794     0.1251     2.4649
   66.5000 24912.9883    26.3597   -65.6317   104.2244     7.8149     0.2587     0.0432   103.7993     0.1298     2.4634
   67.0000 24929.6406    26.5530   -65.6299   103.0234     7.8155     0.2649     0.0342    98.4774     0.1298     2.4651
   67.5000 24946.3027    26.5637   -65.9243   102.0390     7.8160     0.2884     0.0223    97.3037     0.1250     2.4727
   68.0000 24962.9766    26.7584   -66.2191   101.9799     7.8166     0.2844     0.0073    97.7896     0.1147     2.4863
   68.5000 24979.6602    27.1414   -67.4011   102.6674     7.8173     0.2721     0.0225   106.2184     0.1141     2.4861
   69.0000 24653.5664    26.9655   -67.9914   104.8626     7.8179     0.2760     0.0272   106.8225     0.1141     2.4820
   69.5000 24500.3008    26.7779   -67.8417   106.0767     7.8185     0.2950     0.0273   106.2413     0.1165     2.4791
   70.0000 24690.6562    26.6170   -67.6726   106.3851     7.8190     0.3149     0.0289   105.0676     0.1213     2.4807
   70.5000 24878.3359    26.6304   -67.5426   106.5447     7.8196     0.3065     0.0471   105.0791     0.1200     2.4808
   71.0000 24894.9629    26.6410   -67.6891   107.0143     7.8202     0.2912     0.0472   106.8683     0.1188     2.4809
   71.5000 24736.0664    26.4657   -67.6877   108.2177     7.8208     0.2957     0.0413   111.0578     0.1176     2.4765
   72.0000 24756.7344    26.1132   -67.6863   109.4318     7.8215     0.2989     0.0174   110.4497     0.1203     2.4646
   72.5000 24602.8281    25.9462   -67.6849   109.2120     7.8517     0.2989    -0.0111   104.3871     0.1308     2.4557
   73.0000 24619.8203    25.9570   -67.6834   108.5393     7.8820     0.2902    -0.0063   100.3986     0.1332     2.4520
   73.5000 24639.8418    25.9677   -67.6817   107.9421     7.9122     0.2749     0.0358   100.4100     0.1355     2.4454
   74.0000 24827.1348    25.7991   -67.5323   107.7977     7.8831     0.2772     0.0284   101.0141     0.1403     2.4402
   74.5000 24843.7285    25.6319   -67.5309   107.8059     7.8837     0.2808    -0.0031   103.6922     0.1424     2.4442
   75.0000 24685.1582    25.6447   -67.5295   107.9634     7.8843     0.2742    -0.0121   107.4074     0.1414     2.4519
   75.5000 24705.7852    25.6550   -67.6760   108.1208     7.8850     0.2652    -0.0059   109.7893     0.1342     2.4623
   76.0000 24722.2969    25.6653   -67.6745   108.2784     7.8706     0.2714     0.0123   107.5785     0.1258     2.4668
   76.5000 24739.0957    25.4987   -67.9690   108.5868     7.8861     0.2807     0.0370   109.0743     0.1280     2.4606
   77.0000 24759.4902    25.5092   -67.9672   109.1971     7.8717     0.2813     0.0487   110.8636     0.1317     2.4561
   77.5000 24776.0391    25.5198   -67.9658   109.5057     7.8576     0.2831     0.0548   110.5787     0.1341     2.4525
   78.0000 24617.9004    25.5322   -67.9644   109.7402     7.8285     0.2891     0.0550   108.5161     0.1323     2.4571
   78.5000 24805.0254    25.5425   -67.9629   109.8222     7.8292     0.2866     0.0340   108.6757     0.1317     2.4579
