~VERSION INFORMATION
 VERS.                2.0:   CWLS LOG ASCII STANDARD - VERSION 2.0
 WRAP.                 NO:   ONE LINE PER DEPTH STEP
~WELL INFORMATION
#MNEM.UNIT      DATA TYPE    INFORMATION
#----------   ------------   ------------------------------
 STRT.F            0.0000:   START DEPTH
 STOP.F         3024.5000:   STOP DEPTH
 STEP.F            0.5000:   STEP LENGTH
 NULL.          -999.2500:   NO VALUE
 COMP. LAWRENCE/ALLISON INC:   COMPANY
 WELL.   NPR 3 77X #77-28:   WELL
 FLD .           N.P.R. 3:   FIELD
 LOC .      S28 T39N R78W:   LOCATION
 CNTY.            NATRONA:   COUNTY
 STAT.            WYOMING:   STATE
 CTRY. UNITED STATES OF AMERICA:   COUNTRY
 SRVC.      Dresser Atlas:   SERVICE COMPANY
 DATE.        19-OCT-1986:   LOGDATE
 API .       490251110400:   API NUMBER
~CURVE INFORMATION
#MNEM.UNIT       API CODE    CURVE DESCRIPTION
#----------   ------------   ------------------------------
 DEPT.F                  :   
 PORD.DEC    45 890 12 00:   DENSITY POROSITY SANDSTONE
 CNC .DEC    42 890 03 00:   NEUTRON POROSITY SANDSTONE
 DEN .G/C3   45 350 01 00:   COMPENSATED BULK DENSTIY
 CORR.G/C3   45 356 01 00:   DENSITY CORRECTION
 CALD.IN     45 280 60 00:   CALIPER FROM DENSITY LOG
 GRR .GAPI   07 310 01 00:   GAMMA RAY FROM RES. LOG.
 RFOC.OHMM   07 220 04 00:   RESISTIVITY FOCUSED LOG
 RILD.OHMM   07 120 46 00:   INDUCTION LOG DEEP RESISTIVITY
 RILM.OHMM   07 120 44 00:   INDUCTION LOG MEDIUM RESISTIVITY
 SPR .MV     07 010 01 00:   SPONTANEOUS POTENTIAL
~PARAMETER INFORMATION
#MNEM.UNIT          VALUE    DESCRIPTION
#----------   ------------   ------------------------------
 PD  .                 GL:   PERMANENT DATUM
 EPD .F              5074:   ELEVATION PERMANENT DATUM
 LMF .                 KB:   LOG MEASURED FROM
 DAPD.F                12:   FEET ABOVE PERMANENT DATUM
 DMF .                 KB:   DRILLING MEASURED FROM
 EKB .F              5086:   KELLING BUSHING
 EGL .F              5074:   GROUND LEVEL
 DATE.           10-19-86:   RUN DATE
 RUN .                  1:   RUN NUMBER
 DD  .F              3021:   DEPTH DRILLER
 DL  .F              3025:   DEPTH LOGGER
 BLI .F              3023:   BOTTOM LOG INTERVAL
 CS  .IN            8.625:   CASING SIZE
 CBD .F               620:   CASING BOTTOM DRILLER
 CBL .F               615:   CASING BOTTOM LOGGER
 BS  .IN            7.875:   BIT SIZE
 BSD .F              3021:   BIT SIZE AT DEPTH
 DFT .        KCL POLYMER:   DRILLING FLUID TYPE
 DFD .                8.9:   DRILLING FLUID DENSITY
 DFV .                 38:   DRILLING FLUID VISCOSITY
 DFPH.                9.5:   DRILLING FLUID PH
 DFL .               11.2:   DRILLING FLUID LOSS
 MSS .           FLOWLINE:   MUD SAMPLE SOURCE
 RMS .OHMM            .25:   RESISTIVITY MUD SAMPLE
 MST .F                65:   MUD SAMPLE TEMPERATURE
 RMF .OHMM           .203:   RESISTIVITY MUD FILTRATE SAMPLE
 MFST.F                65:   MUD FILTRATE SAMPLE TEMPERATURE
 RMC .OHMM            .31:   RESISTIVITY MUD CAKE
 MCST.F                65:   MUD CAKE SAMPLE TEMPERATURE
 MFSS.               MEAS:   MUD FILTRATE SAMPLE SOURCE
 MCSS.               CALC:   MUD CAKE SAMPLE SOURCE
 RMB .OHMM           .136:   RESISTIVITY MUD AT BHT
 BHT .F               119:   BOTTOM HOLE TEMPERATURE
 TCS .HRS               5:   TIME CURCULATED STOPPED
 MRT .F               119:   MAXIMUM RECORDED TEMPERATURE
 LUN .               6274:   LOGGING UNIT NUMBER
 LUL .               GLTE:   LOGGING UNIT LOCATION
 ENGI.             RAUTIO:   RECORDING ENGINEER
 WITN.             STRONG:   WITNESSED BY
 CLNT.            A2DTECH:   CLIENT CODE
 ORIG.       2", 5" PRINT:   ORIGIN OF DATA
 UWI .       490251110400:   UNIQUE WELL ID
 DICO. A2D Technologies, Inc.:   DIGITIZING COMPANY
~OTHER INFORMATION
~A    DEPT    PORD        CNC        DEN       CORR       CALD        GRR       RFOC       RILD       RILM        SPR   
# ...
 2814.0000     0.0780     0.2194     2.5216     0.0174     9.7886   116.8599     6.1728     5.5156     5.9453   -75.1007
 2814.5000     0.0780     0.2264     2.5215     0.0070     9.7886   118.6752     5.9971     5.5156     5.8116   -75.1562
 2815.0000     0.0780     0.2321     2.5215    -0.0034     9.7886   119.4996     5.8265     5.5393     5.6812   -75.2103
 2815.5000     0.0773     0.2313     2.5216    -0.0094     9.7886   119.8855     5.7752     5.6289     5.6285   -75.2494
 2816.0000     0.0756     0.2262     2.5231     0.0029     9.7886   119.8697     6.0259     5.7199     5.7826   -75.2474
 2816.5000     0.0739     0.2200     2.5257     0.0165     9.7886   119.0921     6.3077     5.8125     5.8953   -75.2007
 2817.0000     0.0722     0.2138     2.5288     0.0111     9.7886   117.1239     6.6015     5.9067     6.0102   -75.1508
 2817.5000     0.0705     0.2076     2.5319     0.0006     9.7886   115.1637     6.8825     5.9369     6.0482   -75.1005
 2818.0000     0.0688     0.2049     2.5350    -0.0035     9.7886   113.1434     6.8815     5.9384     6.0488   -75.0527
 2818.5000     0.0672     0.2090     2.5380     0.0137     9.7886   112.8720     6.8817     5.6940     5.8379   -75.1168
 2819.0000     0.0676     0.2132     2.5387     0.0203     9.7886   115.1478     6.2404     5.4497     5.5758   -75.1884
 2819.5000     0.0684     0.2161     2.5364     0.0133     9.7886   117.6192     5.8165     5.2163     5.3254   -75.2594
 2820.0000     0.0692     0.2161     2.5355     0.0177     9.7886   120.1473     5.4215     4.9930     5.0863   -75.3303
 2820.5000     0.0715     0.2173     2.5346     0.0299     9.7857   120.6768     5.0533     4.7793     4.8412   -75.4012
 2821.0000     0.0740     0.2140     2.5302     0.0145     9.7774   120.6733     4.8489     4.5747     4.5953   -75.4723
 2821.5000     0.0764     0.2105     2.5260     0.0008     9.7693   120.6643     4.9038     3.9833     4.2214   -75.5435
 2822.0000     0.0789     0.2097     2.5215    -0.0018     9.7611   121.7391     5.0351     3.2947     3.5426   -75.6129
 2822.5000     0.0852     0.2279     2.5158    -0.0100     9.7529   128.2253     5.0388     2.7250     2.9729   -75.5456
 2823.0000     0.0920     0.2598     2.5055    -0.0085     9.7447   142.2897     4.3485     2.2914     2.5983   -75.2534
 2823.5000     0.1191     0.2986     2.4808     0.0018     9.7365   167.2818     3.3828     2.0597     2.3361   -74.9634
 2824.0000     0.1523     0.3129     2.4267     0.0123     9.7284   193.1821     2.6351     1.8464     2.1003   -74.6730
 2824.5000     0.1857     0.3301     2.3743     0.0303     9.7202   224.7780     2.0527     1.7786     1.8796   -74.3828
 2825.0000     0.2093     0.2950     2.3222     0.0509     9.7120   217.0169     1.8453     1.8538     1.8623   -74.0926
 2825.5000     0.1905     0.2627     2.3004     0.0769     9.7038   203.6429     2.5596     1.9926     2.2593   -73.8014
 2826.0000     0.1539     0.2342     2.3738     0.0485     9.6956   178.7603     3.5180     2.1408     2.7084   -73.5104
 2826.5000     0.1173     0.2058     2.4328     0.0027     9.6875   139.2374     4.8390     2.3163     3.2220   -73.2718
 2827.0000     0.0861     0.1883     2.4874    -0.0182     9.6793   118.4568     6.6437     2.6014     3.8331   -73.4274
 2827.5000     0.0640     0.1773     2.5355     0.0007     9.6711   106.2357     7.6941     3.1304     4.5600   -73.5770
 2828.0000     0.0556     0.1846     2.5505     0.0212     9.6629   101.5471     7.1436     4.1353     5.1999   -73.7256
 2828.5000     0.0560     0.1904     2.5586     0.0144     9.6547   102.5192     6.6568     5.4629     5.8006   -73.8742
 2829.0000     0.0598     0.1941     2.5540     0.0054     9.6466   103.8852     6.2370     5.8825     6.2219   -74.0227
 2829.5000     0.0637     0.1941     2.5475     0.0048     9.6384   105.2546     6.0125     5.6982     6.1594   -74.1713
 2830.0000     0.0686     0.1963     2.5390     0.0138     9.6302   106.6170     5.7960     5.4698     5.9839   -74.3198
 2830.5000     0.0745     0.2011     2.5291     0.0202     9.6270   107.9785     5.5874     5.2506     5.7771   -74.4683
 2831.0000     0.0804     0.2060     2.5192     0.0527     9.6157   109.5061     5.4150     5.0307     5.5775   -74.6169
 2831.5000     0.0862     0.2109     2.5093     0.0953     9.6048   111.8624     5.4150     5.0307     5.3848   -74.7656
 2832.0000     0.0921     0.2133     2.4994     0.0763     9.5939   114.2387     5.3418     4.7219     5.1987   -74.9146
 2832.5000     0.0980     0.2084     2.4895     0.0396     9.5830   116.6117     5.1731     4.3653     4.8351   -75.0488
 2833.0000     0.1012     0.2061     2.4823     0.0025     9.5722   119.4338     5.0098     4.0357     4.4675   -75.0504
 2833.5000     0.0993     0.2144     2.4851    -0.0103     9.5613   124.8070     4.8489     3.6823     4.0773   -75.0498
 2834.0000     0.0960     0.2274     2.4887     0.0033     9.5505   130.2617     4.6449     3.1567     3.5093   -75.0497
 2834.5000     0.0997     0.2410     2.4907     0.0178     9.5396   135.6357     4.4461     2.7062     3.0204   -75.0502
 2835.0000     0.1048     0.2569     2.4828     0.0195     9.5286   143.3896     4.0068     2.3730     2.5699   -75.0504
 2835.5000     0.1252     0.2728     2.4628     0.0091     9.5268   156.4774     3.5549     2.1901     2.4042   -75.0177
 2836.0000     0.1452     0.2887     2.4262     0.0126     9.5269   178.0740     3.0329     2.0231     2.2368   -74.7993
 2836.5000     0.1654     0.2934     2.3900     0.0305     9.5267   201.4415     2.5876     1.9850     2.0810   -74.5819
 2837.0000     0.1749     0.2737     2.3616     0.0485     9.5124   210.4154     2.2030     1.9864     2.0418   -74.3657
 2837.5000     0.1532     0.2587     2.3619     0.0487     9.4966   201.7470     1.9869     1.9855     2.3882   -74.1477
 2838.0000     0.1305     0.2437     2.4166     0.0338     9.4809   180.9982     2.8614     2.1563     2.6944   -74.1199
 2838.5000     0.1079     0.2287     2.4580     0.0184     9.4666   150.3435     3.8840     2.3749     2.9183   -74.2270
 2839.0000     0.0903     0.2153     2.4964     0.0133     9.4664   129.0365     5.2594     2.6148     3.7823   -74.3375
 2839.5000     0.0895     0.2162     2.5056     0.0045     9.4664   118.4194     6.1030     3.0239     4.2238   -74.4487
 2840.0000     0.0933     0.2178     2.5009    -0.0052     9.4665   118.2466     6.0575     3.6658     4.4990   -74.4542
 2840.5000     0.0956     0.2195     2.4957    -0.0152     9.4664   120.3113     5.9369     4.4439     4.8126   -74.4534
 2841.0000     0.0950     0.2204     2.4925    -0.0208     9.4647   122.4083     5.8768     4.8642     5.1480   -74.4533
 2841.5000     0.0944     0.2290     2.4925    -0.0119     9.4562   124.4912     5.8680     5.3206     5.5156   -74.4533
 2842.0000     0.0951     0.2390     2.4925    -0.0143     9.4480   126.5671     5.8592     5.3148     5.5665   -74.4533
 2842.5000     0.0973     0.2454     2.4913    -0.0207     9.4397   128.6688     5.8504     5.3159     5.5665   -74.4533
 2843.0000     0.0996     0.2394     2.4889    -0.0203     9.4315   128.9716     5.8416     5.3071     5.5665   -74.4533
 2843.5000     0.0997     0.2316     2.4866    -0.0150     9.4233   128.3015     5.8328     5.2917     5.5539   -74.4533
 2844.0000     0.0981     0.2273     2.4864    -0.0097     9.4150   127.8459     5.8286     5.2762     5.5347   -74.4533
 2844.5000     0.0964     0.2273     2.4881    -0.0148     9.4065   128.9399     5.9278     5.2680     5.5166   -74.4533
 2845.0000     0.0964     0.2263     2.4895    -0.0211     9.4084   130.1156     6.0034     5.5162     5.5983   -74.4533
 2845.5000     0.0964     0.2244     2.4896    -0.0193     9.4111   131.2807     6.1007     5.4787     5.6841   -74.4533
 2846.0000     0.0931     0.2225     2.4941    -0.0074     9.4138   131.3811     6.0854     5.4002     5.7765   -74.4533
 2846.5000     0.0890     0.2242     2.4989    -0.0034     9.4165   133.0971     6.0599     5.3228     5.7315   -74.4533
 2847.0000     0.0884     0.2282     2.5015    -0.0113     9.4192   135.3299     6.0345     5.2465     5.6533   -74.4533
