~VERSION INFORMATION
 VERS.                2.0:   CWLS LOG ASCII STANDARD - VERSION 2.0
 WRAP.                 NO:   ONE LINE PER DEPTH STEP
~WELL INFORMATION
#MNEM.UNIT      DATA TYPE    INFORMATION
#----------   ------------   ------------------------------
 STRT.F            0.0000:   START DEPTH
 STOP.F          883.0000:   STOP DEPTH
 STEP.F            0.5000:   STEP LENGTH
 NULL.          -999.2500:   NO VALUE
 COMP.       F D SERV INC:   COMPANY
 WELL. N P R 3 SX-35 #26-1-35:   WELL
 FLD .             TEAPOT:   FIELD
 LOC .      S35 T39N R78W:   LOCATION
 CNTY.            NATRONA:   COUNTY
 STAT.            WYOMING:   STATE
 CTRY. UNITED STATES OF AMERICA:   COUNTRY
 SRVC.     Atlas Wireline:   SERVICE COMPANY
 DATE.        21-NOV-1991:   LOGDATE
 API .       490252247800:   API NUMBER
~CURVE INFORMATION
#MNEM.UNIT       API CODE    CURVE DESCRIPTION
#----------   ------------   ------------------------------
 DEPT.F                  :   
 GRR .GAPI   07 310 01 00:   GAMMA RAY
 RILD.OHMM   07 120 46 00:   INDUCTION LOG DEEP RESISTIVITY
 RILM.OHMM   07 120 44 00:   INDUCTION LOG MEDIUM RESISTIVITY
 SPR .MV     07 010 01 00:   SPONTANEOUS POTENTIAL
 RFOC.OHMM   07 270 04 00:   RESISTIVITY FOCUSED LOG
~PARAMETER INFORMATION
#MNEM.UNIT          VALUE    DESCRIPTION
#----------   ------------   ------------------------------
 PD  .                 GL:   PERMANENT DATUM
 EPD .F              5098:   ELEVATION PERMANENT DATUM
 LMF .                 KB:   LOG MEASURED FROM
 DAPD.F                10:   FEET ABOVE PERMANENT DATUM
 DMF .                 KB:   DRILLING MEASURED FROM
 EKB .F              5108:   KELLING BUSHING
 EGL .F              5098:   GROUND LEVEL
 DATE.        21-NOV-1991:   RUN DATE
 RUN .                  1:   RUN NUMBER
 DD  .F               939:   DEPTH DRILLER
 DL  .F               887:   DEPTH LOGGER
 BLI .F               884:   BOTTOM LOG INTERVAL
 CS  .IN            9.625:   CASING SIZE
 CBD .F                40:   CASING BOTTOM DRILLER
 CBL .F                47:   CASING BOTTOM LOGGER
 BS  .IN             8.75:   BIT SIZE
 BSD .F               939:   BIT SIZE AT DEPTH
 DFT .               LSND:   DRILLING FLUID TYPE
 MSS .            MUDTANK:   MUD SAMPLE SOURCE
 RMS .OHMM           0.32:   RESISTIVITY MUD SAMPLE
 MST .F                90:   MUD SAMPLE TEMPERATURE
 RMB .OHMM           0.27:   RESISTIVITY MUD AT BHT
 BHT .F               103:   BOTTOM HOLE TEMPERATURE
 TCS .HRS               2:   TIME CURCULATED STOPPED
 MRT .F               103:   MAXIMUM RECORDED TEMPERATURE
 LUN .            HL 6307:   LOGGING UNIT NUMBER
 LUL .             CASPER:   LOGGING UNIT LOCATION
 ENGI.            WADDELL:   RECORDING ENGINEER
 WITN.             STRONG:   WITNESSED BY
 CLNT.            A2DTECH:   CLIENT CODE
 ORIG.           5" PRINT:   ORIGIN OF DATA
 UWI .       490252247800:   UNIQUE WELL ID
 DICO. A2D Technologies, Inc.:   DIGITIZING COMPANY
~OTHER INFORMATION
~A    DEPT      GRR      RILD       RILM        SPR       RFOC   
# ...
  549.0000   121.7881     5.4010     6.2122   -46.2695     6.7692
  549.5000   122.4643     5.4385     6.1677   -45.9734     6.5846
  550.0000   123.8234     5.4762     6.0386   -45.8275     6.5379
  550.5000   125.1842     5.5168     6.0430   -45.3782     6.6755
  551.0000   123.1273     5.5914     6.2069   -44.9288     7.1577
  551.5000   119.4468     5.6302     6.3108   -44.3223     7.5158
  552.0000   118.0668     5.6693     6.4698   -44.1578     7.3073
  552.5000   119.2363     5.7152     6.5598   -44.0360     7.0555
  553.0000   121.2783     5.7482     6.6507   -44.0434     6.9081
  553.5000   120.3612     5.7880     6.7425   -44.2010     6.9070
  554.0000   117.8508     5.8282     6.7884   -44.5104     7.0033
  554.5000   116.2508     5.8685     6.8346   -44.8198     7.1009
  555.0000   117.6099     5.9139     6.8328   -45.1291     7.1497
  555.5000   120.6168     5.9504     6.7839   -45.2904     7.2192
  556.0000   126.0169     5.9499     6.7353   -45.5964     7.3231
  556.5000   129.8797     5.9913     6.6871   -45.9070     7.3494
  557.0000   131.4681     5.9491     6.6392   -46.0646     7.3997
  557.5000   130.3217     5.9903     6.6379   -46.5257     7.3987
  558.0000   125.9904     5.9899     6.6831   -46.6834     7.4498
  558.5000   120.2933     5.9848     6.7285   -46.9928     7.4331
  559.0000   117.1001     5.9250     6.7268   -46.8969     7.3734
  559.5000   115.9385     5.8819     6.7726   -46.7313     7.2920
  560.0000   116.8576     5.8803     6.8187   -46.5851     7.2911
  560.5000   119.5823     5.8378     6.8173   -46.4426     7.1889
  561.0000   121.6243     5.8362     6.8159   -46.1446     7.0879
  561.5000   123.4386     5.8756     6.8145   -45.6986     7.0870
  562.0000   118.6520     5.9151     6.8183   -45.5524     7.0730
  562.5000   116.8245     5.9549     6.8219   -45.4097     7.0218
  563.0000   118.7459     5.9753     6.8207   -45.2655     6.9858
  563.5000   121.6939     5.9933     6.8173   -45.4249     6.9362
  564.0000   122.8209     6.0450     6.8630   -45.7373     6.8869
  564.5000   121.8994     6.0810     6.8595   -45.8964     6.9343
  565.0000   121.6635     6.1153     6.9054   -46.2073     7.0015
  565.5000   123.2431     6.1379     6.9680   -46.6699     7.0977
  566.0000   124.8253     6.1975     7.0660   -47.1325     7.2461
  566.5000   123.4166     6.2392     7.1414   -47.2916     7.3976
  567.0000   117.5167     6.3288     7.2896   -47.6025     7.4996
  567.5000   117.0532     6.5478     7.4401   -47.9135     7.6031
  568.0000   123.1851     6.6846     7.5417   -48.2261     7.7621
  568.5000   124.7701     6.7772     7.5922   -48.3852     7.8692
  569.0000   122.0249     6.8228     7.6415   -48.3925     7.9222
  569.5000   119.2852     6.7259     7.6384   -48.3999     7.9195
  570.0000   120.4095     6.7717     7.7427   -48.2555     8.0857
  570.5000   120.1448     6.8646     7.8484   -48.1093     8.2230
  571.0000   115.3771     7.0611     8.0135   -47.8151     8.4268
  571.5000   110.3585     7.3652     8.2532   -47.5189     8.6633
  572.0000   108.5265     7.7230     8.5828   -47.5266     8.9064
  572.5000   106.4669     8.0513     8.7609   -47.5355     9.2853
  573.0000   102.3587     8.2771     8.9428   -47.5429    10.0389
  573.5000    96.6573     8.5688     9.1284   -47.5503    11.3096
  574.0000    93.0043     8.6876     9.2539   -47.5576    12.2690
  574.5000    94.6062     8.8068     9.3141   -47.7168    12.4391
  575.0000    96.4719     8.7431     9.3102   -48.0276    11.3550
  575.5000   100.2522     8.6726     9.0424   -48.3385    10.1511
  576.0000   104.1107     8.3210     8.7351   -48.6596     9.5965
  576.5000   107.9691     8.0333     8.3733   -49.1138     9.3295
  577.0000   110.4619     7.9752     8.1394   -49.2729     9.1334
  577.5000   110.9088     7.7534     7.9119   -49.4320     9.1309
  578.0000   109.0741     7.7513     7.7448   -49.4394     9.1279
  578.5000   110.6632     7.6953     7.6878   -49.1433     9.1254
  579.0000   111.7834     7.6397     7.7385   -48.9989     8.9963
  579.5000   110.1763     7.5844     7.6814   -48.8543     8.9144
  580.0000   108.1167     7.5533     7.6776   -48.7102     8.7846
  580.5000   111.9752     7.5271     7.5680   -48.5483     8.6803
  581.0000   112.1945     7.4727     7.4081   -48.2715     8.4979
  581.5000   111.2702     7.4707     7.2011   -48.1253     8.4956
  582.0000   111.7144     7.4167     6.9999   -47.6774     8.7341
  582.5000   112.6139     7.4147     6.8044   -47.3813     8.7311
  583.0000   111.1412     7.4646     6.6606   -46.9353     8.4881
  583.5000   108.4919     7.4626     6.5637   -46.4874     8.4273
  584.0000   105.2942     7.5127     6.4646   -46.4948     8.7240
  584.5000   103.9202     7.4584     6.3345   -46.9651     8.8450
  585.0000   105.9550     7.4563     6.4659   -47.4456     8.7192
  585.5000   107.0848     7.4021     6.6930   -47.8845     8.4766
  586.0000   106.3881     7.3486     6.7850   -48.1953     8.2407
  586.5000   104.5545     7.2860     6.6875   -48.6579     8.1236
  587.0000   104.3175     7.1924     6.6383   -48.9688     8.0648
  587.5000   106.1246     7.0907     6.4980   -49.4314     8.0626
  588.0000   107.2544     6.9846     6.2184   -49.5905     8.0043
  588.5000   106.7854     6.8912     6.0966   -49.7497     8.0588
  589.0000   105.8639     6.8414     6.0524   -49.7420     7.9999
  589.5000   105.3967     6.7919     6.2642   -49.6127     7.9978
  590.0000   107.2066     6.7901     6.3062   -49.4701     7.9956
  590.5000   110.1546     6.7882     6.1723   -49.2735     7.9868
  591.0000   112.1921     6.7864     5.9999   -49.0278     7.8738
  591.5000   113.7747     6.7846     5.8731   -48.7335     7.8226
  592.0000   111.6904     6.7355     5.8266   -48.4374     7.6584
  592.5000   108.3801     6.7336     5.8677   -48.4448     7.4975
  593.0000   103.9510     6.7314     5.9070   -48.4522     7.4438
  593.5000   102.8046     6.6828     5.9877   -48.3078     7.4940
  594.0000   108.7088     6.5883     5.8606   -48.4687     7.5968
  594.5000   110.9740     6.4952     5.7367   -48.4761     7.7557
  595.0000   108.9144     6.4033     5.6945   -48.6352     7.7355
  595.5000   107.7653     6.3571     5.6526   -48.9461     7.4848
  596.0000   112.3125     6.3535     5.6109   -49.4087     7.2765
  596.5000   110.7425     6.3536     5.6480   -49.7195     7.1236
  597.0000   106.1360     6.3960     5.7245   -50.3339     7.1217
  597.5000   107.2631     6.4390     5.8027   -50.6449     7.2199
  598.0000   110.4387     6.4828     5.9231   -50.6540     7.3709
  598.5000   110.8857     6.5265     6.0046   -50.5078     7.5250
  599.0000   109.0509     6.5700     6.0015   -50.5159     7.6877
  599.5000   106.9913     6.6143     5.9159   -50.3726     7.7884
  600.0000   105.6146     6.5664     5.7909   -50.2282     7.7315
  600.5000   103.7261     6.4231     5.6590   -50.2356     7.6221
  601.0000   101.9478     6.2059     5.3578   -49.9393     7.3584
  601.5000   102.6197     5.9913     5.1719   -49.6434     7.1536
  602.0000   105.5676     5.8247     4.9576   -49.4790     6.9061
  602.5000   107.6052     5.7024     4.8191   -49.3361     6.5746
  603.0000   108.9598     5.5827     4.8172   -49.2103     6.3015
  603.5000   109.4356     5.4655     4.8152   -49.0659     6.0361
  604.0000   108.9377     5.3882     4.8470   -49.0751     5.8739
  604.5000   107.9908     5.4245     4.9131   -49.2342     6.0812
  605.0000   107.7776     5.4610     4.9456   -49.5451     6.5195
  605.5000   105.7152     5.4978     4.9777   -49.8559     6.7495
  606.0000   105.0213     5.5736     4.9757   -50.4805     6.7955
  606.5000   105.9208     5.6112     5.0090   -51.0865     6.8409
  607.0000   107.5030     5.6489     5.0769   -51.7008     6.7913
  607.5000   108.4029     5.6470     5.1392   -52.0117     6.7894
  608.0000   108.3854     5.6455     5.2165   -52.1708     6.7399
  608.5000   108.6297     5.6440     5.2143   -52.1782     6.7381
  609.0000   112.7800     5.6820     5.1701   -52.0320     6.6896
  609.5000   115.6391     5.7202     5.0660   -52.0412     6.6877
