~VERSION INFORMATION
 VERS.                2.0:   CWLS LOG ASCII STANDARD - VERSION 2.0
 WRAP.                 NO:   ONE LINE PER DEPTH STEP
~WELL INFORMATION
#MNEM.UNIT      DATA TYPE    INFORMATION
#----------   ------------   ------------------------------
 STRT.F           20.0000:   START DEPTH
 STOP.F          478.0000:   STOP DEPTH
 STEP.F            0.5000:   STEP LENGTH
 NULL.          -999.2500:   NO VALUE
 COMP. FENIX & SCISSON INC:   COMPANY
 WELL.   56 31 SX #56-3FP:   WELL
 FLD .             TEAPOT:   FIELD
 LOC .       S3 T38N R78W:   LOCATION
 CNTY.            NATRONA:   COUNTY
 STAT.            WYOMING:   STATE
 CTRY. UNITED STATES OF AMERICA:   COUNTRY
 SRVC.              Welex:   SERVICE COMPANY
 DATE.        06-JUN-1980:   LOGDATE
 API .       490251082300:   API NUMBER
~CURVE INFORMATION
#MNEM.UNIT       API CODE    CURVE DESCRIPTION
#----------   ------------   ------------------------------
 DEPT.F                  :   
 RHOB.G/C3   45 350 01 00:   BULK DENSITY
 CORR.G/C3   45 356 01 00:   DENSITY CORRECTION
 GRD .GAPI   45 310 01 00:   GAMMA RAY FROM DENSITY LOG
 CALD.IN     45 280 60 00:   CALIPER
 DPHI.DEC    45 890 12 00:   DENSITY POROSITY SANDSTONE
 NPHI.DEC    42 890 03 00:   NEUTRON POROSITY SANDSTONE
 SPR .MV     07 010 01 00:   SPONTANEOUS POTENTIAL
 ILD .OHMM   07 120 46 00:   INDUCTION LOG DEEP
 ILM .OHMM   07 120 44 00:   INDUCTION LOG MEDIUM
 SGRD.OHMM   07 220 05 00:   SHALLOW GUARD RESISTIVITY
~PARAMETER INFORMATION
#MNEM.UNIT          VALUE    DESCRIPTION
#----------   ------------   ------------------------------
 PD  .                 GL:   PERMANENT DATUM
 EPD .F              5173:   ELEVATION PERMANENT DATUM
 LMF .                 KB:   LOG MEASURED FROM
 DAPD.F                 5:   FEET ABOVE PERMANENT DATUM
 DMF .                 KB:   DRILLING MEASURED FROM
 EKB .F              5178:   KELLING BUSHING
 EGL .F              5173:   GROUND LEVEL
 DATE.             6-6-80:   RUN DATE
 RUN .                  1:   RUN NUMBER
 DD  .F               450:   DEPTH DRILLER
 DL  .F               476:   DEPTH LOGGER
 BLI .F               474:   BOTTOM LOG INTERVAL
 TLI .F                30:   TOP LOG INTERVAL
 BS  .IN            9.875:   BIT SIZE
 BSD .F               450:   BIT SIZE AT DEPTH
 DFT .            KCL MUD:   DRILLING FLUID TYPE
 DFD .                9.5:   DRILLING FLUID DENSITY
 DFV .                 48:   DRILLING FLUID VISCOSITY
 DFPH.                7.5:   DRILLING FLUID PH
 DFL .                  7:   DRILLING FLUID LOSS
 MSS .           FLOWLINE:   MUD SAMPLE SOURCE
 RMS .OHMM           1.56:   RESISTIVITY MUD SAMPLE
 MST .F                62:   MUD SAMPLE TEMPERATURE
 RMF .OHMM           1.24:   RESISTIVITY MUD FILTRATE SAMPLE
 MFST.F                62:   MUD FILTRATE SAMPLE TEMPERATURE
 RMC .OHMM           1.87:   RESISTIVITY MUD CAKE
 MCST.F                62:   MUD CAKE SAMPLE TEMPERATURE
 MFSS.           MEASURED:   MUD FILTRATE SAMPLE SOURCE
 MCSS.           MEASURED:   MUD CAKE SAMPLE SOURCE
 RMB .OHMM           1.32:   RESISTIVITY MUD AT BHT
 BHT .F                73:   BOTTOM HOLE TEMPERATURE
 TCS .HRS               6:   TIME CURCULATED STOPPED
 MRT .F                73:   MAXIMUM RECORDED TEMPERATURE
 LUN .               1892:   LOGGING UNIT NUMBER
 LUL .             CASPER:   LOGGING UNIT LOCATION
 ENGI.               REIN:   RECORDING ENGINEER
 WITN.              AMEND:   WITNESSED BY
 CLNT.            A2DTECH:   CLIENT CODE
 ORIG.        2" 5" PRINT:   ORIGIN OF DATA
 UWI .       490251082300:   UNIQUE WELL ID
 DICO. A2D Technologies, Inc.:   DIGITIZING COMPANY
~OTHER INFORMATION
~A   DEPT     RHOB       CORR        GRD       CALD       DPHI       NPHI        SPR          ILD        ILM     SGRD   
# ...
  288.0000     2.3515     0.0798    69.6534     9.7338     0.2060     0.2571   -17.6833     9.0307    10.2690    15.8355
  288.5000     2.3377     0.0705    69.7522     9.7354     0.2129     0.2603   -17.3999     8.9331    10.1110    15.5328
  289.0000     2.3358     0.0703    69.8532     9.7371     0.2122     0.2612   -17.0486     8.8378     9.9555    16.1602
  289.5000     2.3355     0.0705    69.9880     9.7387     0.2115     0.2635   -16.6992     8.7434     9.8023    16.4135
  290.0000     2.3296     0.0632    70.1655     9.7403     0.2109     0.2569   -16.4865     8.6501     9.7198    15.4171
  290.5000     2.3351     0.0550    70.3410     9.7419     0.2187     0.2515   -16.7491     8.5577    10.4643    14.7621
  291.0000     2.3273     0.0467    70.5171     9.7436     0.2215     0.2498   -16.9989     8.3403    11.0089    14.4316
  291.5000     2.3242     0.0385    70.6931     9.7452     0.2196     0.2482   -17.2480     8.1108    11.5838    14.4316
  292.0000     2.3166     0.0349    70.8691     9.7468     0.2224     0.2496   -17.4970     7.8875    12.2326    14.4090
  292.5000     2.3228     0.0470    71.0454     9.7484     0.2160     0.2528   -17.7463     7.6536    11.3523    14.1989
  293.0000     2.3319     0.0586    71.2206     9.7500     0.2109     0.2559   -17.9956     7.6536    10.5640    13.9918
  293.5000     2.3377     0.0641    71.3954     9.7517     0.2061     0.2570   -18.2409     7.6536    11.0514    13.7878
  294.0000     2.3457     0.0668    71.3846     9.7533     0.2017     0.2576   -18.3577     7.6536    10.5611    13.6572
  294.5000     2.3545     0.0649    71.1875     9.7549     0.2093     0.2577   -18.2160     7.6536    10.6886    13.7332
  295.0000     2.3465     0.0580    70.9899     9.7565     0.2028     0.2578   -18.3207     7.6536    10.9251    13.7896
  295.5000     2.3418     0.0569    70.7927     9.7582     0.1953     0.2578   -18.4389     7.6536    11.1669    13.8463
  296.0000     2.3455     0.0680    70.5983     9.7598     0.1913     0.2579   -18.5565     7.6536    11.3637    13.9033
  296.5000     2.3713     0.0786    70.7319     9.7614     0.1933     0.2620   -18.6738     7.6171    11.2712    13.9609
  297.0000     2.3735     0.0870    71.2021     9.7630     0.1873     0.2647   -18.7915     7.5142    11.1947    14.0383
  297.5000     2.3758     0.0894    71.6706     9.7647     0.1815     0.2628   -18.9078     7.5394    11.1188    13.9577
  298.0000     2.3794     0.0916    72.1415     9.7663     0.1738     0.2588   -18.9728     7.5795    11.0434    13.8275
  298.5000     2.3951     0.1036    72.6119     9.7679     0.1682     0.2548   -18.8505     7.6199    10.9684    13.7833
  299.0000     2.4060     0.1077    73.0828     9.7695     0.1732     0.2508   -18.7333     7.6604    10.8940    13.7833
  299.5000     2.3971     0.1027    73.5513     9.7711     0.1770     0.2507   -18.6164     7.7012    10.8201    13.5334
  300.0000     2.3910     0.0977    74.0237     9.7720     0.1742     0.2482   -18.4995     7.7422    10.7540    13.2880
  300.5000     2.3980     0.0925    74.0661     9.7707     0.1833     0.2436   -18.3831     7.7834    10.9374    13.1681
  301.0000     2.3943     0.0872    73.6974     9.7695     0.1933     0.2482   -18.2658     7.8223    11.0547    15.2600
  301.5000     2.3797     0.0817    73.3254     9.7682     0.2026     0.2500   -18.2097     7.8604    10.6940    14.7872
  302.0000     2.3499     0.0762    72.9515     9.7670     0.2000     0.2460   -18.2086     7.8991    10.4261    13.9176
  302.5000     2.3605     0.0707    72.5638     9.7658     0.2037     0.2436   -18.2086     7.9400    10.1648    13.0437
  303.0000     2.3523     0.0652    72.5018     9.7646     0.2097     0.2459   -18.2084     7.8961     9.9916    12.9244
  303.5000     2.3409     0.0583    72.5352     9.7633     0.2104     0.2480   -18.2645     7.8479    10.2563    12.9852
  304.0000     2.3435     0.0544    72.5717     9.7621     0.2139     0.2501   -18.3702     7.8001    10.5581    13.0437
  304.5000     2.3311     0.0539    72.6079     9.7609     0.2191     0.2508   -18.4760     7.7528    10.5355    12.9796
  305.0000     2.3287     0.0507    72.6433     9.7596     0.2225     0.2485   -18.5820     7.7056    10.4933    12.8604
  305.5000     2.3338     0.0404    72.6438     9.7584     0.2349     0.2468   -18.6879     7.6588    10.4513    12.6898
  306.0000     2.3046     0.0279    72.4214     9.7572     0.2346     0.2468   -18.7937     7.6123    10.4094    12.7149
  306.5000     2.2972     0.0362    72.2001     9.7559     0.2231     0.2447   -18.8996     7.5661    10.3658    12.7643
  307.0000     2.3160     0.0470    71.9788     9.7547     0.2156     0.2418   -19.0055     7.5201    10.3657    12.8055
  307.5000     2.3292     0.0566    71.9435     9.7535     0.2115     0.2392   -19.1115     7.4744    10.3658    12.4391
  308.0000     2.3267     0.0568    72.1175     9.7530     0.2061     0.2433   -19.2176     7.4454    10.3647    12.1189
  308.5000     2.3460     0.0777    72.2913     9.7566     0.2091     0.2437   -19.3214     7.4588    10.3658    12.1189
  309.0000     2.3405     0.0685    72.4654     9.7601     0.2135     0.2452   -19.3295     7.4686    10.0935    12.1189
  309.5000     2.3357     0.0597    72.6394     9.7637     0.2160     0.2494   -19.1574     7.4785     9.7502    12.1189
  310.0000     2.3307     0.0523    72.8136     9.7673     0.2110     0.2535   -18.9883     7.4884     9.5427    12.1189
  310.5000     2.3390     0.0627    72.9876     9.7708     0.2025     0.2545   -18.8188     7.4983     9.6892    12.0464
  311.0000     2.3513     0.0737    73.1589     9.7744     0.1949     0.2542   -18.6491     7.5078     9.8152    12.0081
  311.5000     2.3613     0.0788    73.1886     9.7779     0.2009     0.2538   -18.4796     7.5142     9.9429    12.3193
  312.0000     2.3389     0.0540    72.9758     9.7815     0.1970     0.2535   -18.3130     7.4422    10.0722    12.4578
  312.5000     2.3541     0.0672    72.7674     9.7850     0.1857     0.2487   -18.3041     7.3909    10.1769    12.3249
  313.0000     2.3788     0.0833    72.5566     9.7886     0.1742     0.2442   -18.5545     7.3399    10.1418    12.2309
  313.5000     2.4031     0.0992    72.4986     9.7921     0.1613     0.2397   -18.8010     7.2892    10.1126    12.2877
  314.0000     2.4260     0.1152    72.5530     9.7957     0.1446     0.2352   -19.0482     7.2390    10.0835    12.3438
  314.5000     2.4555     0.1189    72.6105     9.7992     0.1307     0.2312   -19.2954     7.1889    10.0541    12.2291
  315.0000     2.4715     0.1134    72.6817     9.8028     0.1176     0.2224   -19.5431     7.1385    10.0248    12.1147
  315.5000     2.4951     0.1079    72.0105     9.8063     0.1079     0.2145   -19.7893     7.1114     9.9883    12.0014
  316.0000     2.5154     0.1093    71.2059     9.8098     0.0960     0.2046   -19.9696     7.2535    10.2387    12.0073
  316.5000     2.5596     0.1239    70.3834     9.8096     0.0801     0.1929   -19.8880     7.3554    10.9495    13.5459
  317.0000     2.5416     0.1129    70.4070     9.8040     0.0873     0.1897   -19.8086     7.4587    11.6815    15.8349
  317.5000     2.5393     0.0980    70.8710     9.7983     0.0983     0.1913   -19.9115     7.5635    12.1233    17.8313
  318.0000     2.5226     0.0832    71.3447     9.7920     0.1104     0.1893   -20.1080     7.6697    12.1152    17.5153
  318.5000     2.4907     0.0684    71.8189     9.8230     0.1391     0.1957   -20.2223     7.7777    15.6587    17.0370
  319.0000     2.4690     0.0534    72.2923     9.8596     0.1587     0.2049   -20.2947     7.8867    14.0002    16.5718
  319.5000     2.4328     0.0299    72.7658     9.8964     0.1746     0.2140   -20.3710     8.0135    11.7094    15.6091
  320.0000     2.3970     0.0232    73.2395     9.9302     0.1794     0.2232   -20.1420     7.8529    10.1565    14.0520
  320.5000     2.3923     0.0426    73.7117     9.9329     0.1794     0.2296   -19.8704     7.6695     9.7265    12.2354
  321.0000     2.3971     0.0633    74.0955     9.9347     0.1695     0.2308   -19.5978     7.4904     9.3147    10.7540
