~VERSION INFORMATION
 VERS.                2.0:   CWLS LOG ASCII STANDARD - VERSION 2.0
 WRAP.                 NO:   ONE LINE PER DEPTH STEP
~WELL INFORMATION
#MNEM.UNIT      DATA TYPE    INFORMATION
#----------   ------------   ------------------------------
 STRT.F            0.0000:   START DEPTH
 STOP.F          743.0000:   STOP DEPTH
 STEP.F            0.5000:   STEP LENGTH
 NULL.          -999.2500:   NO VALUE
 COMP. LAWRENCE/ALLISON INC:   COMPANY
 WELL.   NPR 3 #33-16SX11:   WELL
 FLD .                NPR:   FIELD
 LOC .      S11 T38N R78W:   LOCATION
 CNTY.            NATRONA:   COUNTY
 STAT.            WYOMING:   STATE
 CTRY. UNITED STATES OF AMERICA:   COUNTRY
 SRVC.           Gearhart:   SERVICE COMPANY
 DATE.        05-JUN-1986:   LOGDATE
 API .       490251107500:   API NUMBER
~CURVE INFORMATION
#MNEM.UNIT       API CODE    CURVE DESCRIPTION
#----------   ------------   ------------------------------
 DEPT.F                  :   
 GRR .GAPI   07 310 01 00:   GAMMA RAY
 RILD.OHMM   07 120 46 00:   INDUCTION LOG DEEP RESISTIVITY
 RILM.OHMM   07 120 44 00:   INDUCTION LOG MEDIUM RESISTIVITY
 RLL .OHMM   07 220 00 00:   LATEROLOG RESISTIVITY
 SPR .MV     07 010 01 00:   SPONTANEOUS POTENTIAL
~PARAMETER INFORMATION
#MNEM.UNIT          VALUE    DESCRIPTION
#----------   ------------   ------------------------------
 PD  .                 GL:   PERMANENT DATUM
 EPD .F              5175:   ELEVATION PERMANENT DATUM
 LMF .                 KB:   LOG MEASURED FROM
 DMF .                 KB:   DRILLING MEASURED FROM
 EKB .F              5175:   KELLING BUSHING
 EGL .F              5175:   GROUND LEVEL
 DATE.        05-JUN-1986:   RUN DATE
 RUN .                  1:   RUN NUMBER
 DD  .F               736:   DEPTH DRILLER
 DL  .F               744:   DEPTH LOGGER
 BLI .F               743:   BOTTOM LOG INTERVAL
 TLI .F                42:   TOP LOG INTERVAL
 CS  .IN            8.625:   CASING SIZE
 CBD .F                42:   CASING BOTTOM DRILLER
 CBL .F                42:   CASING BOTTOM LOGGER
 BS  .IN            7.875:   BIT SIZE
 BSD .F               736:   BIT SIZE AT DEPTH
 DFT .           KCL- GEL:   DRILLING FLUID TYPE
 DFD .                9.2:   DRILLING FLUID DENSITY
 DFV .                 42:   DRILLING FLUID VISCOSITY
 DFPH.                 11:   DRILLING FLUID PH
 MSS .           FLOWLINE:   MUD SAMPLE SOURCE
 RMS .OHMM            .51:   RESISTIVITY MUD SAMPLE
 MST .F                81:   MUD SAMPLE TEMPERATURE
 RMF .OHMM            .48:   RESISTIVITY MUD FILTRATE SAMPLE
 MFST.F                65:   MUD FILTRATE SAMPLE TEMPERATURE
 RMC .OHMM            .81:   RESISTIVITY MUD CAKE
 MCST.F                66:   MUD CAKE SAMPLE TEMPERATURE
 MFSS.               MEAS:   MUD FILTRATE SAMPLE SOURCE
 MCSS.               MEAS:   MUD CAKE SAMPLE SOURCE
 RMB .OHMM            .47:   RESISTIVITY MUD AT BHT
 BHT .F                90:   BOTTOM HOLE TEMPERATURE
 TCS .HRS            1930:   TIME CURCULATED STOPPED
 TLAB.HRS            2114:   TIME LOGGER AT BOTTOM
 LUN .               7609:   LOGGING UNIT NUMBER
 LUL .           GILLETTE:   LOGGING UNIT LOCATION
 ENGI. WEATHERMON/ JOHNSTON:   RECORDING ENGINEER
 WITN.           LENNINGS:   WITNESSED BY
 CLNT.            A2DTECH:   CLIENT CODE
 ORIG.           5" PRINT:   ORIGIN OF DATA
 UWI .       490251107500:   UNIQUE WELL ID
 DICO. A2D Technologies, Inc.:   DIGITIZING COMPANY
~OTHER INFORMATION
~A    DEPT     GRR       RILD       RILM        RLL        SPR   
# ...
  366.0000    82.4522     8.6997     8.3051     9.9775   -46.5857
  366.5000    82.4486     8.7020     8.2484     9.9093   -46.5857
  367.0000    83.0526     8.6432     8.1921    10.0507   -46.5857
  367.5000    83.3539     8.6461     8.1362    10.1937   -46.4340
  368.0000    83.6545     8.6484     8.1311    10.4845   -46.1305
  368.5000    84.8648     8.6508     8.0962    10.6338   -45.9788
  369.0000    86.3793     8.6537     8.0613    10.3416   -45.9788
  369.5000    86.9834     8.5952     8.0280    10.1281   -45.9788
  370.0000    85.4623     8.5981     8.0293    10.2009   -45.9585
  370.5000    84.8524     8.5405     8.0304    10.4188   -45.5235
  371.0000    86.9739     8.5428     8.0315    10.6413   -45.6753
  371.5000    88.7919     8.4266     8.0326    10.8685   -45.8270
  372.0000    89.0926     8.3125     8.0336    10.8700   -45.8270
  372.5000    87.5569     8.1424     7.9187    10.7203   -45.8270
  373.0000    87.2650     7.9757     7.6527    10.4261   -45.9788
  373.5000    86.6551     7.7042     7.3911     9.9987   -45.6753
  374.0000    84.8312     7.4940     7.1385     9.7923   -44.6131
  374.5000    83.3108     7.3401     6.9428     9.6572   -45.0683
  375.0000    83.2575     7.1903     6.7998     9.5914   -45.9788
  375.5000    84.2155     7.0925     6.7064     9.7279   -46.7375
  376.0000    85.4709     7.0451     6.6606     9.8664   -47.3445
  376.5000    86.0306     7.0474     6.7084    10.0072   -46.6990
  377.0000    86.9374     7.0493     6.7563     9.9387   -45.3718
  377.5000    88.4519     7.0512     6.8046     9.6656   -45.9788
  378.0000    89.6637     7.1026     6.8532     9.5992   -46.2822
  378.5000    89.0531     7.2048     6.9022     9.8734   -46.5857
  379.0000    87.8098     7.3081     6.9515    10.2326   -46.5857
  379.5000    87.2255     7.4129     7.0013    10.4451   -46.5857
  380.0000    87.2226     7.5192     7.0514    10.5199   -46.5857
  380.5000    87.8267     7.6804     7.0523    10.4476   -46.1305
  381.0000    87.8238     7.7931     7.1524    10.2322   -45.6753
  381.5000    87.8208     7.9027     7.2035    10.0913   -45.5235
  382.0000    88.7365     8.0160     7.2045    10.0223   -45.2200
  382.5000    90.5457     8.0744     7.2602    10.2367   -44.7648
  383.0000    92.0602     8.0766     7.4108    10.3100   -44.4613
  383.5000    92.9685     8.0787     7.5161    10.3838   -44.3096
  384.0000    88.7160     8.0809     7.6228    10.3852   -44.6131
  384.5000    85.3747     8.0831     7.6772    10.3866   -45.2200
  385.0000    82.9438     8.1424     7.6783    10.3880   -46.2822
  385.5000    84.9489     8.1446     7.6793    10.3169   -46.4511
  386.0000    91.7385     8.0896     7.6732    10.3187   -46.1245
  386.5000    94.4670     8.0360     7.6279    10.2477   -45.6753
  387.0000    93.8571     8.0382     7.5231    10.1070   -45.5235
  387.5000    93.5507     7.9844     7.4718     9.9679   -46.1305
  388.0000    94.1547     7.9309     7.4208     9.7621   -46.8892
  388.5000    95.6884     7.8779     7.3704     9.6277   -46.7375
  389.0000    96.5768     7.7712     7.3201     9.7650   -46.7375
  389.5000    94.7522     7.7733     7.2701     9.9040   -46.1134
  390.0000    93.5353     7.7754     7.2205    10.1866   -45.3718
  390.5000    95.6568     7.7775     7.2217    10.4772   -45.3718
  391.0000    96.8679     7.8346     7.2227    10.4786   -45.5235
  391.5000    96.2570     7.8367     7.2743    10.4069   -45.3718
  392.0000    94.9924     7.8388     7.2753    10.3242   -45.0683
  392.5000    94.4312     7.8409     7.2805    10.1227   -46.1406
  393.0000    98.3729     7.8431     7.3285    10.1240   -46.7375
  393.5000   101.7084     7.7906     7.3295    10.1965   -45.8270
  394.0000    98.3671     7.7927     7.3818    10.1979   -45.0683
  394.5000    95.6327     7.7405     7.3828    10.0575   -44.6131
  395.0000    94.3854     7.6892     7.3838     9.9818   -44.6131
  395.5000    94.1094     7.6373     7.2824     9.7828   -44.7648
  396.0000    95.6232     7.5339     7.1258     9.6478   -44.9165
  396.5000    94.1029     7.4314     7.0344     9.5150   -43.8543
  397.0000    91.3685     7.3817     6.9864     9.5166   -43.5508
  397.5000    89.5447     7.3323     6.9876     9.5847   -44.7648
  398.0000    88.9348     7.2325     6.9397     9.5139   -45.3718
  398.5000    92.2695     7.1341     6.9408     9.2576   -45.6753
  399.0000    94.3910     6.9886     6.8934     9.4556   -45.3718
  399.5000    94.9958     6.8935     6.8464     9.4569   -44.9165
  400.0000    94.0807     6.7998     6.7345     9.3593   -44.5806
  400.5000    91.9539     6.5677     6.4770     9.1343   -44.1610
  401.0000    90.4335     6.3884     6.3885     8.8834   -44.7810
  401.5000    89.2167     6.2136     6.1276     8.5192   -46.2919
  402.0000    89.8207     6.0855     5.8773     8.1130   -46.9018
  402.5000    91.6388     5.9611     5.6768     7.7261   -45.8425
  403.0000    93.1896     5.9208     5.5215     7.6198   -45.0867
  403.5000    94.9706     5.8808     5.5616     7.8374   -44.7861
  404.0000    95.5754     5.9650     5.6805     8.0610   -44.6372
  404.5000    91.0194     6.0501     5.8426     8.4078   -44.6409
  405.0000    87.0711     6.1378     6.0093     8.8312   -44.4913
  405.5000    83.7299     6.3118     6.1377     8.8358   -44.4949
  406.0000    84.2125     6.4467     6.2689     8.4632   -44.3460
  406.5000    89.4896     6.5845     6.4032     8.2375   -44.3490
  407.0000    92.2181     6.6784     6.4946     8.5323   -44.5043
  407.5000    95.5536     6.7737     6.5872     8.5335   -44.6590
  408.0000    97.0689     6.8226     6.6347     8.5946   -44.5094
  408.5000    94.0283     6.8721     6.6362     8.8398   -44.0578
  409.0000    90.9918     6.8735     6.6842     8.7181   -43.9090
  409.5000    88.8645     6.8749     6.6856     8.9045   -43.6084
  410.0000    87.0406     6.8762     6.6869     9.1586   -43.6120
  410.5000    85.8238     6.8776     6.6882     9.4198   -43.3107
  411.0000    85.5174     6.8311     6.6896     9.6210   -43.6178
  411.5000    86.7669     6.7381     6.6444     9.6899   -43.7725
  412.0000    91.5806     6.6460     6.5535     9.2929   -43.6236
  412.5000    94.3099     6.5095     6.4639     9.2291   -43.3230
  413.0000    91.2713     6.3315     6.3315     9.2306   -43.0224
  413.5000    86.4126     6.1583     6.2015     9.0400   -44.0883
  414.0000    82.1608     5.9444     6.0319     8.8534   -45.1534
  414.5000    84.6606     5.6659     5.7806     8.8546   -46.0668
  415.0000    88.2241     5.4345     5.5110     8.4919   -44.2495
  415.5000    90.0421     5.2859     5.2859     8.2007   -43.6447
  416.0000    90.6469     5.0700     5.0347     8.3758   -44.2553
  416.5000    87.9119     4.9313     4.8291     7.7565   -43.9547
  417.0000    84.5665     4.8263     4.6968     7.4901   -43.1989
  417.5000    81.5320     4.6655     4.6006     7.1338   -43.6696
  418.0000    80.9221     4.7321     4.6340     6.9376   -44.2676
  418.5000    81.2235     4.9012     4.7662     7.0365   -44.1180
  419.0000    83.3443     5.1119     4.9366     7.6007   -43.8174
  419.5000    86.3763     5.2946     5.1488     8.0959   -44.2763
  420.0000    89.4082     5.5662     5.3752     8.5713   -44.2792
  420.5000    88.1907     5.8819     5.6801     8.5050   -43.9786
  421.0000    87.8842     6.1349     5.8831     8.3291   -43.6780
  421.5000    88.7918     6.3541     6.0934     8.5670   -43.6817
  422.0000    90.3064     6.5354     6.2673     8.9356   -43.6846
  422.5000    90.3035     6.7219     6.4012     9.0628   -43.5356
  423.0000    89.9970     6.8178     6.5439     9.3380   -43.2200
  423.5000    90.9046     6.9154     6.6781     9.8598   -43.0863
  424.0000    93.0254     7.0141     6.8209    10.0703   -43.2417
  424.5000    94.2372     7.0646     6.8700     9.8624   -43.2446
  425.0000    94.2336     7.1156     6.9680     9.5911   -43.2475
  425.5000    94.5372     7.2171     7.0675     9.6608   -43.2504
  426.0000    96.0480     7.2695     7.1188    10.0761   -43.4057
  426.5000    97.8660     7.3732     7.1202    10.0071   -43.5604
