~VERSION INFORMATION
 VERS.                2.0:   CWLS LOG ASCII STANDARD - VERSION 2.0
 WRAP.                 NO:   ONE LINE PER DEPTH STEP
~WELL INFORMATION
#MNEM.UNIT      DATA TYPE    INFORMATION
#----------   ------------   ------------------------------
 STRT.F           16.0000:   START DEPTH
 STOP.F         1254.0000:   STOP DEPTH
 STEP.F            0.5000:   STEP LENGTH
 NULL.          -999.2500:   NO VALUE
 COMP. FENIX & SCISSON INC:   COMPANY
 WELL. NAVAL PET RESERVE 3   75-S-14 #75-14:   WELL
 FLD .             TEAPOT:   FIELD
 LOC .      S14 T38N R78W:   LOCATION
 CNTY.            NATRONA:   COUNTY
 STAT.            WYOMING:   STATE
 CTRY. UNITED STATES OF AMERICA:   COUNTRY
 SRVC.              Welex:   SERVICE COMPANY
 DATE.        17-FEB-1977:   LOGDATE
 API .       490251027400:   API NUMBER
~CURVE INFORMATION
#MNEM.UNIT       API CODE    CURVE DESCRIPTION
#----------   ------------   ------------------------------
 DEPT.F                  :   
 SGRD.OHMM   07 220 05 00:   SHALLOW RESISTIVITY
 ILM .OHMM   07 120 44 00:   INDUCTION LOG MEDIUM
 SPR .MV     07 010 01 00:   SPONTANEOUS POTENTIAL
 ILD .OHMM   07 120 46 00:   INDUCTION LOG DEEP
 CALD.IN     45 280 60 00:   CALIPER
 GRD .GAPI   45 310 01 00:   GAMMA RAY FROM DENSITY LOG
 DPHI.DEC    45 890 12 00:   DENSITY POROSITY SANDSTONE
 RHOB.G/C3   45 350 01 00:   BULK DENSITY
 CORR.G/C3   45 356 01 00:   DENSITY CORRECTION
~PARAMETER INFORMATION
#MNEM.UNIT          VALUE    DESCRIPTION
#----------   ------------   ------------------------------
 PD  .                 GL:   PERMANENT DATUM
 EPD .F              5336:   ELEVATION PERMANENT DATUM
 LMF .                 GL:   LOG MEASURED FROM
 DMF .                 GL:   DRILLING MEASURED FROM
 EKB .F              5341:   KELLING BUSHING
 EGL .F              5336:   GROUND LEVEL
 DATE.          2-17-1977:   RUN DATE
 RUN .                  1:   RUN NUMBER
 DD  .F              1260:   DEPTH DRILLER
 DL  .F              1258:   DEPTH LOGGER
 BLI .F              1256:   BOTTOM LOG INTERVAL
 TLI .F                30:   TOP LOG INTERVAL
 CS  .IN            8.625:   CASING SIZE
 CBD .F                42:   CASING BOTTOM DRILLER
 CBL .F                42:   CASING BOTTOM LOGGER
 BS  .IN            7.875:   BIT SIZE
 BSD .F              1260:   BIT SIZE AT DEPTH
 DFT .          KCL WATER:   DRILLING FLUID TYPE
 DFD .                9.5:   DRILLING FLUID DENSITY
 DFV .                 34:   DRILLING FLUID VISCOSITY
 MSS .          FLOW LINE:   MUD SAMPLE SOURCE
 RMS .OHMM            .30:   RESISTIVITY MUD SAMPLE
 MST .F                43:   MUD SAMPLE TEMPERATURE
 RMF .OHMM            .28:   RESISTIVITY MUD FILTRATE SAMPLE
 MFST.F                43:   MUD FILTRATE SAMPLE TEMPERATURE
 RMC .OHMM            .40:   RESISTIVITY MUD CAKE
 MCST.F                43:   MUD CAKE SAMPLE TEMPERATURE
 MFSS.           MEASURED:   MUD FILTRATE SAMPLE SOURCE
 MCSS.           MEASURED:   MUD CAKE SAMPLE SOURCE
 RMB .OHMM            .13:   RESISTIVITY MUD AT BHT
 BHT .F               101:   BOTTOM HOLE TEMPERATURE
 TCS .HRS               5:   TIME CURCULATED STOPPED
 MRT .F               101:   MAXIMUM RECORDED TEMPERATURE
 LUN .               8611:   LOGGING UNIT NUMBER
 LUL .           GILLETTE:   LOGGING UNIT LOCATION
 ENGI.             LAWSON:   RECORDING ENGINEER
 WITN.         STUEBINGER:   WITNESSED BY
 CLNT.            A2DTECH:   CLIENT CODE
 ORIG.       2", 5" PRINT:   ORIGIN OF DATA
 UWI .       490251027400:   UNIQUE WELL ID
 DICO. A2D Technologies, Inc.:   DIGITIZING COMPANY
~OTHER INFORMATION
~A   DEPT     SGRD        ILM        SPR        ILD       CALD         GRD      DPHI       RHOB       CORR   
# ...
  198.5000    14.1260     6.8298   -34.0754     5.8286     8.1297   106.0149     0.1207     2.4610     0.0841
  199.0000    13.6150     6.8846   -33.9756     5.8286     8.1400   107.4677     0.1179     2.4655     0.0877
  199.5000    14.6187     6.8987   -33.8758     5.8369     8.1503   109.4067     0.1174     2.4650     0.0864
  200.0000    14.1127     6.9126   -33.7759     5.8449     8.1606   111.3229     0.1198     2.4582     0.0844
  200.5000    13.5481     6.9265   -33.6761     5.8528     8.1709   112.5423     0.1232     2.4517     0.0823
  201.0000    13.0061     6.9406   -33.5763     5.8608     8.1812   112.3824     0.1267     2.4452     0.0802
  201.5000    12.4858     6.9547   -33.4764     5.8688     8.1914   111.8303     0.1301     2.4386     0.0781
  202.0000    12.2812     6.9688   -33.3766     5.8770     8.2017   111.2873     0.1335     2.4321     0.0762
  202.5000    11.7723     6.9829   -33.2763     5.8880     8.2119   110.7554     0.1369     2.4256     0.0769
  203.0000    11.0461     6.9971   -33.1764     5.8183     8.2219   110.2275     0.1371     2.4188     0.0777
  203.5000    10.2120     7.0062   -33.0822     5.7350     8.2363   109.5118     0.1343     2.4237     0.0785
  204.0000    11.4242     6.8283   -33.2095     5.6529     8.2415   107.0393     0.1338     2.4342     0.0793
  204.5000    13.6977     6.6054   -33.4352     5.5720     8.2383   105.1225     0.1401     2.4257     0.0802
  205.0000    11.4544     6.3893   -33.6810     5.4922     8.2231   107.1827     0.1464     2.4116     0.0763
  205.5000    10.2556     6.1783   -33.9311     5.4136     8.2084   109.6949     0.1528     2.3973     0.0714
  206.0000     9.9018     6.0471   -34.1807     5.3362     8.1936   112.1780     0.1591     2.3831     0.0695
  206.5000     9.6054     6.2529   -34.4303     5.2598     8.1789   114.3012     0.1631     2.3741     0.0687
  207.0000     9.4919     6.4106   -34.6799     5.1845     8.1641   113.9900     0.1599     2.3811     0.0688
  207.5000     9.9655     6.5724   -34.9295     5.1097     8.1494   113.1241     0.1545     2.3896     0.0704
  208.0000    10.5036     6.7531   -35.1790     5.0301     8.1347   109.4865     0.1490     2.3981     0.0720
  208.5000    10.0560     6.5125   -35.4286     5.0285     8.1199   105.7994     0.1435     2.4070     0.0736
  209.0000     9.4672     6.2577   -35.6782     5.0793     8.1052   103.7926     0.1380     2.4188     0.0752
  209.5000     8.8183     6.1586   -35.9277     5.1773     8.0904   102.7597     0.1326     2.4313     0.0768
  210.0000     9.4850     6.5609   -36.1773     5.3065     8.0756   101.7739     0.1271     2.4439     0.0785
  210.5000    10.3572     6.8630   -36.4269     5.4389     8.0616   100.7857     0.1216     2.4564     0.0801
  211.0000    11.3096     7.1364   -36.6764     5.5746     8.0727    99.8132     0.1166     2.4665     0.0817
  211.5000    12.1687     7.0710   -36.9260     5.7137     8.0857   100.0277     0.1163     2.4599     0.0821
  212.0000    12.1687     7.0062   -37.1753     5.8563     8.0986   101.4288     0.1226     2.4490     0.0810
  212.5000    11.4877     6.8804   -37.4265     5.8825     8.1116   103.1545     0.1271     2.4380     0.0775
  213.0000    10.8519     6.7831   -37.7235     5.8825     8.1244   104.8904     0.1316     2.4269     0.0740
  213.5000    10.2513     6.6872   -38.0225     5.8825     8.1374   106.4095     0.1361     2.4254     0.0700
  214.0000     9.6839     6.5926   -38.3212     5.8227     8.1503   105.3475     0.1359     2.4281     0.0652
  214.5000     9.1489     6.4994   -38.6199     5.6556     8.1631   105.2720     0.1342     2.4308     0.0657
  215.0000     9.0651     6.4075   -38.9186     5.4933     8.1761   105.8674     0.1327     2.4301     0.0686
  215.5000     9.1469     6.3169   -39.2175     5.3357     8.1795   106.4644     0.1379     2.4204     0.0718
  216.0000     9.2444     6.2276   -39.5170     5.1825     8.1767   107.0592     0.1433     2.4102     0.0688
  216.5000     9.3431     6.1394   -39.8114     5.0338     8.1739   107.6552     0.1486     2.4000     0.0648
  217.0000     9.4050     6.0527   -40.0061     4.8893     8.1710   108.2610     0.1540     2.3899     0.0607
  217.5000     8.6793     5.9671   -39.9446     4.7490     8.1681   108.8146     0.1595     2.3833     0.0567
  218.0000     8.1831     5.9369   -39.8885     4.6309     8.1652   107.3666     0.1587     2.3907     0.0548
  218.5000     7.6843     5.8301   -39.8312     4.5696     8.1623   105.7811     0.1531     2.3985     0.0569
  219.0000     7.6815     5.7240   -39.7742     4.5128     8.1656   104.1828     0.1484     2.4063     0.0588
  219.5000     8.1108     5.6198   -39.7172     4.4567     8.1719   102.7267     0.1436     2.4141     0.0608
  220.0000     8.5782     5.5175   -39.6602     4.4013     8.1784   104.8066     0.1389     2.4219     0.0620
  220.5000     7.7530     5.4171   -39.6032     4.3466     8.1812   107.4065     0.1351     2.4244     0.0615
  221.0000     7.9376     5.3654   -39.5462     4.2925     8.1813   109.9838     0.1364     2.4181     0.0610
  221.5000     8.2352     5.5156   -39.4892     4.2392     8.1829   111.6862     0.1381     2.4118     0.0605
  222.0000     8.4943     5.6197   -39.4323     4.1851     8.1911   112.1937     0.1398     2.4114     0.0602
  222.5000     8.3288     5.7257   -39.3753     4.1851     8.1990   112.7176     0.1379     2.4182     0.0618
  223.0000     8.1505     5.8288   -39.3183     4.2629     8.2070   113.2315     0.1331     2.4250     0.0635
  223.5000     7.8965     5.8707   -39.2613     4.3382     8.2149   113.2957     0.1290     2.4317     0.0699
  224.0000     8.0115     5.9091   -39.2043     4.4160     8.2229   111.1105     0.1324     2.4305     0.0706
  224.5000     8.2444     5.9917   -39.1473     4.4952     8.2308   108.9443     0.1365     2.4211     0.0709
  225.0000     8.4840     6.0471   -39.0903     4.5757     8.2387   108.1930     0.1371     2.4166     0.0713
  225.5000     8.7306     6.1006   -39.0333     4.6578     8.2467   107.7318     0.1319     2.4216     0.0718
  226.0000     8.9844     6.1544   -38.9763     4.7413     8.2546   105.1500     0.1325     2.4263     0.0721
  226.5000     9.0651     6.2088   -38.9194     4.8263     8.2611   102.5134     0.1387     2.4214     0.0692
  227.0000     8.2712     6.2637   -38.8624     4.9128     8.2610   102.1268     0.1431     2.4032     0.0661
  227.5000     8.2629     6.3190   -38.8054     4.9846     8.2611   103.1441     0.1459     2.4017     0.0630
  228.0000     8.6431     6.3749   -38.7484     4.9846     8.2560   105.1612     0.1429     2.4086     0.0633
  228.5000     9.0388     6.4494   -38.6913     4.9647     8.2504   106.6768     0.1395     2.4143     0.0650
  229.0000     9.4919     6.3947   -38.6326     4.8878     8.2447   107.0957     0.1443     2.4059     0.0668
  229.5000     9.2019     6.3148   -38.6448     4.8121     8.2391   107.3149     0.1507     2.3948     0.0676
  230.0000     8.8109     6.2360   -38.6727     4.7376     8.2335   107.5017     0.1571     2.3836     0.0647
  230.5000     8.4366     6.1581   -38.7009     4.6642     8.2278   107.8354     0.1635     2.3725     0.0619
  231.0000     8.0773     6.0812   -38.7288     4.5919     8.2222   109.9102     0.1699     2.3615     0.0590
  231.5000     7.8954     6.0052   -38.7568     4.5208     8.2166   112.0011     0.1715     2.3541     0.0562
  232.0000     7.9293     5.9303   -38.7847     4.4507     8.2109   114.0559     0.1716     2.3555     0.0534
  232.5000     7.9559     5.8825   -38.8129     4.3818     8.2053   115.2688     0.1708     2.3615     0.0505
  233.0000     7.9825     5.8963   -38.8223     4.3140     8.2011   113.1994     0.1684     2.3677     0.0501
  233.5000     8.0092     5.9316   -38.8224     4.2629     8.2012   111.4099     0.1658     2.3740     0.0501
  234.0000     8.0367     5.9917   -38.8224     4.2629     8.2018   112.6583     0.1633     2.3803     0.0520
  234.5000     8.0431     5.9302   -38.8224     4.3015     8.2067   114.0025     0.1608     2.3865     0.0546
