~VERSION INFORMATION
 VERS.                2.0:   CWLS LOG ASCII STANDARD - VERSION 2.0
 WRAP.                 NO:   ONE LINE PER DEPTH STEP
~WELL INFORMATION
#MNEM.UNIT      DATA TYPE    INFORMATION
#----------   ------------   ------------------------------
 STRT.M           36.0000:   START DEPTH
 STOP.M          687.0000:   STOP DEPTH
 STEP.M            0.5000:   STEP LENGTH
 NULL.          -999.2500:   NO VALUE
 COMP. LAWRENCE/ALLISON INC:   COMPANY
 WELL.    53-1-STX #15-15:   WELL
 FLD .             TEAPOT:   FIELD
 LOC .      S15 T38N R78W:   LOCATION
 CNTY.            NATRONA:   COUNTY
 STAT.            WYOMING:   STATE
 CTRY. UNITED STATES OF AMERICA:   COUNTRY
 SRVC.           Gearhart:   SERVICE COMPANY
 DATE.        29-AUG-1987:   LOGDATE
 API .       490251118700:   API NUMBER
~CURVE INFORMATION
#MNEM.UNIT       API CODE    CURVE DESCRIPTION
#----------   ------------   ------------------------------
 DEPT.M                  :   
 GRR .GAPI   07 310 01 00:   GAMMA RAY
 ILD .OHMM   07 120 46 00:   INDUCTION LOG DEEP
 ILM .OHMM   07 120 44 00:   INDUCTION LOG MEDIUM
~PARAMETER INFORMATION
#MNEM.UNIT          VALUE    DESCRIPTION
#----------   ------------   ------------------------------
 PD  .                 GL:   PERMANENT DATUM
 EPD .F              5237:   ELEVATION PERMANENT DATUM
 LMF .                 KB:   LOG MEASURED FROM
 DAPD.F              10.5:   FEET ABOVE PERMANENT DATUM
 DMF .                 KB:   DRILLING MEASURED FROM
 EKB .F              5247:   KELLING BUSHING
 EDF .F            5246.5:   DRILLING FLOOR
 EGL .F              5237:   GROUND LEVEL
 DATE.        29-AUG-1987:   RUN DATE
 RUN .                  1:   RUN NUMBER
 DD  .F               695:   DEPTH DRILLER
 DL  .F               696:   DEPTH LOGGER
 BLI .F               688:   BOTTOM LOG INTERVAL
 TLI .F                37:   TOP LOG INTERVAL
 CS  .IN            9.625:   CASING SIZE
 CBD .F                48:   CASING BOTTOM DRILLER
 CBL .F                49:   CASING BOTTOM LOGGER
 BS  .IN             8.75:   BIT SIZE
 BSD .F               695:   BIT SIZE AT DEPTH
 DFT .                AIR:   DRILLING FLUID TYPE
 TCS .HRS            0400:   TIME CURCULATED STOPPED
 MRT .F                80:   MAXIMUM RECORDED TEMPERATURE
 LUN .               7597:   LOGGING UNIT NUMBER
 LUL .           GILLETTE:   LOGGING UNIT LOCATION
 ENGI.         WEATHERMON:   RECORDING ENGINEER
 WITN.             STRONG:   WITNESSED BY
 CLNT.            A2DTECH:   CLIENT CODE
 ORIG.       2", 5" PRINT:   ORIGIN OF DATA
 UWI .       490251118700:   UNIQUE WELL ID
 DICO. A2D Technologies, Inc.:   DIGITIZING COMPANY
~OTHER INFORMATION
~A   DEPT       GRR       ILD        ILM   
# ...
  491.0000    75.2617    23.6100    23.9488
  491.5000    76.7958    22.8147    23.1367
  492.0000    77.8698    22.0462    22.2308
  492.5000    83.1961    21.4518    21.3357
  493.0000    84.4272    20.7292    20.6193
  493.5000    84.1402    19.8925    19.9270
  494.0000    83.2585    19.4906    19.5270
  494.5000    82.0690    19.0974    19.1351
  495.0000    82.6950    18.8421    18.8791
  495.5000    85.4389    18.5902    18.3748
  496.0000    87.8803    18.2149    18.1289
  496.5000    90.9268    17.9714    17.8888
  497.0000    92.1579    17.7311    17.6519
  497.5000    92.1787    17.4941    17.4181
  498.0000    91.2799    17.4807    17.3071
  498.5000    90.0686    17.3875    17.1988
  499.0000    89.5179    17.3307    17.0896
  499.5000    90.7542    17.1615    17.0990
  500.0000    92.8930    18.0245    17.2275
  500.5000    94.4267    18.2838    17.4683
  501.0000    95.3552    19.0686    17.9601
  501.5000    95.6786    20.1648    18.8542
  502.0000    95.6994    21.3240    20.4918
  502.5000    95.7202    22.5499    22.1176
  503.0000    94.8333    23.0870    24.0628
  503.5000    92.1309    23.2537    26.7308
  504.0000    87.3105    23.4215    29.4637
  504.5000    83.7005    23.2664    30.2261
  505.0000    81.2607    22.9527    27.4272
  505.5000    79.5061    22.0254    24.2060
  506.0000    81.9527    20.6711    21.3632
  506.5000    87.7223    19.0126    19.7929
  507.0000    93.4920    17.6440    18.4657
  507.5000    96.8411    16.9522    17.7125
  508.0000    99.2824    16.4939    17.1083
  508.5000   100.8161    16.1595    16.6399
  509.0000   101.4420    15.8307    16.2970
  509.5000   102.0628    15.6174    16.0723
  510.0000    99.6682    15.5139    15.9612
  510.5000    97.5710    15.5192    15.9612
  511.0000    94.8687    15.5234    15.7411
  511.5000    93.6732    15.6355    15.6323
  512.0000    93.7287    15.7483    15.6323
  512.5000    94.9823    15.8620    15.5241
  513.0000    96.4699    15.7569    15.5399
  513.5000    96.4907    15.7612    15.5462
  514.0000    94.6961    15.5489    15.5526
  514.5000    90.7834    15.4458    15.3449
  515.0000    89.5888    15.3435    15.1401
  515.5000    92.6405    15.2419    14.9379
  516.0000    95.6870    15.1409    14.8409
  516.5000    98.4309    15.2512    15.0556
  517.0000   100.2672    15.5754    15.2718
  517.5000    97.2622    15.9064    15.4911
  518.0000    94.2573    16.0212    15.7136
  518.5000    91.8437    16.0256    15.7200
  519.0000    90.6323    16.0300    15.7264
  519.5000    90.0837    15.9227    15.7328
  520.0000    90.1097    15.8172    15.5228
  520.5000    90.4331    15.6051    15.2098
  521.0000    90.4539    15.2887    14.9017
  521.5000    89.8643    14.9787    14.7040
  522.0000    89.2800    14.7768    14.5078
  522.5000    90.2137    14.5777    14.4137
  523.0000    91.1422    14.4811    14.3200
  523.5000    92.6759    14.3852    14.3261
  524.0000    93.6044    14.3901    14.3332
  524.5000    93.6252    14.3940    14.3391
  525.0000    93.9486    14.3979    14.3449
  525.5000    94.5970    14.3016    14.1534
  526.0000    95.8507    14.1088    13.9630
  526.5000    97.6470    14.0154    13.8723
  527.0000    99.1807    13.8265    13.6885
  527.5000   100.7143    13.6402    13.5982
  528.0000    98.6171    13.5498    13.5099
  528.5000    97.4276    13.4601    13.5168
  529.0000    96.5407    13.3716    13.3363
  529.5000    96.8641    13.2831    13.2496
  530.0000    97.7926    13.1951    13.1636
  530.5000    99.0237    13.1988    13.1691
  531.0000    99.6496    13.2941    13.1746
  531.5000   100.2756    13.3083    13.1811
  532.0000   101.2042    13.5031    13.1865
  532.5000   101.2254    13.6793    13.2836
  533.0000   101.2466    13.8737    13.3814
  533.5000   100.3640    14.0709    13.4799
  534.0000    99.1745    14.2709    13.6734
  534.5000    98.5901    14.2748    13.7741
  535.0000    98.0058    14.2787    13.8755
  535.5000    97.4163    14.1831    13.8811
  536.0000    98.6525    13.9920    13.8868
  536.5000   100.4836    13.8993    13.7014
  537.0000    97.7864    13.8081    13.6123
  537.5000    95.9918    13.6221    13.4307
  538.0000    93.8941    13.4385    13.1599
  538.5000    93.9154    13.1660    13.1655
  539.0000    94.8604    13.0788    12.9012
  539.5000    97.0598    12.9921    12.7289
  540.0000    99.7318    12.8943    12.6450
  540.5000   101.2655    12.8205    12.4761
  541.0000   101.2863    12.9140    12.4825
  541.5000   100.3994    13.7476    12.5744
  542.0000    99.2047    14.2354    13.0227
  542.5000   101.0461    14.7406    13.7702
  543.0000   103.4875    15.3697    14.7636
  543.5000   102.6006    15.9151    15.5032
  544.0000    96.8725    16.5943    16.1676
  544.5000    91.1444    17.3025    16.7440
  545.0000    84.6091    17.9165    17.5829
  545.5000    79.0793    18.6812    18.6096
  546.0000    77.2885    20.0251    19.7958
  546.5000    77.3566    19.7552    19.2628
  547.0000    78.5456    19.0887    18.7462
  547.5000    80.0793    18.7016    18.3682
  548.0000    83.7309    18.3107    17.8737
  548.5000    85.8698    17.8083    17.3925
  549.0000    87.4034    17.2266    16.9242
  549.5000    87.7268    16.7609    16.6630
  550.0000    86.5378    16.5350    16.4753
  550.5000    83.5388    16.5395    16.3667
  551.0000    81.7501    16.5441    16.2620
  551.5000    81.1710    16.6635    16.2687
  552.0000    81.1984    16.5531    16.0514
  552.5000    81.8306    15.9945    15.8371
  553.0000    81.5545    15.6691    15.5108
  553.5000    81.9395    15.4580    15.2050
  554.0000    83.1275    15.1455    15.0020
  554.5000    82.8450    14.9413    14.9046
  555.0000    82.5692    14.7400    14.8077
  555.5000    82.9052    14.5415    14.6115
  556.0000    84.1422    14.4451    14.3170
  556.5000    85.6818    14.4492    14.2225
  557.0000    86.6163    14.4532    14.1301
  557.5000    86.0312    14.4579    14.1374
  558.0000    85.1569    14.6634    14.1431
  558.5000    84.2492    14.7693    14.1489
  559.0000    86.1181    14.8759    14.2531
  559.5000    86.4478    14.9833    14.3580
  560.0000    86.4750    15.0914    14.5642
  560.5000    87.4153    15.2003    14.8761
  561.0000    88.9549    15.3101    15.0898
  561.5000    90.4945    15.4206    15.3079
  562.0000    90.8238    15.5319    15.5277
  562.5000    89.3377    15.5361    15.6420
  563.0000    88.4500    15.5404    15.6484
  563.5000    88.1742    15.5446    15.5468
  564.0000    89.4179    15.5489    15.4444
  564.5000    91.8652    15.5532    15.2382
  565.0000    92.1945    15.3435    15.0348
  565.5000    92.2213    15.3487    14.9372
  566.0000    93.1599    15.2460    14.9448
  566.5000    92.5516    14.9379    14.8463
  567.0000    91.6490    14.6349    14.6481
  567.5000    91.4205    14.5370    14.5530
  568.0000    92.6642    14.3421    14.4585
  568.5000    92.0858    14.3460    14.2667
  569.0000    90.5930    14.3499    14.0764
  569.5000    90.3172    14.3538    14.0822
  570.0000    91.8635    14.4574    14.0880
  570.5000    93.0938    14.5618    14.2904
  571.0000    92.8180    14.8713    14.4957
  571.5000    91.6399    15.0827    14.7040
  572.0000    91.0620    15.2970    14.8136
  572.5000    93.5101    15.5145    14.9226
  573.0000    97.5070    15.4117    15.0325
  573.5000    99.6500    15.4160    15.2484
  574.0000    99.0433    15.5282    15.3607
  574.5000    97.5571    15.5324    15.4738
  575.0000    94.5582    15.5367    15.4801
  575.5000    94.2757    15.5409    15.4865
  576.0000    94.9142    15.5451    15.4928
  576.5000    94.3358    15.3357    15.4992
  577.0000    93.4482    15.0237    15.3985
  577.5000    93.1723    15.0288    15.2985
  578.0000    94.4160    15.0329    15.1976
  578.5000    95.0932    15.1414    15.1003
  579.0000    93.5618    15.3566    15.2117
  579.5000    92.6808    15.4674    15.3237
  580.0000    91.4973    15.2589    15.1191
  580.5000    90.8774    15.0534    14.9122
  581.0000    88.8343    14.8451    14.7081
  581.5000    86.7430    14.6391    14.6077
