~VERSION INFORMATION
 VERS.                2.0:   CWLS LOG ASCII STANDARD - VERSION 2.0
 WRAP.                 NO:   ONE LINE PER DEPTH STEP
~WELL INFORMATION
#MNEM.UNIT      DATA TYPE    INFORMATION
#----------   ------------   ------------------------------
 STRT.F           42.0000:   START DEPTH
 STOP.F          866.0000:   STOP DEPTH
 STEP.F            0.5000:   STEP LENGTH
 NULL.          -999.2500:   NO VALUE
 COMP. FENIX & SCISSON INC:   COMPANY
 WELL.      NPR-SX #47-11:   WELL
 FLD .             TEAPOT:   FIELD
 LOC .      S11 T38N R78W:   LOCATION
 CNTY.            NATRONA:   COUNTY
 STAT.            WYOMING:   STATE
 CTRY. UNITED STATES OF AMERICA:   COUNTRY
 SRVC.            Unknown:   SERVICE COMPANY
 DATE.        25-FEB-1978:   LOGDATE
 API .       490251058700:   API NUMBER
~CURVE INFORMATION
#MNEM.UNIT       API CODE    CURVE DESCRIPTION
#----------   ------------   ------------------------------
 DEPT.F                  :   
 SPR .MV     07 010 01 00:   SPONTANEOUS POTENTIAL
 SN  .OHMM   07 040 16 00:   SHORT NORMAL 16'
 ILD .OHMM   07 120 46 00:   INDUCTION LOG DEEP
 CORR.G/C3   45 356 01 00:   DENSITY CORRECTION
 RHOB.G/C3   45 350 01 00:   BULK DENSITY
 DPHI.DEC    45 890 12 00:   DENSITY POROSITY SANDSTONE
 CALD.IN     45 280 60 00:   CALIPER FROM DENSITY LOG
 GRD .GAPI   45 310 01 00:   GAMMA RAY FROM DENSITY LOG
~PARAMETER INFORMATION
#MNEM.UNIT          VALUE    DESCRIPTION
#----------   ------------   ------------------------------
 PD  .                 GL:   PERMANENT DATUM
 EPD .F              5202:   ELEVATION PERMANENT DATUM
 LMF .                 KB:   LOG MEASURED FROM
 DAPD.F                 4:   FEET ABOVE PERMANENT DATUM
 DMF .                 KB:   DRILLING MEASURED FROM
 EKB .F              5206:   KELLING BUSHING
 EGL .F              5202:   GROUND LEVEL
 DATE.            2-25-78:   RUN DATE
 RUN .                  1:   RUN NUMBER
 DD  .F               870:   DEPTH DRILLER
 DL  .F               870:   DEPTH LOGGER
 BLI .F               865:   BOTTOM LOG INTERVAL
 TLI .F                47:   TOP LOG INTERVAL
 CS  .IN            8.625:   CASING SIZE
 CBD .F                40:   CASING BOTTOM DRILLER
 CBL .F                47:   CASING BOTTOM LOGGER
 BS  .IN            7.875:   BIT SIZE
 BSD .F               870:   BIT SIZE AT DEPTH
 DFT .                KCL:   DRILLING FLUID TYPE
 DFD .                8.7:   DRILLING FLUID DENSITY
 DFV .                 35:   DRILLING FLUID VISCOSITY
 DFL .                4.8:   DRILLING FLUID LOSS
 MSS .         CIRCULATED:   MUD SAMPLE SOURCE
 RMS .OHMM            1.5:   RESISTIVITY MUD SAMPLE
 MST .F                70:   MUD SAMPLE TEMPERATURE
 RMF .OHMM            .75:   RESISTIVITY MUD FILTRATE SAMPLE
 MFST.F                74:   MUD FILTRATE SAMPLE TEMPERATURE
 RMC .OHMM            1.8:   RESISTIVITY MUD CAKE
 MCST.F                68:   MUD CAKE SAMPLE TEMPERATURE
 MFSS.              PRESS:   MUD FILTRATE SAMPLE SOURCE
 RMB .OHMM            1.5:   RESISTIVITY MUD AT BHT
 BHT .F                70:   BOTTOM HOLE TEMPERATURE
 TCS .HRS               2:   TIME CURCULATED STOPPED
 MRT .F                70:   MAXIMUM RECORDED TEMPERATURE
 LUN .               2958:   LOGGING UNIT NUMBER
 LUL .               CASP:   LOGGING UNIT LOCATION
 CLNT.            A2DTECH:   CLIENT CODE
 ORIG.        2" 5" PRINT:   ORIGIN OF DATA
 UWI .       490251058700:   UNIQUE WELL ID
 DICO. A2D Technologies, Inc.:   DIGITIZING COMPANY
~OTHER INFORMATION
~A   DEPT      SPR         SN        ILD       CORR       RHOB       DPHI         CALD      GRD   
# ...
  285.0000   -21.3153     6.9248     6.5880     0.0063     2.4318     0.1318     8.6119    91.7837
  285.5000   -21.0424     6.8854     6.5392     0.0002     2.4279     0.1375     8.6125    93.0872
  286.0000   -20.8088     6.8070     6.4908    -0.0019     2.4286     0.1436     8.6131    95.5905
  286.5000   -20.8058     6.7229     6.4427    -0.0040     2.4241     0.1402     8.6138    99.1893
  287.0000   -20.7772     6.6611     6.4194    -0.0044     2.4186     0.1338     8.6144    97.1431
  287.5000   -20.7478     6.6611     6.4582     0.0000     2.4260     0.1280     8.6150    95.1096
  288.0000   -20.7189     6.6864     6.5135     0.0050     2.4379     0.1289     8.6157    97.3014
  288.5000   -20.6898     6.7376     6.5692     0.0069     2.4436     0.1308     8.6163   101.6882
  289.0000   -20.6611     6.7853     6.6255     0.0057     2.4402     0.1327     8.6169   100.6696
  289.5000   -20.6324     6.9276     6.6822     0.0055     2.4370     0.1330     8.6176   100.1231
  290.0000   -20.6596     7.0612     6.7394     0.0056     2.4374     0.1288     8.6182    98.8589
  290.5000   -20.7414     7.1190     6.7971     0.0094     2.4410     0.1246     8.6188   101.2534
  291.0000   -20.8233     7.1361     6.8553     0.0111     2.4466     0.1223     8.6195   103.7355
  291.5000   -20.9055     7.1543     6.9118     0.0093     2.4516     0.1288     8.6201   100.3137
  292.0000   -20.9877     7.1720     6.9589     0.0055     2.4500     0.1251     8.6207    98.9466
  292.5000   -21.0699     7.2217     7.0046     0.0098     2.4501     0.1220     8.6214   101.1200
  293.0000   -21.1520     7.3020     7.0506     0.0131     2.4528     0.1233     8.6220    99.2631
  293.5000   -21.2344     7.3833     7.0969     0.0120     2.4553     0.1265     8.6226    97.4908
  294.0000   -21.3163     7.4655     7.1435     0.0072     2.4518     0.1250     8.6232    95.7250
  294.5000   -21.3934     7.5488     7.1904     0.0065     2.4501     0.1231     8.6239    93.9607
  295.0000   -21.6000     7.6331     7.2386     0.0065     2.4536     0.1245     8.6245    92.4414
  295.5000   -21.8249     7.6808     7.2338     0.0058     2.4565     0.1283     8.6251    93.0684
  296.0000   -22.0159     7.7307     7.2276     0.0039     2.4507     0.1320     8.6258    93.8155
  296.5000   -21.9084     7.7948     7.2215     0.0024     2.4482     0.1352     8.6264    94.5703
  297.0000   -21.8008     7.7135     7.2154     0.0008     2.4358     0.1305     8.6270    94.9794
  297.5000   -21.6943     7.5703     7.2093     0.0030     2.4336     0.1238     8.6277    92.8115
  298.0000   -21.5879     7.4297     7.2031     0.0063     2.4383     0.1208     8.6283    97.5089
  298.5000   -21.4816     7.2917     7.1970     0.0054     2.4549     0.1200     8.6289    96.0092
  299.0000   -21.3720     7.1717     7.1909     0.0063     2.4561     0.1120     8.6290    97.9741
  299.5000   -21.2596     7.2621     7.1847     0.0130     2.4593     0.1020     8.6290    95.4725
  300.0000   -20.8346     7.3740     7.1786     0.0179     2.4749     0.0920     8.6300    96.2668
  300.5000   -20.8100     7.3728     7.1726     0.0194     2.4906     0.0810     8.6312    90.1024
  301.0000   -20.8161     7.3725     7.2145     0.0249     2.5027     0.1079     8.6324    91.0881
  301.5000   -20.8171     7.4980     7.2622     0.0007     2.4795     0.1019     8.6336    90.1616
  302.0000   -20.8569     7.7529     7.3102     0.0002     2.4680     0.1115     8.6348    89.0373
  302.5000   -20.9028     7.9403     7.3735     0.0071     2.4570     0.1286     8.6360    89.3682
  303.0000   -20.9488     7.7144     7.3392     0.0051     2.4517     0.1303     8.6372    89.1398
  303.5000   -20.9948     7.5138     7.2896     0.0035     2.4453     0.1313     8.6384    91.6190
  304.0000   -21.0408     7.3651     7.2403     0.0070     2.4395     0.1265     8.6396    94.4239
  304.5000   -21.0866     7.3357     7.1914     0.0107     2.4431     0.1273     8.6408    96.2884
  305.0000   -21.1324     7.3063     7.1428     0.0117     2.4481     0.1283     8.6419    94.9179
  305.5000   -21.1789     7.2771     7.0946     0.0121     2.4494     0.1292     8.6431   104.8667
  306.0000   -21.2544     7.2480     7.0426     0.0124     2.4473     0.1290     8.6443   101.2594
  306.5000   -21.4534     7.2386     7.0539     0.0159     2.4454     0.1270     8.6455    99.2600
  307.0000   -21.6521     7.2386     7.0692     0.0222     2.4485     0.1212     8.6467    95.8197
  307.5000   -21.8476     7.2386     7.0846     0.0284     2.4525     0.1257     8.6479    92.8364
  308.0000   -21.9891     7.2386     7.0999     0.0261     2.4566     0.1289     8.6491    93.9967
  308.5000   -21.8109     7.2386     7.1153     0.0171     2.4578     0.1307     8.6503    93.5367
  309.0000   -21.6381     7.2385     7.1307     0.0145     2.4524     0.1325     8.6515    98.7626
  309.5000   -21.4670     7.2385     7.1461     0.0087     2.4470     0.1345     8.6527   100.4242
  310.0000   -21.2949     7.2387     7.1616     0.0025     2.4418     0.1367     8.6538   102.2333
  310.5000   -21.2159     7.2386     7.1771    -0.0023     2.4368     0.1329     8.6550   100.7026
  311.0000   -21.2154     7.2768     7.1926     0.0002     2.4325     0.1303     8.6562   100.6024
  311.5000   -21.2151     7.3611     7.2081     0.0032     2.4357     0.1327     8.6574   100.9005
  312.0000   -21.2157     7.4464     7.2237     0.0073     2.4394     0.1318     8.6586    99.8849
  312.5000   -21.2140     7.5105     7.2396     0.0123     2.4390     0.1276     8.6598    98.2521
  313.0000   -21.0782     7.4146     7.1505     0.0173     2.4423     0.1297     8.6610    96.4579
  313.5000   -20.9262     7.3374     7.0467     0.0181     2.4457     0.1327     8.6622    95.1034
  314.0000   -20.8198     7.2612     6.9445     0.0188     2.4426     0.1384     8.6634    94.9438
  314.5000   -20.9677     7.1860     6.8441     0.0196     2.4309     0.1409     8.6646    90.0508
  315.0000   -21.1096     7.1116     6.7452     0.0319     2.4275     0.1278     8.6657    87.5678
  315.5000   -21.2160     7.0407     6.6477     0.0542     2.4359     0.1257     8.6669    94.2945
  316.0000   -21.1576     7.0242     6.5516     0.0532     2.4471     0.1284     8.6681    93.2232
  316.5000   -21.1028     7.0083     6.4790     0.0400     2.4491     0.1224     8.6684    94.8175
  317.0000   -21.0495     6.9924     6.4790     0.0394     2.4493     0.1159     8.6671    95.9993
  317.5000   -21.1347     6.9766     6.4790     0.0377     2.4628     0.1242     8.6658    95.8509
  318.0000   -21.4186     6.9608     6.4790     0.0324     2.4512     0.1281     8.6645    95.7492
  318.5000   -21.7012     6.9450     6.4790     0.0202     2.4432     0.1223     8.6632    97.0958
  319.0000   -21.9815     6.9293     6.4790     0.0186     2.4519     0.1329     8.6619   102.0769
  319.5000   -22.2003     6.9136     6.4595     0.0165     2.4525     0.1223     8.6606   100.1690
  320.0000   -22.0730     6.8979     6.4282     0.0155     2.4517     0.1212     8.6593    98.4508
  320.5000   -21.8470     6.8823     6.3971     0.0154     2.4534     0.1299     8.6580    95.3782
  321.0000   -21.9033     6.8668     6.3604     0.0117     2.4566     0.1258     8.6567    96.1820
  321.5000   -22.0134     6.8481     6.4222     0.0088     2.4496     0.1216     8.6553    97.6749
  322.0000   -21.9877     6.8483     6.4988     0.0110     2.4422     0.1282     8.6540   102.0772
  322.5000   -21.9617     6.8483     6.5763     0.0079     2.4458     0.1318     8.6527   100.8128
  323.0000   -21.9361     6.9118     6.6547     0.0019     2.4458     0.1255     8.6514   100.9787
  323.5000   -21.9104     7.0115     6.7340     0.0038     2.4414     0.1204     8.6501    99.5728
  324.0000   -21.8848     7.1369     6.8150     0.0104     2.4486     0.1213     8.6488    99.0751
  324.5000   -21.8591     7.2424     6.9143     0.0092     2.4611     0.1236     8.6475   100.7137
  325.0000   -21.8335     7.2615     6.9094     0.0089     2.4573     0.1254     8.6462   102.3734
