~VERSION INFORMATION
 VERS.                2.0:   CWLS LOG ASCII STANDARD - VERSION 2.0
 WRAP.                 NO:   ONE LINE PER DEPTH STEP
~WELL INFORMATION
#MNEM.UNIT      DATA TYPE    INFORMATION
#----------   ------------   ------------------------------
 STRT.F            7.0000:   START DEPTH
 STOP.F          587.0000:   STOP DEPTH
 STEP.F            0.5000:   STEP LENGTH
 NULL.          -999.2500:   NO VALUE
 COMP. FENIX & SCISSON INC:   COMPANY
 WELL.        NPR-3 #63-3:   WELL
 FLD .             TEAPOT:   FIELD
 LOC .       S3 T38N R78W:   LOCATION
 CNTY.            NATRONA:   COUNTY
 STAT.            WYOMING:   STATE
 CTRY. UNITED STATES OF AMERICA:   COUNTRY
 SRVC.     Wedge Wireline:   SERVICE COMPANY
 DATE.        06-JAN-1978:   LOGDATE
 API .       490251044700:   API NUMBER
~CURVE INFORMATION
#MNEM.UNIT       API CODE    CURVE DESCRIPTION
#----------   ------------   ------------------------------
 DEPT.F                  :   
 ILD .OHMM   05 120 46 00:   INDUCTION LOG DEEP
 SN  .OHMM   05 040 16 00:   SHORT NORMAL
 SPR .MV     05 010 01 00:   SPONTANEOUS POTENTIAL FROM RES.
 CALD.IN     45 280 60 00:   CALIPER FROM DENSITY LOG
 CORR.G/C3   45 356 01 00:   DENSITY CORRECTION
 DPHI.DEC    45 890 12 00:   DENSITY POROSITY SANDSTONE
 GRD .GAPI   45 310 01 00:   GAMMA RAY FROM DENSITY LOG
 RHOB.G/C3   45 350 01 00:   BULK DENSITY
~PARAMETER INFORMATION
#MNEM.UNIT          VALUE    DESCRIPTION
#----------   ------------   ------------------------------
 PD  .                 GL:   PERMANENT DATUM
 EPD .F              5177:   ELEVATION PERMANENT DATUM
 LMF .                 KB:   LOG MEASURED FROM
 DMF .                 KB:   DRILLING MEASURED FROM
 EKB .F              5181:   KELLING BUSHING
 EGL .F              5177:   GROUND LEVEL
 DATE.        06-JAN-1978:   RUN DATE
 RUN .                  1:   RUN NUMBER
 DD  .F               590:   DEPTH DRILLER
 DL  .F               581:   DEPTH LOGGER
 BLI .F               576:   BOTTOM LOG INTERVAL
 TLI .F                20:   TOP LOG INTERVAL
 CS  .IN            9.625:   CASING SIZE
 CBD .F                19:   CASING BOTTOM DRILLER
 CBL .F                19:   CASING BOTTOM LOGGER
 BS  .IN            7.875:   BIT SIZE
 BSD .F               590:   BIT SIZE AT DEPTH
 DFT .                KCL:   DRILLING FLUID TYPE
 DFD .                8.5:   DRILLING FLUID DENSITY
 DFV .                 34:   DRILLING FLUID VISCOSITY
 DFPH.                9.0:   DRILLING FLUID PH
 DFL .                7.8:   DRILLING FLUID LOSS
 MSS .           FLOWLINE:   MUD SAMPLE SOURCE
 RMS .OHMM           0.22:   RESISTIVITY MUD SAMPLE
 MST .F                63:   MUD SAMPLE TEMPERATURE
 RMF .OHMM           0.24:   RESISTIVITY MUD FILTRATE SAMPLE
 MFST.F                63:   MUD FILTRATE SAMPLE TEMPERATURE
 RMC .OHMM           0.48:   RESISTIVITY MUD CAKE
 MCST.F                64:   MUD CAKE SAMPLE TEMPERATURE
 MFSS.               MEAS:   MUD FILTRATE SAMPLE SOURCE
 MCSS.               MEAS:   MUD CAKE SAMPLE SOURCE
 RMB .OHMM           0.19:   RESISTIVITY MUD AT BHT
 BHT .F                71:   BOTTOM HOLE TEMPERATURE
 TCS .HRS               3:   TIME CURCULATED STOPPED
 MRT .F                71:   MAXIMUM RECORDED TEMPERATURE
 LUN .               2958:   LOGGING UNIT NUMBER
 LUL .             CASPER:   LOGGING UNIT LOCATION
 ENGI.             MILLER:   RECORDING ENGINEER
 WITN.         HARRINGTON:   WITNESSED BY
 CLNT.            A2DTECH:   CLIENT CODE
 ORIG.           5" PRINT:   ORIGIN OF DATA
 UWI .       490251044700:   UNIQUE WELL ID
 DICO. A2D Technologies, Inc.:   DIGITIZING COMPANY
~OTHER INFORMATION
~A    DEPT     ILD         SN        SPR       CALD       CORR       DPHI         GRD      RHOB   
# ...
   88.0000    10.2505     7.2703   -32.1003     8.4129    -0.3312     0.1175    85.9771     2.4695
   88.5000    10.3956     7.3760   -32.0841     8.4135    -0.3326     0.1148    85.0951     2.4657
   89.0000    10.5426     7.4329   -31.9179     8.4140    -0.3310     0.1136    83.3742     2.4680
   89.5000    10.6925     7.4892   -31.9041     8.4147    -0.3370     0.1127    81.6291     2.4704
   90.0000    10.7692     7.4940   -31.8874     8.4153    -0.3475     0.1157    80.1781     2.4681
   90.5000    10.8465     7.4990   -31.9545     8.4206    -0.3567     0.1205    79.0212     2.4576
   91.0000    10.8494     7.4011   -32.0029     8.4310    -0.3624     0.1226    78.1585     2.4500
   91.5000    10.8523     7.3046   -31.9867     8.4462    -0.3638     0.1190    77.8840     2.4464
   92.0000    10.8557     7.2093   -31.9705     8.4469    -0.3617     0.1165    78.4967     2.4540
   92.5000    10.7091     7.1656   -31.9543     8.4474    -0.3600     0.1147    81.4575     2.4593
   93.0000    10.6390     7.2210   -32.0871     8.4480    -0.3559     0.1147    89.7124     2.4631
   93.5000    10.4961     7.2257   -32.2193     8.4486    -0.3513     0.1156    99.6541     2.4632
   94.0000    10.4267     7.2804   -32.4956     8.4491    -0.3482     0.1171   127.9918     2.4617
   94.5000    10.2872     7.3355   -33.2137     8.4498    -0.3461     0.1183   129.7712     2.4685
   95.0000    10.2899     7.3414   -33.6409     8.4650    -0.3434     0.1192   119.5016     2.4693
   95.5000    10.2140     7.3462   -34.0681     8.4508    -0.3433     0.1198   114.5212     2.4664
   96.0000    10.1543     7.3510   -34.4954     8.4515    -0.3432     0.1198   111.5020     2.4634
   96.5000    10.0185     7.3558   -35.0663     8.4521    -0.3431     0.1194   101.9183     2.4610
   97.0000    10.0211     7.3617   -35.3498     8.4527    -0.3446     0.1191    93.4085     2.4589
   97.5000     9.9480     7.4174   -35.6258     8.4533    -0.3460     0.1191    89.8987     2.4575
   98.0000     9.8890     7.4223   -35.7580     8.4539    -0.3459     0.1185    87.8595     2.4575
   98.5000    10.0295     7.4784   -35.8903     8.4544    -0.3473     0.1178    86.3892     2.4606
   99.0000    10.2418     7.4845   -35.8712     8.4550    -0.3472     0.1152    85.5458     2.4659
   99.5000    10.4586     7.5932   -35.8560     8.4556    -0.3471     0.1121    85.8644     2.4712
  100.0000    10.7057     7.6204   -35.9882     8.4269    -0.3466     0.1095    86.4722     2.4783
  100.5000    10.9706     7.7694   -35.1703     8.4356    -0.3443     0.1066    86.1977     2.4888
  101.0000    11.1464     7.9251   -35.3115     8.4442    -0.3420     0.1037    85.9232     2.4956
  101.5000    11.3222     8.0382   -35.5981     8.4455    -0.3404     0.1020    85.2376     2.5002
  102.0000    11.4614     8.0421   -35.5930     8.4468    -0.3418     0.1023    84.9718     2.5010
  102.5000    11.7056     8.0452   -35.5879     8.4629    -0.3432     0.1035    84.7004     2.4950
  103.0000    11.7112     8.0483   -35.7301     8.4642    -0.3461     0.1056    84.7226     2.4875
  103.5000    11.7158     8.0515   -35.7250     8.4801    -0.3459     0.1086    84.1576     2.4800
  104.0000    11.7204     7.9452   -35.8663     8.4959    -0.3442     0.1120    86.5349     2.4740
  104.5000    11.5613     7.8395   -36.1528     8.4972    -0.3441     0.1155    90.6688     2.4687
  105.0000    11.4105     7.7345   -36.4384     8.4988    -0.3439     0.1182    90.6911     2.4629
  105.5000    11.1056     7.6324   -36.8703     8.5000    -0.3513     0.1212    90.7137     2.4599
  106.0000    10.8078     7.4279   -37.3022     8.5013    -0.3572     0.1239    93.6781     2.4562
  106.5000    10.4457     7.2788   -37.8785     8.5025    -0.3602     0.1260    98.3994     2.4538
  107.0000     9.9584     7.1334   -38.1651     8.5038    -0.3615     0.1284   103.7080     2.4518
  107.5000     9.6914     7.0871   -38.4527     8.5053    -0.3629     0.1292   107.5482     2.4503
  108.0000     9.6952     7.0412   -38.7384     8.5066    -0.3627     0.1292   108.7460     2.4488
  108.5000     9.8336     6.9963   -39.1702     8.5078    -0.3641     0.1283   107.8920     2.4489
  109.0000    10.1238     7.0474   -39.3114     8.5091    -0.3639     0.1264   106.4459     2.4505
  109.5000    10.6177     7.0502   -39.4527     8.4957    -0.3623     0.1231   104.4124     2.4521
  110.0000    10.9943     7.1641   -39.5930     8.4824    -0.3584     0.1249   103.8473     2.4551
  110.5000    11.3062     7.4050   -39.5887     8.4839    -0.3559     0.1267   103.2878     2.4575
  111.0000    11.4676     7.5625   -39.5836     8.4852    -0.3542     0.1227    99.1985     2.4598
  111.5000    11.6325     7.7235   -39.5795     8.4718    -0.3541     0.1184    90.9976     2.4583
  112.0000    11.6371     7.8879   -39.5754     8.4731    -0.3554     0.1194    88.9640     2.4546
  112.5000    11.6416     8.0012   -39.5712     8.4747    -0.3568     0.1226    88.6926     2.4517
  113.0000    11.5661     8.0043   -39.5662     8.4759    -0.3550     0.1199    88.7205     2.4517
  113.5000    11.4912     8.1185   -39.5621     8.4772    -0.3489     0.1189    89.6238     2.4530
  114.0000    11.4968     8.1217   -39.5579     8.4637    -0.3457     0.1237    90.5272     2.4563
  114.5000    11.6610     8.1256   -39.5538     8.4651    -0.3501     0.1261    92.3116     2.4603
  115.0000    11.6656     8.1850   -39.5487     8.4666    -0.3517     0.1231    95.8637     2.4663
  115.5000    11.7509     8.1882   -39.5446     8.4679    -0.3435     0.1185   101.1723     2.4709
  116.0000    11.7566     8.1914   -39.6858     8.4691    -0.3360     0.1140   107.9494     2.4747
  116.5000    11.7612     8.2520   -39.8271     8.4704    -0.3344     0.1112   111.7896     2.4771
  117.0000    11.6839     8.2552   -40.2580     8.4716    -0.3282     0.1087   113.5742     2.4825
  117.5000    11.6896     8.2584   -40.6899     8.4732    -0.3142     0.1027   112.7208     2.4900
  118.0000    11.6138     8.2617   -40.9765     8.4745    -0.3358     0.1060   104.2262     2.4682
  118.5000    11.5385     8.2081   -41.4089     8.4757    -0.3519     0.1162    97.2000     2.4577
  119.0000    11.3850     8.2121   -41.9857     8.4770    -0.3549     0.1195    94.8722     2.4698
  119.5000    11.3112     8.1581   -42.4177     8.4782    -0.3577     0.1186   100.9408     2.4752
  120.0000    11.3168     8.1621   -42.9939     8.4795    -0.3712     0.1142    97.8598     2.4684
  120.5000    11.3330     8.1661   -43.2805     8.4661    -0.3893     0.1095    89.6589     2.4640
  121.0000    11.4051     8.1693   -43.5671     8.4677    -0.3936     0.1049    91.4433     2.4867
  121.5000    11.4095     8.0599   -43.7073     8.4689    -0.3813     0.0979   101.1572     2.5132
  122.0000    11.4140     8.0638   -43.7032     8.4556    -0.3479     0.0876   112.6332     2.5366
  122.5000    11.4196     8.0670   -43.6991     8.4571    -0.2962     0.0770   111.4808     2.5556
  123.0000    11.4241     8.0709   -43.6939     8.4582    -0.3282     0.0863   110.3339     2.5103
  123.5000    11.4285     8.0740   -43.6898     8.4595    -0.3610     0.1023   106.2446     2.4817
  124.0000    11.3543     8.0772   -43.6857     8.4609    -0.3730     0.1153    88.2937     2.4682
  124.5000    11.2809     8.0804   -43.6816     8.4621    -0.3698     0.1144    86.9059     2.4599
  125.0000    11.2864     8.1401   -43.6765     8.4637    -0.3636     0.1112    87.5211     2.4683
  125.5000    11.2908     8.1433   -43.6724     8.4500    -0.3589     0.1086    89.3055     2.4767
  126.0000    11.2952     8.2028   -43.6682     8.4516    -0.3633     0.1134    90.5026     2.4684
  126.5000    11.3778     8.2060   -43.6641     8.4528    -0.3677     0.1170    91.7885     2.4571
  127.0000    11.4621     8.2100   -43.6599     8.4395    -0.3691     0.1197    93.4896     2.4511
  127.5000    11.4666     8.2132   -43.8013     8.4408    -0.3644     0.1200    95.2740     2.4489
  128.0000    11.6304     8.2164   -43.7961     8.4423    -0.3566     0.1164    93.2405     2.4603
