~VERSION INFORMATION
 VERS.                2.0:   CWLS LOG ASCII STANDARD - VERSION 2.0
 WRAP.                 NO:   ONE LINE PER DEPTH STEP
~WELL INFORMATION
#MNEM.UNIT      DATA TYPE    INFORMATION
#----------   ------------   ------------------------------
 STRT.F         1179.0000:   START DEPTH
 STOP.F         2186.0000:   STOP DEPTH
 STEP.F            0.5000:   STEP LENGTH
 NULL.          -999.2500:   NO VALUE
 COMP. FENIX & SCISSON INC:   COMPANY
 WELL.  404 SH 33 #404-33:   WELL
 FLD .             TEAPOT:   FIELD
 LOC .      S33 T39N R78W:   LOCATION
 CNTY.            NATRONA:   COUNTY
 STAT.            WYOMING:   STATE
 CTRY. UNITED STATES OF AMERICA:   COUNTRY
 SRVC.            Unknown:   SERVICE COMPANY
 DATE.        19-NOV-1992:   LOGDATE
 API .       490251071100:   API NUMBER
~CURVE INFORMATION
#MNEM.UNIT       API CODE    CURVE DESCRIPTION
#----------   ------------   ------------------------------
 DEPT.F                  :   
 TGAS.UNITS  91 830 01 00:   TOTAL GAS FROM HOTWIRE
 ROP .MIN/FT 91 810 01 00:   RATE OF DRILLING PENETRATION
~PARAMETER INFORMATION
#MNEM.UNIT          VALUE    DESCRIPTION
#----------   ------------   ------------------------------
 EKB .F              5170:   KELLING BUSHING
 EGL .F              5160:   GROUND LEVEL
 DATE.        19-NOV-1992:   RUN DATE
 RUN .                  1:   RUN NUMBER
 DD  .F              2186:   DEPTH DRILLER
 TLI .F              1186:   TOP LOG INTERVAL
 CS  .IN             8.25:   CASING SIZE
 CBD .F              1080:   CASING BOTTOM DRILLER
 WITN.   C. TOWER/R. HUSK:   WITNESSED BY
 CLNT.            A2DTECH:   CLIENT CODE
 ORIG.           5" PRINT:   ORIGIN OF DATA
 UWI .       490251071100:   UNIQUE WELL ID
 DICO. A2D Technologies, Inc.:   DIGITIZING COMPANY
~OTHER INFORMATION
~A  DEPT       TGAS       ROP   
# ...
 1543.5000   320.0870     0.7274
 1544.0000   320.0186     0.7497
 1544.5000   319.9501     0.7502
 1545.0000   319.8817     0.7068
 1545.5000   319.8133     0.6307
 1546.0000   319.7448     0.6092
 1546.5000   319.6764     0.5877
 1547.0000   319.6080     0.6211
 1547.5000   319.5395     0.6543
 1548.0000   319.4711     0.6876
 1548.5000   319.4026     0.7428
 1549.0000   319.3342     0.7651
 1549.5000   319.2658     0.7983
 1550.0000   319.1974     0.8097
 1550.5000   319.1289     0.7990
 1551.0000   319.0605     0.7449
 1551.5000   318.9920     0.7124
 1552.0000   318.9236     0.6802
 1552.5000   318.8552     0.6696
 1553.0000   318.7867     0.6701
 1553.5000   318.7183     0.6705
 1554.0000   318.6499     0.6819
 1554.5000   318.5814     0.7042
 1555.0000   318.5130     0.7156
 1555.5000   318.4445     0.7598
 1556.0000   318.3761     0.7712
 1556.5000   318.3077     0.8044
 1557.0000   318.2393     0.8157
 1557.5000   318.1708     0.7725
 1558.0000   318.1024     0.7618
 1558.5000   318.0339     0.7295
 1559.0000   317.9655     0.7190
 1559.5000   317.8971     0.7085
 1560.0000   317.8286     0.6870
 1560.5000   317.7602     0.6985
 1561.0000   317.6918     0.7099
 1561.5000   317.6233     0.7104
 1562.0000   317.5549     0.7217
 1562.5000   317.4865     0.7222
 1563.0000   316.3738     0.7226
 1563.5000   312.0468     0.7120
 1564.0000   307.7039     0.6797
 1564.5000   300.7083     0.6473
 1565.0000   293.3178     0.6039
 1565.5000   285.9274     0.5607
 1566.0000   278.5370     0.5501
 1566.5000   271.1466     0.5177
 1567.0000   263.7561     0.5072
 1567.5000   256.3657     0.5077
 1568.0000   248.9753     0.4863
 1568.5000   241.5849     0.4757
 1569.0000   229.1679     0.4762
 1569.5000   221.5348     0.4767
 1570.0000   217.1814     0.4771
 1570.5000   216.1445     0.4775
 1571.0000   216.2291     0.4780
 1571.5000   216.2978     0.4894
 1572.0000   216.3612     0.5117
 1572.5000   216.3457     0.5120
 1573.0000   216.3191     0.5125
 1573.5000   216.2926     0.5129
 1574.0000   216.2660     0.5133
 1574.5000   216.2394     0.5138
 1575.0000   216.2129     0.5142
 1575.5000   216.1863     0.5147
 1576.0000   216.1597     0.5151
 1576.5000   216.1332     0.5155
 1577.0000   216.1066     0.5160
 1577.5000   216.0801     0.5164
 1578.0000   216.0535     0.5168
 1578.5000   216.0269     0.5173
 1579.0000   216.0004     0.5177
 1579.5000   215.9738     0.5182
 1580.0000   215.9473     0.5186
 1580.5000   215.9207     0.5190
 1581.0000   215.8941     0.5195
 1581.5000   215.8676     0.5199
 1582.0000   215.8410     0.5204
 1582.5000   215.8144     0.5208
 1583.0000   215.7879     0.5212
 1583.5000   215.7613     0.5217
 1584.0000   215.7348     0.5221
 1584.5000   215.7082     0.5225
 1585.0000   215.6816     0.5230
 1585.5000   215.6551     0.5234
 1586.0000   215.6285     0.5239
 1586.5000   215.6019     0.5243
 1587.0000   215.5754     0.5247
 1587.5000   215.5488     0.5252
 1588.0000   215.5223     0.5256
 1588.5000   215.4957     0.5260
 1589.0000   215.4691     0.5265
 1589.5000   215.4426     0.5269
 1590.0000   215.4160     0.5274
 1590.5000   215.3895     0.5278
 1591.0000   215.3629     0.5282
 1591.5000   215.3363     0.5287
 1592.0000   215.3098     0.5291
 1592.5000   215.2832     0.5295
 1593.0000   215.2567     0.5300
 1593.5000   215.2301     0.5304
 1594.0000   215.2035     0.5309
 1594.5000   215.1770     0.5313
 1595.0000   215.1504     0.5318
 1595.5000   215.1238     0.5432
 1596.0000   214.0088     0.5764
 1596.5000   215.1988     0.6644
 1597.0000   214.1409     0.7086
 1597.5000   210.9088     0.7528
 1598.0000   207.6820     0.7641
 1598.5000   206.6399     0.7207
 1599.0000   206.7245     0.6885
 1599.5000   205.6929     0.6669
 1600.0000   205.7563     0.6565
 1600.5000   205.7667     0.6350
 1601.0000   205.7461     0.6244
 1601.5000   205.7255     0.6250
 1602.0000   205.7049     0.6144
 1602.5000   205.6843     0.5929
 1603.0000   205.6637     0.5824
 1603.5000   205.6431     0.5830
 1604.0000   205.6225     0.5717
 1604.5000   205.6019     0.5709
 1605.0000   205.5813     0.5701
 1605.5000   205.5607     0.5694
 1606.0000   205.5401     0.5686
 1606.5000   205.5195     0.5678
 1607.0000   205.4989     0.5671
 1607.5000   205.4783     0.5663
 1608.0000   205.4577     0.5655
 1608.5000   205.4371     0.5647
 1609.0000   205.4165     0.5640
 1609.5000   205.3959     0.5632
 1610.0000   205.3753     0.5624
 1610.5000   205.3547     0.5617
 1611.0000   205.3341     0.5609
 1611.5000   205.3134     0.5601
 1612.0000   205.2928     0.5593
 1612.5000   205.2722     0.5586
 1613.0000   205.2516     0.5578
 1613.5000   205.2310     0.5570
 1614.0000   205.2104     0.5562
 1614.5000   205.1898     0.5555
 1615.0000   205.1692     0.5547
 1615.5000   205.1486     0.5539
 1616.0000   205.1280     0.5532
 1616.5000   205.1074     0.5524
 1617.0000   205.0868     0.5516
 1617.5000   205.0662     0.5508
 1618.0000   205.0456     0.5501
 1618.5000   205.0250     0.5493
 1619.0000   205.0044     0.5485
 1619.5000   204.9838     0.5478
 1620.0000   204.9632     0.5470
 1620.5000   204.9426     0.5462
 1621.0000   204.9220     0.5454
 1621.5000   204.9014     0.5447
 1622.0000   204.8808     0.5439
 1622.5000   204.8602     0.5431
 1623.0000   204.8396     0.5424
 1623.5000   204.8190     0.5416
 1624.0000   204.7984     0.5408
 1624.5000   204.7778     0.5400
 1625.0000   204.7572     0.5393
 1625.5000   204.7366     0.5385
 1626.0000   204.7160     0.5377
 1626.5000   204.6954     0.5370
 1627.0000   204.6748     0.5362
 1627.5000   204.6542     0.5354
 1628.0000   204.6336     0.5346
 1628.5000   204.6130     0.5339
 1629.0000   204.5924     0.5331
 1629.5000   204.5717     0.5323
 1630.0000   204.5511     0.5316
 1630.5000   204.5305     0.5308
 1631.0000   204.5099     0.5300
 1631.5000   204.4893     0.5292
 1632.0000   204.4687     0.5285
 1632.5000   204.4481     0.5277
 1633.0000   204.4275     0.5269
 1633.5000   204.4069     0.5262
 1634.0000   204.3863     0.5254
 1634.5000   204.3657     0.5246
 1635.0000   204.3451     0.5238
 1635.5000   204.3245     0.5234
 1636.0000   204.3039     0.5239
 1636.5000   204.2833     0.5351
 1637.0000   204.2627     0.5247
 1637.5000   204.2421     0.5252
 1638.0000   204.2215     0.5257
 1638.5000   204.2009     0.5261
 1639.0000   204.1803     0.5265
 1639.5000   204.1597     0.5269
 1640.0000   204.1391     0.5274
 1640.5000   204.1185     0.5388
 1641.0000   204.0979     0.5392
 1641.5000   204.0773     0.5387
 1642.0000   204.0567     0.5374
 1642.5000   204.0361     0.5360
 1643.0000   204.0155     0.5346
 1643.5000   203.9949     0.5332
 1644.0000   203.9743     0.5318
 1644.5000   203.9537     0.5304
 1645.0000   203.9331     0.5291
 1645.5000   203.9125     0.5277
 1646.0000   203.8919     0.5263
 1646.5000   203.8713     0.5249
 1647.0000   203.8507     0.5235
 1647.5000   203.8300     0.5221
 1648.0000   203.8094     0.5208
 1648.5000   203.7888     0.5194
 1649.0000   203.7682     0.5180
 1649.5000   203.7476     0.5166
 1650.0000   203.7270     0.5152
 1650.5000   203.7064     0.5138
 1651.0000   203.6858     0.5125
 1651.5000   203.6652     0.5111
 1652.0000   203.6446     0.5097
 1652.5000   203.6240     0.5083
 1653.0000   203.6034     0.5069
 1653.5000   203.5828     0.5063
 1654.0000   203.5622     0.4958
 1654.5000   203.5416     0.4963
 1655.0000   203.5210     0.4968
 1655.5000   202.4437     0.4972
 1656.0000   199.1948     0.4976
 1656.5000   198.1385     0.4981
 1657.0000   195.9779     0.4985
 1657.5000   194.9295     0.5099
 1658.0000   191.6887     0.5432
 1658.5000   191.7405     0.5544
 1659.0000   190.6762     0.5543
 1659.5000   190.7401     0.5543
 1660.0000   190.7920     0.5542
 1660.5000   188.6394     0.5542
 1661.0000   187.5739     0.5541
 1661.5000   187.6134     0.5541
 1662.0000   187.6530     0.5540
 1662.5000   187.6925     0.5540
 1663.0000   187.7320     0.5539
 1663.5000   187.7715     0.5539
 1664.0000   187.8111     0.5538
 1664.5000   187.8506     0.5538
