~VERSION INFORMATION
 VERS.                2.0:   CWLS LOG ASCII STANDARD - VERSION 2.0
 WRAP.                 NO:   ONE LINE PER DEPTH STEP
~WELL INFORMATION
#MNEM.UNIT      DATA TYPE    INFORMATION
#----------   ------------   ------------------------------
 STRT.F           32.0000:   START DEPTH
 STOP.F          551.0000:   STOP DEPTH
 STEP.F            0.5000:   STEP LENGTH
 NULL.          -999.2500:   NO VALUE
 COMP.    FENIX & SCISSON:   COMPANY
 WELL.   NPR ##3 84-SX-10:   WELL
 FLD .              NPR 3:   FIELD
 LOC .      S10 T38N R78W:   LOCATION
 CNTY.            NATRONA:   COUNTY
 STAT.            WYOMING:   STATE
 CTRY. UNITED STATES OF AMERICA:   COUNTRY
 SRVC.              Welex:   SERVICE COMPANY
 DATE.        25-JAN-1978:   LOGDATE
 API .       490251033700:   API NUMBER
~CURVE INFORMATION
#MNEM.UNIT       API CODE    CURVE DESCRIPTION
#----------   ------------   ------------------------------
 DEPT.F                  :   
 SPR .MV     07 010 01 00:   SPONTANEOUS POTENTIAL FROM RES.
 ILD .OHMM   07 120 46 00:   INDUCTION LOG DEEP
 ILM .OHMM   07 120 44 00:   INDUCTION LOG MEDIUM
 SGRD.OHMM   07 220 05 00:   SHALLOW GUARD RESISTIVITY
 CALD.IN     45 280 60 00:   CALIPER FROM DENSITY LOG
 GRD .GAPI   45 310 01 00:   GAMMA RAY FROM DENSITY LOG
 CORR.G/C3   45 356 01 00:   DENSITY CORRECTION
 RHOB.G/C3   45 350 01 00:   BULK DENSITY
 DPHI.DEC    45 890 12 00:   DENSITY POROSITY SANDSTONE
~PARAMETER INFORMATION
#MNEM.UNIT          VALUE    DESCRIPTION
#----------   ------------   ------------------------------
 CLNT.            A2DTECH:   CLIENT CODE
 ORIG.           5" PRINT:   ORIGIN OF DATA
 UWI .       490251033700:   UNIQUE WELL ID
 DICO. A2D Technologies, Inc.:   DIGITIZING COMPANY
~OTHER INFORMATION
~A   DEPT      SPR        ILD        ILM       SGRD         CALD      GRD       CORR       RHOB       DPHI   
# ...
  397.0000   -40.6817    13.1439    13.9042    21.1319     9.0808    91.8790     0.0347     2.4256     0.1375
  397.5000   -40.6441    13.0535    14.5194    20.5566     9.0804    91.4487     0.0362     2.4248     0.1396
  398.0000   -40.5718    12.9638    15.1053    20.7025     9.0798    90.9969     0.0377     2.4263     0.1393
  398.5000   -40.5360    12.7858    15.3148    20.7054     9.0794    90.5450     0.0436     2.4324     0.1363
  399.0000   -40.3873    12.7863    15.1021    20.7083     9.0790    89.7925     0.0496     2.4369     0.1330
  399.5000   -40.3892    12.6983    14.3859    20.7112     9.0786    89.4908     0.0481     2.4430     0.1299
  400.0000   -40.3757    12.5809    13.9850    20.7141     9.0664    89.7867     0.0450     2.4383     0.1308
  400.5000   -40.1966    12.4029    13.7596    20.6143     9.0080    90.8358     0.0443     2.4424     0.1305
  401.0000   -40.2402    12.4033    13.1991    20.5628     8.9730    91.1318     0.0480     2.4526     0.1200
  401.5000   -40.2402    12.4898    12.9272    20.5629     8.9429    91.2787     0.0510     2.4594     0.1152
  402.0000   -40.2402    12.5770    13.0165    20.4208     8.9279    91.8739     0.0539     2.4578     0.1146
  402.5000   -40.3904    12.6647    13.0159    20.4209     8.9129    92.8603     0.0584     2.4608     0.1203
  403.0000   -40.3904    12.5777    12.7477    20.2798     8.8979    95.6179     0.0599     2.4668     0.1155
  403.5000   -40.3904    12.4051    12.4851    20.2799     8.8754    96.2152     0.0599     2.4706     0.1121
  404.0000   -40.3904    12.2348    12.2279    19.7142     8.8529    95.1588     0.0598     2.4660     0.1131
  404.5000   -40.3904    12.1506    12.1431    18.7905     8.8228    94.4037     0.0583     2.4593     0.1158
  405.0000   -40.3904    12.0671    12.3120    18.1501     8.8078    93.9489     0.0523     2.4668     0.1155
  405.5000   -40.3904    11.9842    12.2264    17.9001     8.7928    94.1141     0.0462     2.4607     0.1149
  406.0000   -40.3904    11.8197    12.0577    17.7765     8.7778    94.6899     0.0417     2.4525     0.1200
  406.5000   -40.2402    11.5770    11.8914    18.7908     8.7552    94.9859     0.0387     2.4456     0.1252
  407.0000   -40.2402    11.4180    12.1406    19.3194     8.7477    95.2830     0.0363     2.4441     0.1290
  407.5000   -40.2402    11.2613    12.3236    18.4040     8.7327    95.5778     0.0341     2.4464     0.1278
  408.0000   -40.2402    11.1068    12.4806    17.4107     8.7327    95.7238     0.0326     2.4464     0.1260
  408.5000   -40.2402    11.0304    12.3083    16.1319     8.7327    95.8695     0.0325     2.4471     0.1269
  409.0000   -40.0901    10.9546    12.2229    16.1149     8.7327    95.5638     0.0325     2.4479     0.1282
  409.5000   -40.0901    10.8793    11.9711    16.8203     8.7177    95.2591     0.0325     2.4478     0.1269
  410.0000   -40.0901    10.9553    11.8880    17.5322     8.7177    94.8044     0.0339     2.4478     0.1251
  410.5000   -40.0901    11.0317    11.8875    17.9009     8.7177    94.1994     0.0339     2.4478     0.1245
  411.0000   -40.0901    11.2636    11.8870    18.1510     8.7177    94.9459     0.0354     2.4478     0.1254
  411.5000   -40.0901    11.3471    11.9692    18.5327     8.7027    96.0060     0.0353     2.4478     0.1269
  412.0000   -40.2402    11.5007    12.0519    19.0541     8.7027    96.4387     0.0383     2.4485     0.1239
  412.5000   -40.0901    11.5809    12.2194    19.6015     8.6877    95.3823     0.0413     2.4665     0.1134
  413.0000   -40.2402    11.6617    12.3893    20.0021     8.6652    94.4770     0.0443     2.4733     0.1100
  413.5000   -40.0901    11.7431    12.9294    19.3204     8.6276    94.1735     0.0495     2.4785     0.1083
  414.0000   -40.0901    11.8250    13.2767    18.9227     8.6126    96.4203     0.0532     2.4823     0.1074
  414.5000   -40.0901    11.8253    12.9133    19.1871     8.5826    97.1771     0.0532     2.4838     0.1071
  415.0000   -40.0901    11.8257    13.0930    19.7269     8.5676    97.9121     0.0532     2.4732     0.1104
  415.5000   -40.0901    11.7444    13.2750    19.8642     8.5375    98.3582     0.0501     2.4695     0.1122
  416.0000   -40.0901    11.6637    13.2744    19.3208     8.4925    98.8054     0.0486     2.4649     0.1150
  416.5000   -39.9399    11.5036    13.0763    18.5334     8.4625    99.2505     0.0516     2.4589     0.1179
  417.0000   -39.9399    11.2669    12.4713    18.2782     8.4474    99.5465     0.0522     2.4521     0.1191
  417.5000   -39.9399    10.8843    11.8807    18.1519     8.4324    99.9925     0.0530     2.4611     0.1149
  418.0000   -39.9399    10.5872    11.7982    18.0265     8.4174   100.1384     0.0500     2.4686     0.1119
  418.5000   -39.9399    10.3698    11.8797    17.7783     8.3874   100.1330     0.0454     2.4679     0.1122
  419.0000   -39.7898    10.2274    11.8792    17.5335     8.3724   100.1286     0.0439     2.4581     0.1159
  419.5000   -39.7898    10.1571    11.1228    17.4123     8.3574    99.9742     0.0454     2.4452     0.1239
  420.0000   -39.7898    10.1574    10.7063    17.2921     8.3273    98.7686     0.0521     2.4430     0.1290
  420.5000   -39.7898    10.2283    11.2376    17.2921     8.3123    93.0225     0.0573     2.4430     0.1309
  421.0000   -39.7898    10.4433    11.7139    17.9132     8.2673    89.4496     0.0588     2.4340     0.1348
  421.5000   -39.7898    10.7370    11.8768    18.6632     8.2372    88.5443     0.0588     2.4227     0.1435
  422.0000   -39.7898    11.0388    12.1256    18.9239     8.1997    85.3869     0.0557     2.4016     0.1502
  422.5000   -39.7898    11.4281    12.4801    19.0557     8.1772    81.1783     0.0527     2.3809     0.1591
  423.0000   -39.7898    12.2695    12.7268    19.7282     8.1471    78.1710     0.0497     2.3632     0.1685
  423.5000   -39.7898    13.6834    13.6388    21.4404     8.1321    76.0601     0.0473     2.3414     0.1775
  424.0000   -39.7898    15.0769    15.0267    26.6775     8.1321    73.9571     0.0481     2.3309     0.1935
  424.5000   -39.7898    16.6123    17.4990    35.5726     8.1321    72.9017     0.0511     2.3354     0.1958
  425.0000   -39.6396    18.1777    20.5196    40.5832     8.1321    71.8463     0.0465     2.3316     0.1938
  425.5000   -39.4895    19.2178    22.1943    42.6022     8.1471    71.3915     0.0390     2.3195     0.2015
  426.0000   -39.3393    21.0243    23.8944    45.9798     8.1622    71.0869     0.0375     2.3197     0.2007
  426.5000   -39.3393    22.8467    25.9639    52.8545     8.1772    70.7823     0.0397     2.3383     0.1913
  427.0000   -39.3393    24.4856    26.3252    60.2616     8.1922    70.7777     0.0479     2.3623     0.1796
  427.5000   -39.3393    25.3490    26.1422    49.2825     8.1772    70.7725     0.0569     2.3886     0.1688
  428.0000   -39.3393    25.5258    27.0622    43.8016     8.1922    71.0685     0.0644     2.4225     0.1600
  428.5000   -39.3393    25.7039    29.4743    42.3088     8.1922    71.2154     0.0704     2.4540     0.1502
  429.0000   -39.3393    26.6104    30.4408    55.0669     8.1772    71.5103     0.0748     2.4668     0.1390
  429.5000   -39.1892    26.9822    30.6512    90.6270     8.1622    72.2567     0.0763     2.4517     0.1378
  430.0000   -38.8689    26.7966    30.2281   100.6798     8.1321    73.3632     0.0725     2.4232     0.1426
  430.5000   -38.4384    26.2465    29.6054    77.3546     8.1171    75.7004     0.0702     2.3886     0.1576
  431.0000   -38.1381    25.3540    28.9955    52.0956     8.0721    77.3478     0.0717     2.3758     0.1679
  431.5000   -37.9880    23.4739    27.3069    43.8028     8.0270    78.3945     0.0717     2.3735     0.1694
  432.0000   -37.9880    21.9237    24.8959    42.0176     7.9970    79.4412     0.0732     2.3742     0.1694
  432.5000   -37.8378    21.0320    23.5532    40.2219     7.9670    80.3378     0.0761     2.3772     0.1685
  433.0000   -37.6877    20.1766    22.4378    37.6047     7.9369    81.5686     0.0776     2.3780     0.1673
