~VERSION INFORMATION
 VERS.                2.0:   CWLS LOG ASCII STANDARD - VERSION 2.0
 WRAP.                 NO:   ONE LINE PER DEPTH STEP
~WELL INFORMATION
#MNEM.UNIT      DATA TYPE    INFORMATION
#----------   ------------   ------------------------------
 STRT.F           34.0000:   START DEPTH
 STOP.F          662.0000:   STOP DEPTH
 STEP.F            0.5000:   STEP LENGTH
 NULL.          -999.2500:   NO VALUE
 COMP. FENIX & SCISSON INC:   COMPANY
 WELL.     55 S 34 #34-34:   WELL
 FLD .          N.P.R. #3:   FIELD
 LOC .      S34 T39N R78W:   LOCATION
 CNTY.            NATRONA:   COUNTY
 STAT.            WYOMING:   STATE
 CTRY. UNITED STATES OF AMERICA:   COUNTRY
 SRVC.       Schlumberger:   SERVICE COMPANY
 DATE.        15-MAR-1977:   LOGDATE
 API .       490251030500:   API NUMBER
~CURVE INFORMATION
#MNEM.UNIT       API CODE    CURVE DESCRIPTION
#----------   ------------   ------------------------------
 DEPT.F                  :   
 GRD .GAPI   45 310 01 00:   GAMMA RAY FROM DENSITY LOG
 CORR.G/C3   45 356 01 00:   DENSITY CORRECTION
 RHOB.G/C3   45 350 01 00:   BULK DENSITY
 DPOR.DEC    45 890 12 00:   DENSITY POROSITY SANDSTONE
 SPR .MV     07 010 01 00:   SPONTANEOUS POTENTIAL
 LL8 .OHMM   07 220 08 00:   LATEROLOG-8 RES.
 ILD .OHMM   07 120 46 00:   INDUCTION LOG DEEP
 ILM .OHMM   07 120 44 00:   INDUCTION LOG MEDIUM
 CALD.IN     45 280 60 00:   CALIPER
~PARAMETER INFORMATION
#MNEM.UNIT          VALUE    DESCRIPTION
#----------   ------------   ------------------------------
 PD  .                 GL:   PERMANENT DATUM
 EPD .F              5087:   ELEVATION PERMANENT DATUM
 LMF .                 GL:   LOG MEASURED FROM
 DMF .                 GL:   DRILLING MEASURED FROM
 EKB .F              5091:   KELLING BUSHING
 EGL .F              5087:   GROUND LEVEL
 DATE.            3-15-77:   RUN DATE
 RUN .                  1:   RUN NUMBER
 DD  .F               670:   DEPTH DRILLER
 DL  .F               663:   DEPTH LOGGER
 BLI .F               657:   BOTTOM LOG INTERVAL
 TLI .F                40:   TOP LOG INTERVAL
 CS  .IN            8.625:   CASING SIZE
 CBD .F                40:   CASING BOTTOM DRILLER
 CBL .F                40:   CASING BOTTOM LOGGER
 BS  .IN            7.875:   BIT SIZE
 BSD .F               670:   BIT SIZE AT DEPTH
 DFT .                KCL:   DRILLING FLUID TYPE
 DFD .                8.6:   DRILLING FLUID DENSITY
 DFV .                 31:   DRILLING FLUID VISCOSITY
 DFPH.                  8:   DRILLING FLUID PH
 DFL .                8.8:   DRILLING FLUID LOSS
 MSS .                PIT:   MUD SAMPLE SOURCE
 RMS .OHMM           .246:   RESISTIVITY MUD SAMPLE
 MST .F                76:   MUD SAMPLE TEMPERATURE
 RMF .OHMM           .243:   RESISTIVITY MUD FILTRATE SAMPLE
 MFST.F                76:   MUD FILTRATE SAMPLE TEMPERATURE
 MFSS.                  M:   MUD FILTRATE SAMPLE SOURCE
 RMB .OHMM           .267:   RESISTIVITY MUD AT BHT
 BHT .F                70:   BOTTOM HOLE TEMPERATURE
 TCS .HRS            1800:   TIME CURCULATED STOPPED
 TLAB.HRS            2200:   TIME LOGGER AT BOTTOM
 MRT .F                70:   MAXIMUM RECORDED TEMPERATURE
 LUN .               5642:   LOGGING UNIT NUMBER
 LUL .               CSPR:   LOGGING UNIT LOCATION
 ENGI.             MARTIN:   RECORDING ENGINEER
 WITN.              BURKE:   WITNESSED BY
 CLNT.            A2DTECH:   CLIENT CODE
 ORIG. 2", 2.5", 5" PRINT:   ORIGIN OF DATA
 UWI .       490251030500:   UNIQUE WELL ID
 DICO. A2D Technologies, Inc.:   DIGITIZING COMPANY
~OTHER INFORMATION
~A   DEPT       GRD      CORR       RHOB       DPOR        SPR        LL8        ILD        ILM       CALD   
# ...
  216.5000   110.7937    -0.0047     2.4526     0.1156   -56.1407    10.2937     8.1689     8.5674     8.3694
  217.0000   109.2047    -0.0044     2.4495     0.1171   -56.0997    10.3850     8.2351     8.6366     8.3688
  217.5000   109.7208    -0.0018     2.4464     0.1174   -56.0990    10.1309     8.2490     8.6366     8.3681
  218.0000   110.7007     0.0036     2.4491     0.1151   -56.0991     9.7296     8.1139     8.4934     8.3675
  218.5000   111.2932     0.0102     2.4630     0.1092   -56.1357     9.3442     7.9598     8.3274     8.3669
  219.0000   109.8081     0.0160     2.4734     0.1030   -56.3993     8.9740     7.8079     8.1646     8.3662
  219.5000   110.5682     0.0160     2.4667     0.1079   -56.6624     8.5513     7.6590     8.0051     8.3656
  220.0000   111.4571     0.0052     2.4592     0.1109   -56.9251     8.5629     7.5130     7.8486     8.3650
  220.5000   112.2816     0.0021     2.4550     0.1142   -57.1879     8.4016     7.3698     7.6952     8.3643
  221.0000   111.3504     0.0072     2.4562     0.1142   -57.4548     8.2774     7.2293     7.5448     8.3637
  221.5000   111.5976     0.0130     2.4583     0.1129   -57.5007     8.1943     7.1157     7.4512     8.3631
  222.0000   112.3650     0.0171     2.4557     0.1114   -57.5009     8.1093     7.1159     7.4691     8.3624
  222.5000   111.6188     0.0101     2.4501     0.1125   -57.4995     8.0964     7.1645     7.5101     8.3618
  223.0000   110.1347     0.0073     2.4460     0.1170   -57.4556     8.2124     7.2038     7.5515     8.3611
  223.5000   108.5471     0.0125     2.4595     0.1110   -57.3362     8.4473     7.2433     7.5929     8.3605
  224.0000   107.8360     0.0176     2.4725     0.1023   -57.2178     8.6890     7.2830     7.6345     8.3599
  224.5000   109.4500     0.0228     2.4854     0.0956   -57.0992     8.9375     7.3229     7.6764     8.3592
  225.0000   110.8474     0.0235     2.4953     0.0940   -56.9807     9.1932     7.3631     7.7185     8.3586
  225.5000   111.8309     0.0239     2.4954     0.0920   -56.8621     9.4705     7.4035     7.7608     8.3580
  226.0000   112.1042     0.0155     2.4837     0.0944   -56.7435     9.3505     7.4440     7.8032     8.3573
  226.5000   112.2772     0.0073     2.4698     0.1086   -56.6250     9.1412     7.4833     7.8642     8.3567
  227.0000   111.3476     0.0120     2.4686     0.1078   -56.5065     8.9365     7.5587     7.9399     8.3560
  227.5000   110.0645     0.0167     2.4748     0.1052   -56.3877     8.7973     7.6348     8.0167     8.3554
  228.0000   108.7652     0.0020     2.4807     0.1022   -56.2695     9.4173     7.7114     8.0946     8.3548
  228.5000   109.4116     0.0039     2.4866     0.0980   -56.1500     9.9172     7.7904     8.1708     8.3541
  229.0000   110.9695     0.0110     2.4907     0.0942   -56.1680     9.9172     7.8815     8.2693     8.3535
  229.5000   113.6949     0.0122     2.4811     0.0942   -56.2829     9.7500     8.0110     8.3889     8.3529
  230.0000   114.8485     0.0053     2.4599     0.1077   -56.3998     9.5588     8.0983     8.5109     8.3522
  230.5000   115.8602    -0.0013     2.4525     0.1150   -56.5167     9.2976     8.0836     8.6349     8.3516
  231.0000   114.5045    -0.0064     2.4489     0.1170   -56.6333     9.3959     8.0710     8.7602     8.3510
  231.5000   112.1348    -0.0068     2.4474     0.1174   -56.7499     9.5618     8.0589     8.8788     8.3503
  232.0000   110.7519    -0.0016     2.4473     0.1168   -56.8700     9.6468     8.0468     8.7377     8.3497
  232.5000   110.5244     0.0054     2.4475     0.1144   -56.9755     9.4928     8.0347     8.5797     8.3490
  233.0000   110.8288     0.0142     2.4707     0.1084   -57.0853     9.3281     8.0226     8.4245     8.3484
  233.5000   111.9323     0.0229     2.4769     0.1044   -56.9792     9.1664     7.9473     8.2722     8.3478
  234.0000   113.1879     0.0299     2.4695     0.0982   -56.8291     9.0074     7.8557     8.1226     8.3471
  234.5000   111.7901     0.0312     2.4718     0.1036   -56.6783     8.8511     7.7648     8.0061     8.3465
  235.0000   111.0743     0.0236     2.4670     0.1092   -56.5250     8.6976     7.6750     7.9549     8.3459
  235.5000   111.7941     0.0121     2.4648     0.1094   -56.5322     8.6366     7.5865     7.9040     8.3452
  236.0000   112.2896     0.0176     2.4727     0.1069   -56.5726     8.7875     7.4523     7.8038     8.3446
  236.5000   111.0842     0.0264     2.4804     0.0985   -56.6134     9.0286     7.4652     7.8211     8.3440
  237.0000   113.3425     0.0136     2.4880     0.1007   -56.6539     9.2763     7.4843     7.8409     8.3433
  237.5000   115.8601     0.0077     2.4955     0.0913   -56.6942     9.3836     7.5031     7.8608     8.3427
  238.0000   117.5234     0.0376     2.5031     0.0762   -56.7346     9.0564     7.5221     7.8808     8.3420
  238.5000   115.6113     0.0224     2.5108     0.1046   -56.7750     8.7166     7.5412     7.9007     8.3414
  239.0000   113.5485     0.0289     2.5163     0.1050   -56.8154     8.8376     7.5603     7.9208     8.3408
  239.5000   112.9484     0.0318     2.5125     0.1044   -56.8563     9.0801     7.5795     7.9409     8.3401
  240.0000   114.1946     0.0108     2.5181     0.1063   -56.8978     9.3292     7.5987     7.9610     8.3395
  240.5000   115.2252     0.0282     2.5265     0.1068   -56.8480     9.4705     7.6180     7.9812     8.3389
  241.0000   113.5711     0.0144     2.4917     0.1082   -56.7893     9.3631     7.6373     8.0014     8.3382
  241.5000   113.9878     0.0266     2.5083     0.1081   -56.7287     9.2410     7.6567     8.0217     8.3376
  242.0000   115.4900     0.0149     2.5186     0.1062   -56.5963     9.1205     7.6761     8.0421     8.3370
  242.5000   115.3223     0.0146     2.5031     0.1065   -56.3790     9.0016     7.6955     8.0624     8.3363
  243.0000   114.4991     0.0306     2.5143     0.1062   -56.1623     8.9610     7.7151     8.0829     8.3357
  243.5000   113.7504     0.0336     2.5242     0.1034   -55.9447     9.2148     7.7322     8.1039     8.3350
  244.0000   114.8562     0.0198     2.4941     0.1110   -55.7257     9.5567     7.7829     8.1610     8.3344
  244.5000   116.8594     0.0108     2.4887     0.1090   -55.5093     9.4503     7.8377     8.2184     8.3338
  245.0000   119.0066     0.0111     2.4949     0.1046   -55.5606     9.2702     7.8929     8.2763     8.3331
  245.5000   116.2177     0.0184     2.5099     0.0829   -55.6289     9.0440     7.9485     8.3346     8.3325
  246.0000   113.6169     0.0237     2.5118     0.0894   -55.6963    10.0091     8.0044     8.3933     8.3319
  246.5000   115.1533     0.0137     2.4878     0.1024   -55.6010     9.9081     8.0608     8.4524     8.3312
  247.0000   115.6455     0.0064     2.4748     0.1063   -55.4892     9.7766     8.1176     8.5119     8.3306
  247.5000   114.5833     0.0088     2.4860     0.1006   -55.3790     9.6468     8.1747     8.5718     8.3300
  248.0000   115.2886     0.0198     2.5022     0.0869   -55.3193     9.5569     8.2323     8.6366     8.3293
  248.5000   116.6689     0.0248     2.5190     0.0775   -55.4095     9.7918     8.3258     8.7400     8.3287
  249.0000   117.7649     0.0213     2.5259     0.0728   -55.4945    10.1203     8.4333     8.8528     8.3280
  249.5000   115.0127     0.0394     2.5303     0.0685   -55.5797    10.4590     8.5581     8.9610     8.3274
  250.0000   111.9047     0.0257     2.4993     0.0833   -55.6649    10.7751     8.5569     8.9851     8.3268
  250.5000   110.1872     0.0012     2.4730     0.0986   -55.7507    10.6645     8.6196     9.0356     8.3261
  251.0000   112.4364     0.0062     2.4770     0.0983   -55.8355    10.5114     8.6678     9.0864     8.3255
  251.5000   115.0172     0.0135     2.4796     0.0982   -55.8621    10.3604     8.7165     9.1374     8.3249
  252.0000   116.2900     0.0004     2.4747     0.0982   -55.6661    10.2117     8.7655     9.1888     8.3242
  252.5000   116.8666     0.0093     2.4680     0.1037   -55.4771    10.1018     8.8148     9.2404     8.3236
