~VERSION INFORMATION
 VERS.                2.0:   CWLS LOG ASCII STANDARD - VERSION 2.0
 WRAP.                 NO:   ONE LINE PER DEPTH STEP
~WELL INFORMATION
#MNEM.UNIT      DATA TYPE    INFORMATION
#----------   ------------   ------------------------------
 STRT.F           26.0000:   START DEPTH
 STOP.F          655.0000:   STOP DEPTH
 STEP.F            0.5000:   STEP LENGTH
 NULL.          -999.2500:   NO VALUE
 COMP. FENIX & SCISSON, INCORPORATED:   COMPANY
 WELL. RES 3 TEAPOT DOM #22S-11:   WELL
 FLD .             TEAPOT:   FIELD
 LOC .      S11 T38N R78W:   LOCATION
 CNTY.            NATRONA:   COUNTY
 STAT.            WYOMING:   STATE
 CTRY. UNITED STATES OF AMERICA:   COUNTRY
 SRVC.            Unknown:   SERVICE COMPANY
 DATE.        03-FEB-1978:   LOGDATE
 API .       490251057200:   API NUMBER
~CURVE INFORMATION
#MNEM.UNIT       API CODE    CURVE DESCRIPTION
#----------   ------------   ------------------------------
 DEPT.F                  :   
 ILD .OHMM   05 120 46 00:   INDUCTION LOG DEEP
 SN  .OHMM   05 040 16 00:   SHORT NORMAL 16"
 SPR .MV     05 010 01 00:   SPONTANEOUS POTENTIAL.
 CALD.IN     45 280 60 00:   CALIPER FROM DENSITY LOG
 CORR.G/C3   45 356 01 00:   DENSITY CORRECTION
 DPHI.DEC    45 890 12 00:   DENSITY POROSITY SANDSTONE
 GRD .GAPI   45 310 01 00:   GAMMA RAY FROM DENSITY LOG
 RHOB.G/C3   45 350 01 00:   BULK DENSITY
~PARAMETER INFORMATION
#MNEM.UNIT          VALUE    DESCRIPTION
#----------   ------------   ------------------------------
 PD  .                 GL:   PERMANENT DATUM
 EPD .F              5168:   ELEVATION PERMANENT DATUM
 LMF .                 KB:   LOG MEASURED FROM
 DMF .                 KB:   DRILLING MEASURED FROM
 EKB .F              5171:   KELLING BUSHING
 EGL .F              5168:   GROUND LEVEL
 DATE.        03-FEB-1978:   RUN DATE
 RUN .                  1:   RUN NUMBER
 DD  .F               650:   DEPTH DRILLER
 DL  .F               655:   DEPTH LOGGER
 BLI .F               655:   BOTTOM LOG INTERVAL
 TLI .F                40:   TOP LOG INTERVAL
 CS  .IN            8.625:   CASING SIZE
 CBD .F                39:   CASING BOTTOM DRILLER
 CBL .F                40:   CASING BOTTOM LOGGER
 BS  .IN            7.875:   BIT SIZE
 BSD .F               650:   BIT SIZE AT DEPTH
 DFT .                KCL:   DRILLING FLUID TYPE
 DFD .                8.6:   DRILLING FLUID DENSITY
 DFV .                 31:   DRILLING FLUID VISCOSITY
 DFPH.                9.5:   DRILLING FLUID PH
 DFL .               12.8:   DRILLING FLUID LOSS
 MSS .           FLOWLINE:   MUD SAMPLE SOURCE
 RMS .OHMM           0.38:   RESISTIVITY MUD SAMPLE
 MST .F                62:   MUD SAMPLE TEMPERATURE
 RMF .OHMM            4.4:   RESISTIVITY MUD FILTRATE SAMPLE
 MFST.F                62:   MUD FILTRATE SAMPLE TEMPERATURE
 RMC .OHMM            0.8:   RESISTIVITY MUD CAKE
 MCST.F                62:   MUD CAKE SAMPLE TEMPERATURE
 MFSS.               MEAS:   MUD FILTRATE SAMPLE SOURCE
 RMB .OHMM           0.35:   RESISTIVITY MUD AT BHT
 BHT .F                68:   BOTTOM HOLE TEMPERATURE
 TCS .HRS               1:   TIME CURCULATED STOPPED
 MRT .F                68:   MAXIMUM RECORDED TEMPERATURE
 LUN .               2958:   LOGGING UNIT NUMBER
 LUL .             CASPER:   LOGGING UNIT LOCATION
 ENGI.           REYNOLDS:   RECORDING ENGINEER
 WITN.         HARRINGTON:   WITNESSED BY
 CLNT.            A2DTECH:   CLIENT CODE
 ORIG.           5" PRINT:   ORIGIN OF DATA
 UWI .       490251057200:   UNIQUE WELL ID
 DICO. A2D Technologies, Inc.:   DIGITIZING COMPANY
~OTHER INFORMATION
~A   DEPT      ILD         SN        SPR       CALD       CORR       DPHI         GRD      RHOB   
# ...
  228.5000     8.6994     8.7245   -70.4734     7.9741     0.0117     0.1094   109.0001     2.4666
  229.0000     8.6959     8.6712   -70.4826     7.9881     0.0086     0.1065   105.4009     2.4742
  229.5000     8.7540     8.6683   -70.4917     7.9873     0.0055     0.1059   103.5444     2.4604
  230.0000     8.7506     8.7264   -70.5008     8.0015     0.0084     0.1113   109.8800     2.4635
  230.5000     8.7479     8.7227   -70.5115     8.0046     0.0112     0.1134   106.3947     2.4619
  231.0000     8.7447     8.7198   -70.5190     8.0160     0.0156     0.1134   102.6095     2.4581
  231.5000     8.8028     8.6565   -70.3753     8.0291     0.0169     0.1095   103.3560     2.4603
  232.0000     8.7997     8.6537   -70.3864     8.0280     0.0168     0.1060   106.9726     2.4693
  232.5000     8.7967     8.6507   -70.3945     8.0271     0.0166     0.1084   109.8339     2.4752
  233.0000     8.7936     8.6477   -70.2501     8.0262     0.0225     0.1114   105.4683     2.4729
  233.5000     8.8520     8.6447   -70.2612     8.0254     0.0328     0.1144   102.7144     2.4668
  234.0000     8.8483     8.6411   -70.2700     8.0245     0.0476     0.1162   105.2736     2.4573
  234.5000     8.7841     8.5785   -70.1275     8.0236     0.0579     0.1205   106.1733     2.4472
  235.0000     8.7811     8.5756   -69.9848     8.0076     0.0637     0.1071   106.0113     2.4644
  235.5000     8.7174     8.5727   -69.9939     8.0218     0.0636     0.0986   108.7215     2.4824
  236.0000     8.6541     8.5105   -70.0042     7.9905     0.0635     0.0995   114.4529     2.4876
  236.5000     8.6512     8.4487   -69.8604     7.9896     0.0633     0.0998   115.6526     2.4823
  237.0000     8.6483     8.4459   -69.8695     7.9887     0.0632     0.0995   111.7714     2.4821
  237.5000     8.7663     8.3846   -69.8786     7.9727     0.0690     0.0974   107.9289     2.4841
  238.0000     8.7019     8.3810   -69.8878     7.9718     0.0748     0.0960   105.2010     2.4853
  238.5000     8.6388     8.3209   -69.8968     7.9558     0.0792     0.0948   106.2496     2.4903
  239.0000     8.5167     8.2546   -69.9059     7.9398     0.0821     0.0936   108.2046     2.4955
  239.5000     8.3964     8.2000   -69.9166     7.9238     0.0834     0.0933   110.0085     2.4970
  240.0000     8.2778     8.1405   -69.9241     7.9228     0.0848     0.0936   110.9063     2.4962
  240.5000     8.2750     8.0815   -69.9343     7.9066     0.0861     0.0952   109.2356     2.4954
  241.0000     8.1581     8.0788   -70.0040     7.9058     0.0890     0.0979   107.4141     2.4953
  241.5000     8.1250     8.0760   -70.1032     7.9049     0.0888     0.1015   111.4817     2.5050
  242.0000     8.0394     8.0733   -70.1123     7.9040     0.0902     0.1018   111.7772     2.5103
  242.5000     8.0372     8.0706   -70.1214     7.8880     0.0841     0.1009   111.6152     2.5132
  243.0000     8.0344     8.0678   -70.1305     7.8871     0.0735     0.0997   111.1532     2.5086
  243.5000     8.0313     8.0650   -70.1396     7.8862     0.0614     0.1014   110.2381     2.4860
  244.0000     8.0285     8.0622   -70.1502     7.8853     0.0538     0.1064   108.7187     2.4717
  244.5000     8.0260     8.1158   -70.1591     7.8996     0.0537     0.1058   108.4078     2.4649
  245.0000     8.0232     8.1123   -70.1680     7.8985     0.0536     0.1067   106.5105     2.4724
  245.5000     8.0763     8.1096   -70.1760     7.8976     0.0549     0.1094   104.4627     2.4888
  246.0000     8.0734     8.1068   -70.1857     7.8967     0.0578     0.1110   110.3430     2.4856
  246.5000     8.1271     8.1041   -70.1945     7.8958     0.0636     0.1104   111.3938     2.4735
  247.0000     8.1237     8.1013   -70.2033     7.8949     0.0695     0.1074   111.0807     2.4999
  247.5000     8.1209     8.0986   -70.2124     7.8789     0.0602     0.1047   108.3529     2.5059
  248.0000     8.1182     8.1523   -70.2233     7.8780     0.0483     0.1029   107.0836     2.4946
  248.5000     8.1720     8.1494   -70.0782     7.8772     0.0481     0.1054   105.7658     2.4930
  249.0000     8.2269     8.2606   -70.0880     7.8762     0.0465     0.1072   104.6996     2.4937
  249.5000     8.3385     8.2571   -70.0981     7.8752     0.0419     0.1078   104.9930     2.4884
  250.0000     8.4523     8.4278   -69.9530     7.8592     0.0358     0.1072   105.4873     2.4771
  250.5000     8.5658     8.5416   -69.9636     7.8579     0.0372     0.1066   106.3322     2.4748
  251.0000     8.6815     8.5980   -69.9727     7.8565     0.0356     0.1057   107.2201     2.4808
  251.5000     8.7379     8.5929   -69.9818     7.8552     0.0340     0.1049   108.2628     2.4852
  252.0000     8.6733     8.5889   -69.9909     7.8539     0.0295     0.1043   109.3559     2.4897
  252.5000     8.6693     8.5848   -70.0000     7.8371     0.0264     0.1040   108.0799     2.4904
  253.0000     8.5995     8.5214   -70.0091     7.8358     0.0233     0.1037   107.1589     2.4896
  253.5000     8.4815     8.4482   -70.0182     7.8344     0.0203     0.1041   105.7847     2.4842
  254.0000     8.3605     8.2793   -70.0273     7.8331     0.0172     0.1068   102.5977     2.4707
  254.5000     8.2413     8.2182   -70.0370     7.8318     0.0156     0.1104   107.1123     2.4452
  255.0000     8.1804     8.1575   -69.8938     7.8305     0.0125     0.1161   109.8167     2.4407
  255.5000     8.1765     8.2114   -69.7511     7.8443     0.0124     0.1207   107.3850     2.4361
  256.0000     8.0599     8.2066   -69.6085     7.8581     0.0138     0.1219   107.9746     2.4323
  256.5000     7.9450     8.2027   -69.4677     7.8567     0.0167     0.1219   109.0173     2.4428
  257.0000     7.9412     8.1421   -69.4750     7.8706     0.0211     0.1225   109.1924     2.4420
  257.5000     7.8271     8.0744   -69.3314     7.8689     0.0240     0.1234   106.7220     2.4389
  258.0000     7.8234     7.8561   -69.3425     7.8830     0.0269     0.1232   106.4039     2.4397
  258.5000     7.7656     7.7441   -69.3513     7.8814     0.0283     0.1223   106.6914     2.4443
  259.0000     7.7623     7.6869   -69.3601     7.8800     0.0282     0.1199   106.9789     2.4583
  259.5000     7.7583     7.6305   -69.3690     7.8636     0.0281     0.1148   107.7326     2.4688
  260.0000     7.7546     7.6265   -69.4537     7.8623     0.0266     0.1106   108.0068     2.4740
  260.5000     7.7778     7.6229   -69.5387     7.8761     0.0235     0.1095   106.4778     2.4769
  261.0000     7.8045     7.6193   -69.5480     7.8899     0.0159     0.1092   104.9526     2.4776
  261.5000     7.9067     7.6157   -69.4052     7.8885     0.0084     0.1098   104.4847     2.4761
  262.0000     7.9581     7.6334   -69.4143     7.9023     0.0053     0.1125   106.7358     2.4723
  262.5000     8.0093     7.7149   -69.2733     7.9161     0.0097     0.1185   109.7423     2.4647
  263.0000     8.1180     7.7104   -69.1289     7.9299     0.0126     0.1234   109.7276     2.4442
  263.5000     8.1914     7.8145   -69.1381     7.9434     0.0140     0.1216   108.3534     2.4466
  264.0000     8.2229     7.9366   -69.1473     7.9572     0.0139     0.1189   108.9547     2.4526
  264.5000     8.3339     8.0269   -69.0045     7.9559     0.0078     0.1156   109.5324     2.4578
  265.0000     8.3881     8.1353   -68.8623     7.9546     0.0018     0.1138   109.2119     2.4623
  265.5000     8.4425     8.3055   -68.8092     7.9532     0.0047     0.1145   108.1398     2.4615
  266.0000     8.4974     8.4246   -68.5780     7.9518     0.0135     0.1160   106.1614     2.4553
  266.5000     8.5526     8.5876   -68.5465     7.9505     0.0194     0.1166   105.2403     2.4539
  267.0000     8.5475     8.6423   -68.4431     7.9492     0.0193     0.1127   106.1320     2.4673
  267.5000     8.5435     8.6382   -68.3005     7.9478     0.0222     0.1079   107.1747     2.4815
  268.0000     8.5395     8.6341   -68.3096     7.9464     0.0328     0.1050   107.9153     2.4867
  268.5000     8.4165     8.6301   -68.3187     7.9448     0.0459     0.1080   107.9003     2.4845
