~VERSION INFORMATION
 VERS.                2.0:   CWLS LOG ASCII STANDARD - VERSION 2.0
 WRAP.                 NO:   ONE LINE PER DEPTH STEP
~WELL INFORMATION
#MNEM.UNIT      DATA TYPE    INFORMATION
#----------   ------------   ------------------------------
 STRT.F           80.0000:   START DEPTH
 STOP.F          718.5000:   STOP DEPTH
 STEP.F            0.5000:   STEP LENGTH
 NULL.          -999.2500:   NO VALUE
 COMP. U S NAVY-INTEX OIL:   COMPANY
 WELL. RES 3 TEAPOT DOM #21-S-2:   WELL
 FLD .        TEAPOT DOME:   FIELD
 LOC .       S2 T38N R78W:   LOCATION
 CNTY.            NATRONA:   COUNTY
 STAT.            WYOMING:   STATE
 CTRY. UNITED STATES OF AMERICA:   COUNTRY
 SRVC. Schlumberger Well Surveying Corp:   SERVICE COMPANY
 DATE.        18-JUL-1962:   LOGDATE
 API .       490250648100:   API NUMBER
~CURVE INFORMATION
#MNEM.UNIT       API CODE    CURVE DESCRIPTION
#----------   ------------   ------------------------------
 DEPT.F                  :   
 CALM.IN     15 280 01 00:   CALIPER FROM MICRO LOG
 SPR .MV     05 010 01 00:   SPONTANEOUS POTENTIAL FROM RES.
 ASN .OHMM   05 041 16 00:   AMPLIFIED SHORT NORMAL 16"
 ILD .OHMM   05 120 46 00:   INDUCTION LOG DEEP
 CILD.MMHO   05 110 46 00:   CONDUCTIVITY INDUCTION LOG DEEP
~PARAMETER INFORMATION
#MNEM.UNIT          VALUE    DESCRIPTION
#----------   ------------   ------------------------------
 LMF .                 KB:   LOG MEASURED FROM
 DMF .                 KB:   DRILLING MEASURED FROM
 EKB .F              5116:   KELLING BUSHING
 EGL .F              5111:   GROUND LEVEL
 DATE.          7-18-1962:   RUN DATE
 RUN .                  1:   RUN NUMBER
 DD  .F               719:   DEPTH DRILLER
 DL  .F               719:   DEPTH LOGGER
 BLI .F               718:   BOTTOM LOG INTERVAL
 TLI .F                90:   TOP LOG INTERVAL
 BS  .IN             6.75:   BIT SIZE
 BSD .F               719:   BIT SIZE AT DEPTH
 DFT .           OIL EMUL:   DRILLING FLUID TYPE
 DFD .                 10:   DRILLING FLUID DENSITY
 DFV .                 45:   DRILLING FLUID VISCOSITY
 DFL .                2.8:   DRILLING FLUID LOSS
 RMS .OHMM           3.87:   RESISTIVITY MUD SAMPLE
 MST .F                94:   MUD SAMPLE TEMPERATURE
 RMF .OHMM           2.93:   RESISTIVITY MUD FILTRATE SAMPLE
 MFST.F                94:   MUD FILTRATE SAMPLE TEMPERATURE
 RMC .OHMM           3.95:   RESISTIVITY MUD CAKE
 MCST.F                94:   MUD CAKE SAMPLE TEMPERATURE
 TCS .HRS              .5:   TIME CURCULATED STOPPED
 LUN .               2503:   LOGGING UNIT NUMBER
 LUL .              CSPR.:   LOGGING UNIT LOCATION
 ENGI.             DANNER:   RECORDING ENGINEER
 WITN.          JORGENSEN:   WITNESSED BY
 CLNT.            A2DTECH:   CLIENT CODE
 ORIG.      2" , 5" PRINT:   ORIGIN OF DATA
 UWI .       490250648100:   UNIQUE WELL ID
 DICO. A2D Technologies, Inc.:   DIGITIZING COMPANY
~OTHER INFORMATION
~A   DEPT     CALM        SPR          ASN        ILD      CILD  
# ...
  263.0000  -999.2500   -57.6017     7.2572     6.5135   146.8490
  263.5000  -999.2500   -57.6511     7.1993     6.4339   148.4454
  264.0000  -999.2500   -57.7014     7.1469     6.3538   150.0418
  264.5000  -999.2500   -57.7510     7.1559     6.2864   149.4670
  265.0000  -999.2500   -57.8004     7.1676     6.3738   148.5643
  265.5000  -999.2500   -57.8500     7.2085     6.4620   147.6615
  266.0000  -999.2500   -57.8995     7.2509     6.5493   146.7588
  266.5000  -999.2500   -57.9512     7.3494     6.6364   145.8561
  267.0000  -999.2500   -57.8798     7.4453     6.7229   144.3833
  267.5000  -999.2500   -57.7612     7.5438     6.8209   141.5942
  268.0000  -999.2500   -57.6417     7.5985     6.9429   138.8051
  268.5000  -999.2500   -57.5223     7.6419     7.0648   136.0159
  269.0000  -999.2500   -57.4028     7.6880     7.1865   133.2268
  269.5000  -999.2500   -57.2821     7.8121     7.3082   130.4377
  270.0000  -999.2500   -57.1640     7.9456     7.4299   128.0953
  270.5000  -999.2500   -57.2563     8.0793     7.5516   126.1384
  271.0000  -999.2500   -57.3649     8.2134     7.6733   124.1815
  271.5000  -999.2500   -57.4717     8.3478     7.7951   122.2247
  272.0000  -999.2500   -57.5267     8.4184     7.9166   120.2678
  272.5000  -999.2500   -57.2840     8.4869     8.0389   118.3109
  273.0000  -999.2500   -57.0438     8.5556     8.1092   117.0854
  273.5000  -999.2500   -56.7985     8.6250     8.1436   117.0854
  274.0000  -999.2500   -56.8070     8.6700     8.1768   117.3807
  274.5000  -999.2500   -56.8738     8.6934     8.1441   118.9604
  275.0000  -999.2500   -56.9421     8.6485     8.0220   120.5402
  275.5000  -999.2500   -57.0098     8.5319     7.9008   122.1200
  276.0000  -999.2500   -57.0774     8.4164     7.7793   123.6998
  276.5000  -999.2500   -57.1450     8.3009     7.6588   125.2795
  277.0000  -999.2500   -57.2126     8.1943     7.5940   126.8689
  277.5000  -999.2500   -57.2800     8.1206     7.6112   127.1351
  278.0000  -999.2500   -57.3451     8.0518     7.6273   127.1396
  278.5000  -999.2500   -57.4873     8.0491     7.6437   127.1357
  279.0000  -999.2500   -57.6409     8.0991     7.6598   126.7306
  279.5000  -999.2500   -57.7948     8.1735     7.6764   126.3417
  280.0000  -999.2500   -57.9486     8.2485     7.7068   125.1400
  280.5000  -999.2500   -58.1029     8.3236     7.7901   122.9734
  281.0000  -999.2500   -58.2551     8.3986     7.8712   120.8069
  281.5000  -999.2500   -58.3254     8.4739     7.9522   119.3704
  282.0000  -999.2500   -58.1318     8.5224     8.0326   118.2871
  282.5000  -999.2500   -57.9618     8.5411     8.0860   117.2039
  283.0000  -999.2500   -57.8942     8.4733     8.0610   117.6858
  283.5000  -999.2500   -57.8297     8.3126     8.0380   118.3598
  284.0000  -999.2500   -57.7666     8.1744     8.0154   119.0955
  284.5000  -999.2500   -57.9457     8.2473     7.9899   120.1005
  285.0000  -999.2500   -58.1526     8.3186     7.8511   120.1005
  285.5000  -999.2500   -58.3513     8.3197     7.6942   122.2482
  286.0000  -999.2500   -57.9518     8.1979     7.5474   124.5814
  286.5000  -999.2500   -57.5357     8.0209     7.3962   127.1622
  287.0000  -999.2500   -57.4428     7.8512     7.2437   130.2842
  287.5000  -999.2500   -57.4222     7.7541     7.0908   133.4196
  288.0000  -999.2500   -57.8921     7.6665     7.0326   135.4372
  288.5000  -999.2500   -58.3486     7.6070     6.9787   137.1859
  289.0000  -999.2500   -58.1545     7.5673     6.9242   138.4735
  289.5000  -999.2500   -57.1962     7.5676     6.8695   139.8117
  290.0000  -999.2500   -56.5457     7.5469     6.8148   141.1499
  290.5000  -999.2500   -56.5507     7.4900     6.7603   142.4880
  291.0000  -999.2500   -56.4508     7.4335     6.7051   143.8262
  291.5000  -999.2500   -56.3585     7.3770     6.6932   145.1644
  292.0000  -999.2500   -56.5073     7.3205     6.7085   146.1380
  292.5000  -999.2500   -56.6671     7.2641     6.7243   145.6784
  293.0000  -999.2500   -56.8259     7.2067     6.7402   145.2188
  293.5000  -999.2500   -56.9844     7.1930     6.7557   144.7592
  294.0000  -999.2500   -57.1427     7.2117     6.7718   144.2997
  294.5000  -999.2500   -57.3027     7.3752     6.8105   142.0345
  295.0000  -999.2500   -57.3581     7.5412     6.9445   139.3970
  295.5000  -999.2500   -57.3591     7.6341     7.0827   136.7594
  296.0000  -999.2500   -57.3590     7.7128     7.2205   134.1219
  296.5000  -999.2500   -57.3591     7.7913     7.3583   131.5715
  297.0000  -999.2500   -57.3588     7.8699     7.4963   129.2661
  297.5000  -999.2500   -57.3442     7.9485     7.6348   127.1295
  298.0000  -999.2500   -57.2785     8.0272     7.7735   126.6778
  298.5000  -999.2500   -57.2149     8.1059     7.7452   126.2638
  299.0000  -999.2500   -57.1515     8.1852     7.6946   126.7901
  299.5000  -999.2500   -57.0879     8.2653     7.6437   127.7544
  300.0000  -999.2500   -57.0233     8.1913     7.5901   128.7187
  300.5000  -999.2500   -56.9600     8.1011     7.4670   129.6829
  301.0000  -999.2500   -57.0957     8.0108     7.3327   131.8492
  301.5000  -999.2500   -57.2509     7.8922     7.1982   135.1482
  302.0000  -999.2500   -57.4059     7.7115     7.0638   138.4472
  302.5000  -999.2500   -57.5607     7.5272     6.9291   141.7462
  303.0000  -999.2500   -57.7153     7.4109     6.7948   143.8414
  303.5000  -999.2500   -57.8680     7.3972     6.6802   144.9693
  304.0000  -999.2500   -57.9257     7.3887     6.6840   144.4422
  304.5000  -999.2500   -57.8215     7.3797     6.7506   143.4271
  305.0000  -999.2500   -57.7199     7.3697     6.9298   140.6771
  305.5000  -999.2500   -57.6174     7.4193     7.1072   137.4716
  306.0000  -999.2500   -57.5155     7.5423     7.2849   134.2661
  306.5000  -999.2500   -57.4164     7.7249     7.4626   131.0606
  307.0000  -999.2500   -57.5054     7.9067     7.6404   127.8538
  307.5000  -999.2500   -57.8267     8.0887     7.8179   124.6455
  308.0000  -999.2500   -58.1422     8.2714     7.9948   121.4441
  308.5000  -999.2500   -58.3127     8.3994     8.0646   119.2188
  309.0000  -999.2500   -58.1018     8.5004     8.0089   119.6802
  309.5000  -999.2500   -57.8996     8.5544     7.8781   120.1005
  310.0000  -999.2500   -57.7382     8.4818     7.7183   124.2462
  310.5000  -999.2500   -57.6735     8.3499     7.5567   128.0528
  311.0000  -999.2500   -57.6066     8.1404     7.3952   131.8593
  311.5000  -999.2500   -57.5401     7.9319     7.2337   135.6658
  312.0000  -999.2500   -57.4736     7.7253     7.0722   139.4724
  312.5000  -999.2500   -57.4071     7.5438     6.9105   143.3088
  313.0000  -999.2500   -57.3405     7.4198     6.7479   145.3132
  313.5000  -999.2500   -57.2734     7.2912     6.5887   146.2311
  314.0000  -999.2500   -57.2077     7.2663     6.5825   146.2312
  314.5000  -999.2500   -57.1894     7.2737     6.6295   145.2513
  315.0000  -999.2500   -57.3530     7.3203     6.7546   142.7136
  315.5000  -999.2500   -57.5065     7.3702     6.8782   140.1759
  316.0000  -999.2500   -57.8489     7.5143     7.0021   137.6382
  316.5000  -999.2500   -58.2651     7.6615     7.1259   135.5474
  317.0000  -999.2500   -58.6787     7.8078     7.2497   133.5535
  317.5000  -999.2500   -58.9048     7.8940     7.3737   131.5596
  318.0000  -999.2500   -58.6579     7.9028     7.4970   129.5657
  318.5000  -999.2500   -58.4207     7.9172     7.5899   127.5718
  319.0000  -999.2500   -58.1822     7.9501     7.5881   126.0893
  319.5000  -999.2500   -57.9441     7.9822     7.5880   125.9400
  320.0000  -999.2500   -57.7079     8.0142     7.5879   125.7907
  320.5000  -999.2500   -57.5586     8.0701     7.5879   125.6414
  321.0000  -999.2500   -57.5607     8.1503     7.5879   125.4922
  321.5000  -999.2500   -57.5604     8.2328     7.5880   125.3429
  322.0000  -999.2500   -57.5605     8.2565     7.5879   125.1936
  322.5000  -999.2500   -57.5604     8.2642     7.5882   125.4508
  323.0000  -999.2500   -57.5607     8.2707     7.5502   126.0479
  323.5000  -999.2500   -57.5587     8.2491     7.4828   126.6447
