~VERSION INFORMATION
 VERS.                2.0:   CWLS LOG ASCII STANDARD - VERSION 2.0
 WRAP.                 NO:   ONE LINE PER DEPTH STEP
~WELL INFORMATION
#MNEM.UNIT      DATA TYPE    INFORMATION
#----------   ------------   ------------------------------
 STRT.F           34.0000:   START DEPTH
 STOP.F          604.0000:   STOP DEPTH
 STEP.F            0.5000:   STEP LENGTH
 NULL.          -999.2500:   NO VALUE
 COMP. FENIX & SCISSON INC:   COMPANY
 WELL.       NPR #17 SX-2:   WELL
 FLD .             TEAPOT:   FIELD
 LOC .       S2 T38N R78W:   LOCATION
 CNTY.            NATRONA:   COUNTY
 STAT.            WYOMING:   STATE
 CTRY. UNITED STATES OF AMERICA:   COUNTRY
 SRVC.       Schlumberger:   SERVICE COMPANY
 DATE.        18-MAR-1977:   LOGDATE
 API .       490251032700:   API NUMBER
~CURVE INFORMATION
#MNEM.UNIT       API CODE    CURVE DESCRIPTION
#----------   ------------   ------------------------------
 DEPT.F                  :   
 SPR .MV     07 010 01 00:   SPONTANEOUS POTENTIAL
 ILD .OHMM   07 120 46 00:   INDUCTION LOG DEEP
 ILM .OHMM   07 120 44 00:   INDUCTION LOG MEDIUM
 LL8 .OHMM   07 220 08 00:   LATEROLOG-8 RES.
 CALD.IN     45 280 60 00:   CALIPER FROM DENSITY LOG
 GRD .GAPI   45 310 01 00:   GAMMA RAY FROM DENSITY LOG
 CORR.G/C3   45 356 01 00:   DENSITY CORRECTION
 DPHI.DEC    45 890 12 00:   DENSITY POROSITY SANDSTONE
 RHOB.G/C3   45 350 01 00:   BULK DENSITY
~PARAMETER INFORMATION
#MNEM.UNIT          VALUE    DESCRIPTION
#----------   ------------   ------------------------------
 PD  .                 GL:   PERMANENT DATUM
 EPD .F              5122:   ELEVATION PERMANENT DATUM
 LMF .                 KB:   LOG MEASURED FROM
 DAPD.F                 4:   FEET ABOVE PERMANENT DATUM
 DMF .                 KB:   DRILLING MEASURED FROM
 EKB .F              5126:   KELLING BUSHING
 EGL .F              5122:   GROUND LEVEL
 DATE.        18-MAR-1977:   RUN DATE
 RUN .                  1:   RUN NUMBER
 DD  .F               600:   DEPTH DRILLER
 DL  .F               605:   DEPTH LOGGER
 BLI .F               604:   BOTTOM LOG INTERVAL
 TLI .F                44:   TOP LOG INTERVAL
 CS  .IN            8.625:   CASING SIZE
 CBD .F                40:   CASING BOTTOM DRILLER
 CBL .F                44:   CASING BOTTOM LOGGER
 BS  .IN            7.875:   BIT SIZE
 BSD .F               600:   BIT SIZE AT DEPTH
 DFT .            KCL MUD:   DRILLING FLUID TYPE
 DFD .                8.9:   DRILLING FLUID DENSITY
 DFV .                 39:   DRILLING FLUID VISCOSITY
 DFPH.                8.5:   DRILLING FLUID PH
 DFL .                6.1:   DRILLING FLUID LOSS
 MSS .                PIT:   MUD SAMPLE SOURCE
 RMS .OHMM           0.26:   RESISTIVITY MUD SAMPLE
 MST .F                52:   MUD SAMPLE TEMPERATURE
 RMF .OHMM           0.24:   RESISTIVITY MUD FILTRATE SAMPLE
 MFST.F                52:   MUD FILTRATE SAMPLE TEMPERATURE
 MFSS.               MEAS:   MUD FILTRATE SAMPLE SOURCE
 TCS .HRS            0230:   TIME CURCULATED STOPPED
 LUN .               7711:   LOGGING UNIT NUMBER
 LUL .               CSPR:   LOGGING UNIT LOCATION
 ENGI.             SAYLER:   RECORDING ENGINEER
 WITN.         STUEBINGER:   WITNESSED BY
 CLNT.            A2DTECH:   CLIENT CODE
 ORIG.           5" PRINT:   ORIGIN OF DATA
 UWI .       490251032700:   UNIQUE WELL ID
 DICO. A2D Technologies, Inc.:   DIGITIZING COMPANY
~OTHER INFORMATION
~A   DEPT      SPR        ILD        ILM        LL8       CALD        GRD       CORR       DPHI       RHOB   
# ...
  107.0000   -45.2946     7.1542     7.1186     7.3422     8.2084   113.4273     0.0207     0.1234     2.4481
  107.5000   -45.5521     7.1604     6.9268     7.3040     8.1945   113.1429     0.0282     0.1181     2.4541
  108.0000   -45.5354     7.3161     7.0291     7.2794     8.1803   109.7475     0.0215     0.1165     2.4572
  108.5000   -45.5220     7.3722     7.1816     7.3351     8.1815   109.9075     0.0163     0.1234     2.4453
  109.0000   -45.3596     7.3773     7.3885     7.2381     8.1824   110.2410     0.0178     0.1299     2.4393
  109.5000   -45.1972     7.5377     7.6544     7.1423     8.1832   111.4341     0.0193     0.1251     2.4394
  110.0000   -45.0348     7.7552     8.3249     7.2461     8.1841   111.5704     0.0141     0.1227     2.4447
  110.5000   -44.8724     7.8147     8.4467     7.7707     8.1700   111.2543     0.0179     0.1242     2.4455
  111.0000   -44.8590     7.8201     8.2763     8.3334     8.1711   110.0889     0.0194     0.1203     2.4537
  111.5000   -44.8457     8.0458     8.2242     9.1882     8.1868   109.0637     0.0247     0.1149     2.4620
  112.0000   -44.6833     8.3937     8.3457     9.0040     8.1875   106.8612     0.0247     0.1119     2.4695
  112.5000   -44.5209     8.4580     8.5267     8.8234     8.1884   105.7037     0.0233     0.1071     2.4830
  113.0000   -44.2094     8.4638     8.5915     8.7673     8.1893   107.0490     0.0203     0.1154     2.4659
  113.5000   -43.8980     8.3529     8.4783     8.7721     8.1902   107.9498     0.0173     0.1190     2.4518
  114.0000   -43.4375     8.3587     8.3665     8.6561     8.1911   108.9988     0.0136     0.1214     2.4488
  114.5000   -43.2751     8.2490     8.1991     8.4814     8.1771   110.7885     0.0121     0.1267     2.4466
  115.0000   -43.1128     8.1410     8.0337     8.3113     8.1632   114.6523     0.0167     0.1225     2.4444
  115.5000   -43.0994     8.0343     7.9291     8.0895     8.1492   114.9837     0.0235     0.1255     2.4452
  116.0000   -43.0860     7.8198     7.8779     8.2070     8.1349   113.6391     0.0543     0.1087     2.4752
  116.5000   -43.2250     7.7173     7.6680     8.5013     8.0916   111.7251     0.0460     0.1016     2.4790
  117.0000   -43.2083     7.4586     7.3595     8.3888     8.0777   110.1074     0.0341     0.1042     2.4745
  117.5000   -43.1949     7.3089     7.1128     7.8310     8.0935   110.1193     0.0206     0.1024     2.4813
  118.0000   -43.3339     7.0636     6.9211     7.2598     8.1537   111.7609     0.0093     0.1146     2.4649
  118.5000   -43.4696     6.9735     6.8775     7.1628     8.1991   113.6987     0.0101     0.1197     2.4478
  119.0000   -43.6053     6.9784     6.9791     7.1677     8.2149   114.7477     0.0079     0.1238     2.4426
  119.5000   -43.4395     6.9833     7.0321     7.1717     8.2158   115.9448     0.0042     0.1253     2.4382
  120.0000   -43.1281     6.9881     7.0856     7.1757     8.2166   116.5493     0.0035     0.1243     2.4487
  120.5000   -42.8167     7.0907     7.0900     7.1796     8.2175   113.7465     0.0095     0.1176     2.4629
  121.0000   -42.5052     7.1537     7.1438     7.2839     8.2184   113.6073     0.0155     0.1093     2.4757
  121.5000   -42.1938     7.3103     7.2988     7.7573     8.2045   110.8074     0.0216     0.1117     2.4817
  122.0000   -42.1804     7.5122     7.4571     8.1477     8.2054   109.0415     0.0193     0.1139     2.4668
  122.5000   -42.6175     7.6756     7.5138     8.4399     8.2063   107.2757     0.0126     0.1148     2.4617
  123.0000   -42.9022     7.8971     7.6768     8.3861     8.2072   107.7320     0.0134     0.1156     2.4580
  123.5000   -43.0379     8.0130     7.7351     8.2180     8.2081   109.5217     0.0127     0.1171     2.4580
  124.0000   -43.3226     8.1873     7.8482     8.2226     8.2090   111.6078     0.0094     0.1168     2.4611
  124.5000   -43.4582     8.1929     8.0743     8.2271     8.2099   111.4715     0.0082     0.1149     2.4619
  125.0000   -43.4415     8.2385     8.3649     8.3466     8.2108   110.0020     0.0158     0.1128     2.4694
  125.5000   -43.4281     8.3185     8.4872     8.5874     8.2117   108.6806     0.0134     0.1155     2.4597
  126.0000   -43.2657     8.4406     8.5516     9.0234     8.2125   107.8036     0.0091     0.1173     2.4620
  126.5000   -43.1033     8.5052     8.5570     9.2131     8.2134   109.2970     0.0131     0.1080     2.4822
  127.0000   -42.9409     8.5111     8.5029     9.0911     8.2143   111.9756     0.0220     0.0999     2.4920
  127.5000   -43.2290     8.4566     8.4493     8.7801     8.2152   112.4593     0.0257     0.0936     2.4973
  128.0000   -43.3646     8.3458     8.4547     8.6099     8.2161   112.0938     0.0195     0.0969     2.4951
  128.5000   -43.5003     8.2950     8.4013     8.6748     8.2170   111.3729     0.0152     0.1040     2.4795
  129.0000   -43.3346     8.2433     8.2907     8.6796     8.2179   110.1897     0.0168     0.1028     2.4780
  129.5000   -43.3212     8.1920     8.2384     8.5541     8.2188   108.7457     0.0168     0.0998     2.4826
  130.0000   -43.3078     8.0848     8.1298     8.1079     8.2197   108.9826     0.0168     0.1064     2.4826
  130.5000   -43.2945     8.0343     8.0217     7.9995     8.2206   110.5867     0.0161     0.1078     2.4819
  131.0000   -43.2811     7.9843     7.8603     8.1734     8.2215   110.8829     0.0146     0.1135     2.4670
  131.5000   -43.2677     7.9899     7.7584     8.1214     8.2224   109.7097     0.0162     0.1147     2.4648
  132.0000   -43.2544     7.9954     7.7061     8.1258     8.2233   109.7216     0.0208     0.1137     2.4664
  132.5000   -43.3905     8.0010     7.6609     8.1303     8.2242   110.6224     0.0162     0.1146     2.4624
  133.0000   -43.3766     8.0065     7.6658     8.0775     8.2251   111.8195     0.0170     0.1167     2.4583
  133.5000   -43.0652     8.0120     7.7241     7.9717     8.2109   112.1278     0.0185     0.1167     2.4591
  134.0000   -42.9028     8.0176     7.7828     7.9761     8.2120   111.8430     0.0216     0.1149     2.4676
  134.5000   -42.5914     8.0232     7.7877     7.9805     8.2129   112.1516     0.0226     0.1086     2.4727
  135.0000   -42.4290     8.0287     7.7925     7.9297     8.2138   112.9043     0.0194     0.1076     2.4757
  135.5000   -42.2666     8.0343     7.7974     7.9341     8.2147   113.3607     0.0164     0.1034     2.4832
  136.0000   -42.2532     8.0399     7.8033     7.9385     8.2005   113.0763     0.0187     0.0983     2.4922
  136.5000   -42.2398     7.8246     7.8081     8.0538     8.2165   111.0142     0.0225     0.0888     2.5102
  137.0000   -42.2265     7.8313     7.8130     8.2277     8.2023   109.5446     0.0180     0.0849     2.5087
  137.5000   -42.2131     7.8913     7.9272     8.2895     8.2033   108.6677     0.0143     0.0941     2.4998
  138.0000   -42.1997     8.0071     7.9874     8.3518     8.2042   109.2722     0.0241     0.1042     2.4804
  138.5000   -42.1863     7.9559     7.9924     8.3564     8.2050   110.7656     0.0256     0.1054     2.4775
  139.0000   -42.1729     8.0182     7.8325     8.3611     8.2059   112.4072     0.0159     0.1099     2.4716
  139.5000   -42.1515     8.0796     8.0024     8.3657     8.2068   114.0487     0.0061     0.1167     2.4604
  140.0000   -41.8480     8.0852     8.0632     8.4285     8.2077   115.8384     0.0046     0.1173     2.4568
  140.5000   -41.8346     8.0908     8.0682     8.4332     8.2086   116.7393     0.0047     0.1158     2.4620
  141.0000   -42.1195     8.0964     7.9618     8.5557     8.2095   115.8623     0.0047     0.1140     2.4673
  141.5000   -42.4042     8.1584     7.9668     8.6800     8.2104   114.0965     0.0078     0.1110     2.4726
  142.0000   -42.3905     8.2209     8.0273     8.8061     8.1964   113.3676     0.0040     0.1094     2.4749
  142.5000   -42.3770     8.2839     8.1447     8.9962     8.1973   113.2314     0.0018     0.1079     2.4779
  143.0000   -42.2146     8.4055     8.2637     9.1269     8.1982   112.3515     0.0086     0.1064     2.4795
