~VERSION INFORMATION
 VERS.                2.0:   CWLS LOG ASCII STANDARD - VERSION 2.0
 WRAP.                 NO:   ONE LINE PER DEPTH STEP
~WELL INFORMATION
#MNEM.UNIT      DATA TYPE    INFORMATION
#----------   ------------   ------------------------------
 STRT.F           32.0000:   START DEPTH
 STOP.F          456.0000:   STOP DEPTH
 STEP.F            0.5000:   STEP LENGTH
 NULL.          -999.2500:   NO VALUE
 COMP. LAWRENCE/ALLISON INC:   COMPANY
 WELL.    52-62 SX #10-10:   WELL
 FLD .             TEAPOT:   FIELD
 LOC .      S10 T38N R78W:   LOCATION
 CNTY.            NATRONA:   COUNTY
 STAT.            WYOMING:   STATE
 CTRY. UNITED STATES OF AMERICA:   COUNTRY
 SRVC.           Gearhart:   SERVICE COMPANY
 DATE.        06-AUG-1987:   LOGDATE
 API .       490251116500:   API NUMBER
~CURVE INFORMATION
#MNEM.UNIT       API CODE    CURVE DESCRIPTION
#----------   ------------   ------------------------------
 DEPT.F                  :   
 GRR .GAPI   07 310 01 00:   GAMMA RAY
 RILD.OHMM   07 120 46 00:   INDUCTION LOG DEEP RESISTIVITY
 RILM.OHMM   07 120 44 00:   INDUCTION LOG MEDIUM RESISTIVITY
 RLL .OHMM   07 220 00 00:   LATEROLOG RESISTIVITY
~PARAMETER INFORMATION
#MNEM.UNIT          VALUE    DESCRIPTION
#----------   ------------   ------------------------------
 PD  .                 GL:   PERMANENT DATUM
 EPD .F              5173:   ELEVATION PERMANENT DATUM
 LMF .                 KB:   LOG MEASURED FROM
 DAPD.F                 8:   FEET ABOVE PERMANENT DATUM
 DMF .                 KB:   DRILLING MEASURED FROM
 EKB .F              5181:   KELLING BUSHING
 EDF .F              5180:   DRILLING FLOOR
 EGL .F              5173:   GROUND LEVEL
 DATE.        06-AUG-1987:   RUN DATE
 RUN .                  1:   RUN NUMBER
 DD  .F               455:   DEPTH DRILLER
 DL  .F               456:   DEPTH LOGGER
 BLI .F               448:   BOTTOM LOG INTERVAL
 TLI .F                30:   TOP LOG INTERVAL
 CS  .IN            8.625:   CASING SIZE
 CBD .F                48:   CASING BOTTOM DRILLER
 CBL .F                48:   CASING BOTTOM LOGGER
 BS  .IN            7.875:   BIT SIZE
 BSD .F               455:   BIT SIZE AT DEPTH
 DFT .          OIL/WATER:   DRILLING FLUID TYPE
 DFD .               10.2:   DRILLING FLUID DENSITY
 DFV .                 40:   DRILLING FLUID VISCOSITY
 MSS .           MUD TANK:   MUD SAMPLE SOURCE
 RMS .OHMM            .22:   RESISTIVITY MUD SAMPLE
 MST .F                70:   MUD SAMPLE TEMPERATURE
 RMF .OHMM            .17:   RESISTIVITY MUD FILTRATE SAMPLE
 MFST.F                70:   MUD FILTRATE SAMPLE TEMPERATURE
 RMC .OHMM            .30:   RESISTIVITY MUD CAKE
 MCST.F                70:   MUD CAKE SAMPLE TEMPERATURE
 MFSS.              CHART:   MUD FILTRATE SAMPLE SOURCE
 TCS .HRS            1600:   TIME CURCULATED STOPPED
 TLAB.HRS            1807:   TIME LOGGER AT BOTTOM
 LUN .               7597:   LOGGING UNIT NUMBER
 LUL .           GILLETTE:   LOGGING UNIT LOCATION
 ENGI.         WEATHERMON:   RECORDING ENGINEER
 WITN.              FIVAS:   WITNESSED BY
 CLNT.            A2DTECH:   CLIENT CODE
 ORIG.           5" PRINT:   ORIGIN OF DATA
 UWI .       490251116500:   UNIQUE WELL ID
 DICO. A2D Technologies, Inc.:   DIGITIZING COMPANY
~OTHER INFORMATION
~A   DEPT       GRR      RILD       RILM        RLL   
# ...
  105.0000   103.6853     8.7912     8.0460    11.0467
  105.5000   101.2676     8.9182     8.0487    11.2067
  106.0000   101.2481     8.9218     8.1652    10.7466
  106.5000   103.7717     8.9879     8.2827    10.6793
  107.0000   108.0218     9.1179     8.4019    10.6838
  107.5000   111.0835     9.1862     8.5229    10.8377
  108.0000   112.3188     9.1899     8.5854    10.9938
  108.5000   109.5966     9.1288     8.6485    11.2304
  109.0000   105.0480     9.0690     8.6521    11.2342
  109.5000   102.9347     9.0105     8.5948    11.0734
  110.0000   102.0390     8.9515     8.5372    10.4114
  110.5000   103.2786     8.9560     8.3638    10.2697
  111.0000   105.1227     8.8965     8.1362    10.5650
  111.5000   108.4888     8.8383     8.0825    10.4211
  112.0000   109.7240     8.9046     8.1425    10.2085
  112.5000   109.4372     8.9082     8.2023    10.3564
  113.0000   109.1504     8.9118     8.3203    10.4326
  113.5000   108.8635     8.9778     8.4401    10.5837
  114.0000   108.5767     9.0451     8.6215    10.6615
  114.5000   108.9031     9.1758     8.6244    10.7398
  115.0000   109.5295     9.1795     8.6878    10.7434
  115.5000   110.4603     9.1185     8.6309    10.7470
  116.0000   111.3911     9.1231     8.6338    10.9018
  116.5000   110.7999     9.0633     8.6367    10.9819
  117.0000   110.2130     9.0040     8.6396    10.6096
  117.5000   110.2306     8.9450     8.5823    10.3208
  118.0000   110.5526     8.8865     8.5201    10.1803
  118.5000   110.8702     8.8283     8.3525    10.1128
  119.0000   110.2831     8.7705     8.1822     9.9768
  119.5000   109.0502     8.7749     8.0715     9.8417
  120.0000   108.4920     8.6569     8.0742     9.6410
  120.5000   107.9051     8.6002     8.1335     9.5113
  121.0000   106.4006     8.6045     8.1362     9.4475
  121.5000   104.8917     8.4888     8.0823     9.1911
  122.0000   107.0446     8.3746     8.0857     9.0659
  122.5000   109.2085     8.3197     8.0322     9.1333
  123.0000   109.2150     8.0912     7.9790     9.2004
  123.5000   107.4061     7.8208     7.7080     9.1351
  124.0000   104.9884     7.6088     7.3938     8.7072
  124.5000   104.3928     7.3511     6.9473     8.3527
  125.0000   104.7191     7.1021     6.5724     8.1247
  125.5000   105.0411     7.0549     6.4378     8.0147
  126.0000   105.4084     7.0584     6.5310     8.0181
  126.5000   106.2983     7.1108     6.6250     8.0770
  127.0000   107.2292     7.2646     6.7674     8.1934
  127.5000   109.3776     7.3184     6.8236     8.4290
  128.0000   110.6129     7.4761     7.0130     8.6103
  128.5000   109.1084     7.5841     7.1638     8.6736
  129.0000   106.3602     7.8018     7.3690     8.6161
  129.5000   106.0994     7.9699     7.5274     8.4988
  130.0000   107.0346     8.0859     7.6357     8.5023
  130.5000   107.3566     8.0891     7.6433     8.8739
  131.0000   107.0698     8.1490     7.6950     9.4484
  131.5000   106.1735     8.0948     7.7515     9.9250
  132.0000   106.8088     8.1556     7.7541     9.9284
  132.5000   108.3445     8.1589     7.7567     9.6582
  133.0000   109.5798     8.1622     7.7053     9.3945
  133.5000   110.5106     8.1663     7.6011     9.2036
  134.0000   111.1326     8.1120     7.5508     9.1427
  134.5000   109.6325     8.0037     7.4486     9.0829
  135.0000   110.5633     7.8412     7.3485     9.0859
  135.5000   112.7499     7.6286     7.2992     9.4779
  136.0000   112.4293     7.3682     7.1510     9.0921
  136.5000   108.7940     6.7820     6.8112     8.9682
  137.0000   106.6762     6.3721     6.2243     9.0982
  137.5000   107.9159     5.9454     5.8067     9.0327
  138.0000   108.2659     5.7842     5.4172     8.2571
  138.5000   106.0669     5.7058     5.0187     7.7568
  139.0000   103.4068     5.6296     4.7478     7.3892
  139.5000   101.9023     5.6759     4.6186     7.0391
  140.0000   103.7463     5.7538     4.5562     7.2409
  140.5000   106.1992     5.8370     4.8198     7.7672
  141.0000   105.9124     5.9628     5.2060     8.2263
  141.5000   105.6256     6.1768     5.6626     8.7529
  142.0000   106.6058     6.4432     5.9897     8.3965
  142.5000   110.5357     6.8188     6.4247     8.1673
  143.0000   113.5974     7.2606     6.8003     8.1132
  143.5000   113.9150     7.6269     7.2899     8.2308
  144.0000   112.7194     7.6833     7.6042     8.2913
  144.5000   113.0413     7.9038     7.6600     8.4804
  145.0000   114.5810     8.1875     7.7162     9.2138
  145.5000   112.1676     8.3639     7.8273     9.7465
  146.0000   111.2676     8.4849     7.8847    10.0259
  146.5000   110.9808     8.6083     7.9989    10.3134
  147.0000   111.3071     8.6720     8.0576    10.3168
  147.5000   111.0203     8.6755     8.1167    10.1063
  148.0000   110.1126     8.7397     8.1763     9.7629
  148.5000   109.5334     8.7432     8.2363     9.4319
  149.0000   112.2951     8.8080     8.2975     9.0479
  149.5000   114.4436     8.8740     8.3584     9.3726
  150.0000   115.6788     8.8150     8.4197    10.3386
  150.5000   115.6980     8.9441     8.6007    11.8921
  151.0000   113.2885     8.8861     8.8471    13.0266
  151.5000   108.7429     8.8903     8.9123    13.6838
  152.0000   106.0239     8.8945     8.9778    12.9496
  152.5000   105.1261     8.8987     8.9808    11.4247
  153.0000   103.6299     8.9030     8.9206    10.6584
  153.5000   101.5196     8.8452     8.8623    10.4407
  154.0000    99.7098     8.9124     8.8013    10.3722
  154.5000    99.1256     8.9166     8.7454    10.2335
  155.0000   100.0647     8.9208     8.7491    10.0934
  155.5000   102.5206     8.9250     8.7521     9.8216
  156.0000   104.9766     8.9292     8.7550     9.4234
  156.5000   108.0414     8.9960     8.6971     9.0404
  157.0000   109.8885     9.0642     8.7000     9.2355
  157.5000   109.6043     8.9419     8.6424     9.7701
  158.0000   107.1659     8.8233     8.5806    10.3356
  158.5000   104.0740     8.7052     8.3525    10.9338
  159.0000   102.3608     8.4109     8.1816    11.1020
  159.5000   103.2999     8.0701     7.9597    10.8676
  160.0000   106.9735     7.7432     7.7433    10.0682
  160.5000   110.6471     7.3199     7.5327     9.0707
  161.0000   111.5759     6.9817     7.0766     8.4623
  161.5000   109.4708     6.6060     6.6481     8.0058
  162.0000   107.9574     5.8296     6.2635     7.5212
  162.5000   107.0768     5.2900     5.4344     7.3086
  163.0000   107.1026     4.8677     5.0346     6.7323
  163.5000   107.7321     4.3559     4.4418     6.1936
  164.0000   109.2748     3.9163     3.8646     5.7380
  164.5000   108.6866     3.4643     3.3624     5.2789
  165.0000   107.1852     3.0148     2.8251     4.9594
  165.5000   105.6838     2.8526     2.5260     4.6919
  166.0000   104.1502     2.8338     2.3719     4.4042
  166.5000   102.0773     2.8753     2.3424     4.1126
  167.0000   100.2715     2.9580     2.3929     4.1722
  167.5000    99.9825     3.0644     2.5312     4.3525
  168.0000   100.0084     3.2478     2.8311     4.5723
  168.5000   103.0732     3.6518     3.2789     5.1149
  169.0000   107.0512     4.0847     3.6931     5.8839
  169.5000   109.5072     4.4743     4.1679     6.4456
  170.0000   111.0705     5.0750     4.7513     6.8794
  170.5000   112.2934     5.7966     5.3890     7.2141
  171.0000   112.9228     6.3496     5.9027     7.5258
  171.5000   112.9435     6.8654     6.1571     7.5816
  172.0000   112.6597     7.0571     6.3335     7.5311
  172.5000   111.7671     7.1098     6.4247     7.5878
  173.0000   109.6569     6.9659     6.4269     7.5380
  173.5000   108.7641     6.7305     6.3400     7.2778
  174.0000   110.6362     6.4578     6.2980     7.2860
  174.5000   112.1593     6.1961     6.1701     7.3915
  175.0000   111.8756     5.9451     6.0023     7.3423
  175.5000   112.2007     5.7389     5.7985     7.0939
  176.0000   116.1787     5.5887     5.4856     6.4810
  176.5000   122.2876     5.4756     5.1534     6.0042
  177.0000   124.1348     5.4030     4.9087     5.7987
  177.5000   124.7742     5.3301     4.8093     5.7625
