~VERSION INFORMATION
 VERS.                2.0:   CWLS LOG ASCII STANDARD - VERSION 2.0
 WRAP.                 NO:   ONE LINE PER DEPTH STEP
~WELL INFORMATION
#MNEM.UNIT      DATA TYPE    INFORMATION
#----------   ------------   ------------------------------
 STRT.F           80.0000:   START DEPTH
 STOP.F          964.0000:   STOP DEPTH
 STEP.F            0.5000:   STEP LENGTH
 NULL.          -999.2500:   NO VALUE
 COMP. U S NAVY-INTEX OIL:   COMPANY
 WELL. N.P.R. #3` #57-S-2:   WELL
 FLD .        TEAPOT DOME:   FIELD
 LOC .       S2 T38N R78W:   LOCATION
 CNTY.            NATRONA:   COUNTY
 STAT.            WYOMING:   STATE
 CTRY. UNITED STATES OF AMERICA:   COUNTRY
 SRVC.       Schlumberger:   SERVICE COMPANY
 DATE.        04-AUG-1961:   LOGDATE
 API .       490250640500:   API NUMBER
~CURVE INFORMATION
#MNEM.UNIT       API CODE    CURVE DESCRIPTION
#----------   ------------   ------------------------------
 DEPT.F                  :   
 GR  .GAPI   30 310 01 00:   GAMMA RAY
 ASN .OHMM   05 041 16 00:   AMPLIFIED SHORT NORMAL 16"
 CILD.MMHO   05 110 46 00:   CONDUCTIVITY INDUCTION LOG DEEP
 ILD .OHMM   05 120 46 00:   INDUCTION LOG DEEP
 SPR .MV     05 010 01 00:   SPONTANEOUS POTENTIAL FROM RES.
~PARAMETER INFORMATION
#MNEM.UNIT          VALUE    DESCRIPTION
#----------   ------------   ------------------------------
 LMF .                 KB:   LOG MEASURED FROM
 DMF .                 KB:   DRILLING MEASURED FROM
 EKB .F              5205:   KELLING BUSHING
 EGL .F              5200:   GROUND LEVEL
 DATE.        04-AUG-1961:   RUN DATE
 RUN .                  1:   RUN NUMBER
 DD  .F               965:   DEPTH DRILLER
 DL  .F               965:   DEPTH LOGGER
 BLI .F               954:   BOTTOM LOG INTERVAL
 TLI .F               150:   TOP LOG INTERVAL
 BS  .IN             6.75:   BIT SIZE
 BSD .F               965:   BIT SIZE AT DEPTH
 DFT .       OIL EMULSION:   DRILLING FLUID TYPE
 DFD .                9.4:   DRILLING FLUID DENSITY
 DFV .                 65:   DRILLING FLUID VISCOSITY
 MSS .           FLOWLINE:   MUD SAMPLE SOURCE
 RMS .OHMM            1.0:   RESISTIVITY MUD SAMPLE
 MST .F                80:   MUD SAMPLE TEMPERATURE
 TCS .HRS               1:   TIME CURCULATED STOPPED
 LUN .               2544:   LOGGING UNIT NUMBER
 LUL .                 NC:   LOGGING UNIT LOCATION
 ENGI.            EARNEST:   RECORDING ENGINEER
 WITN.          JORGENSEN:   WITNESSED BY
 CLNT.            A2DTECH:   CLIENT CODE
 ORIG.        2" 5" PRINT:   ORIGIN OF DATA
 UWI .       490250640500:   UNIQUE WELL ID
 DICO. A2D Technologies, Inc.:   DIGITIZING COMPANY
~OTHER INFORMATION
~A   DEPT       GR        ASN       CILD        ILD        SPR   
# ...
  812.0000    44.0282    10.0558   103.0884    10.3653   -59.6295
  812.5000    45.5794    10.2812   100.0750    10.6662   -59.3280
  813.0000    36.9760    10.5815    97.0615    10.9671   -59.3250
  813.5000    29.8379    10.9567    97.0465    11.2680   -59.4720
  814.0000    31.5027    12.1566    97.0315    11.1198   -60.0653
  814.5000    27.0247    13.5063    97.0165    11.1148   -60.8086
  815.0000    21.8285    15.0060    93.7531    11.3473   -61.4027
  815.5000    18.2668    16.1309    84.9925    12.3967   -61.8475
  816.0000    20.0543    17.1059    75.9790    14.2695   -62.2930
  816.5000    20.8005    17.8559    68.4678    16.5165   -62.7371
  817.0000    16.7942    18.6060    62.4559    18.1716   -63.1819
  817.5000    17.2444    19.4311    57.9432    19.6707   -63.4781
  818.0000    20.0720    19.3565    54.9298    20.3423   -63.7737
  818.5000    25.5742    19.5069    51.9164    20.3398   -64.0685
  819.0000    28.1035    19.6573    53.4044    20.0279   -64.0655
  819.5000    25.5830    20.1825    54.8887    19.4276   -63.7640
  820.0000    28.4095    20.2729    57.8686    18.8373   -63.6118
  820.5000    26.7795    19.4337    60.8521    18.1407   -63.3103
  821.0000    30.2025    18.9844    63.8395    17.2524   -63.0088
  821.5000    33.3273    18.3094    66.8230    16.5025   -63.1552
  822.0000    34.3708    17.5590    69.8066    15.7099   -62.8536
  822.5000    32.5921    17.3328    71.2909    15.0377   -62.5522
  823.0000    33.7852    17.2621    72.7715    14.7394   -62.2507
  823.5000    30.2235    17.2697    72.7566    14.8910   -62.2477
  824.0000    32.1607    17.4129    72.7416    15.1919   -62.0895
  824.5000    29.7866    17.5633    71.2275    15.4928   -62.2418
  825.0000    32.1696    17.8011    69.7133    15.7937   -62.5373
  825.5000    25.7847    18.1781    69.6983    16.2443   -63.4419
  826.0000    26.0863    18.4643    66.6849    16.7697   -64.7880
  826.5000    29.5083    18.7646    66.6700    17.4448   -65.3732
  827.0000    24.0149    19.0648    66.6551    18.0451   -65.3493
  827.5000    23.1129    19.5151    65.1409    18.6454   -65.2089
  828.0000    25.8147    19.9653    63.6267    19.6948   -65.2239
  828.5000    27.6074    20.4155    60.6133    20.7442   -65.3731
  829.0000    26.1128    20.5659    59.0991    21.5691   -65.7971
  829.5000    27.9621    20.5663    57.5862    22.0945   -65.7940
  830.0000    31.3223    20.8666    57.5700    22.3954   -65.6412
  830.5000    29.2465    21.6917    54.5565    22.3969   -65.3397
  831.0000    30.9430    22.4417    54.5416    22.3984   -64.8890
  831.5000    32.6740    22.3671    53.0274    22.2502   -64.5875
  832.0000    30.5982    22.1428    51.5132    22.1764   -64.4353
  832.5000    31.4941    21.9183    48.4998    22.1031   -64.2831
  833.0000    29.1211    21.6189    48.4849    21.6999   -64.2801
  833.5000    30.0171    21.0947    48.4700    21.0586   -64.2771
  834.0000    32.6961    20.7952    51.4573    20.7607   -64.5727
  834.5000    35.0779    20.3459    54.4378    20.0137   -65.0174
  835.0000    33.5965    19.8966    58.9199    19.1170   -65.4622
  835.5000    34.4924    19.6720    60.4048    18.6694   -65.6093
  836.0000    38.3601    19.2978    63.3883    18.0721   -65.1578
  836.5000    36.2843    18.9984    64.8726    17.3251   -64.7071
  837.0000    32.8712    18.5491    66.3568    16.7277   -64.1071
  837.5000    35.1045    18.0248    69.3403    16.1304   -63.6563
  838.0000    35.4050    17.3505    70.8246    15.3086   -63.6534
  838.5000    37.4907    16.8263    72.3088    14.4867   -63.6504
  839.0000    41.2099    16.3020    75.2924    14.4130   -63.4982
  839.5000    39.5798    16.0026    76.7766    14.4148   -62.8982
  840.0000    42.2588    15.7032    76.7616    14.4912   -62.4475
  840.5000    44.4921    15.6286    75.2474    14.4927   -62.2952
  841.0000    41.3762    15.5541    75.2324    14.6438   -62.2923
  841.5000    34.9913    15.6295    72.2189    14.7950   -62.2893
  842.0000    35.2929    15.7799    72.1039    14.9462   -62.4363
  842.5000    38.5662    15.8553    70.6897    15.0226   -62.4326
  843.0000    38.9192    15.9307    70.6747    15.3235   -62.7289
  843.5000    37.6415    16.0061    72.1594    15.6243   -63.0237
  844.0000    36.3507    16.1605    72.1439    15.8504   -63.7670
  844.5000    36.0579    16.2377    70.6297    16.2261   -63.9140
  845.0000    38.7370    16.3898    69.1154    16.6019   -63.9103
  845.5000    36.9583    16.6169    67.3263    16.9028   -63.6088
  846.0000    38.8153    16.8440    64.5847    17.3534   -63.4566
  846.5000    35.6887    17.2337    63.0705    17.7291   -63.1551
  847.0000    28.9478    17.8519    63.0556    18.1048   -62.8536
  847.5000    32.9521    18.6335    61.5414    18.2560   -62.4029
  848.0000    31.6324    19.0837    60.0272    18.2575   -61.9522
  848.5000    27.6249    19.0842    60.0123    18.1842   -61.5014
  849.0000    24.8050    18.7098    59.9974    17.9611   -61.4985
  849.5000    29.5654    18.0356    62.9810    17.5135   -61.4955
  850.0000    31.9461    16.9116    64.7980    16.9162   -61.4925
  850.5000    31.2104    15.9376    68.7667    16.0936   -61.8113
  851.0000    33.0010    15.1884    74.9319    14.5973   -62.2356
  851.5000    28.5527    14.8890    77.9160    14.2987   -62.6823
  852.0000    23.3595    14.7395    79.4003    14.1497   -62.8301
  852.5000    21.7307    14.7399    80.8847    14.1505   -63.1267
  853.0000    25.9310    14.7404    80.8696    14.1512   -63.1252
  853.5000    29.5596    14.5909    77.8531    14.0759   -62.9745
  854.0000    32.0057    14.5164    79.3377    13.9980   -62.8238
  854.5000    29.4735    14.4418    82.3215    13.7705   -62.6731
  855.0000    27.3549    14.1425    82.3068    13.6177   -62.5223
  855.5000    26.3818    13.9832    82.2921    13.3317   -62.5209
  856.0000    29.6603    13.9589    83.7803    13.1828   -62.5194
  856.5000    27.1397    13.8681    83.7619    13.1087   -62.5139
  857.0000    28.9302    13.7181    85.2501    13.1842   -62.2179
  857.5000    27.1547    13.7181    85.2317    13.2598   -62.0473
  858.0000    31.7684    13.5682    83.7178    13.3354   -61.6179
  858.5000    34.8962    13.5682    83.7030    13.3362   -61.3176
  859.0000    35.7117    14.0180    83.6882    13.3369   -61.0177
  859.5000    32.8309    14.0180    83.6732    13.1129   -60.8669
  860.0000    33.1356    13.9430    85.1581    12.9639   -60.8655
  860.5000    35.2233    13.7931    85.1398    13.5637   -61.0136
  861.0000    34.4878    13.7181    86.6280    13.7141   -61.4595
  861.5000    28.4032    13.5682    86.6096    13.6400   -61.6077
  862.0000    31.3824    13.4912    83.5964    13.4162   -61.6058
  862.5000    32.4282    13.4933    83.5817    13.5666   -61.4551
  863.0000    33.0319    13.5892    80.5685    13.7171   -61.3044
  863.5000    35.4168    13.9430    80.5537    13.9436   -61.0044
  864.0000    37.8017    14.2429    80.5390    14.3224   -60.7044
  864.5000    35.8775    14.6177    77.5258    14.6175   -61.1507
  865.0000    34.3972    14.9175    76.0119    14.6183   -61.0000
  865.5000    37.0812    15.2924    75.9970    14.4695   -60.8493
  866.0000    34.5626    15.3673    74.4832    14.2456   -60.3940
  866.5000    35.0159    15.3673    77.4670    13.9470   -59.9368
  867.0000    37.8465    14.9175    81.9464    13.7232   -59.5652
  867.5000    40.8258    14.0180    86.4294    13.4994   -59.7982
  868.0000    43.5079    13.1184    89.4169    13.2755   -60.3938
  868.5000    43.8106    12.3688    95.3955    12.7523   -60.2430
  869.0000    41.8883    11.9190    98.3793    12.0794   -59.9430
  869.5000    40.4099    11.6942    99.8675    11.5562   -59.7923
  870.0000    36.5522    11.5442   101.3520    11.3324   -59.7908
  870.5000    39.6820    11.3943   102.8329    11.2581   -60.3864
  871.0000    43.1070    11.3193   104.3178    11.1840   -60.6838
  871.5000    41.1454    11.3943   102.8035    11.1849   -60.8316
  872.0000    35.6493    11.3943   101.2894    11.1857   -60.6805
  872.5000    31.3891    11.3943    99.7751    11.2612   -60.5298
