~VERSION INFORMATION
 VERS.                2.0:   CWLS LOG ASCII STANDARD - VERSION 2.0
 WRAP.                 NO:   ONE LINE PER DEPTH STEP
~WELL INFORMATION
#MNEM.UNIT      DATA TYPE    INFORMATION
#----------   ------------   ------------------------------
 STRT.F           80.0000:   START DEPTH
 STOP.F          964.0000:   STOP DEPTH
 STEP.F            0.5000:   STEP LENGTH
 NULL.          -999.2500:   NO VALUE
 COMP. U S NAVY-INTEX OIL:   COMPANY
 WELL. N.P.R. #3` #57-S-2:   WELL
 FLD .        TEAPOT DOME:   FIELD
 LOC .       S2 T38N R78W:   LOCATION
 CNTY.            NATRONA:   COUNTY
 STAT.            WYOMING:   STATE
 CTRY. UNITED STATES OF AMERICA:   COUNTRY
 SRVC.       Schlumberger:   SERVICE COMPANY
 DATE.        04-AUG-1961:   LOGDATE
 API .       490250640500:   API NUMBER
~CURVE INFORMATION
#MNEM.UNIT       API CODE    CURVE DESCRIPTION
#----------   ------------   ------------------------------
 DEPT.F                  :   
 GR  .GAPI   30 310 01 00:   GAMMA RAY
 ASN .OHMM   05 041 16 00:   AMPLIFIED SHORT NORMAL 16"
 CILD.MMHO   05 110 46 00:   CONDUCTIVITY INDUCTION LOG DEEP
 ILD .OHMM   05 120 46 00:   INDUCTION LOG DEEP
 SPR .MV     05 010 01 00:   SPONTANEOUS POTENTIAL FROM RES.
~PARAMETER INFORMATION
#MNEM.UNIT          VALUE    DESCRIPTION
#----------   ------------   ------------------------------
 LMF .                 KB:   LOG MEASURED FROM
 DMF .                 KB:   DRILLING MEASURED FROM
 EKB .F              5205:   KELLING BUSHING
 EGL .F              5200:   GROUND LEVEL
 DATE.        04-AUG-1961:   RUN DATE
 RUN .                  1:   RUN NUMBER
 DD  .F               965:   DEPTH DRILLER
 DL  .F               965:   DEPTH LOGGER
 BLI .F               954:   BOTTOM LOG INTERVAL
 TLI .F               150:   TOP LOG INTERVAL
 BS  .IN             6.75:   BIT SIZE
 BSD .F               965:   BIT SIZE AT DEPTH
 DFT .       OIL EMULSION:   DRILLING FLUID TYPE
 DFD .                9.4:   DRILLING FLUID DENSITY
 DFV .                 65:   DRILLING FLUID VISCOSITY
 MSS .           FLOWLINE:   MUD SAMPLE SOURCE
 RMS .OHMM            1.0:   RESISTIVITY MUD SAMPLE
 MST .F                80:   MUD SAMPLE TEMPERATURE
 TCS .HRS               1:   TIME CURCULATED STOPPED
 LUN .               2544:   LOGGING UNIT NUMBER
 LUL .                 NC:   LOGGING UNIT LOCATION
 ENGI.            EARNEST:   RECORDING ENGINEER
 WITN.          JORGENSEN:   WITNESSED BY
 CLNT.            A2DTECH:   CLIENT CODE
 ORIG.        2" 5" PRINT:   ORIGIN OF DATA
 UWI .       490250640500:   UNIQUE WELL ID
 DICO. A2D Technologies, Inc.:   DIGITIZING COMPANY
~OTHER INFORMATION
~A   DEPT       GR        ASN       CILD        ILD        SPR   
# ...
  202.0000  -999.2500     6.4436   171.0811     6.1421   -64.8684
  202.5000  -999.2500     6.4948   171.0586     6.3410   -65.4095
  203.0000  -999.2500     6.5480   171.0327     6.4052   -65.6831
  203.5000  -999.2500     6.5903   171.5941     6.4059   -66.1570
  204.0000  -999.2500     6.6392   172.5326     6.3273   -66.5926
  204.5000  -999.2500     6.6981   175.4730     6.1816   -66.5902
  205.0000  -999.2500     6.7474   178.8538     6.1068   -66.4380
  205.5000  -999.2500     6.7730   181.4325     6.1077   -66.3517
  206.0000  -999.2500     6.7229   182.1321     6.1521   -66.1341
  206.5000  -999.2500     6.5946   177.9454     6.2004   -65.9818
  207.0000  -999.2500     6.4745   173.8557     6.3359   -65.8301
  207.5000  -999.2500     6.5314   171.7342     6.4477   -65.6781
  208.0000  -999.2500     6.6936   169.2693     6.3373   -65.5255
  208.5000  -999.2500     6.9532   166.8043     6.6394   -65.4754
  209.0000  -999.2500     7.1937   165.8409     6.7711   -65.2220
  209.5000  -999.2500     7.4019   164.7359     6.9423   -65.1336
  210.0000  -999.2500     7.4320   164.7147     7.0934   -65.2459
  210.5000  -999.2500     7.4218   166.4340     7.0742   -65.6599
  211.0000  -999.2500     7.2230   169.1712     6.8690   -66.0229
  211.5000  -999.2500     6.8662   173.3959     6.5245   -66.4113
  212.0000  -999.2500     6.6105   178.3184     6.4578   -66.6939
  212.5000  -999.2500     6.6704   183.6211     6.0430   -66.8902
  213.0000  -999.2500     6.6649   189.0441     5.8931   -66.9866
  213.5000  -999.2500     6.6256   188.5800     5.8938   -66.9836
  214.0000  -999.2500     6.5770   181.5916     6.0453   -66.9488
  214.5000  -999.2500     6.5663   175.7434     6.1452   -66.6793
  215.0000  -999.2500     6.5665   168.9912     6.3479   -66.6071
  215.5000  -999.2500     6.6291   164.6872     6.4554   -66.5248
  216.0000  -999.2500     6.8239   158.1981     6.6074   -66.9682
  216.5000  -999.2500     7.2845   150.9040     6.9526   -67.1148
  217.0000  -999.2500     7.4969   147.4225     7.1757   -66.9627
  217.5000  -999.2500     7.7227   143.3549     7.3387   -66.7213
  218.0000  -999.2500     7.8679   140.9910     7.4067   -66.3607
  218.5000  -999.2500     7.9809   138.8063     7.5107   -66.0593
  219.0000  -999.2500     7.9904   140.2827     7.4081   -66.2772
  219.5000  -999.2500     7.7682   143.7463     7.3611   -66.6816
  220.0000  -999.2500     7.6084   151.0511     7.0683   -67.0934
  220.5000  -999.2500     7.3604   159.7330     6.8080   -67.4963
  221.0000  -999.2500     7.1961   163.6787     6.5783   -67.8331
  221.5000  -999.2500     7.1936   168.7005     6.4208   -68.0705
  222.0000  -999.2500     7.1665   169.5396     6.3584   -68.1256
  222.5000  -999.2500     7.1465   170.1604     6.3912   -67.9729
  223.0000  -999.2500     7.1070   168.6312     6.4395   -67.8212
  223.5000  -999.2500     7.0590   164.9274     6.5867   -67.6692
  224.0000  -999.2500     7.0475   162.3424     6.6867   -67.6657
  224.5000  -999.2500     7.0626   158.0515     6.8140   -67.6632
  225.0000  -999.2500     7.1151   155.5305     7.0093   -67.6602
  225.5000  -999.2500     7.2091   150.5025     7.1491   -67.5082
  226.0000  -999.2500     7.4069   146.5966     7.3434   -67.4297
  226.5000  -999.2500     7.6090   143.8114     7.4915   -67.2039
  227.0000  -999.2500     7.8436   138.4212     7.6626   -66.9767
  227.5000  -999.2500     8.0777   134.6972     7.8729   -66.8604
  228.0000  -999.2500     8.2780   132.0921     8.0803   -66.4496
  228.5000  -999.2500     8.4540   127.8415     8.2515   -66.3557
  229.0000  -999.2500     8.5611   125.3403     8.4501   -66.4441
  229.5000  -999.2500     8.6788   127.7999     8.5533   -66.5365
  230.0000  -999.2500     8.8431   130.1801     8.4037   -66.6667
  230.5000  -999.2500     8.7747   132.9404     8.2137   -67.1801
  231.0000  -999.2500     8.5943   136.7397     8.0040   -67.5529
  231.5000  -999.2500     8.0961   141.8845     7.6530   -67.9414
  232.0000  -999.2500     7.8236   150.5304     7.4388   -68.2142
  232.5000  -999.2500     7.6779   156.1900     7.1185   -68.3607
  233.0000  -999.2500     7.5016   160.2553     6.8270   -68.3537
  233.5000  -999.2500     7.2849   165.1575     6.6043   -68.1083
  234.0000  -999.2500     7.0804   169.0591     6.3765   -67.7556
  234.5000  -999.2500     7.0348   168.1156     6.4213   -67.6034
  235.0000  -999.2500     7.2033   165.0883     6.6202   -67.2926
  235.5000  -999.2500     7.2603   162.8253     6.8306   -67.1267
  236.0000  -999.2500     7.2915   158.8589     6.9428   -66.8491
  236.5000  -999.2500     7.3502   156.0100     7.0580   -66.7591
  237.0000  -999.2500     7.4323   155.9910     7.0589   -66.8436
  237.5000  -999.2500     7.4701   157.4700     7.0313   -66.8405
  238.0000  -999.2500     7.3357   163.8338     6.8333   -66.8813
  238.5000  -999.2500     7.0726   172.0795     6.4922   -67.1325
  239.0000  -999.2500     6.9112   176.9203     6.4187   -67.3602
  239.5000  -999.2500     6.8429   179.9024     6.2342   -67.7745
  240.0000  -999.2500     6.7803   179.8799     6.1948   -68.1665
  240.5000  -999.2500     6.7218   178.3525     6.1603   -68.5256
  241.0000  -999.2500     6.6048   178.3333     6.2365   -68.7572
  241.5000  -999.2500     6.5445   176.8093     6.2372   -68.6045
  242.0000  -999.2500     6.6792   176.7868     6.2425   -68.3040
  242.5000  -999.2500     6.7556   176.7643     6.3894   -68.0029
  243.0000  -999.2500     6.8045   176.7403     6.4144   -67.7675
  243.5000  -999.2500     6.8441   176.7192     6.5414   -67.6711
  244.0000  -999.2500     6.8311   176.6967     6.3916   -67.3976
  244.5000  -999.2500     6.5712   175.1695     6.5428   -67.1803
  245.0000  -999.2500     6.4858   175.1501     6.1672   -67.0840
  245.5000  -999.2500     6.4611   175.1276     6.0926   -66.9413
  246.0000  -999.2500     6.4263   174.1241     6.0934   -66.7899
  246.5000  -999.2500     6.3877   173.5811     6.0942   -66.7868
  247.0000  -999.2500     6.3668   172.0558     6.0949   -66.9548
  247.5000  -999.2500     6.3819   172.0345     6.1716   -67.2578
  248.0000  -999.2500     6.4114   172.2523     6.2470   -67.5228
  248.5000  -999.2500     6.4586   173.4910     6.3435   -67.6692
  249.0000  -999.2500     6.4870   175.5906     6.3991   -67.6662
  249.5000  -999.2500     6.5021   181.0135     6.3193   -67.6627
  250.0000  -999.2500     6.4275   185.4354     6.0743   -67.6602
  250.5000  -999.2500     6.2438   192.7403     5.7990   -67.6572
  251.0000  -999.2500     5.9028   200.4043     5.4767   -67.5668
  251.5000  -999.2500     5.6806   208.8513     5.1980   -67.4705
  252.0000  -999.2500     5.5976   215.8960     5.1236   -67.3499
  252.5000  -999.2500     5.5590   221.3561     5.0488   -67.3472
  253.0000  -999.2500     5.5465   221.3363     5.0497   -67.1813
  253.5000  -999.2500     5.5466   221.2338     5.0948   -67.0427
  254.0000  -999.2500     5.5468   218.2839     5.2018   -66.9886
  254.5000  -999.2500     5.5469   215.8433     5.2026   -66.7392
  255.0000  -999.2500     5.5620   212.2363     5.2033   -66.5574
  255.5000  -999.2500     5.5622   209.8723     5.2127   -66.4352
  256.0000  -999.2500     5.5958   207.4075     5.3555   -66.7300
  256.5000  -999.2500     5.6785   206.1611     5.3847   -66.8763
  257.0000  -999.2500     5.7719   205.4804     5.5075   -67.0541
  257.5000  -999.2500     5.8221   204.6171     5.5083   -67.4660
  258.0000  -999.2500     5.8942   204.5904     5.5843   -67.6662
  258.5000  -999.2500     5.9368   203.0706     5.6604   -67.9076
  259.0000  -999.2500     5.9417   201.5458     5.6611   -67.9960
  259.5000  -999.2500     5.8922   200.0225     5.7372   -68.0864
  260.0000  -999.2500     5.8386   198.1981     5.7380   -68.1967
  260.5000  -999.2500     5.8327   196.9721     5.6634   -68.0447
  261.0000  -999.2500     5.8478   194.7698     5.6642   -68.0238
  261.5000  -999.2500     5.8776   192.4249     5.6651   -67.8893
  262.0000  -999.2500     5.9414   190.8968     5.7656   -67.5887
  262.5000  -999.2500     6.0127   188.8764     5.8170   -67.2876
