~VERSION INFORMATION
 VERS.                2.0:   CWLS LOG ASCII STANDARD - VERSION 2.0
 WRAP.                 NO:   ONE LINE PER DEPTH STEP
~WELL INFORMATION
#MNEM.UNIT      DATA TYPE    INFORMATION
#----------   ------------   ------------------------------
 STRT.F           85.0000:   START DEPTH
 STOP.F          780.0000:   STOP DEPTH
 STEP.F            0.5000:   STEP LENGTH
 NULL.          -999.2500:   NO VALUE
 COMP. U S NAVY-INTEX OIL:   COMPANY
 WELL.        NPR #47-S-2:   WELL
 FLD .             TEAPOT:   FIELD
 LOC .       S2 T38N R78W:   LOCATION
 CNTY.            NATRONA:   COUNTY
 STAT.            WYOMING:   STATE
 CTRY. UNITED STATES OF AMERICA:   COUNTRY
 SRVC.       Schlumberger:   SERVICE COMPANY
 DATE.        30-JUN-1962:   LOGDATE
 API .       490250640200:   API NUMBER
~CURVE INFORMATION
#MNEM.UNIT       API CODE    CURVE DESCRIPTION
#----------   ------------   ------------------------------
 DEPT.F                  :   
 SPR .MV     05 010 01 00:   SPONTANEOUS POTENTIAL FROM RES.
 ASN .OHMM   05 041 18 00:   AMPLIFIED SHORT NORMAL 18"
 ILD .OHMM   05 120 46 00:   INDUCTION LOG DEEP
 CILD.MMHO   05 110 46 00:   CONDUCTIVITY INDUCTION LOG DEEP
 CALM.IN     15 280 01 00:   CALIPER FROM MICRO LOG
 GR  .GAPI   30 310 01 00:   GAMMA RAY
~PARAMETER INFORMATION
#MNEM.UNIT          VALUE    DESCRIPTION
#----------   ------------   ------------------------------
 PD  .                 KB:   PERMANENT DATUM
 LMF .                 KB:   LOG MEASURED FROM
 DMF .                 KB:   DRILLING MEASURED FROM
 EKB .F              5175:   KELLING BUSHING
 EGL .F              5170:   GROUND LEVEL
 DATE.          6-30-1962:   RUN DATE
 RUN .                  1:   RUN NUMBER
 DD  .F               775:   DEPTH DRILLER
 DL  .F               781:   DEPTH LOGGER
 BLI .F               780:   BOTTOM LOG INTERVAL
 TLI .F                86:   TOP LOG INTERVAL
 BS  .IN             6.75:   BIT SIZE
 BSD .F               775:   BIT SIZE AT DEPTH
 DFT .            GEL-OIL:   DRILLING FLUID TYPE
 DFD .                 10:   DRILLING FLUID DENSITY
 DFV .                 50:   DRILLING FLUID VISCOSITY
 DFL .                3.6:   DRILLING FLUID LOSS
 MSS .           FLOWLINE:   MUD SAMPLE SOURCE
 RMS .OHMM           5.75:   RESISTIVITY MUD SAMPLE
 MST .F                69:   MUD SAMPLE TEMPERATURE
 RMF .OHMM           4.96:   RESISTIVITY MUD FILTRATE SAMPLE
 MFST.F                69:   MUD FILTRATE SAMPLE TEMPERATURE
 RMC .OHMM           4.80:   RESISTIVITY MUD CAKE
 MCST.F                69:   MUD CAKE SAMPLE TEMPERATURE
 RMB .OHMM           5.13:   RESISTIVITY MUD AT BHT
 BHT .F                78:   BOTTOM HOLE TEMPERATURE
 TCS .HRS               1:   TIME CURCULATED STOPPED
 MRT .F                78:   MAXIMUM RECORDED TEMPERATURE
 LUN .               2503:   LOGGING UNIT NUMBER
 LUL .              CSPR.:   LOGGING UNIT LOCATION
 ENGI.             KNOBEL:   RECORDING ENGINEER
 WITN.          JORGENSEN:   WITNESSED BY
 CLNT.            A2DTECH:   CLIENT CODE
 ORIG.      2" & 5" PRINT:   ORIGIN OF DATA
 UWI .       490250640200:   UNIQUE WELL ID
 DICO. A2D Technologies, Inc.:   DIGITIZING COMPANY
~OTHER INFORMATION
~A   DEPT      SPR        ASN        ILD         CILD     CALM         GR   
# ...
  657.0000   -18.7294     8.2506     7.9011   134.3747     6.8503    85.7774
  657.5000   -18.8767     8.2807     7.8996   132.8559     6.8516    85.3371
  658.0000   -18.8749     8.3108     7.8981   131.3371     6.8377    85.6431
  658.5000   -18.8734     8.3409     7.8966   130.5702     6.8089    90.1282
  659.0000   -18.8719     8.3710     7.8951   129.8033     6.7652    92.6731
  659.5000   -19.1680     8.4011     7.9683   129.7882     6.7212    93.4250
  660.0000   -19.3157     8.4312     7.9668   132.0288     6.7225    92.8060
  660.5000   -19.6115     8.4613     8.0405   134.2732     6.7086    92.8697
  661.0000   -20.0564     8.4015     8.1137   135.7619     6.7096    94.2626
  661.5000   -20.6505     8.2819     8.1869   135.7431     6.6955    95.1165
  662.0000   -21.2439     8.2072     8.2602   133.4724     6.6968    95.0567
  662.5000   -21.9865     8.1325     8.3334   131.9536     6.7128    90.5346
  663.0000   -22.4318     8.1925     8.3316   130.4348     6.7287    87.4622
  663.5000   -22.4299     8.3574     8.2553   128.9160     6.7148    84.6682
  664.0000   -22.4284     8.6270     8.1791   127.3972     6.6711    82.1436
  664.5000   -22.4269     8.7768     7.8039   128.1341     6.6124    80.9612
  665.0000   -22.2766     8.9566     6.9803   133.3822     6.6135    83.3583
  665.5000   -22.2751     8.9867     6.3061   146.9010     6.6742    84.7091
  666.0000   -22.4228     8.6575     5.8562   161.9236     6.7349    83.5225
  666.5000   -22.5701     8.2086     5.4810   180.7055     6.7362    84.8733
  667.0000   -22.4195     7.0860     5.2553   199.4875     6.6770    85.1980
  667.5000   -21.2275     6.4574     5.1791   201.7318     6.6485    79.6645
  668.0000   -19.4403     6.3527     5.1776   200.9612     6.6818    74.2988
  668.5000   -19.7364     6.5325     5.3256   200.1942     6.7401    71.9183
  669.0000   -21.3719     6.3979     5.4739   196.4198     6.7710    71.6254
  669.5000   -21.6684     6.5178     6.0700   188.1341     6.7571    72.6796
  670.0000   -21.2201     7.6407     6.8158   172.3296     6.6838    71.3438
  670.5000   -21.0698     8.8535     7.6061   149.7581     6.6998    67.1722
  671.0000   -21.3659     9.4973     8.3512   127.1867     6.7903    65.8364
  671.5000   -21.2156     9.8568     8.9932   115.1416     6.8660    63.0081
  672.0000   -20.9165     9.9938     9.2905   101.5927     6.9267    61.3719
  672.5000   -20.3198    10.1115     9.3498   107.5927     6.9576    62.1276
  673.0000   -19.7230    10.2614     9.4231   112.0890     6.8840    59.4485
  673.5000   -18.8287    10.1867     9.4215   113.5815     6.8102    59.6053
  674.0000   -18.0832    10.2617     9.4330   112.8108     6.8115    59.6128
  674.5000   -17.9329    10.3367     9.5807   111.2920     6.8424    56.6352
  675.0000   -17.9314    10.4865     9.8779   108.2694     6.8733    50.9711
  675.5000   -17.9299    10.6364    10.1751   104.4950     6.8743    46.7995
  676.0000   -18.0776    11.0108    10.5591   100.7206     6.8455    43.5234
  676.5000   -18.0757    11.6097    11.0054    96.9461     6.7868    40.9936
  677.0000   -18.3718    12.8823    11.4520    92.4198     6.6386    36.3742
  677.5000   -19.1144    14.3795    12.0478    85.6378     6.4904    32.2026
  678.0000   -20.1546    15.8767    12.7512    78.8559     6.4914    27.4340
  678.5000   -22.2364    16.2511    14.0724    72.0739     6.5223    24.6057
  679.0000   -24.7647    16.8500    15.0523    63.7882     6.5383    24.9117
  679.5000   -28.9299    19.8442    16.8333    56.2544     6.5692    27.3073
  680.0000   -31.4581    22.6886    17.6433    51.7281     6.5254    28.6581
  680.5000   -31.7546    23.0630    18.0800    50.9612     6.4518    26.7253
  681.0000   -31.1579    22.2398    18.1530    50.1942     6.4529    25.0910
  681.5000   -32.7930    22.1651    18.4593    47.9236     6.5136    25.7527
  682.0000   -33.6843    22.7641    18.8311    45.6529     6.6490    26.2985
  682.5000   -33.8320    23.2133    19.1941    44.8860     6.5903    26.7761
  683.0000   -32.6397    23.6626    19.2586    44.1190     6.4719    24.1860
  683.5000   -31.4477    24.0370    19.0995    44.8559     6.4429    23.5880
  684.0000   -31.0002    23.5132    18.8820    45.5965     6.4758    21.9761
  684.5000   -32.6352    22.8397    18.7233    47.0852     6.5795    21.1035
  685.0000   -33.6754    22.9895    18.5800    48.5739     6.5806    22.0300
  685.5000   -34.2695    23.8130    18.4965    50.8108     6.5816    23.0702
  686.0000   -33.8212    25.6096    18.1146    52.3033     6.5976    25.1642
  686.5000   -32.6292    24.6367    17.3595    54.5401     6.6612    28.4553
  687.0000   -31.2885    23.9632    16.9979    56.0288     6.7193    28.9106
  687.5000   -30.2453    23.2897    16.8535    56.7694     6.7054    30.2614
  688.0000   -29.3510    23.0652    16.8520    57.5063     6.5423    29.9703
  688.5000   -28.6054    23.1403    17.0000    55.9837     6.3193    27.7390
  689.0000   -27.8599    23.6644    17.1535    53.7130     6.2156    27.5512
  689.5000   -27.2635    24.0388    17.6802    52.1942     6.4557    29.0973
  690.0000   -29.4938    23.5898    18.5101    49.9236     6.3225    26.0899
  690.5000   -30.5340    25.2367    19.6987    48.4048     6.0101    28.0676
  691.0000   -30.6817    28.4554    20.6726    46.1341     6.2051    30.1646
  691.5000   -30.2334    30.1771    21.7870    43.8634     6.3703    31.2169
  692.0000   -32.1664    30.7761    22.8312    40.8409     6.3863    29.4334
  692.5000   -34.3971    32.4978    23.8079    38.5702     6.4172    28.8420
  693.0000   -39.7527    35.0428    24.7700    36.2995     6.4332    30.0454
  693.5000   -42.2810    35.1927    25.3590    34.0288     6.4342    31.5455
  694.0000   -42.7263    35.0431    24.9716    32.5138     6.4352    36.3291
  694.5000   -41.5340    32.9475    23.7003    35.5025     6.4213    36.6332
  695.0000   -39.8956    29.7291    22.9547    38.4950     6.4373    35.5978
  695.5000   -38.5548    27.8579    22.1315    39.9875     6.4841    36.0531
  696.0000   -39.4466    28.6814    21.6841    40.7243     6.5140    38.4487
  696.5000   -38.1054    28.5319    21.5351    40.7055     6.4797    39.3498
  697.0000   -35.8718    27.9332    21.3827    40.6905     6.3474    38.4618
  697.5000   -33.0429    28.0082    20.9317    41.4273     6.3082    39.2174
  698.0000   -31.9998    26.9605    20.3329    42.9198     6.3393    37.7324
  698.5000   -33.6352    24.5654    19.7332    44.4085     6.3851    36.6933
  699.0000   -36.1634    24.4907    19.1355    45.8935     6.4459    37.7474
  699.5000   -37.5012    24.4160    18.6856    46.6303     6.5364    38.3520
  700.0000   -38.6902    24.1168    18.1614    48.1228     6.5820    38.6561
  700.5000   -36.4566    23.0539    17.4873    54.1506     6.5240    38.2355
  701.0000   -31.9940    21.4072    16.6634    57.1734     6.4805    40.6079
  701.5000   -30.3571    20.0599    15.8398    59.4443     6.4368    43.7343
  702.0000   -29.6131    19.0120    15.4646    61.7153     6.4083    44.4973
  702.5000   -29.3155    18.7126    15.1641    63.2343     6.4995    40.4476
  703.0000   -29.7878    18.6377    14.9990    63.2496     6.6053    41.1094
  703.5000   -29.2938    18.8623    14.8625    63.2649     6.6962    44.5125
  704.0000   -28.5358    18.4132    15.0105    62.5283     6.6379    47.5026
  704.5000   -27.6647    18.4132    15.1677    62.5435     6.5646    51.9852
  705.0000   -27.2321    18.4132    15.3886    61.8031     6.5507    53.6320
  705.5000   -27.6847    18.4132    15.5349    61.0665     6.5523    53.9343
  706.0000   -28.4245    18.6377    15.7519    59.5818     6.5835    52.2988
  706.5000   -29.0179    18.6377    15.8273    58.8414     6.6297    50.8101
  707.0000   -29.7619    18.5629    15.9736    58.1048     6.6907    50.6659
  707.5000   -30.3571    18.6377    16.1211    58.0831     6.7219    51.4184
  708.0000   -29.7619    18.5629    16.2690    57.3834     6.6188    50.0802
  708.5000   -28.5714    18.5629    16.4170    56.6466     6.5455    49.4870
