~VERSION INFORMATION
 VERS.                2.0:   CWLS LOG ASCII STANDARD - VERSION 2.0
 WRAP.                 NO:   ONE LINE PER DEPTH STEP
~WELL INFORMATION
#MNEM.UNIT      DATA TYPE    INFORMATION
#----------   ------------   ------------------------------
 STRT.F          648.0000:   START DEPTH
 STOP.F         2443.0000:   STOP DEPTH
 STEP.F            0.5000:   STEP LENGTH
 NULL.          -999.2500:   NO VALUE
 COMP.    FENIX & SCISSON:   COMPANY
 WELL.  NPR #3 SHX-11 #22:   WELL
 FLD .             TEAPOT:   FIELD
 LOC .      S11 T38N R78W:   LOCATION
 CNTY.            NATRONA:   COUNTY
 STAT.            WYOMING:   STATE
 CTRY. UNITED STATES OF AMERICA:   COUNTRY
 SRVC.           BIRDWELL:   SERVICE COMPANY
 DATE.        23-APR-1978:   LOGDATE
 API .       490251061300:   API NUMBER
~CURVE INFORMATION
#MNEM.UNIT       API CODE    CURVE DESCRIPTION
#----------   ------------   ------------------------------
 DEPT.F                  :   
 CALD.IN     45 280 60 00:   CALIPER FROM DENSITY LOG
 CORR.G/C3   45 356 01 00:   DENSITY CORRECTION
 DPHI.DEC    45 890 12 00:   DENSITY POROSITY SANDSTONE
 GRD .GAPI   45 310 01 00:   GAMMA RAY FROM DENSITY LOG
 RHOB.G/C3   45 350 01 00:   BULK DENSITY
~PARAMETER INFORMATION
#MNEM.UNIT          VALUE    DESCRIPTION
#----------   ------------   ------------------------------
 PD  .                 GL:   PERMANENT DATUM
 EPD .F              5166:   ELEVATION PERMANENT DATUM
 LMF .                 KB:   LOG MEASURED FROM
 DMF .                 KB:   DRILLING MEASURED FROM
 EKB .F              5176:   KELLING BUSHING
 EGL .F              5166:   GROUND LEVEL
 DATE.        23-APR-1978:   RUN DATE
 RUN .                  1:   RUN NUMBER
 DD  .F              2450:   DEPTH DRILLER
 DL  .F              2450:   DEPTH LOGGER
 BLI .F              2443:   BOTTOM LOG INTERVAL
 TLI .F               670:   TOP LOG INTERVAL
 CS  .IN            9.625:   CASING SIZE
 CBD .F               660:   CASING BOTTOM DRILLER
 CBL .F               670:   CASING BOTTOM LOGGER
 BS  .IN             8.75:   BIT SIZE
 BSD .F              2450:   BIT SIZE AT DEPTH
 DFT .               MIST:   DRILLING FLUID TYPE
 LUN .               2958:   LOGGING UNIT NUMBER
 LUL .             CASPER:   LOGGING UNIT LOCATION
 ENGI.             MILLER:   RECORDING ENGINEER
 WITN.          MC GINLEY:   WITNESSED BY
 CLNT.            A2DTECH:   CLIENT CODE
 ORIG.           5" PRINT:   ORIGIN OF DATA
 UWI .       490251061300:   UNIQUE WELL ID
 DICO. A2D Technologies, Inc.:   DIGITIZING COMPANY
~OTHER INFORMATION
~A   DEPT     CALD       CORR       DPHI        GRD       RHOB   
# ...
  770.0000    11.2096     0.0238     0.0368    94.3474     2.3400
  770.5000    11.1351     0.0162     0.0317    97.9398     2.4934
  771.0000    11.0755     0.0132     0.0326    97.4793     2.5001
  771.5000    11.0758     0.0116     0.0326    97.0274     2.4993
  772.0000    11.1060     0.0131     0.0307    97.3215     2.4985
  772.5000    11.1213     0.0160     0.0257   100.9139     2.4978
  773.0000    11.1216     0.0190     0.0212   102.7087     2.4994
  773.5000    11.1068     0.0205     0.0218   101.3523     2.5053
  774.0000    11.0772     0.0234     0.0284    97.0885     2.5120
  774.5000    11.0611     0.0294     0.0284    95.1924     2.5143
  775.0000    11.0479     0.0339     0.0284    94.2871     2.5083
  775.5000    11.0332     0.0323     0.0284    97.8796     2.5022
  776.0000    11.0335     0.0338     0.0287    97.8941     2.5022
  776.5000    11.0338     0.0398     0.0281    96.0389     2.5015
  777.0000    11.0342     0.0427     0.0284    93.6631     2.5015
  777.5000    11.0345     0.0412     0.0335    93.5074     2.5022
  778.0000    11.0347     0.0364     0.0365    94.8510     2.5015
  778.5000    11.0350     0.0275     0.0274    96.6458     2.4984
  779.0000    11.0354     0.0230     0.0296    97.2384     2.4909
  779.5000    11.0357     0.0275     0.0314    97.8546     2.4962
  780.0000    11.0509     0.0334     0.0335    98.7247     2.5022
  780.5000    11.0512     0.0409     0.0298   100.5181     2.4984
  781.0000    11.0515     0.0469     0.0295   107.5588     2.4962
  781.5000    11.0695     0.0529     0.0316   107.4031     2.4961
  782.0000    11.0970     0.0573     0.0235   104.7483     2.5021
  782.5000    11.1123     0.0618     0.0208    98.9944     2.4991
  783.0000    11.1275     0.0603     0.0271    98.2405     2.5051
  783.5000    11.1578     0.0557     0.0322   101.6816     2.5149
  784.0000    11.1881     0.0421     0.0349   104.8243     2.5141
  784.5000    11.2033     0.0470     0.0319   105.7181     2.4984
  785.0000    11.1886     0.0586     0.0240   105.2612     2.4938
  785.5000    11.1590     0.0616     0.0196   104.2060     2.4991
  786.0000    11.1293     0.0510     0.0283   101.3517     2.5104
  786.5000    11.1146     0.0449     0.0271    98.9471     2.5149
  787.0000    11.0850     0.0433     0.0232   100.1408     2.5021
  787.5000    11.0554     0.0448     0.0235   100.7348     2.5043
  788.0000    11.0407     0.0463     0.0268   100.2778     2.5081
  788.5000    11.0110     0.0507     0.0259    97.1236     2.5058
  789.0000    10.9964     0.0477     0.0280    97.7176     2.5043
  789.5000    10.9817     0.0416     0.0430    99.6609     2.5065
  790.0000    10.9820     0.0401     0.0415   100.5547     2.4990
  790.5000    10.9824     0.0400     0.0409    99.4981     2.4799
  791.0000    10.9976     0.0445     0.0463   100.0920     2.4765
  791.5000    11.0130     0.0505     0.0490   105.5835     2.4795
  792.0000    11.0282     0.0519     0.0460   105.1302     2.4734
  792.5000    11.0434     0.0504     0.0439   104.6776     2.4689
  793.0000    11.0587     0.0487     0.0475   103.6246     2.4719
  793.5000    11.0590     0.0488     0.0475   100.4734     2.4749
  794.0000    11.0144     0.0563     0.0373    99.7209     2.4697
  794.5000    10.9997     0.0743     0.0247   100.3178     2.4659
  795.0000    10.9701     0.0742     0.0391   103.3128     2.4739
  795.5000    10.9554     0.0509     0.0484   103.1600     2.4974
  796.0000    10.9472     0.0335     0.0499   102.7074     2.5034
  796.5000    10.9560     0.0199     0.0471   104.5037     2.4704
  797.0000    10.9413     0.0123     0.0427   107.6486     2.4666
  797.5000    10.9416     0.0032     0.0487   108.5460     2.4689
  798.0000    10.9569    -0.0013     0.0556   107.4930     2.4749
  798.5000    10.9572    -0.0044     0.0571   106.2908     2.4681
  799.0000    10.9575    -0.0044     0.0529   105.0879     2.4666
  799.5000    10.9578    -0.0012     0.0435   104.3354     2.4505
  800.0000    10.9787     0.0090     0.0438   104.0327     2.4628
  800.5000    11.0027     0.0150     0.0445   104.1798     2.4733
  801.0000    11.0183     0.0210     0.0429   104.7760     2.4778
  801.5000    11.0334     0.0271     0.0393   106.4224     2.4778
  802.0000    11.0341     0.0371     0.0375   108.5185     2.4778
  802.5000    11.0636     0.0460     0.0366   109.7151     2.4793
  803.0000    11.0638     0.0554     0.0246   110.0121     2.4846
  803.5000    11.0789     0.0614     0.0207   108.9591     2.4868
  804.0000    11.0790     0.0674     0.0174   105.8079     2.4917
  804.5000    11.1092     0.0674     0.0153   102.0569     2.5139
  805.0000    11.1093     0.0613     0.0165   101.0039     2.5199
  805.5000    11.1244     0.0552     0.0199   100.4014     2.5229
  806.0000    11.1395     0.0491     0.0199   102.7974     2.5207
  806.5000    11.1397     0.0431     0.0196   105.6431     2.5184
  807.0000    11.1548     0.0430     0.0229   107.2888     2.5199
  807.5000    11.1699     0.0445     0.0247   106.8362     2.5222
  808.0000    11.1850     0.0490     0.0181   106.5335     2.5131
  808.5000    11.1852     0.0489     0.0232   106.8305     2.5124
  809.0000    11.1853     0.0444     0.0274   108.1763     2.5147
  809.5000    11.2005     0.0368     0.0280   109.2230     2.5116
  810.0000    11.2156     0.0322     0.0310   109.5200     2.5071
  810.5000    11.2307     0.0307     0.0355   110.5667     2.4989
  811.0000    11.2458     0.0306     0.0385   111.0136     2.4959
  811.5000    11.2460     0.0306     0.0418   110.1105     2.4921
  812.0000    11.2461     0.0305     0.0421   109.8079     2.4852
  812.5000    11.2463     0.0245     0.0661   109.9550     2.4696
  813.0000    11.2614     0.0308     0.0664   109.2018     2.4455
  813.5000    11.2768     0.0485     0.0628   106.9508     2.4365
  814.0000    11.3216     0.0545     0.0568   108.7464     2.4398
  814.5000    11.3666     0.0544     0.0505   113.4107     2.4485
  815.0000    11.3817     0.0529     0.0436   115.6526     2.4583
  815.5000    11.3969     0.0498     0.0388   115.0441     2.4658
  816.0000    11.3521     0.0377     0.0440   112.6383     2.4793
  816.5000    11.3074     0.0286     0.0427   110.8215     2.4763
  817.0000    11.2775     0.0451     0.0310   109.9238     2.4741
  817.5000    11.2627     0.0571     0.0259   110.2184     2.4763
  818.0000    11.2629     0.0661     0.0250   111.4090     2.4966
  818.5000    11.2630     0.0659     0.0379   113.8465     2.5019
  819.0000    11.3081     0.0600     0.0413   117.9898     2.4869
  819.5000    11.3403     0.0630     0.0398   120.9813     2.4786
  820.0000    11.3833     0.0720     0.0404   121.5740     2.4808
  820.5000    11.4133     0.0780     0.0413   120.9280     2.4816
  821.0000    11.3985     0.0779     0.0380   119.7590     2.4816
  821.5000    11.3987     0.0779     0.0362   116.4537     2.4824
  822.0000    11.3838     0.0778     0.0440   113.7480     2.4853
  822.5000    11.3990     0.0778     0.0428   113.5893     2.4838
  823.0000    11.3991     0.0792     0.0413   115.0815     2.4756
  823.5000    11.3993     0.0852     0.0422   116.5737     2.4733
  824.0000    11.4144     0.0803     0.0473   117.4662     2.4696
  824.5000    11.4295     0.0640     0.0593   117.1576     2.4636
  825.0000    11.4446     0.0625     0.0620   116.4009     2.4576
  825.5000    11.4598     0.0579     0.0746   116.8437     2.4425
  826.0000    11.4898     0.0458     0.0731   118.4898     2.4328
  826.5000    11.4900     0.0443     0.0647   119.2284     2.4252
  827.0000    11.4895     0.0518     0.0461   118.4700     2.4245
  827.5000    11.4603     0.0578     0.0380   116.9637     2.4418
  828.0000    11.4605     0.0487     0.0344   110.1498     2.4748
  828.5000    11.4606     0.0471     0.0392   107.8024     2.4838
  829.0000    11.4458     0.0441     0.0467   107.0458     2.4906
  829.5000    11.4460     0.0440     0.0476   108.2382     2.4831
  830.0000    11.4311     0.0470     0.0438   113.0886     2.4718
  830.5000    11.4163     0.0485     0.0407   116.4682     2.4666
