~VERSION INFORMATION
 VERS.                2.0:   CWLS LOG ASCII STANDARD - VERSION 2.0
 WRAP.                 NO:   ONE LINE PER DEPTH STEP
~WELL INFORMATION
#MNEM.UNIT      DATA TYPE    INFORMATION
#----------   ------------   ------------------------------
 STRT.F           12.0000:   START DEPTH
 STOP.F          664.5000:   STOP DEPTH
 STEP.F            0.5000:   STEP LENGTH
 NULL.          -999.2500:   NO VALUE
 COMP. LAWRENCE/ALLISON INC:   COMPANY
 WELL.   23-16 SHX #14-14:   WELL
 FLD .             TEAPOT:   FIELD
 LOC .      S14 T38N R78W:   LOCATION
 CNTY.            NATRONA:   COUNTY
 STAT.            WYOMING:   STATE
 CTRY. UNITED STATES OF AMERICA:   COUNTRY
 SRVC.           Gearhart:   SERVICE COMPANY
 DATE.        03-JUL-1987:   LOGDATE
 API .       490251114200:   API NUMBER
~CURVE INFORMATION
#MNEM.UNIT       API CODE    CURVE DESCRIPTION
#----------   ------------   ------------------------------
 DEPT.F                  :   
 RILD.OHMM   07 120 46 00:   INDUCTION LOG DEEP RESISTIVITY
 RILM.OHMM   07 120 44 00:   INDUCTION LOG MEDIUM RESISTIVITY
 GRR .GAPI   07 310 01 00:   GAMMA RAY FROM RES. LOG
~PARAMETER INFORMATION
#MNEM.UNIT          VALUE    DESCRIPTION
#----------   ------------   ------------------------------
 PD  .                 GL:   PERMANENT DATUM
 EPD .F              5203:   ELEVATION PERMANENT DATUM
 LMF .                 KB:   LOG MEASURED FROM
 DAPD.F                 8:   FEET ABOVE PERMANENT DATUM
 DMF .                 KB:   DRILLING MEASURED FROM
 EKB .F              5211:   KELLING BUSHING
 EDF .F              5210:   DRILLING FLOOR
 EGL .F              5203:   GROUND LEVEL
 DATE.             7-3-87:   RUN DATE
 RUN .                  1:   RUN NUMBER
 DD  .F               679:   DEPTH DRILLER
 DL  .F               672:   DEPTH LOGGER
 BLI .F               664:   BOTTOM LOG INTERVAL
 TLI .F                48:   TOP LOG INTERVAL
 CS  .IN            8.625:   CASING SIZE
 CBD .F                48:   CASING BOTTOM DRILLER
 CBL .F                48:   CASING BOTTOM LOGGER
 BS  .IN            7.875:   BIT SIZE
 BSD .F               679:   BIT SIZE AT DEPTH
 DFT .               FOAM:   DRILLING FLUID TYPE
 TCS .HRS            1345:   TIME CURCULATED STOPPED
 TLAB.HRS            1450:   TIME LOGGER AT BOTTOM
 MRT .F                80:   MAXIMUM RECORDED TEMPERATURE
 LUN .               7597:   LOGGING UNIT NUMBER
 LUL .           GILLETTE:   LOGGING UNIT LOCATION
 ENGI.            WANGLER:   RECORDING ENGINEER
 WITN.             STRONG:   WITNESSED BY
 CLNT.            A2DTECH:   CLIENT CODE
 ORIG.       2", 5" PRINT:   ORIGIN OF DATA
 UWI .       490251114200:   UNIQUE WELL ID
 DICO. A2D Technologies, Inc.:   DIGITIZING COMPANY
~OTHER INFORMATION
~A   DEPT     RILD       RILM         GRR  
# ...
  285.0000     9.5284     8.6657   127.2002
  285.5000     9.6783     8.7901   124.9209
  286.0000     9.8306     8.9164   122.5525
  286.5000     9.9853     9.0220   120.3230
  287.0000    10.0819     9.0220   121.7887
  287.5000     9.9890     9.0220   123.4213
  288.0000     9.8959     8.9786   121.9074
  288.5000     9.8036     8.9249   119.9848
  289.0000     9.7122     8.8714   118.0298
  289.5000     9.6216     8.8183   117.4305
  290.0000     9.5319     8.7655   119.5987
  290.5000     9.4431     8.7129   121.7808
  291.0000     9.3619     8.6607   123.9669
  291.5000     9.3186     8.6139   125.5132
  292.0000     9.2783     8.6611   124.3588
  292.5000     9.2383     8.7290   122.9021
  293.0000     9.1985     8.7974   121.7073
  293.5000     9.1588     8.8565   119.7514
  294.0000     9.1193     8.6952   112.5875
  294.5000     9.0799     8.5896   104.8437
  295.0000     9.0407     8.4852   101.7884
  295.5000     9.0017     8.3822   107.0517
  296.0000     8.9629     8.2875   114.0051
  296.5000     8.9242     8.2233   121.0662
  297.0000     8.8857     8.1590   122.2420
  297.5000     8.8564     8.1410   121.3612
  298.0000     8.8724     8.1319   119.9841
  298.5000     8.8878     8.1229   119.7505
  299.0000     8.9033     8.1139   121.5677
  299.5000     8.9188     8.1048   123.3926
  300.0000     8.9385     8.0958   122.3430
  300.5000     8.9064     8.0868   120.1107
  301.0000     8.8603     8.0740   118.1528
  301.5000     8.8145     8.0822   122.1145
  302.0000     8.7689     8.0984   126.9969
  302.5000     8.7235     8.1149   131.5333
  303.0000     8.6783     8.1314   133.5319
  303.5000     8.6139     8.1486   133.1714
  304.0000     8.6364     8.1189   130.6036
  304.5000     8.6768     8.0798   128.0301
  305.0000     8.7174     8.0408   125.5451
  305.5000     8.7582     8.0021   125.6583
  306.0000     8.7991     7.9636   129.1027
  306.5000     8.8403     7.9254   130.7018
  307.0000     8.8816     7.9512   128.5038
  307.5000     8.9231     7.9836   124.9290
  308.0000     8.9649     8.0161   121.3330
  308.5000     9.0068     8.0487   118.5221
  309.0000     9.0489     8.0814   119.2872
  309.5000     9.0912     8.1143   122.7396
  310.0000     9.1337     8.1472   126.0992
  310.5000     9.1905     8.1804   127.7790
  311.0000     9.1402     8.2136   125.3601
  311.5000     9.0657     8.2243   122.9258
  312.0000     8.9918     8.1295   122.1399
  312.5000     8.9185     8.0907   125.3367
  313.0000     8.8458     8.0521   128.8882
  313.5000     8.7737     8.0137   127.4410
  314.0000     8.7022     7.9754   125.4979
  314.5000     8.6313     7.9374   125.2464
  315.0000     8.5609     7.8997   125.8308
  315.5000     8.4911     7.8614   125.6554
  316.0000     8.4216     7.8149   124.1681
  316.5000     8.3652     7.7465   122.6127
  317.0000     8.3298     7.6790   121.8167
  317.5000     8.2945     7.6121   123.7892
  318.0000     8.2594     7.5458   127.2605
  318.5000     8.2245     7.4801   125.9102
  319.0000     8.1897     7.4281   122.6322
  319.5000     8.1550     7.4681   119.4530
  320.0000     8.1205     7.5181   120.5388
  320.5000     8.0735     7.5669   122.0126
  321.0000     8.1357     7.5669   121.1992
  321.5000     8.2353     7.7350   121.1159
  322.0000     8.3362     7.9007   121.5927
  322.5000     8.4382     8.0138   121.6630
  323.0000     8.5345     8.0362   118.2507
  323.5000     8.5728     8.0587   115.7054
  324.0000     8.6302     8.0813   116.6558
  324.5000     8.6878     8.1040   120.2285
  325.0000     8.7460     8.1267   123.7891
  325.5000     8.8044     8.1495   124.6663
  326.0000     8.8565     8.1723   123.3381
  326.5000     8.8565     8.1953   121.4848
  327.0000     8.8564     8.2246   119.6233
  327.5000     8.8565     8.2145   117.7760
  328.0000     8.8565     8.1964   116.0797
  328.5000     8.8565     8.1781   117.7817
  329.0000     8.8565     8.1600   119.9902
  329.5000     8.8565     8.1419   121.5730
  330.0000     8.8564     8.1238   119.6366
  330.5000     8.8641     8.1058   117.7437
  331.0000     8.8769     8.0878   116.8902
  331.5000     8.8899     8.0735   119.0901
  332.0000     8.9029     8.0735   121.7985
  332.5000     8.9160     8.1294   121.0424
  333.0000     8.9288     8.1986   119.5935
  333.5000     8.9388     8.2683   118.1267
  334.0000     9.1478     8.3395   116.6629
  334.5000     9.3542     8.4079   116.5129
  335.0000     9.5655     8.5352   118.1358
  335.5000     9.7807     8.6625   118.9727
  336.0000     9.9582     8.7930   118.6030
  336.5000    10.0863     8.9236   119.0768
  337.0000    10.2169     9.1059   120.0902
  337.5000    10.3493     9.3505   120.2516
  338.0000    10.4833     9.5805   119.2181
  338.5000    10.6191     9.8162   118.5738
  339.0000    10.8473    10.0576   119.0195
  339.5000    11.1170    10.3050   119.8363
  340.0000    11.3933    10.5585   119.5872
  340.5000    11.6913    10.8182   115.0522
  341.0000    11.9151    11.0850   110.4757
  341.5000    12.1558    11.3553   107.5004
  342.0000    12.4740    11.5186   105.7116
  342.5000    12.4740    11.6244   105.6723
  343.0000    12.4740    11.7334   106.7560
  343.5000    12.4740    11.8434   107.7060
  344.0000    12.4740    11.9098   106.8983
  344.5000    12.4740    11.8708   105.6764
  345.0000    12.4740    11.8381   105.7383
  345.5000    12.4747    11.8056   108.2158
  346.0000    12.4402    11.7733   109.2398
  346.5000    12.3635    11.7410   108.1312
  347.0000    12.2867    11.7105   107.0455
  347.5000    12.2105    11.5880   105.9517
  348.0000    12.1347    11.3649   104.8541
  348.5000    12.0595    11.1460   103.7682
  349.0000    11.9693    10.9313   103.6686
  349.5000    11.8633    10.7207   105.2036
  350.0000    11.7583    10.5143   108.0709
  350.5000    11.6542    10.3118   107.0759
  351.0000    11.5608    10.1757   105.0958
  351.5000    11.4889    10.1892   105.1644
  352.0000    11.4175    10.2304   107.5804
  352.5000    11.3577    10.2724   110.0348
  353.0000    11.3192    10.3142   108.5744
  353.5000    11.2808    10.3658   106.4598
  354.0000    11.2425    10.2912   106.1331
  354.5000    11.2043    10.1955   108.8761
  355.0000    11.1663    10.1006   111.7903
  355.5000    11.1284    10.0065   113.2586
  356.0000    11.0906     9.9134   110.8340
  356.5000    11.0530     9.8212   108.8454
  357.0000    11.0155     9.8058   108.8847
  357.5000    10.9788     9.8681   106.9512
  358.0000    10.9139     9.9285   103.5568
  358.5000    10.8180     9.9892   100.1941
  359.0000    10.7230    10.0503    99.7813
  359.5000    10.6289    10.0819   103.9932
  360.0000    10.5355    10.0819   108.0821
  360.5000    10.4430    10.0019   109.2263
  361.0000    10.3513     9.8893   107.6034
  361.5000    10.2604     9.7778   105.9704
  362.0000    10.1703     9.6677   104.8232
  362.5000    10.0810     9.5587   106.0885
  363.0000     9.9890     9.4490   108.3929
  363.5000     9.9233     9.2792   109.3174
  364.0000     9.8553     9.2294   107.6369
  364.5000     9.7878     9.1849   105.4903
  365.0000     9.7207     9.1390   103.3219
  365.5000     9.6541     9.0934   101.2481
  366.0000     9.5880     9.0477   101.3055
  366.5000     9.5223     9.0220   104.3180
  367.0000     9.4571     9.0219   107.3035
  367.5000     9.3923     9.0220   107.2727
  368.0000     9.3279     9.0220   106.3443
  368.5000     9.2640     9.0219   105.5614
  369.0000     9.2006     9.0220   104.8832
  369.5000     9.1396     9.0220   105.9431
  370.0000     8.9900     8.7833   106.4815
  370.5000     8.7660     8.4500   105.4843
  371.0000     8.5445     8.1293   104.0980
  371.5000     8.3303     7.8208   104.5648
  372.0000     8.1386     7.5241   108.8017
  372.5000     8.0676     7.2247   113.0706
  373.0000     7.9972     7.2247   115.8189
  373.5000     7.9254     7.2247   115.3052
  374.0000     7.9418     7.3144   111.7895
  374.5000     7.9704     7.4422   108.2522
  375.0000     7.9991     7.5721   106.9224
  375.5000     8.1008     7.7044   109.9328
