~VERSION INFORMATION
 VERS.                2.0:   CWLS LOG ASCII STANDARD - VERSION 2.0
 WRAP.                 NO:   ONE LINE PER DEPTH STEP
~WELL INFORMATION
#MNEM.UNIT      DATA TYPE    INFORMATION
#----------   ------------   ------------------------------
 STRT.F           30.0000:   START DEPTH
 STOP.F          526.0000:   STOP DEPTH
 STEP.F            0.5000:   STEP LENGTH
 NULL.          -999.2500:   NO VALUE
 COMP. FENIX & SCISSON INC:   COMPANY
 WELL.       NPR #37-SX-3:   WELL
 FLD .             TEAPOT:   FIELD
 LOC .       S3 T38N R78W:   LOCATION
 CNTY.            NATRONA:   COUNTY
 STAT.            WYOMING:   STATE
 CTRY. UNITED STATES OF AMERICA:   COUNTRY
 SRVC.              Welex:   SERVICE COMPANY
 DATE.        10-MAR-1977:   LOGDATE
 API .       490251028600:   API NUMBER
~CURVE INFORMATION
#MNEM.UNIT       API CODE    CURVE DESCRIPTION
#----------   ------------   ------------------------------
 DEPT.F                  :   
 ILD .OHMM   07 120 46 00:   INDUCTION LOG DEEP
 ILM .OHMM   07 120 44 00:   INDUCTION LOG MEDIUM
 SPR .MV     07 010 01 00:   SPONTANEOUS POTENTIAL
 SGRD.OHMM   07 220 05 00:   SHALLOW RESISTIVITY
 GRD .GAPI   45 310 01 00:   GAMMA RAY FROM DENSITY LOG
 CALD.IN     45 280 60 00:   CALIPER
 CORR.G/C3   45 356 01 00:   DENSITY CORRECTION
 RHOB.G/C3   45 350 01 00:   BULK DENSITY
 DPOR.DEC    45 890 12 00:   DENSITY POROSITY SANDSTONE
~PARAMETER INFORMATION
#MNEM.UNIT          VALUE    DESCRIPTION
#----------   ------------   ------------------------------
 PD  .                 GL:   PERMANENT DATUM
 EPD .F              5232:   ELEVATION PERMANENT DATUM
 LMF .                 GL:   LOG MEASURED FROM
 DMF .                 GL:   DRILLING MEASURED FROM
 EGL .F              5232:   GROUND LEVEL
 DATE.            3-10-77:   RUN DATE
 RUN .                  1:   RUN NUMBER
 DD  .F               530:   DEPTH DRILLER
 DL  .F               528:   DEPTH LOGGER
 BLI .F               526:   BOTTOM LOG INTERVAL
 TLI .F                35:   TOP LOG INTERVAL
 CS  .IN            8.625:   CASING SIZE
 CBD .F                40:   CASING BOTTOM DRILLER
 CBL .F                42:   CASING BOTTOM LOGGER
 BS  .IN            7.875:   BIT SIZE
 BSD .F               530:   BIT SIZE AT DEPTH
 DFT .            KCL MUD:   DRILLING FLUID TYPE
 DFD .                8.8:   DRILLING FLUID DENSITY
 DFV .                 32:   DRILLING FLUID VISCOSITY
 DFPH.                  8:   DRILLING FLUID PH
 DFL .                7.7:   DRILLING FLUID LOSS
 MSS .            MUD PIT:   MUD SAMPLE SOURCE
 RMS .OHMM            .48:   RESISTIVITY MUD SAMPLE
 MST .F                47:   MUD SAMPLE TEMPERATURE
 RMF .OHMM            .43:   RESISTIVITY MUD FILTRATE SAMPLE
 MFST.F                47:   MUD FILTRATE SAMPLE TEMPERATURE
 RMC .OHMM            .52:   RESISTIVITY MUD CAKE
 MCST.F                47:   MUD CAKE SAMPLE TEMPERATURE
 MFSS.           FANN KIT:   MUD FILTRATE SAMPLE SOURCE
 MCSS.           FANN KIT:   MUD CAKE SAMPLE SOURCE
 RMB .OHMM            .41:   RESISTIVITY MUD AT BHT
 BHT .F                55:   BOTTOM HOLE TEMPERATURE
 TCS .HRS             1.5:   TIME CURCULATED STOPPED
 MRT .F                55:   MAXIMUM RECORDED TEMPERATURE
 LUN .               8611:   LOGGING UNIT NUMBER
 LUL .           GILLETTE:   LOGGING UNIT LOCATION
 ENGI.               DOAK:   RECORDING ENGINEER
 WITN.              BURKE:   WITNESSED BY
 CLNT.            A2DTECH:   CLIENT CODE
 ORIG.       2", 5" PRINT:   ORIGIN OF DATA
 UWI .       490251028600:   UNIQUE WELL ID
 DICO. A2D Technologies, Inc.:   DIGITIZING COMPANY
~OTHER INFORMATION
~A   DEPT      ILD        ILM        SPR       SGRD         GRD        CALD      CORR        RHOB     DPOR   
# ...
   66.5000     9.5234    11.9144  -999.2500  1884.0043   149.5581     8.0139     0.0719     2.4812     0.9907
   67.0000     9.4207    11.7893  -999.2500  1901.4019   149.0943     8.0167     0.0741     2.4812     0.9866
   67.5000     9.2832    11.7295  -999.2500  1695.5178   149.1648     8.0196     0.0742     2.4828     0.9982
   68.0000     9.3010    11.6546  -999.2500  1538.3163   149.8740     8.0219     0.0742     2.4899     1.0116
   68.5000     9.3288    11.5750  -999.2500  1892.2155   150.4048     8.0210     0.0742     2.4969     1.0250
   69.0000     9.3689    11.6055  -999.2500  1936.6803   150.9911     8.0202     0.0742     2.5037     1.0412
   69.5000     9.3430    11.6405  -999.2500  1017.6931   151.6797     8.0194     0.0742     2.5019     1.0346
   70.0000     9.2970    11.6812  -999.2500  1670.6531   152.2998     8.0187     0.0741     2.4986     1.0199
   70.5000     9.2513    11.6302  -999.2500  1918.9600   152.9195     8.0179     0.0722     2.4895     1.0020
   71.0000     9.2057    11.5689  -999.2500  1511.4019   152.7261     8.0171     0.0700     2.4795     0.9840
   71.5000     9.1604    11.5077  -999.2500  1105.4650   151.4306     8.0163     0.0678     2.4694     0.9676
   72.0000     9.1141    11.4469  -999.2500  1943.4183   152.4999     8.0155     0.0656     2.4684     0.9646
   72.5000     9.0704    11.3864   -16.6765  1941.9451   153.8994     8.0148     0.0646     2.4723     0.9714
   73.0000     9.0258    11.3262   -21.1991  1018.5100   155.3292     8.0140     0.0662     2.4761     0.9782
   73.5000     8.9813    11.2663   -26.9146  1223.9878   156.3056     8.0132     0.0677     2.4799     0.9851
   74.0000     8.9371    11.2067   -31.4968  1972.6134   156.5491     8.0124     0.0693     2.4849     0.9914
   74.5000     8.8931    11.1475   -27.6481  1611.5122   154.3485     8.0117     0.0708     2.4922     1.0137
   75.0000     8.8493    11.0886   -26.2206  1146.8669   152.2052     8.0109     0.0723     2.4995     1.0341
   75.5000     8.8058    11.0300   -32.2080  2022.9160   149.9763     8.0101     0.0740     2.5063     1.0448
   76.0000     8.7624    10.9716     0.5478  2033.9600   148.1578     8.0093     0.0709     2.5002     1.0309
   76.5000     8.7193    10.9136  -999.2500   634.9928   146.2646     8.0085     0.0670     2.4937     1.0128
   77.0000     8.6764    10.8559  -999.2500  2046.4919   144.3602     8.0078     0.0631     2.4874     1.0011
   77.5000     8.6336    10.7985  -999.2500   597.1451   142.5010     8.0070     0.0610     2.4881     1.0044
   78.0000     8.5318    10.7414  -999.2500   911.4082   140.2305     8.0062     0.0653     2.5010     1.0201
   78.5000     8.4163    10.6839  -999.2500   848.5129   144.4868     8.0054     0.0694     2.5127     1.0502
   79.0000     8.3023    10.6556  -999.2500  1000.0245   153.7666     8.0046     0.0736     2.5149     1.0563
   79.5000     8.1899    10.7567  -999.2500  1178.1777   162.6562     8.0039     0.0777     2.5111     1.0540
   80.0000     8.0791    10.8560  -999.2500  1085.5442   159.7068     8.0031     0.0763     2.5074     1.0462
   80.5000     7.9369    10.6894  -999.2500  1105.1545   155.1081     8.0023     0.0742     2.5002     1.0271
   81.0000     7.7498    10.2952  -999.2500  1045.8445   151.2560     8.0015     0.0721     2.4897     1.0085
   81.5000     7.5672     9.9143  -999.2500   957.4633   149.3297     8.0007     0.0700     2.4791     0.9873
   82.0000     7.3888     9.4554  -999.2500   886.6181   150.0082     8.0000     0.0679     2.4699     0.9599
   82.5000     7.2147     9.7793  -999.2500  1201.6901   150.6562     7.9992     0.0658     2.4692     0.9624
   83.0000     7.1110    10.2709  -999.2500  1954.5642   153.8585     7.9984     0.0637     2.4650     0.9580
   83.5000     7.1420     9.4996  -999.2500   683.1501   156.2000     7.9976     0.0616     2.4581     0.9430
   84.0000     7.1652     8.8697  -999.2500   666.4000   152.0113     7.9969     0.0595     2.4533     0.9301
   84.5000     7.1880     8.9796   -42.2387  2029.8265   145.5299     7.9961     0.0574     2.4511     0.9325
   85.0000     7.2110     9.1060   -35.4585  1945.8842   142.1047     7.9953     0.0560     2.4487     0.9282
   85.5000     7.2340     9.2356   -29.5543  1950.7761   139.7424     7.9945     0.0557     2.4461     0.9218
   86.0000     7.3257     9.3671   -27.5981  1635.5509   138.3943     7.9938     0.0554     2.4437     0.9231
   86.5000     7.4628     9.5005    -8.8262  1951.7258   133.5168     7.9930     0.0551     2.4460     0.9281
   87.0000     7.6026     9.6357     0.0293  1541.2383   130.7331     7.9922     0.0548     2.4484     0.9293
   87.5000     7.7450     9.7729    -0.1654  2026.6130   128.6548     7.9914     0.0545     2.4506     0.9305
   88.0000     7.8900     9.9120    -0.0959  1184.1147   127.6839     7.9906     0.0543     2.4525     0.9316
   88.5000     8.0378    10.0531    -0.0989   825.4965   130.6007     7.9899     0.0549     2.4545     0.9402
   89.0000     8.2376    10.1962    -0.0934   829.3921   127.3080     7.9891     0.0567     2.4642     0.9516
   89.5000     8.2296    10.2709    -0.0892  1954.5642   126.9500     7.9883     0.0584     2.4750     0.9750
   90.0000     8.2177    10.1722    -0.2115  1954.5642   124.5949     7.9875     0.0602     2.4858     1.0015
   90.5000     8.2058    10.1063     0.0675  1671.8053   123.4564     7.9867     0.0619     2.4946     1.0157
   91.0000     8.1939    10.0408   -29.8450  1826.7063   124.3426     7.9860     0.0638     2.4917     1.0148
   91.5000     8.1823     9.9757   -53.5610  1972.6134   125.2134     7.9852     0.0615     2.4882     0.9999
   92.0000     8.1703     9.9110   -61.5212   847.4923   123.8886     7.9844     0.0578     2.4857     1.0024
   92.5000     8.1633     9.8467   -61.0582   730.9779   122.1645     7.9836     0.0541     2.4891     1.0061
   93.0000     8.3054     9.7829   -59.2756  1983.2102   123.0095     7.9829     0.0504     2.4926     1.0097
   93.5000     8.4157     9.7198   -57.4849  1976.4637   124.4880     7.9821     0.0481     2.4941     1.0134
   94.0000     8.5275    10.0666   -56.8529   846.7915   124.8500     7.9825     0.0481     2.4951     1.0209
   94.5000     8.6408    10.4238   -56.4758  1990.8291   122.4713     7.9830     0.0482     2.4985     1.0288
   95.0000     8.7556    10.7936   -54.9194  1979.8796   119.6258     7.9834     0.0450     2.5036     1.0366
   95.5000     8.8719    11.1765   -53.4237   905.9882   116.9891     7.9839     0.0410     2.5077     1.0430
   96.0000     8.9897    11.5746   -51.9221  1223.0723   115.5962     7.9844     0.0370     2.5055     1.0416
   96.5000     9.1091    11.3311   -50.5158  -999.2500   118.8292     7.9849     0.0331     2.5034     1.0359
   97.0000     9.1982    11.0918   -50.3347  -999.2500   120.3237     7.9854     0.0300     2.5019     1.0330
   97.5000     9.0881    10.8576   -50.1973  -999.2500   118.9636     7.9859     0.0349     2.5122     1.0481
   98.0000     9.0018    10.6283   -50.2041  -999.2500   117.2784     7.9864     0.0457     2.5196     1.0703
   98.5000     8.9042    10.4039   -50.5298  -999.2500   116.7252     7.9869     0.0564     2.5078     1.0360
   99.0000     8.7873    10.1842   -50.8508  -999.2500   116.7666     7.9874     0.0621     2.5069     1.0424
   99.5000     8.6720     9.9692   -51.1942  -999.2500   114.8477     7.9879     0.0634     2.5103     1.0502
  100.0000     8.5582     9.9001   -51.6428  -999.2500   110.4766     7.9884     0.0650     2.5194     1.0669
  100.5000     8.4458     9.9001   -52.0850  -999.2500   112.2985     7.9889     0.0665     2.5294     1.0875
  101.0000     8.3350     9.9001   -52.1546  -999.2500   113.2837     7.9894     0.0680     2.5381     1.1040
  101.5000     8.2256     9.9001   -51.9351  -999.2500   111.5376     7.9899     0.0695     2.5389     1.1105
  102.0000     8.1451     9.9001   -51.7103   980.9543   112.8665     7.9904     0.0710     2.5408     1.1136
  102.5000     8.1040     9.9001   -51.4850  1963.6373   115.6011     7.9908     0.0725     2.5456     1.1173
