~VERSION INFORMATION
 VERS.                2.0:   CWLS LOG ASCII STANDARD - VERSION 2.0
 WRAP.                 NO:   ONE LINE PER DEPTH STEP
~WELL INFORMATION
#MNEM.UNIT      DATA TYPE    INFORMATION
#----------   ------------   ------------------------------
 STRT.F           24.0000:   START DEPTH
 STOP.F          570.0000:   STOP DEPTH
 STEP.F            0.5000:   STEP LENGTH
 NULL.          -999.2500:   NO VALUE
 COMP. FENIX & SCISSON INC:   COMPANY
 WELL.   NPR-3 #32SX10-10:   WELL
 FLD .  TEAPOT COME NPR-3:   FIELD
 LOC .      S10 T38N R78W:   LOCATION
 CNTY.            NATRONA:   COUNTY
 STAT.            WYOMING:   STATE
 CTRY. UNITED STATES OF AMERICA:   COUNTRY
 SRVC.            Unknown:   SERVICE COMPANY
 DATE.        27-JUN-1978:   LOGDATE
 API .       490251065300:   API NUMBER
~CURVE INFORMATION
#MNEM.UNIT       API CODE    CURVE DESCRIPTION
#----------   ------------   ------------------------------
 DEPT.F                  :   
 CALD.IN     45 280 60 00:   CALIPER FROM DENSITY LOG
 GRD .GAPI   45 310 01 00:   GAMMA RAY FROM DENSITY LOG
 CORR.G/C3   45 356 01 00:   DENSITY CORRECTION
 DPHI.DEC    45 890 12 00:   DENSITY POROSITY SANDSTONE
 RHOB.G/C3   45 350 01 00:   BULK DENSITY
 SPR .MV     05 010 01 00:   SPONTANEOUS POTENTIAL FROM RES.
 SN  .OHMM   05 040 16 00:   SHORT NORMAL 16"
 ILD .OHMM   05 120 46 00:   INDUCTION LOG DEEP
~PARAMETER INFORMATION
#MNEM.UNIT          VALUE    DESCRIPTION
#----------   ------------   ------------------------------
 PD  .                 GL:   PERMANENT DATUM
 EPD .F              5239:   ELEVATION PERMANENT DATUM
 LMF .                 GL:   LOG MEASURED FROM
 DAPD.F                 4:   FEET ABOVE PERMANENT DATUM
 DMF .                 GL:   DRILLING MEASURED FROM
 EKB .F              5243:   KELLING BUSHING
 EGL .F              5239:   GROUND LEVEL
 DATE.        27-JUN-1978:   RUN DATE
 RUN .                  1:   RUN NUMBER
 DD  .F               565:   DEPTH DRILLER
 DL  .F               574:   DEPTH LOGGER
 BLI .F               572:   BOTTOM LOG INTERVAL
 TLI .F                30:   TOP LOG INTERVAL
 CS  .IN            8.625:   CASING SIZE
 CBD .F                40:   CASING BOTTOM DRILLER
 CBL .F                40:   CASING BOTTOM LOGGER
 BS  .IN            7.875:   BIT SIZE
 BSD .F               565:   BIT SIZE AT DEPTH
 DFT .                KCL:   DRILLING FLUID TYPE
 DFD .                8.7:   DRILLING FLUID DENSITY
 DFV .                 35:   DRILLING FLUID VISCOSITY
 DFPH.                 10:   DRILLING FLUID PH
 DFL .                 14:   DRILLING FLUID LOSS
 MSS .           FLOWLINE:   MUD SAMPLE SOURCE
 RMS .OHMM            .36:   RESISTIVITY MUD SAMPLE
 MST .F                78:   MUD SAMPLE TEMPERATURE
 RMF .OHMM             .3:   RESISTIVITY MUD FILTRATE SAMPLE
 MFST.F                86:   MUD FILTRATE SAMPLE TEMPERATURE
 RMC .OHMM            .36:   RESISTIVITY MUD CAKE
 MCST.F                87:   MUD CAKE SAMPLE TEMPERATURE
 MFSS.               MEAS:   MUD FILTRATE SAMPLE SOURCE
 MCSS.               MEAS:   MUD CAKE SAMPLE SOURCE
 RMB .OHMM            3.9:   RESISTIVITY MUD AT BHT
 BHT .F                72:   BOTTOM HOLE TEMPERATURE
 TCS .HRS            0300:   TIME CURCULATED STOPPED
 MRT .F                72:   MAXIMUM RECORDED TEMPERATURE
 LUN .               2938:   LOGGING UNIT NUMBER
 LUL .               CASP:   LOGGING UNIT LOCATION
 ENGI.            POINTER:   RECORDING ENGINEER
 WITN.         ZARGARNIAN:   WITNESSED BY
 CLNT.            A2DTECH:   CLIENT CODE
 ORIG.     2.5", 5" PRINT:   ORIGIN OF DATA
 UWI .       490251065300:   UNIQUE WELL ID
 DICO. A2D Technologies, Inc.:   DIGITIZING COMPANY
~OTHER INFORMATION
~A   DEPT     CALD         GRD      CORR       DPHI       RHOB        SPR         SN        ILD   
# ...
  469.5000     7.5244    95.8797     0.0166     0.1657     2.4143   -13.3158    12.8989    15.1705
  470.0000     7.5263    99.0790     0.0168     0.1636     2.4253   -13.4925    12.9227    15.1694
  470.5000     7.5283   101.2675     0.0169     0.1623     2.4262   -14.0836    13.0986    15.1684
  471.0000     7.5302   100.5475     0.0170     0.1596     2.4278   -14.2030    13.4602    15.1674
  471.5000     7.5321    99.5264     0.0171     0.1572     2.4278   -14.4985    13.6258    15.1663
  472.0000     7.5340    95.5334     0.0173     0.1545     2.4332   -14.9612    13.8139    15.1653
  472.5000     7.5360    93.3236     0.0174     0.1520     2.4438   -15.3881    13.8139    15.1642
  473.0000     7.5528    92.4510     0.0175     0.1511     2.4468   -15.3851    13.8139    14.9571
  473.5000     7.5547    92.3166     0.0176     0.1511     2.4477   -15.6806    13.6258    14.7528
  474.0000     7.5716    95.4607     0.0177     0.1519     2.4440   -15.6776    13.4355    14.5512
  474.5000     7.5888    99.3429     0.0179     0.1522     2.4419   -15.6746    12.8989    14.1574
  475.0000     7.6055   100.1048     0.0180     0.1505     2.4470   -15.6716    12.8989    13.7742
  475.5000     7.6223   100.5695     0.0181     0.1431     2.4705   -15.6687    12.5502    13.5860
  476.0000     7.6391   100.7390     0.0182     0.1338     2.4773   -15.8090    12.3793    13.4004
  476.5000     7.6411   100.9617     0.0168     0.1317     2.4774   -15.9612    12.2108    13.3995
  477.0000     7.6574   103.8099     0.0169     0.1317     2.4775   -15.9582    12.0446    13.2165
  477.5000     7.6449   105.1077     0.0156     0.1316     2.4776   -16.2537    11.8806    13.0359
  478.0000     7.6468   102.8979     0.0142     0.1322     2.4725   -16.2507    11.7189    13.0351
  478.5000     7.6339   100.2422     0.0128     0.1355     2.4695   -16.2478    11.5594    13.0342
  479.0000     7.6061    99.3649     0.0114     0.1369     2.4674   -16.2448    11.5594    13.0333
  479.5000     7.5783   100.4287     0.0100     0.1384     2.4675   -16.2418    11.4020    12.8552
  480.0000     7.5510   103.2708     0.0087     0.1363     2.4691   -16.5373    11.4020    12.6796
  480.5000     7.5376   107.4503     0.0088     0.1351     2.4706   -16.6507    11.2468    12.6787
  481.0000     7.5400   109.8466     0.0089     0.1347     2.4708   -16.8304    11.0937    12.5056
  481.5000     7.5420   110.4599     0.0091     0.1347     2.4708   -17.1259    11.0937    12.5047
  482.0000     7.5588   104.8325     0.0092     0.1353     2.4709   -17.4214    10.9427    12.3339
  482.5000     7.5755   104.2424     0.0093     0.1361     2.4703   -17.5224    11.0937    12.1654
  483.0000     7.6072   107.5900     0.0094     0.1385     2.4674   -17.7139    11.0937    12.1646
  483.5000     7.6542   109.7935     0.0095     0.1415     2.4630   -17.7104    11.0937    12.1637
  484.0000     7.6858   107.7363     0.0096     0.1402     2.4623   -17.7074    11.2468    11.9976
  484.5000     7.7026   104.4863     0.0113     0.1378     2.4714   -17.7970    11.2468    11.9967
  485.0000     7.7046   104.0595     0.0129     0.1345     2.4760   -18.0005    11.4020    11.9959
  485.5000     7.7065   103.1869     0.0145     0.1309     2.4790   -17.9970    11.4020    11.9951
  486.0000     7.7084   100.9770     0.0161     0.1302     2.4799   -17.9941    11.4020    11.9943
  486.5000     7.6658    99.5053     0.0177     0.1302     2.4822   -18.0717    11.4020    11.9934
  487.0000     7.6231   100.4206     0.0179     0.1292     2.4861   -18.2870    11.4020    11.9928
  487.5000     7.5953   101.9254     0.0180     0.1250     2.4862   -18.5825    11.4020    11.9920
  488.0000     7.5598   103.4302     0.0181     0.1208     2.4945   -18.5791    11.4020    11.9912
  488.5000     7.5105   105.2323     0.0167     0.1178     2.5021   -18.5762    11.4020    11.9903
  489.0000     7.4827   106.1427     0.0168     0.1174     2.5029   -18.5732    11.4020    11.9895
  489.5000     7.4693   106.4592     0.0155     0.1195     2.4985   -18.5702    11.4020    12.0785
  490.0000     7.4569   104.3784     0.0156     0.1198     2.4963   -18.6269    11.4020    12.1531
  490.5000     7.4435   105.1642     0.0157     0.1192     2.4949   -18.8630    11.4020    12.1522
  491.0000     7.4459   112.4448     0.0143     0.1185     2.4965   -18.8597    11.3130    12.1514
  491.5000     7.4478   115.4517     0.0129     0.1176     2.4974   -19.1555    11.2468    12.1505
  492.0000     7.4497   114.8291     0.0116     0.1170     2.4990   -19.2000    11.2468    12.1497
  492.5000     7.4665   113.8550     0.0117     0.1166     2.4990   -19.4925    11.2468    12.1489
  493.0000     7.4987   114.0273     0.0118     0.1163     2.4999   -19.7435    11.2468    11.9829
  493.5000     7.5303   114.1948     0.0119     0.1163     2.5007   -20.0390    11.2468    11.7448
  494.0000     7.6065   118.3743     0.0136     0.1162     2.5008   -20.0358    11.2468    11.5860
  494.5000     7.6233   120.0277     0.0137     0.1162     2.5010   -20.0328    11.0937    11.4985
  495.0000     7.5955   119.8980     0.0138     0.1159     2.5012   -20.0299    11.0937    11.4301
  495.5000     7.5677   117.9853     0.0139     0.1153     2.5014   -20.0269    11.0937    11.3407
  496.0000     7.5547   112.8037     0.0140     0.1152     2.5017   -20.0239    11.0937    11.2762
  496.5000     7.5419   113.1198     0.0126     0.1152     2.5019   -20.0209    11.0937    11.1850
  497.0000     7.5290   113.7331     0.0128     0.1152     2.5021   -20.0179    11.0937    11.1842
  497.5000     7.5310   113.9007     0.0114     0.1157     2.5022   -20.0149    11.0937    11.1835
  498.0000     7.5482   113.9196     0.0115     0.1160     2.5015   -20.0119    11.0937    11.1828
  498.5000     7.5798   112.0069     0.0101     0.1166     2.5001   -20.0090    11.0937    11.1820
  499.0000     7.6263   112.6478     0.0102     0.1175     2.4979   -20.0060    11.0937    11.1813
  499.5000     7.6580   113.0897     0.0104     0.1189     2.4958   -20.0030    11.0937    11.1805
  500.0000     7.6446   113.2525     0.0105     0.1198     2.4951   -20.0000    11.0939    11.1637
  500.5000     7.6172   112.0875     0.0111     0.1170     2.4990   -20.0000    11.0951    11.0678
  501.0000     7.6042   110.9183     0.0117     0.1143     2.5006   -20.0000    11.0963    10.9718
  501.5000     7.6062   111.0881     0.0123     0.1125     2.5029   -20.2985    11.0977    10.8778
  502.0000     7.6259   113.7831     0.0128     0.1118     2.5038   -20.7230    11.0990    10.8778
  502.5000     7.7124   114.5568     0.0130     0.1124     2.5046   -21.1940    10.9490    10.8778
  503.0000     7.6975   115.5901     0.0147     0.1135     2.5040   -21.4925    10.9503    10.7300
  503.5000     7.6826   122.0218     0.0148     0.1177     2.5026   -21.7910    10.8024    10.7300
  504.0000     7.6230   123.5125     0.0150     0.1186     2.5004   -22.0896    10.8037    10.5841
  504.5000     7.5782   124.4369     0.0167     0.1164     2.4998   -22.0896    10.8049    10.4403
  505.0000     7.5782   124.4577     0.0169     0.1158     2.4998   -22.2554    10.8062    10.4206
  505.5000     7.5484   124.9282     0.0171     0.1151     2.5000   -22.3881    10.5152    10.2984
  506.0000     7.5186   125.5430     0.0173     0.1145     2.5001   -22.3881    10.5163    10.2984
  506.5000     7.4888   126.0091     0.0175     0.1183     2.4994   -22.3881    10.3744    10.2984
  507.0000     7.4888   126.3216     0.0192     0.1237     2.4928   -22.3881    10.3755    10.2984
  507.5000     7.5037   124.2669     0.0194     0.1264     2.4861   -22.3881    10.3767    10.2692
  508.0000     7.5484   123.6878     0.0196     0.1317     2.4772   -22.3881    10.2366    10.1584
  508.5000     7.5633   131.5885     0.0228     0.1338     2.4721   -22.3881    10.2316    10.1258
  509.0000     7.5782   148.6983     0.0335     0.1331     2.4729   -22.3881    10.0996    10.0203
  509.5000     7.5633   151.9876     0.0396     0.1301     2.4805   -22.6866    10.0885     9.9844
