~VERSION INFORMATION
 VERS.                2.0:   CWLS LOG ASCII STANDARD - VERSION 2.0
 WRAP.                 NO:   ONE LINE PER DEPTH STEP
~WELL INFORMATION
#MNEM.UNIT      DATA TYPE    INFORMATION
#----------   ------------   ------------------------------
 STRT.F           30.0000:   START DEPTH
 STOP.F          468.0000:   STOP DEPTH
 STEP.F            0.1000:   STEP LENGTH
 NULL.          -999.2500:   NO VALUE
 COMP. LAWRENCE/ALLISON INC:   COMPANY
 WELL.    72-12 SX #10-10:   WELL
 FLD .             TEAPOT:   FIELD
 LOC .      S10 T38N R78W:   LOCATION
 CNTY.            NATRONA:   COUNTY
 STAT.            WYOMING:   STATE
 CTRY. UNITED STATES OF AMERICA:   COUNTRY
 SRVC.           Gearhart:   SERVICE COMPANY
 DATE.        17-MAY-1988:   LOGDATE
 API .       490251122400:   API NUMBER
~CURVE INFORMATION
#MNEM.UNIT       API CODE    CURVE DESCRIPTION
#----------   ------------   ------------------------------
 DEPT.F                  :   
 GRR .GAPI   07 310 01 00:   GAMMA RAY
 RILD.OHMM   07 120 46 00:   INDUCTION LOG DEEP RESISTIVITY
 RILM.OHMM   07 120 44 00:   INDUCTION LOG MEDIUM RESISTIVITY
~PARAMETER INFORMATION
#MNEM.UNIT          VALUE    DESCRIPTION
#----------   ------------   ------------------------------
 PD  .                 GL:   PERMANENT DATUM
 EPD .F              5166:   ELEVATION PERMANENT DATUM
 LMF .                 KB:   LOG MEASURED FROM
 DAPD.F              10.2:   FEET ABOVE PERMANENT DATUM
 DMF .                 KB:   DRILLING MEASURED FROM
 EKB .F            5176.2:   KELLING BUSHING
 EGL .F              5166:   GROUND LEVEL
 DATE.        17-MAY-1988:   RUN DATE
 RUN .                  1:   RUN NUMBER
 DD  .F               480:   DEPTH DRILLER
 DL  .F               476:   DEPTH LOGGER
 BLI .F               468:   BOTTOM LOG INTERVAL
 TLI .F                47:   TOP LOG INTERVAL
 CS  .IN            9.625:   CASING SIZE
 CBD .F                43:   CASING BOTTOM DRILLER
 CBL .F                47:   CASING BOTTOM LOGGER
 BS  .IN             8.75:   BIT SIZE
 BSD .F               480:   BIT SIZE AT DEPTH
 DFT .                AIR:   DRILLING FLUID TYPE
 TCS .HRS            0630:   TIME CURCULATED STOPPED
 TLAB.HRS            0930:   TIME LOGGER AT BOTTOM
 LUN .               7597:   LOGGING UNIT NUMBER
 LUL .           GILLETTE:   LOGGING UNIT LOCATION
 ENGI.             SLATKY:   RECORDING ENGINEER
 WITN.             STRONG:   WITNESSED BY
 CLNT.            A2DTECH:   CLIENT CODE
 ORIG.           5" PRINT:   ORIGIN OF DATA
 UWI .       490251122400:   UNIQUE WELL ID
 DICO. A2D Technologies, Inc.:   DIGITIZING COMPANY
~OTHER INFORMATION
~A   DEPT      GRR       RILD       RILM   
# ...
  121.0000   109.7758     9.5221     9.5115
  121.1000   109.7776     9.5216     9.5111
  121.2000   109.7794     9.5211     9.5107
  121.3000   109.8444     9.5205     9.5103
  121.4000   110.0889     9.5200     9.5099
  121.5000   110.3333     9.5195     9.5095
  121.6000   110.5778     9.4781     9.5091
  121.7000   110.8222     9.4524     9.5087
  121.8000   111.0024     9.4519     9.5083
  121.9000   111.0119     9.4514     9.4686
  122.0000   111.4990     9.4508     9.4416
  122.1000   111.6139     9.4503     9.4412
  122.2000   111.4901     9.4498     9.4408
  122.3000   111.1840     9.4493     9.4404
  122.4000   110.7006     9.4488     9.3998
  122.5000   110.2172     9.4481     9.3741
  122.6000   109.9208     9.4037     9.3737
  122.7000   109.6800     9.3817     9.3718
  122.8000   109.3729     9.3628     9.3192
  122.9000   108.8953     9.3156     9.3075
  123.0000   108.6545     9.3150     9.3071
  123.1000   108.6018     9.2695     9.2915
  123.2000   108.8590     9.2495     9.2418
  123.3000   109.2788     9.2291     9.2413
  123.4000   109.5301     9.1843     9.1996
  123.5000   110.0172     9.1838     9.1479
  123.6000   110.6934     9.1833     9.0965
  123.7000   111.4230     9.1490     9.0489
  123.8000   112.2893     9.1186     9.0484
  123.9000   113.4964     9.1092     9.0065
  124.0000   114.4687     9.0544     8.9850
  124.1000   115.2509     9.0539     8.9678
  124.2000   115.9806     9.0184     8.9174
  124.3000   116.6410     8.9676     8.8596
  124.4000   117.1192     8.9273     8.8593
  124.5000   117.3636     8.9268     8.8292
  124.6000   117.6081     8.8782     8.7971
  124.7000   117.8525     8.8281     8.7967
  124.8000   118.0267     8.7547     8.7963
  124.9000   118.0285     8.6799     8.7960
  125.0000   118.0303     8.6795     8.7956
  125.1000   118.2242     8.6305     8.7952
  125.2000   118.3370     8.5818     8.7883
  125.3000   118.3388     8.5581     8.7334
  125.4000   118.3515     8.5576     8.7766
  125.5000   118.5959     8.5571     8.7938
  125.6000   118.8404     8.5567     8.7934
  125.7000   118.9521     8.5562     8.7930
  125.8000   119.0263     8.5557     8.7926
  125.9000   119.2588     8.5552     8.8371
  126.0000   119.2610     8.5580     8.8533
  126.1000   119.0683     8.6139     8.8738
  126.2000   118.6937     8.6535     8.9145
  126.3000   118.2836     8.6732     8.9140
  126.4000   118.0170     8.6893     8.9602
  126.5000   117.1488     8.7376     8.9756
  126.6000   116.3697     8.7931     8.9974
  126.7000   115.2663     8.8351     9.0376
  126.8000   114.2037     8.8843     9.0371
  126.9000   113.4915     8.9337     9.0368
  127.0000   112.9155     8.9833     9.0722
  127.1000   112.3285     9.0388     9.0992
  127.2000   111.6024     9.0383     9.1098
  127.3000   111.0271     9.0708     9.1620
  127.4000   110.7713     9.1004     9.1616
  127.5000   110.1973     9.1084     9.1612
  127.6000   109.8044     9.1629     9.1856
  127.7000   109.3210     9.1624     9.2244
  127.8000   108.9139     9.1970     9.2240
  127.9000   108.6731     9.2253     9.2237
  128.0000   108.3882     9.2248     9.2619
  128.1000   108.3897     9.2243     9.2873
  128.2000   108.3915     9.2238     9.2869
  128.3000   108.4707     9.2233     9.2865
  128.4000   108.7151     9.2228     9.2862
  128.5000   109.0034     9.2222     9.2858
  128.6000   109.2040     9.2217     9.3126
  128.7000   109.3097     9.2212     9.3499
  128.8000   109.3899     9.2207     9.3495
  128.9000   109.6343     9.2202     9.3491
  129.0000   109.9215     9.2060     9.3487
  129.1000   110.3234     9.1553     9.3483
  129.2000   110.8105     9.1547     9.3323
  129.3000   111.2182     9.1542     9.2827
  129.4000   111.4816     9.1537     9.2822
  129.5000   112.0518     9.1380     9.2819
  129.6000   112.4557     9.0893     9.2815
  129.7000   113.0836     9.0887     9.2646
  129.8000   113.6525     9.0469     9.2163
  129.9000   113.9170     8.9959     9.2159
  130.0000   114.4852     8.9617     9.1729
  130.1000   114.8911     8.9567     9.1513
  130.2000   115.3782     8.8985     9.1335
  130.3000   115.7838     8.8560     9.0870
  130.4000   116.0283     8.8359     9.0866
  130.5000   116.3124     8.8174     9.0432
  130.6000   116.5172     8.7737     9.0228
  130.7000   116.7616     8.7731     9.0043
  130.8000   116.9236     8.7727     8.9595
  130.9000   116.9035     8.7409     8.9591
  131.0000   116.6245     8.7109     8.9152
  131.1000   116.4218     8.7104     8.8651
  131.2000   116.1810     8.7099     8.8153
  131.3000   115.8568     8.7095     8.7725
  131.4000   115.3964     8.7090     8.7721
  131.5000   115.1185     8.7085     8.7281
  131.6000   114.5042     8.7080     8.7105
  131.7000   113.7782     8.7075     8.6906
  131.8000   113.0520     8.7070     8.6494
  131.9000   112.3261     8.7065     8.6490
  132.0000   111.4912     8.7061     8.6487
  132.1000   111.2865     8.7056     8.6483
  132.2000   111.1915     8.7051     8.6479
  132.3000   111.1933     8.7046     8.6562
  132.4000   111.2202     8.7041     8.7076
  132.5000   111.5003     8.7036     8.7529
  132.6000   111.7091     8.7032     8.7677
  132.7000   112.1004     8.7027     8.7673
  132.8000   112.5010     8.7022     8.7768
  132.9000   112.7715     8.7017     8.8278
  133.0000   113.3275     8.7012     8.8275
  133.1000   113.7457     8.7007     8.8271
  133.2000   114.0848     8.7002     8.8498
  133.3000   114.4168     8.6997     8.8880
  133.4000   114.9039     8.6993     8.8877
  133.5000   115.4578     8.6988     8.8390
  133.6000   115.6687     8.6983     8.8253
  133.7000   115.9131     8.6978     8.8249
  133.8000   116.0691     8.6973     8.8127
  133.9000   116.0990     8.6969     8.7630
  134.0000   116.3760     8.6964     8.7626
  134.1000   116.3776     8.6959     8.7256
  134.2000   116.3794     8.6954     8.7011
  134.3000   116.2917     8.6949     8.7007
  134.4000   116.0798     8.6944     8.6995
  134.5000   116.0821     8.6634     8.6507
  134.6000   116.0836     8.6332     8.6021
  134.7000   116.0854     8.6327     8.5538
  134.8000   116.0873     8.6322     8.5191
  134.9000   116.0590     8.5882     8.5170
  135.0000   115.7881     8.5398     8.4691
  135.1000   115.5774     8.4916     8.4589
  135.2000   115.4885     8.4436     8.4328
  135.3000   115.3988     8.3930     8.3854
  135.4000   115.1580     8.3926     8.3382
  135.5000   114.8881     8.3595     8.2827
  135.6000   114.6764     8.3334     8.2824
  135.7000   114.4355     8.3231     8.2558
  135.8000   114.1947     8.2747     8.2094
  135.9000   113.9539     8.2295     8.1632
  136.0000   113.6851     8.2165     8.1098
  136.1000   113.4723     8.1937     8.0718
  136.2000   113.2315     8.1586     8.0265
  136.3000   112.9907     8.1580     7.9967
  136.4000   112.7499     8.1120     7.9919
  136.5000   112.4820     8.0663     7.9405
  136.6000   112.2683     7.9976     7.9024
  136.7000   112.0275     7.9325     7.8580
  136.8000   111.7867     7.9305     7.8298
  136.9000   111.5459     7.8857     7.8242
  137.0000   111.2790     7.8413     7.7748
  137.1000   111.2806     7.7731     7.7366
  137.2000   111.2824     7.6993     7.6931
  137.3000   111.2842     7.6558     7.6499
  137.4000   111.3212     7.6052     7.6128
  137.5000   111.5911     7.5348     7.6125
  137.6000   112.0275     7.4748     7.5742
  137.7000   112.3576     7.4184     7.5044
  137.8000   112.6020     7.3394     7.4206
  137.9000   112.8465     7.2923     7.3442
  138.0000   113.1153     7.2221     7.2995
  138.1000   113.5537     7.1659     7.2249
  138.2000   113.8828     7.1255     7.1443
  138.3000   114.2249     7.0853     7.0645
  138.4000   114.7119     7.0411     6.9927
  138.5000   115.2456     7.0407     6.9509
  138.6000   115.6861     7.0147     6.8782
  138.7000   116.0142     6.9911     6.8278
  138.8000   116.2586     6.9841     6.7725
  138.9000   116.5030     6.9419     6.6894
  139.0000   116.7699     6.9415     6.5730
  139.1000   116.9919     6.9411     6.5028
