~VERSION INFORMATION
 VERS.                2.0:   CWLS LOG ASCII STANDARD - VERSION 2.0
 WRAP.                 NO:   ONE LINE PER DEPTH STEP
~WELL INFORMATION
#MNEM.UNIT      DATA TYPE    INFORMATION
#----------   ------------   ------------------------------
 STRT.F           42.0000:   START DEPTH
 STOP.F          866.0000:   STOP DEPTH
 STEP.F            0.5000:   STEP LENGTH
 NULL.          -999.2500:   NO VALUE
 COMP. FENIX & SCISSON INC:   COMPANY
 WELL.      NPR-SX #47-11:   WELL
 FLD .             TEAPOT:   FIELD
 LOC .      S11 T38N R78W:   LOCATION
 CNTY.            NATRONA:   COUNTY
 STAT.            WYOMING:   STATE
 CTRY. UNITED STATES OF AMERICA:   COUNTRY
 SRVC.            Unknown:   SERVICE COMPANY
 DATE.        25-FEB-1978:   LOGDATE
 API .       490251058700:   API NUMBER
~CURVE INFORMATION
#MNEM.UNIT       API CODE    CURVE DESCRIPTION
#----------   ------------   ------------------------------
 DEPT.F                  :   
 SPR .MV     07 010 01 00:   SPONTANEOUS POTENTIAL
 SN  .OHMM   07 040 16 00:   SHORT NORMAL 16'
 ILD .OHMM   07 120 46 00:   INDUCTION LOG DEEP
 CORR.G/C3   45 356 01 00:   DENSITY CORRECTION
 RHOB.G/C3   45 350 01 00:   BULK DENSITY
 DPHI.DEC    45 890 12 00:   DENSITY POROSITY SANDSTONE
 CALD.IN     45 280 60 00:   CALIPER FROM DENSITY LOG
 GRD .GAPI   45 310 01 00:   GAMMA RAY FROM DENSITY LOG
~PARAMETER INFORMATION
#MNEM.UNIT          VALUE    DESCRIPTION
#----------   ------------   ------------------------------
 PD  .                 GL:   PERMANENT DATUM
 EPD .F              5202:   ELEVATION PERMANENT DATUM
 LMF .                 KB:   LOG MEASURED FROM
 DAPD.F                 4:   FEET ABOVE PERMANENT DATUM
 DMF .                 KB:   DRILLING MEASURED FROM
 EKB .F              5206:   KELLING BUSHING
 EGL .F              5202:   GROUND LEVEL
 DATE.            2-25-78:   RUN DATE
 RUN .                  1:   RUN NUMBER
 DD  .F               870:   DEPTH DRILLER
 DL  .F               870:   DEPTH LOGGER
 BLI .F               865:   BOTTOM LOG INTERVAL
 TLI .F                47:   TOP LOG INTERVAL
 CS  .IN            8.625:   CASING SIZE
 CBD .F                40:   CASING BOTTOM DRILLER
 CBL .F                47:   CASING BOTTOM LOGGER
 BS  .IN            7.875:   BIT SIZE
 BSD .F               870:   BIT SIZE AT DEPTH
 DFT .                KCL:   DRILLING FLUID TYPE
 DFD .                8.7:   DRILLING FLUID DENSITY
 DFV .                 35:   DRILLING FLUID VISCOSITY
 DFL .                4.8:   DRILLING FLUID LOSS
 MSS .         CIRCULATED:   MUD SAMPLE SOURCE
 RMS .OHMM            1.5:   RESISTIVITY MUD SAMPLE
 MST .F                70:   MUD SAMPLE TEMPERATURE
 RMF .OHMM            .75:   RESISTIVITY MUD FILTRATE SAMPLE
 MFST.F                74:   MUD FILTRATE SAMPLE TEMPERATURE
 RMC .OHMM            1.8:   RESISTIVITY MUD CAKE
 MCST.F                68:   MUD CAKE SAMPLE TEMPERATURE
 MFSS.              PRESS:   MUD FILTRATE SAMPLE SOURCE
 RMB .OHMM            1.5:   RESISTIVITY MUD AT BHT
 BHT .F                70:   BOTTOM HOLE TEMPERATURE
 TCS .HRS               2:   TIME CURCULATED STOPPED
 MRT .F                70:   MAXIMUM RECORDED TEMPERATURE
 LUN .               2958:   LOGGING UNIT NUMBER
 LUL .               CASP:   LOGGING UNIT LOCATION
 CLNT.            A2DTECH:   CLIENT CODE
 ORIG.        2" 5" PRINT:   ORIGIN OF DATA
 UWI .       490251058700:   UNIQUE WELL ID
 DICO. A2D Technologies, Inc.:   DIGITIZING COMPANY
~OTHER INFORMATION
~A   DEPT      SPR         SN        ILD       CORR       RHOB       DPHI         CALD      GRD   
# ...
  568.5000   -22.8134     4.2782     3.7622     0.0567     2.4552     0.1208     8.5336   103.7137
  569.0000   -22.6443     4.7337     4.2889     0.0590     2.4549     0.1213     8.5545   103.0145
  569.5000   -22.4333     5.2389     4.7124     0.0578     2.4593     0.1246     8.5750   107.3525
  570.0000   -22.2206     5.5374     5.1430     0.0545     2.4577     0.1280     8.5955   112.5495
  570.5000   -22.1611     5.6930     5.3365     0.0486     2.4513     0.1328     8.6159   113.0675
  571.0000   -22.0972     5.7459     5.4360     0.0422     2.4452     0.1392     8.6302   111.6854
  571.5000   -22.0297     5.6930     5.3922     0.0357     2.4392     0.1394     8.6329   107.2759
  572.0000   -21.9868     5.6407     5.3220     0.0347     2.4279     0.1470     8.6358   105.1425
  572.5000   -21.9346     5.6604     5.1920     0.0309     2.4245     0.1575     8.6387   103.3992
  573.0000   -21.8832     5.6944     5.0651     0.0272     2.4125     0.1667     8.6416   104.3040
  573.5000   -21.8315     5.5477     4.7964     0.0263     2.3986     0.1567     8.6445   102.3434
  574.0000   -21.7796     5.1474     4.4768     0.0347     2.3814     0.1458     8.6474   100.6052
  574.5000   -21.7279     5.1864     4.4778     0.0403     2.3989     0.1349     8.6506   101.5612
  575.0000   -21.6778     4.6466     4.4496     0.0249     2.4258     0.1288     8.6541   102.7459
  575.5000   -21.6257     4.7295     4.3830     0.0153     2.4386     0.1312     8.6576   104.0584
  576.0000   -21.8468     4.5888     4.3174     0.0121     2.4373     0.1083     8.6611   103.3145
  576.5000   -22.2358     4.3955     4.2754     0.0185     2.4366     0.1116     8.6647   101.8181
  577.0000   -22.6250     4.3955     4.2754     0.0277     2.4756     0.1186     8.6682   102.2436
  577.5000   -23.0171     4.8315     4.3410     0.0176     2.4700     0.1167     8.6718   103.1497
  578.0000   -23.0063     5.2390     4.5558     0.0140     2.4656     0.1196     8.6753   100.8158
  578.5000   -22.6247     5.2390     4.7811     0.0110     2.4693     0.1219     8.6789   105.0127
  579.0000   -22.6071     5.4510     5.0177     0.0078     2.4636     0.1200     8.6825   108.1250
  579.5000   -22.6087     5.6394     5.2659     0.0044     2.4613     0.1169     8.6861   105.1711
  580.0000   -22.5500     5.8422     5.5264     0.0036     2.4643     0.1185     8.6896   105.8082
  580.5000   -22.4828     6.1744     5.7992     0.0054     2.4666     0.1182     8.6932   103.9261
  581.0000   -22.3741     6.5253     6.0914     0.0065     2.4644     0.1197     8.6968   103.5951
  581.5000   -22.1993     6.9103     6.1889     0.0067     2.4612     0.1289     8.7004   106.4231
  582.0000   -22.1586     6.9118     6.2879     0.0009     2.4585     0.1376     8.7040   109.6400
  582.5000   -22.1273     7.0402     6.3885    -0.0055     2.4438     0.1394     8.7077   112.8576
  583.0000   -22.0962     7.1061     6.4790    -0.0106     2.4314     0.1455     8.7063   114.4276
  583.5000   -22.0646     7.0776     6.4790    -0.0092     2.4243     0.1345     8.7037   115.7886
  584.0000   -22.0330     7.0376     6.3695     0.0011     2.4277     0.1428     8.7011   111.3442
  584.5000   -22.0116     6.9978     6.2977     0.0114     2.4339     0.1200     8.6985   106.7569
  585.0000   -22.0120     6.9583     6.2267     0.0212     2.4481     0.1233     8.6959    98.2554
  585.5000   -22.0120     6.9202     6.1565     0.0204     2.4575     0.1265     8.6933   101.5763
  586.0000   -22.0116     6.7603     6.0871     0.0186     2.4365     0.1282     8.6907   102.2205
  586.5000   -22.0110     6.5388     6.0594     0.0142     2.4321     0.1299     8.6881   103.8716
  587.0000   -22.0137     6.5396     5.9866     0.0124     2.4341     0.1367     8.6855   101.8757
  587.5000   -22.0996     6.5392     5.9146     0.0149     2.4335     0.1435     8.6829   100.7520
  588.0000   -22.4856     6.3425     5.8263     0.0180     2.4308     0.1538     8.6803   102.8388
  588.5000   -22.8657     6.1881     5.6314     0.0149     2.4166     0.1641     8.6777   104.3267
  589.0000   -22.9531     5.8914     5.4061     0.0106     2.4021     0.1682     8.6751   105.9662
  589.5000   -22.6824     5.5838     5.1550     0.0128     2.3765     0.1657     8.6725   106.1170
  590.0000   -22.4190     5.2756     4.9150     0.0179     2.3780     0.1464     8.6699   105.0433
  590.5000   -22.4662     4.9768     4.6855     0.0223     2.3797     0.1285     8.6672   104.3408
  591.0000   -22.5650     4.6948     4.4749     0.0040     2.4226     0.1197     8.6646   109.7337
  591.5000   -22.6625     4.6033     4.4775     0.0050     2.4445     0.1193     8.6620   107.7984
  592.0000   -22.7605     4.6267     4.5461     0.0055     2.4632     0.1222     8.6594   105.7928
  592.5000   -22.7397     4.7507     4.6154     0.0039     2.4599     0.1222     8.6568   105.1770
  593.0000   -22.6099     4.8781     4.6857     0.0027     2.4565     0.1216     8.6542   105.0705
  593.5000   -22.4804     5.2173     4.7327     0.0044     2.4590     0.1218     8.6516   105.7991
  594.0000   -22.4168     5.6575     4.9690     0.0055     2.4604     0.1220     8.6490   107.2161
  594.5000   -22.4408     6.1347     5.3125     0.0054     2.4598     0.1193     8.6464   109.2222
  595.0000   -22.4640     6.3292     5.6797     0.0082     2.4603     0.1155     8.6438   111.2975
  595.5000   -22.4877     6.4256     6.0724     0.0108     2.4658     0.1166     8.6412   111.1931
  596.0000   -22.5114     6.5235     6.2440     0.0115     2.4696     0.1170     8.6386   109.4425
  596.5000   -22.5350     6.6228     6.3604     0.0123     2.4695     0.1134     8.6360   114.4238
  597.0000   -22.5587     6.7237     6.3753     0.0118     2.4719     0.1159     8.6334   109.9833
  597.5000   -22.5823     6.8257     6.3898     0.0079     2.4762     0.1192     8.6308   109.0041
  598.0000   -22.6060     6.9133     6.4043     0.0029     2.4701     0.1227     8.6282   108.1653
  598.5000   -22.6297     6.9744     6.4189    -0.0020     2.4628     0.1205     8.6256   108.4922
  599.0000   -22.6533     6.9896     6.4335    -0.0045     2.4624     0.1164     8.6230   110.0154
  599.5000   -22.6770     7.0056     6.4482    -0.0045     2.4625     0.1140     8.6204   108.0344
  600.0000   -22.7006     7.0208     6.4629    -0.0070     2.4656     0.1177     8.6178   106.0212
  600.5000   -22.7243     7.0360     6.4776    -0.0119     2.4681     0.1215     8.6152   109.9013
  601.0000   -22.7480     7.0513     6.4923    -0.0169     2.4601     0.1253     8.6126   112.8090
  601.5000   -22.7715     7.0666     6.5071    -0.0195     2.4518     0.1254     8.6099   115.1072
  602.0000   -22.7948     7.0820     6.5219    -0.0068     2.4504     0.1243     8.6091   112.0348
  602.5000   -22.7920     7.0973     6.5368    -0.0012     2.4523     0.1269     8.6091   111.8884
  603.0000   -22.7527     7.1061     6.5392     0.0005     2.4541     0.1225     8.6091   112.9693
  603.5000   -22.7137     7.0707     6.5392    -0.0009     2.4522     0.1285     8.6091   113.8661
  604.0000   -22.6744     7.0420     6.5392    -0.0010     2.4468     0.1231     8.6091   112.4612
  604.5000   -22.6352     7.0135     6.5392     0.0151     2.4472     0.1254     8.6091   112.9026
  605.0000   -22.5960     6.9851     6.5392     0.0312     2.4548     0.1159     8.6091   108.6049
  605.5000   -22.5568     6.9569     6.5392     0.0365     2.4544     0.1185     8.6091   112.1120
  606.0000   -22.5176     6.9287     6.5393     0.0368     2.4663     0.1230     8.6091   116.5592
  606.5000   -22.4784     6.9007     6.5398     0.0274     2.4621     0.1268     8.6091   115.8507
  607.0000   -22.4392     6.8727     6.5392     0.0187     2.4557     0.1297     8.6091   115.3008
  607.5000   -22.4000     6.8430     6.4979     0.0159     2.4508     0.1333     8.6091   117.3161
  608.0000   -22.3608     6.7989     6.1677     0.0145     2.4434     0.1417     8.6091   117.4069
  608.5000   -22.3214     6.7554     5.8542     0.0153     2.4352     0.1373     8.6091   115.3357
