~VERSION INFORMATION
 VERS.                2.0:   CWLS LOG ASCII STANDARD - VERSION 2.0
 WRAP.                 NO:   ONE LINE PER DEPTH STEP
~WELL INFORMATION
#MNEM.UNIT      DATA TYPE    INFORMATION
#----------   ------------   ------------------------------
 STRT.F           80.0000:   START DEPTH
 STOP.F         1011.0000:   STOP DEPTH
 STEP.F            0.5000:   STEP LENGTH
 NULL.          -999.2500:   NO VALUE
 COMP.          U.S. NAVY:   COMPANY
 WELL. RES 3 TEAPOT DOM #61S-11:   WELL
 FLD .             TEAPOT:   FIELD
 LOC .      S11 T38N R78W:   LOCATION
 CNTY.            NATRONA:   COUNTY
 STAT.            WYOMING:   STATE
 CTRY. UNITED STATES OF AMERICA:   COUNTRY
 SRVC.       Schlumberger:   SERVICE COMPANY
 DATE.        23-JUL-1964:   LOGDATE
 API .       490250637500:   API NUMBER
~CURVE INFORMATION
#MNEM.UNIT       API CODE    CURVE DESCRIPTION
#----------   ------------   ------------------------------
 DEPT.F                  :   
 CALS.IN     60 280 50 00:   CALIPER FROM SONIC LOG
 DT  .US/F   60 520 33 00:   INTERVAL TRANSIT TIME
 GR  .GAPI   30 310 01 00:   GAMMA RAY
 CILD.MMHO   05 110 46 00:   CONDUCTIVITY INDUCTION LOG DEEP
 ILD .OHMM   05 120 46 00:   INDUCTION LOG DEEP
 ASN .OHMM   05 041 16 00:   AMPLIFIED SHORT NORMAL 16"
 SPR .MV     05 010 01 00:   SPONTANEOUS POTENTIAL FROM RES.
~PARAMETER INFORMATION
#MNEM.UNIT          VALUE    DESCRIPTION
#----------   ------------   ------------------------------
 PD  .                 GL:   PERMANENT DATUM
 EPD .F              5199:   ELEVATION PERMANENT DATUM
 LMF .                 KB:   LOG MEASURED FROM
 DAPD.F                 5:   FEET ABOVE PERMANENT DATUM
 DMF .                 KB:   DRILLING MEASURED FROM
 EKB .F              5204:   KELLING BUSHING
 EGL .F              5199:   GROUND LEVEL
 DATE.          7-23-1964:   RUN DATE
 RUN .                  1:   RUN NUMBER
 DD  .F              1010:   DEPTH DRILLER
 DL  .F              1012:   DEPTH LOGGER
 BLI .F              1011:   BOTTOM LOG INTERVAL
 TLI .F                88:   TOP LOG INTERVAL
 CS  .IN            8.625:   CASING SIZE
 CBD .F                10:   CASING BOTTOM DRILLER
 BS  .IN             6.75:   BIT SIZE
 BSD .F              1010:   BIT SIZE AT DEPTH
 DFT .            GEL-OIL:   DRILLING FLUID TYPE
 DFD .                9.8:   DRILLING FLUID DENSITY
 DFV .                 54:   DRILLING FLUID VISCOSITY
 MSS .           FLOWLINE:   MUD SAMPLE SOURCE
 RMS .OHMM           1.47:   RESISTIVITY MUD SAMPLE
 MST .F                86:   MUD SAMPLE TEMPERATURE
 RMF .OHMM            .96:   RESISTIVITY MUD FILTRATE SAMPLE
 MFST.F                86:   MUD FILTRATE SAMPLE TEMPERATURE
 RMC .OHMM           2.10:   RESISTIVITY MUD CAKE
 MCST.F                86:   MUD CAKE SAMPLE TEMPERATURE
 MFSS.                 FP:   MUD FILTRATE SAMPLE SOURCE
 MCSS.                 FP:   MUD CAKE SAMPLE SOURCE
 TCS .HRS               2:   TIME CURCULATED STOPPED
 LUN .               4507:   LOGGING UNIT NUMBER
 LUL .              CSPR.:   LOGGING UNIT LOCATION
 ENGI.             DANNER:   RECORDING ENGINEER
 WITN.          JORGENSEN:   WITNESSED BY
 CLNT.            A2DTECH:   CLIENT CODE
 ORIG.      2" & 5" PRINT:   ORIGIN OF DATA
 UWI .       490250637500:   UNIQUE WELL ID
 DICO. A2D Technologies, Inc.:   DIGITIZING COMPANY
~OTHER INFORMATION
~A   DEPT     CALS         DT         GR        CILD         ILD        ASN      SPR   
# ...
  125.5000  -999.2500  -999.2500  -999.2500   186.8392     5.0557     6.5041   -41.0297
  126.0000  -999.2500  -999.2500  -999.2500   190.7852     4.9105     6.3805   -41.0288
  126.5000  -999.2500  -999.2500  -999.2500   193.4860     4.9114     6.3052   -41.2613
  127.0000  -999.2500  -999.2500  -999.2500   193.4728     4.9165     6.2552   -41.4598
  127.5000  -999.2500  -999.2500  -999.2500   191.9937     5.2079     6.2314   -41.6030
  128.0000  -999.2500  -999.2500  -999.2500   188.6224     5.6862     6.2264   -41.6023
  128.5000  -999.2500  -999.2500  -999.2500   183.8102     6.2564     6.2710   -41.4097
  129.0000  -999.2500  -999.2500  -999.2500   178.8494     6.9024     6.4037   -41.3112
  129.5000  -999.2500  -999.2500  -999.2500   171.8693     7.1817     6.5889   -41.0236
  130.0000  -999.2500  -999.2500  -999.2500   165.2586     7.3504     6.9766   -40.9702
  130.5000  -999.2500  -999.2500  -999.2500   159.3905     7.4204     7.3643   -40.7277
  131.0000  -999.2500  -999.2500  -999.2500   154.2814     7.4213     7.5400   -40.4451
  131.5000  -999.2500  -999.2500  -999.2500   151.1515     7.4225     7.6409   -40.4445
  132.0000  -999.2500  -999.2500  -999.2500   150.6765     7.3502     7.6939   -40.4438
  132.5000  -999.2500  -999.2500  -999.2500   150.3889     7.2776     7.6709   -40.4430
  133.0000  -999.2500  -999.2500  -999.2500   150.3777     7.1973     7.6714   -40.4424
  133.5000  -999.2500  -999.2500  -999.2500   151.8460     7.1327     7.6651   -40.2976
  134.0000  -999.2500  -999.2500  -999.2500   153.1013     6.9936     7.5836   -40.2967
  134.5000  -999.2500  -999.2500  -999.2500   155.5815     6.8315     7.4078   -40.2961
  135.0000  -999.2500  -999.2500  -999.2500   159.9611     6.6215     7.3133   -40.2954
  135.5000  -999.2500  -999.2500  -999.2500   162.6133     6.4793     7.2320   -40.2946
  136.0000  -999.2500  -999.2500  -999.2500   165.9853     6.2451     7.2324   -40.2939
  136.5000  -999.2500  -999.2500  -999.2500   168.8169     6.0365     7.2550   -40.2666
  137.0000  -999.2500  -999.2500  -999.2500   170.2050     5.8179     7.2392   -40.1484
  137.5000  -999.2500  -999.2500  -999.2500   172.6853     5.4994     7.1011   -40.1477
  138.0000  -999.2500  -999.2500  -999.2500   174.7098     5.3779     7.0248   -40.1470
  138.5000  -999.2500  -999.2500  -999.2500   176.5432     5.3791     6.8076   -40.1462
  139.0000  -999.2500  -999.2500  -999.2500   177.9036     5.5410     6.5728   -40.1456
  139.5000  -999.2500  -999.2500  -999.2500   180.6027     5.6755     6.5290   -40.1448
  140.0000  -999.2500  -999.2500  -999.2500   180.9382     5.8284     6.5146   -40.1441
  140.5000  -999.2500  -999.2500  -999.2500   178.7815     5.9869     6.5886   -40.1434
  141.0000  -999.2500  -999.2500  -999.2500   176.1252     6.1935     6.6367   -40.1427
  141.5000  -999.2500  -999.2500  -999.2500   173.3481     6.3087     6.7056   -40.1419
  142.0000  -999.2500  -999.2500  -999.2500   170.3407     6.5064     6.7956   -40.1412
  142.5000  -999.2500  -999.2500  -999.2500   167.2033     6.5644     6.9179   -40.1405
  143.0000  -999.2500  -999.2500  -999.2500   164.3260     6.6811     7.0121   -39.9957
  143.5000  -999.2500  -999.2500  -999.2500   161.3184     6.8053     7.0770   -39.9948
  144.0000  -999.2500  -999.2500  -999.2500   157.5407     6.9353     7.1942   -40.1384
  144.5000  -999.2500  -999.2500  -999.2500   154.5645     7.0099     7.2495   -40.1376
  145.0000  -999.2500  -999.2500  -999.2500   153.8148     7.0846     7.3000   -40.1368
  145.5000  -999.2500  -999.2500  -999.2500   153.8037     7.0857     7.3718   -40.1361
  146.0000  -999.2500  -999.2500  -999.2500   153.7907     7.0417     7.4075   -40.1355
  146.5000  -999.2500  -999.2500  -999.2500   154.5222     6.9932     7.4312   -40.1346
  147.0000  -999.2500  -999.2500  -999.2500   155.3654     6.8684     7.4317   -40.1340
  147.5000  -999.2500  -999.2500  -999.2500   158.2021     6.7028     7.4173   -40.1333
  148.0000  -999.2500  -999.2500  -999.2500   160.3259     6.5089     7.3682   -40.1325
  148.5000  -999.2500  -999.2500  -999.2500   164.4681     6.1364     7.2269   -40.1318
  149.0000  -999.2500  -999.2500  -999.2500   170.0209     5.7248     6.9883   -40.1311
  149.5000  -999.2500  -999.2500  -999.2500   175.1519     5.3553     6.6969   -40.1303
  150.0000  -999.2500  -999.2500  -999.2500   179.2589     5.2574     6.5662   -40.1297
  150.5000  -999.2500  -999.2500  -999.2500   181.1000     5.4057     6.5296   -40.1289
  151.0000  -999.2500  -999.2500  -999.2500   179.5628     5.5311     6.5200   -40.1282
  151.5000  -999.2500  -999.2500  -999.2500   176.3199     5.7798     6.5232   -40.1275
  152.0000  -999.2500  -999.2500  -999.2500   174.3993     6.0708     6.5315   -40.1268
  152.5000  -999.2500  -999.2500  -999.2500   172.9074     6.2457     6.5567   -40.1260
  153.0000  -999.2500  -999.2500  -999.2500   172.8963     6.3669     6.5978   -40.1254
  153.5000  -999.2500  -999.2500  -999.2500   172.8848     6.3682     6.6447   -40.1246
  154.0000  -999.2500  -999.2500  -999.2500   174.0740     6.4427     6.6835   -40.1239
  154.5000  -999.2500  -999.2500  -999.2500   174.5679     6.4437     6.7607   -40.1232
  155.0000  -999.2500  -999.2500  -999.2500   175.8147     6.4450     6.7995   -40.1225
  155.5000  -999.2500  -999.2500  -999.2500   177.2852     6.3426     6.7907   -40.1217
  156.0000  -999.2500  -999.2500  -999.2500   179.0124     6.1412     6.7618   -40.1122
  156.5000  -999.2500  -999.2500  -999.2500   180.2261     5.9336     6.6413   -40.0883
  157.0000  -999.2500  -999.2500  -999.2500   180.9536     5.5885     6.4735   -40.0644
  157.5000  -999.2500  -999.2500  -999.2500   181.9754     5.2591     6.3804   -40.0406
  158.0000  -999.2500  -999.2500  -999.2500   182.4153     5.1279     6.3368   -40.0167
  158.5000  -999.2500  -999.2500  -999.2500   181.6613     5.0884     6.3170   -39.9928
  159.0000  -999.2500  -999.2500  -999.2500   181.6518     5.1478     6.3081   -39.9690
  159.5000  -999.2500  -999.2500  -999.2500   180.8123     5.3520     6.3085   -39.9451
  160.0000  -999.2500  -999.2500  -999.2500   180.1468     5.4608     6.2941   -39.9212
  160.5000  -999.2500  -999.2500  -999.2500   182.3321     5.6585     6.2945   -39.8973
  161.0000  -999.2500  -999.2500  -999.2500   186.5360     5.7229     6.2802   -39.8735
  161.5000  -999.2500  -999.2500  -999.2500   193.4471     5.8332     6.2530   -39.8496
  162.0000  -999.2500  -999.2500  -999.2500   197.1804     5.8721     6.1826   -39.8257
  162.5000  -999.2500  -999.2500  -999.2500   198.0246     5.8733     5.9872   -39.8018
  163.0000  -999.2500  -999.2500  -999.2500   197.8585     5.8370     5.8215   -39.7780
  163.5000  -999.2500  -999.2500  -999.2500   197.0010     5.7282     5.6872   -39.7541
  164.0000  -999.2500  -999.2500  -999.2500   194.3112     5.4354     5.6206   -39.7302
  164.5000  -999.2500  -999.2500  -999.2500   190.4181     5.2119     5.6063   -39.7063
  165.0000  -999.2500  -999.2500  -999.2500   186.8151     4.9816     5.6429   -39.6825
  165.5000  -999.2500  -999.2500  -999.2500   184.0284     4.9239     5.9011   -39.6751
  166.0000  -999.2500  -999.2500  -999.2500   181.4962     4.9652     6.1641   -39.6743
  166.5000  -999.2500  -999.2500  -999.2500   180.2544     5.0158     6.3265   -39.6736
  167.0000  -999.2500  -999.2500  -999.2500   178.5111     5.1479     6.4316   -39.6729
  167.5000  -999.2500  -999.2500  -999.2500   177.7594     5.1905     6.4320   -39.6721
  168.0000  -999.2500  -999.2500  -999.2500   178.4889     5.3147     6.4139   -39.6715
  168.5000  -999.2500  -999.2500  -999.2500   179.5062     5.4453     6.3739   -39.6708
  169.0000  -999.2500  -999.2500  -999.2500   182.3258     5.5630     6.3506   -39.6700
  169.5000  -999.2500  -999.2500  -999.2500   186.6021     5.6871     6.3073   -39.5798
  170.0000  -999.2500  -999.2500  -999.2500   189.7776     5.8162     6.2574   -39.5245
  170.5000  -999.2500  -999.2500  -999.2500   192.7630     5.7727     6.1325   -39.3797
