~VERSION INFORMATION
 VERS.                2.0:   CWLS LOG ASCII STANDARD - VERSION 2.0
 WRAP.                 NO:   ONE LINE PER DEPTH STEP
~WELL INFORMATION
#MNEM.UNIT      DATA TYPE    INFORMATION
#----------   ------------   ------------------------------
 STRT.F           40.0000:   START DEPTH
 STOP.F          512.0000:   STOP DEPTH
 STEP.F            0.5000:   STEP LENGTH
 NULL.          -999.2500:   NO VALUE
 COMP. LAWRENCE/ALLISON INC:   COMPANY
 WELL.   65-21 SX F1 #3-3:   WELL
 FLD .             TEAPOT:   FIELD
 LOC .       S3 T38N R78W:   LOCATION
 CNTY.            NATRONA:   COUNTY
 STAT.            WYOMING:   STATE
 CTRY. UNITED STATES OF AMERICA:   COUNTRY
 SRVC.       Schlumberger:   SERVICE COMPANY
 DATE.        14-JUL-1982:   LOGDATE
 API .       490251089600:   API NUMBER
~CURVE INFORMATION
#MNEM.UNIT       API CODE    CURVE DESCRIPTION
#----------   ------------   ------------------------------
 DEPT.F                  :   
 CALD.IN     45 280 60 00:   CALIPER FROM DENSITY LOG
 CORR.G/C3   45 356 01 00:   DENSITY CORRECTION
 DPHI.DEC    45 890 12 00:   DENSITY POROSITY SANDSTONE
 GRD .GAPI   45 310 01 00:   GAMMA RAY FROM DENSITY LOG
 RHOB.G/C3   45 350 01 00:   BULK DENSITY
~PARAMETER INFORMATION
#MNEM.UNIT          VALUE    DESCRIPTION
#----------   ------------   ------------------------------
 PD  .                 GL:   PERMANENT DATUM
 EPD .F              5155:   ELEVATION PERMANENT DATUM
 LMF .                 KB:   LOG MEASURED FROM
 DAPD.F                 9:   FEET ABOVE PERMANENT DATUM
 DMF .                 KB:   DRILLING MEASURED FROM
 EKB .F              5164:   KELLING BUSHING
 EDF .F            5162.5:   DRILLING FLOOR
 EGL .F              5155:   GROUND LEVEL
 DATE.        14-JUL-1982:   RUN DATE
 RUN .                  1:   RUN NUMBER
 DD  .F               500:   DEPTH DRILLER
 DL  .F               515:   DEPTH LOGGER
 BLI .F               512:   BOTTOM LOG INTERVAL
 TLI .F                50:   TOP LOG INTERVAL
 CS  .IN           13.375:   CASING SIZE
 CBD .F                50:   CASING BOTTOM DRILLER
 CBL .F                50:   CASING BOTTOM LOGGER
 BS  .IN            12.25:   BIT SIZE
 BSD .F               500:   BIT SIZE AT DEPTH
 DFT .                KCL:   DRILLING FLUID TYPE
 TCS .HRS            0600:   TIME CURCULATED STOPPED
 TLAB.HRS            1000:   TIME LOGGER AT BOTTOM
 LUN .               8035:   LOGGING UNIT NUMBER
 LUL .             CASPER:   LOGGING UNIT LOCATION
 ENGI.            PERARIS:   RECORDING ENGINEER
 WITN.             TAYLOR:   WITNESSED BY
 CLNT.            A2DTECH:   CLIENT CODE
 ORIG.         2.5" PRINT:   ORIGIN OF DATA
 UWI .       490251089600:   UNIQUE WELL ID
 DICO. A2D Technologies, Inc.:   DIGITIZING COMPANY
~OTHER INFORMATION
~A   DEPT     CALD       CORR       DPHI         GRD      RHOB   
   40.0000  -999.2500  -999.2500  -999.2500    54.3743  -999.2500
   40.5000  -999.2500  -999.2500  -999.2500    55.6863  -999.2500
   41.0000  -999.2500  -999.2500  -999.2500    56.5459  -999.2500
   41.5000  -999.2500  -999.2500  -999.2500    57.4592  -999.2500
   42.0000  -999.2500  -999.2500  -999.2500    56.5815  -999.2500
   42.5000  -999.2500  -999.2500  -999.2500    57.0470  -999.2500
   43.0000  -999.2500  -999.2500  -999.2500    57.9603  -999.2500
   43.5000  -999.2500  -999.2500  -999.2500    58.4258  -999.2500
   44.0000  -999.2500  -999.2500  -999.2500    58.8913  -999.2500
   44.5000  -999.2500  -999.2500  -999.2500    59.8046  -999.2500
   45.0000  -999.2500  -999.2500  -999.2500    61.1657  -999.2500
   45.5000  -999.2500  -999.2500  -999.2500    62.9745  -999.2500
   46.0000  -999.2500  -999.2500  -999.2500    64.7833  -999.2500
   46.5000  -999.2500  -999.2500  -999.2500    65.6966  -999.2500
   47.0000  -999.2500  -999.2500  -999.2500    66.1621  -999.2500
   47.5000  -999.2500  -999.2500  -999.2500    67.5231  -999.2500
   48.0000  -999.2500  -999.2500  -999.2500    68.4364  -999.2500
   48.5000  -999.2500  -999.2500  -999.2500    69.7975  -999.2500
   49.0000  -999.2500  -999.2500  -999.2500    70.7107  -999.2500
   49.5000  -999.2500  -999.2500  -999.2500    67.5942  -999.2500
   50.0000    12.6965     0.0519     0.3000    64.9254     2.0881
   50.5000    12.8699     0.0463     0.2918    73.9807     2.1823
   51.0000    13.2979     0.0432     0.2742    84.3791     2.2264
   51.5000    13.4047     0.0401     0.2464    92.0015     2.2887
   52.0000    12.4223     0.0355     0.2080    96.3701     2.3449
   52.5000    12.1463     0.0294     0.1848    96.8052     2.3676
   53.0000    12.0088     0.0233     0.1823    94.4955     2.3722
   53.5000    11.8892     0.0229     0.1793    92.7597     2.3843
   54.0000    11.8388     0.0277     0.1715    91.9331     2.3934
   54.5000    11.9998     0.0323     0.1682    91.5031     2.3979
   55.0000    12.2547     0.0337     0.1685    92.0448     2.3994
   55.5000    12.5116     0.0550     0.1644    92.8836     2.3976
   56.0000    12.7081     0.0656     0.1643    92.6328     2.4009
   56.5000    12.8141     0.0716     0.1711    88.8522     2.3978
   57.0000    12.8740     0.0669     0.1849    85.7711     2.3704
   57.5000    12.9045     0.0487     0.1902    87.8060     2.3597
   58.0000    12.8127     0.0198     0.1841    89.5105     2.3662
   58.5000    12.6931     0.0197     0.1719    90.4313     2.3910
   59.0000    12.6675     0.0227     0.1600    90.7675     2.4132
   59.5000    12.7154     0.0288     0.1549    90.3375     2.4190
   60.0000    12.7882     0.0333     0.1537    90.5075     2.4204
   60.5000    12.8485     0.0363     0.1604    91.2716     2.4098
   61.0000    12.8789     0.0393     0.1714    91.7341     2.3916
   61.5000    12.9094     0.0392     0.1767    89.6209     2.3820
   62.0000    12.9100     0.0407     0.1785    88.6353     2.3807
   62.5000    12.8807     0.0327     0.1784    88.2090     2.3845
   63.0000    12.8216     0.0250     0.1766    87.5851     2.3887
   63.5000    12.7028     0.0144     0.1708    88.2000     2.3957
   64.0000    12.5840     0.0084     0.1636    90.0239     2.4069
   64.5000    12.4950     0.0070     0.1569    92.0791     2.4171
   65.0000    12.4657     0.0088     0.1514    93.4478     2.4263
   65.5000    12.4364     0.0115     0.1490    93.4582     2.4307
   66.0000    12.4072     0.0130     0.1515    93.0209     2.4279
   66.5000    12.4078     0.0129     0.1533    92.5836     2.4210
   67.0000    12.4084     0.0129     0.1576    92.4000     2.4125
   67.5000    12.4090     0.0113     0.1588    92.4179     2.4100
   68.0000    12.4096     0.0128     0.1570    93.3349     2.4153
   68.5000    12.3803     0.0132     0.1539    93.8004     2.4215
   69.0000    12.4108     0.0158     0.1491    93.8182     2.4293
   69.5000    12.3815     0.0187     0.1442    93.3882     2.4433
   70.0000    12.3224     0.0207     0.1315    90.7194     2.4669
   70.5000    12.2633     0.0237     0.1187    86.7073     2.4866
   71.0000    12.2042     0.0268     0.1139    83.5907     2.4926
   71.5000    12.2944     0.0313     0.1131    84.0563     2.4926
   72.0000    12.3845     0.0349     0.1182    85.4173     2.4728
   72.5000    12.4448     0.0435     0.1413    85.8828     2.4409
   73.0000    12.4454     0.0623     0.1443    84.5573     2.4363
   73.5000    12.3564     0.0819     0.1377    83.2299     2.4393
   74.0000    12.3272     0.0912     0.1346    85.9361     2.4484
   74.5000    12.3278     0.0943     0.1352    87.2971     2.4514
   75.0000    12.3582     0.0676     0.1401    88.6582     2.4498
   75.5000    12.4185     0.0248     0.1432    89.1237     2.4361
   76.0000    12.4199     0.0128     0.1468    89.5892     2.4300
   76.5000    12.4496     0.0081     0.1493    90.0548     2.4285
   77.0000    12.4800     0.0050     0.1505    90.9681     2.4254
   77.5000    12.4806     0.0019     0.1499    92.3291     2.4239
   78.0000    12.4812     0.0012     0.1463    93.6901     2.4314
   78.5000    12.5116     0.0027     0.1432    95.9467     2.4390
   79.0000    12.5122     0.0057     0.1414    97.3078     2.4420
   79.5000    12.5128     0.0072     0.1408    98.2210     2.4417
   80.0000    12.5134     0.0102     0.1439    97.7910     2.4326
   80.5000    12.5140     0.0132     0.1469    96.4433     2.4298
   81.0000    12.5099     0.0162     0.1433    93.7672     2.4392
   81.5000    12.4853     0.0192     0.1409    92.4712     2.4453
   82.0000    12.4860     0.0206     0.1385    95.2657     2.4494
   82.5000    12.4866     0.0130     0.1397    97.9552     2.4419
   83.0000    12.4872     0.0038     0.1470    99.2418     2.4259
   83.5000    12.4878    -0.0023     0.1525    99.2075     2.4205
   84.0000    12.4584    -0.0026     0.1500    96.2925     2.4261
   84.5000    12.4591     0.0037     0.1440    91.3478     2.4353
   85.0000    12.4597     0.0082     0.1397    87.8955     2.4445
   85.5000    12.4603     0.0112     0.1361    85.8164     2.4517
   86.0000    12.4521     0.0142     0.1336    85.4669     2.4558
   86.5000    12.4316     0.0172     0.1319    87.0239     2.4573
   87.0000    12.4227     0.0217     0.1302    89.1910     2.4776
   87.5000    12.3930     0.0308     0.1180    90.1119     2.4920
   88.0000    12.3634     0.0474     0.1093    90.4657     2.4984
   88.5000    12.3039     0.0626     0.1076    89.7821     2.4948
   89.0000    12.2332     0.0702     0.1114    87.9940     2.4765
   89.5000    12.1733     0.0731     0.1249    86.7955     2.4580
   90.0000    12.0955     0.0792     0.1363    87.5522     2.4442
   90.5000    12.0185     0.0837     0.1468    88.3164     2.4222
   91.0000    12.0064     0.0544     0.1582    88.3343     2.4039
   91.5000    11.9899     0.0365     0.1673    88.0089     2.4139
   92.0000    12.0474     0.0364     0.1573    85.6800     2.4245
   92.5000    12.1682     0.0364     0.1493    86.3358     2.4290
   93.0000    12.2890     0.0339     0.1479    88.0925     2.4229
   93.5000    12.4098     0.0012     0.1539    89.7224     2.4168
   94.0000    12.5154    -0.0017     0.1492    90.8895     2.4274
   94.5000    12.6215     0.0115     0.1459    92.0269     2.4319
   95.0000    12.7264     0.0233     0.1441    92.7313     2.4350
   95.5000    12.8006     0.0321     0.1429    92.7418     2.4364
   96.0000    12.8478     0.0364     0.1423    92.3045     2.4410
   96.5000    12.8444     0.0409     0.1419    91.6657     2.4409
   97.0000    12.6973     0.0436     0.1445    90.9821     2.4242
   97.5000    12.3852     0.0420     0.1546    91.8507     2.4166
   98.0000    12.1171     0.0305     0.1538    96.2006     2.4211
   98.5000    11.9685     0.0263     0.1494    98.4571     2.4256
   99.0000    11.8795     0.0267     0.1474   100.2659     2.4286
   99.5000    11.8503     0.0282     0.1468   101.1792     2.4271
  100.0000    11.8574     0.0258     0.1495   101.0351     2.4240
  100.5000    11.8809     0.0220     0.1511    99.2179     2.4285
