~VERSION INFORMATION
 VERS.                2.0:   CWLS LOG ASCII STANDARD - VERSION 2.0
 WRAP.                 NO:   ONE LINE PER DEPTH STEP
~WELL INFORMATION
#MNEM.UNIT      DATA TYPE    INFORMATION
#----------   ------------   ------------------------------
 STRT.F           40.0000:   START DEPTH
 STOP.F          462.0000:   STOP DEPTH
 STEP.F            0.5000:   STEP LENGTH
 NULL.          -999.2500:   NO VALUE
 COMP.    FENIX & SCISSON:   COMPANY
 WELL.        NPR #68-S-3:   WELL
 FLD .             TEAPOT:   FIELD
 LOC .       S3 T38N R78W:   LOCATION
 CNTY.            NATRONA:   COUNTY
 STAT.            WYOMING:   STATE
 CTRY. UNITED STATES OF AMERICA:   COUNTRY
 SRVC.      Dresser Atlas:   SERVICE COMPANY
 DATE.        28-MAR-1977:   LOGDATE
 API .       490251031900:   API NUMBER
~CURVE INFORMATION
#MNEM.UNIT       API CODE    CURVE DESCRIPTION
#----------   ------------   ------------------------------
 DEPT.F                  :   
 SPR .MV     07 010 01 00:   SPONTANEOUS POTENTIAL
 ILD .OHMM   07 120 46 00:   INDUCTION LOG DEEP
 ILM .OHMM   07 120 44 00:   INDUCTION LOG MEDIUM
 SFL .OHMM   07 220 01 00:   SHALLOW FOCUSED LOG RESISTIVITY
 CALD.IN     45 280 60 00:   CALIPER FROM DENSITY LOG
 GRD .GAPI   45 310 01 00:   GAMMA RAY FROM DENSITY LOG
 CORR.G/C3   45 356 01 00:   DENSITY CORRECTION
 RHOB.G/C3   45 350 01 00:   BULK DENSITY
 DPHI.DEC    45 890 12 00:   DENSITY POROSITY SANDSTONE
~PARAMETER INFORMATION
#MNEM.UNIT          VALUE    DESCRIPTION
#----------   ------------   ------------------------------
 PD  .                 GL:   PERMANENT DATUM
 EPD .F              5162:   ELEVATION PERMANENT DATUM
 LMF .                 KB:   LOG MEASURED FROM
 DAPD.F                 5:   FEET ABOVE PERMANENT DATUM
 DMF .                 KB:   DRILLING MEASURED FROM
 EKB .F              5167:   KELLING BUSHING
 EGL .F              5162:   GROUND LEVEL
 DATE.        28-MAR-1977:   RUN DATE
 RUN .                  1:   RUN NUMBER
 DD  .F               452:   DEPTH DRILLER
 DL  .F               464:   DEPTH LOGGER
 BLI .F               462:   BOTTOM LOG INTERVAL
 TLI .F                40:   TOP LOG INTERVAL
 CS  .IN               10:   CASING SIZE
 CBD .F                40:   CASING BOTTOM DRILLER
 CBL .F                40:   CASING BOTTOM LOGGER
 BS  .IN            7.875:   BIT SIZE
 BSD .F               452:   BIT SIZE AT DEPTH
 DFT .           CHEM GEL:   DRILLING FLUID TYPE
 DFD .                8.9:   DRILLING FLUID DENSITY
 DFV .                 34:   DRILLING FLUID VISCOSITY
 DFPH.                8.0:   DRILLING FLUID PH
 DFL .                8.2:   DRILLING FLUID LOSS
 MSS .         CIRCULATED:   MUD SAMPLE SOURCE
 RMS .OHMM           .223:   RESISTIVITY MUD SAMPLE
 MST .F                51:   MUD SAMPLE TEMPERATURE
 RMF .OHMM           .161:   RESISTIVITY MUD FILTRATE SAMPLE
 MFST.F                51:   MUD FILTRATE SAMPLE TEMPERATURE
 RMC .OHMM           .285:   RESISTIVITY MUD CAKE
 MCST.F                51:   MUD CAKE SAMPLE TEMPERATURE
 MFSS.               MEAS:   MUD FILTRATE SAMPLE SOURCE
 MCSS.               MEAS:   MUD CAKE SAMPLE SOURCE
 RMB .OHMM           .186:   RESISTIVITY MUD AT BHT
 BHT .F                61:   BOTTOM HOLE TEMPERATURE
 TCS .HRS            0500:   TIME CURCULATED STOPPED
 MRT .F                61:   MAXIMUM RECORDED TEMPERATURE
 LUN .               6145:   LOGGING UNIT NUMBER
 LUL .              GLTTE:   LOGGING UNIT LOCATION
 ENGI.              GOULD:   RECORDING ENGINEER
 WITN.               LYON:   WITNESSED BY
 CLNT.            A2DTECH:   CLIENT CODE
 ORIG.           5" PRINT:   ORIGIN OF DATA
 UWI .       490251031900:   UNIQUE WELL ID
 DICO. A2D Technologies, Inc.:   DIGITIZING COMPANY
~OTHER INFORMATION
~A   DEPT      SPR        ILD        ILM        SFL       CALD        GRD       CORR       RHOB       DPHI   
# ...
  259.0000   -17.2629    10.5508    11.4583    11.9300     7.9492    65.7809     0.0576     2.5531     0.0635
  259.5000   -16.8003    10.9313    12.2007    14.2816     7.9467    58.0550     0.0623     2.5524     0.0647
  260.0000   -16.0400    11.7309    14.3117    18.3199     7.9443    55.5451     0.0669     2.5495     0.0686
  260.5000   -15.7262    12.7616    15.1340    23.9922     7.9418    56.0159     0.0702     2.5323     0.0854
  261.0000   -15.2636    13.9794    15.6750    23.5022     7.9393    57.3809     0.0732     2.4881     0.0980
  261.5000   -14.9498    15.3134    16.4614    22.8605     7.8800    57.7027     0.0734     2.4489     0.1176
  262.0000   -14.4872    16.4717    18.0398    23.4361     7.7771    57.5774     0.0673     2.4059     0.1305
  262.5000   -14.3222    17.0586    20.0468    25.2675     7.7037    58.3502     0.0596     2.3852     0.1617
  263.0000   -14.0084    17.4236    21.4816    25.5682     7.7060    60.7584     0.0543     2.3891     0.1587
  263.5000   -13.8435    17.5518    21.7539    29.1630     7.7675    64.2098     0.0590     2.4167     0.1400
  264.0000   -13.8273    17.6809    20.5973    29.7800     7.8440    64.8237     0.0561     2.4125     0.1442
  264.5000   -13.8110    17.6882    20.0436    28.5804     7.8608    60.5315     0.0563     2.4091     0.1478
  265.0000   -13.7946    17.6955    20.6198    25.7736     7.8326    59.9590     0.0594     2.4069     0.1490
  265.5000   -13.7783    17.4594    21.8045    27.0582     7.8045    60.2808     0.0566     2.3988     0.1511
  266.0000   -13.7381    17.4666    21.6661    28.0170     7.7913    61.0497     0.0507     2.3756     0.1562
  266.5000   -13.2959    17.4738    21.0837    29.4134     7.7931    61.3714     0.0448     2.3576     0.1734
  267.0000   -13.1309    17.6024    21.6898    33.7815     7.8099    60.6500     0.0390     2.3479     0.1816
  267.5000   -13.1147    17.9790    23.5793    36.2081     7.8276    59.4815     0.0346     2.3465     0.1838
  268.0000   -13.0985    18.4912    25.6333    49.1105     7.8433    57.2697     0.0378     2.3631     0.1622
  268.5000   -13.0824    19.0180    28.8465    75.8544     7.8301    56.3933     0.0409     2.3985     0.1356
  269.0000   -13.2150    19.5598    33.1429   102.5982     7.8319    57.3171     0.0456     2.4242     0.1272
  269.5000   -13.3517    20.1171    36.0300   100.3457     7.8038    60.1724     0.0518     2.4543     0.1199
  270.0000   -13.1826    20.8339    35.0663    62.6201     7.7906    63.7729     0.0579     2.4769     0.1067
  270.5000   -13.0176    21.4274    27.3539    36.7713     7.7928    62.6043     0.0626     2.4815     0.1046
  271.0000   -13.0015    21.8859    20.8997    38.6067     7.7792    60.2376     0.0687     2.4546     0.1151
  271.5000   -12.9853    22.3542    19.5140    44.3400     7.7964    60.1123     0.0704     2.3953     0.1439
  272.0000   -12.9691    22.5187    19.7966    50.5742     7.7982    58.0555     0.0525     2.3443     0.1583
  272.5000   -13.1058    22.6844    21.5211    50.9388     7.7999    55.6947     0.0451     2.3211     0.1986
  273.0000   -13.2351    22.5341    21.8337    52.3770     7.8017    55.5634     0.0437     2.3107     0.2043
  273.5000   -13.9622    21.9310    21.3962    50.9631     7.8035    56.6363     0.0484     2.3220     0.1983
  274.0000   -14.7044    21.3410    24.6951    57.7322     7.8053    57.5542     0.0531     2.3462     0.1838
  274.5000   -12.2930    20.7670    26.7249    63.6131     7.8070    57.1308     0.0517     2.3538     0.1787
  275.0000   -11.0863    20.6089    25.9804    61.0465     7.8088    55.9622     0.0488     2.3494     0.1835
  275.5000   -10.6166    21.0759    25.3139    58.5835     7.7952    55.3890     0.0490     2.3434     0.1870
  276.0000   -10.4583    21.3784    25.3313    55.8327     7.7526    58.0961     0.0492     2.3375     0.1906
  276.5000   -10.2932    21.6852    26.2367    52.8447     7.7390    61.5475     0.0493     2.3316     0.1948
  277.0000   -10.2768    21.3938    27.5530    54.3404     7.7561    63.6577     0.0495     2.3339     0.1900
  277.5000   -10.2573    20.9650    28.3412    55.8785     7.7729    62.9362     0.0481     2.3446     0.1837
  278.0000   -10.2411    20.5427    34.4144    52.8880     7.8195    62.2148     0.0483     2.3476     0.1848
  278.5000   -10.2250    20.4073    36.8984    45.4422     7.8362    61.1953     0.0454     2.3416     0.1896
  279.0000   -10.3616    20.8461    25.2395    43.2848     7.8380    60.1728     0.0441     2.3319     0.1938
  279.5000   -10.3414    21.2922    22.1412    41.2017     7.8248    62.3250     0.0487     2.3306     0.1905
  280.0000   -10.3252    21.5978    23.9073    37.8974     7.8266    65.0323     0.0549     2.3442     0.1748
  280.5000   -10.4619    21.9078    26.1703    34.9439     7.8134    66.9941     0.0565     2.3657     0.1658
  281.0000   -10.5905    21.9168    25.2948    32.8887     7.8002    67.1260     0.0552     2.3847     0.1594
  281.5000   -10.8719    21.1802    21.7371    32.2206     7.8021    68.7835     0.0523     2.3874     0.1597
  282.0000   -10.8557    19.7722    19.6063    33.3646     7.8192    73.1386     0.0495     2.3860     0.1609
  282.5000   -10.9924    17.7072    18.3064    33.8381     7.8210    72.1191     0.0481     2.3830     0.1630
  283.0000   -11.4186    16.9941    17.9404    32.0272     7.7928    72.4409     0.0438     2.3771     0.1657
  283.5000   -11.5512    16.6518    17.4605    28.8819     7.7792    73.6568     0.0409     2.3697     0.1705
  284.0000   -11.8327    16.4294    17.1114    26.5911     7.7515    73.5315     0.0380     2.3653     0.1721
  284.5000   -11.9658    16.3228    16.7693    25.1680     7.7230    76.2378     0.0398     2.3872     0.1545
  285.0000   -11.9491    15.8838    16.4303    24.3200     7.7401    81.9247     0.0459     2.4143     0.1424
  285.5000   -11.9330    15.4567    15.9944    23.8259     7.7868    83.2897     0.0460     2.4256     0.1355
  286.0000   -12.0656    15.2505    15.7706    23.3451     7.8184    84.4997     0.0432     2.4265     0.1361
  286.5000   -12.1982    14.7370    15.5751    23.1891     7.8048    82.5919     0.0401     2.4228     0.1391
  287.0000   -12.3308    14.5321    15.4763    23.1970     7.8070    80.3802     0.0407     2.4214     0.1396
  287.5000   -12.4635    14.2485    15.2742    22.8849     7.8088    76.8271     0.0451     2.4230     0.1381
  288.0000   -12.4432    14.2545    15.2825    22.5768     7.7956    77.2979     0.0468     2.4246     0.1368
  288.5000   -12.4271    14.2604    15.3970    22.1199     7.7974    80.8984     0.0454     2.4254     0.1359
  289.0000   -12.5637    14.5668    15.6199    21.5228     7.7992    80.7730     0.0396     2.4225     0.1383
  289.5000   -12.5435    14.6740    15.8461    21.2332     7.8010    81.0948     0.0307     2.4136     0.1443
  290.0000   -12.3785    14.6801    16.0756    21.3963     7.8028    80.2243     0.0248     2.4047     0.1521
  290.5000   -12.3623    14.6861    16.0844    21.9918     7.8045    79.4858     0.0220     2.3987     0.1539
  291.0000   -12.3462    14.6921    16.0932    22.3287     7.8063    79.6756     0.0221     2.3943     0.1554
  291.5000   -12.3300    14.6982    16.2137    22.6218     7.8081    79.4013     0.0238     2.3929     0.1569
  292.0000   -12.4667    14.7042    16.4485    22.6280     7.7949    78.3696     0.0345     2.3990     0.1542
  292.5000   -12.5993    14.7103    16.8025    22.4783     7.7967    82.2803     0.0421     2.4059     0.1484
  293.0000   -12.8807    14.6134    17.2831    22.1759     7.8135    82.4530     0.0438     2.4067     0.1502
  293.5000   -13.4557    14.4199    17.7776    22.0277     7.8152    81.4248     0.0469     2.4038     0.1511
  294.0000   -13.4396    14.3249    18.4130    22.4967     7.8020    79.6296     0.0531     2.4046     0.1418
  294.5000   -12.9769    14.2320    18.9398    22.6589     7.8042    78.3402     0.0653     2.4175     0.1354
  295.0000   -12.6632    14.2393    19.6168    22.6651     7.8060    81.7435     0.0760     2.4312     0.1276
