~VERSION INFORMATION
 VERS.                2.0:   CWLS LOG ASCII STANDARD - VERSION 2.0
 WRAP.                 NO:   ONE LINE PER DEPTH STEP
~WELL INFORMATION
#MNEM.UNIT      DATA TYPE    INFORMATION
#----------   ------------   ------------------------------
 STRT.F           34.0000:   START DEPTH
 STOP.F          638.0000:   STOP DEPTH
 STEP.F            0.5000:   STEP LENGTH
 NULL.          -999.2500:   NO VALUE
 COMP. FENIX & SCISSON INC:   COMPANY
 WELL. S N.P.R. #3 #33-34:   WELL
 FLD .             TEAPOT:   FIELD
 LOC .      S34 T39N R78W:   LOCATION
 CNTY.            NATRONA:   COUNTY
 STAT.            WYOMING:   STATE
 CTRY. UNITED STATES OF AMERICA:   COUNTRY
 SRVC.       Schlumberger:   SERVICE COMPANY
 DATE.        18-MAR-1977:   LOGDATE
 API .       490251030400:   API NUMBER
~CURVE INFORMATION
#MNEM.UNIT       API CODE    CURVE DESCRIPTION
#----------   ------------   ------------------------------
 DEPT.F                  :   
 LL8 .OHMM   07 220 08 00:   LATEROLOG-8 RES.
 ILD .OHMM   07 120 46 00:   INDUCTION LOG DEEP
 ILM .OHMM   07 120 44 00:   INDUCTION LOG MEDIUM
 SPR .MV     07 010 01 00:   SPONTANEOUS POTENTIAL
 GRD .GAPI   45 310 01 00:   GAMMA RAY FROM DENSITY LOG
 CALD.IN     45 280 60 00:   CALIPER FROM DENSITY LOG
 RHOB.G/C3   45 350 01 00:   BULK DENSITY
 CORR.G/C3   45 356 01 00:   DENSITY CORRECTION
 DPHI.DEC    45 890 12 00:   DENSITY POROSITY SANDSTONE
~PARAMETER INFORMATION
#MNEM.UNIT          VALUE    DESCRIPTION
#----------   ------------   ------------------------------
 PD  .                 GL:   PERMANENT DATUM
 EPD .F              5081:   ELEVATION PERMANENT DATUM
 LMF .                 KB:   LOG MEASURED FROM
 DAPD.F                 5:   FEET ABOVE PERMANENT DATUM
 DMF .                 KB:   DRILLING MEASURED FROM
 EKB .F              5086:   KELLING BUSHING
 EGL .F              5081:   GROUND LEVEL
 DATE.            3-18-77:   RUN DATE
 RUN .                  1:   RUN NUMBER
 DD  .F               631:   DEPTH DRILLER
 DL  .F               637:   DEPTH LOGGER
 BLI .F               631:   BOTTOM LOG INTERVAL
 TLI .F                45:   TOP LOG INTERVAL
 CS  .IN            8.625:   CASING SIZE
 CBD .F                40:   CASING BOTTOM DRILLER
 CBL .F                45:   CASING BOTTOM LOGGER
 BS  .IN            7.875:   BIT SIZE
 BSD .F               631:   BIT SIZE AT DEPTH
 DFT .            KCL MUD:   DRILLING FLUID TYPE
 DFD .                8.7:   DRILLING FLUID DENSITY
 DFV .                 31:   DRILLING FLUID VISCOSITY
 DFPH.                  8:   DRILLING FLUID PH
 DFL .                8.2:   DRILLING FLUID LOSS
 MSS .                PIT:   MUD SAMPLE SOURCE
 RMS .OHMM            .27:   RESISTIVITY MUD SAMPLE
 MST .F                60:   MUD SAMPLE TEMPERATURE
 RMF .OHMM            .25:   RESISTIVITY MUD FILTRATE SAMPLE
 MFST.F                60:   MUD FILTRATE SAMPLE TEMPERATURE
 MFSS.                  M:   MUD FILTRATE SAMPLE SOURCE
 TCS .HRS            0400:   TIME CURCULATED STOPPED
 TLAB.HRS            0530:   TIME LOGGER AT BOTTOM
 LUN .               7711:   LOGGING UNIT NUMBER
 LUL .               CSPR:   LOGGING UNIT LOCATION
 ENGI.             SAYLER:   RECORDING ENGINEER
 WITN.         STUEBINGER:   WITNESSED BY
 CLNT.            A2DTECH:   CLIENT CODE
 ORIG.        2" 5" PRINT:   ORIGIN OF DATA
 UWI .       490251030400:   UNIQUE WELL ID
 DICO. A2D Technologies, Inc.:   DIGITIZING COMPANY
~OTHER INFORMATION
~A   DEPT      LL8        ILD        ILM        SPR         GRD      CALD       RHOB       CORR       DPHI   
# ...
  472.0000    22.6679    28.6844    23.5637   -25.2913    71.4356     8.8475     2.3365     0.0096     0.1876
  472.5000    22.3244    28.6851    23.2293   -25.2720    70.4284     8.8501     2.3277     0.0111     0.1962
  473.0000    22.1803    29.2947    23.5814   -25.2528    69.5140     8.8529     2.3358     0.0127     0.1950
  473.5000    22.6989    29.8165    24.0469   -25.2337    69.2217     8.8609     2.3495     0.0140     0.1847
  474.0000    23.2241    30.3482    24.5175   -25.2146    68.9199     8.8693     2.3599     0.0143     0.1762
  474.5000    23.6648    31.1727    24.9983   -25.1954    68.0425     8.8777     2.3513     0.0115     0.1818
  475.0000    22.7848    31.1657    24.7115   -25.1762    66.8346     8.8860     2.3396     0.0087     0.1899
  475.5000    20.6118    30.6912    24.2495   -25.1576    66.7079     8.8945     2.3277     0.0058     0.1981
  476.0000    20.9146    30.2239    23.7980   -25.1384    66.6355     8.9037     2.3159     0.0046     0.2062
  476.5000    21.6848    30.0411    23.4322   -25.2377    66.1220     8.9127     2.3040     0.0119     0.2144
  477.0000    22.8034    30.6994    23.2327   -25.4456    65.3846     8.9220     2.2968     0.0184     0.2170
  477.5000    22.5660    31.1677    25.9177   -25.6537    64.9556     8.9309     2.3084     0.0212     0.2093
  478.0000    21.7801    30.6459    28.4299   -25.8625    65.4217     8.9476     2.3264     0.0263     0.1954
  478.5000    21.8725    29.8097    27.6949   -26.0712    66.3264     8.9693     2.3447     0.0429     0.1859
  479.0000    22.0971    28.9976    26.5361   -26.2798    67.2139     9.0029     2.3492     0.0404     0.1846
  479.5000    22.3243    27.9685    25.4257   -26.4884    68.1040     9.0769     2.3371     0.0215     0.1894
  480.0000    22.5953    28.2066    24.9835   -26.6970    67.8413     8.7950     2.3361     0.0117     0.1916
  480.5000    22.4462    28.6891    24.6868   -26.9056    67.4051     8.7604     2.3403     0.0199     0.1886
  481.0000    22.0962    29.1798    24.3932   -27.1142    65.8281     8.7306     2.3373     0.0172     0.1909
  481.5000    21.7516    29.7664    24.1037   -27.3228    64.1021     8.7010     2.3341     0.0116     0.1933
  482.0000    21.4124    29.3199    23.8174   -27.5315    64.3126     8.6713     2.3322     0.0105     0.1940
  482.5000    21.0784    28.6214    23.5344   -27.7401    64.6550     8.6407     2.3372     0.0156     0.1934
  483.0000    20.7497    27.9396    23.2549   -27.9487    65.0133     8.6314     2.3459     0.0206     0.1860
  483.5000    20.4261    27.2740    22.9786   -28.1573    65.9534     8.6276     2.3534     0.0235     0.1790
  484.0000    20.1076    26.6242    22.7056   -28.3659    68.1430     8.6240     2.3569     0.0228     0.1807
  484.5000    19.8680    25.9899    22.4359   -28.5746    70.6370     8.6202     2.3605     0.0194     0.1795
  485.0000    19.7819    25.3708    22.1694   -28.7833    72.5836     8.6165     2.3641     0.0157     0.1729
  485.5000    19.6993    24.7663    21.9060   -28.9915    72.7962     8.6128     2.3607     0.0120     0.1730
  486.0000    19.5452    24.2393    21.6458   -29.1996    72.5458     8.6091     2.3566     0.0119     0.1804
  486.5000    19.3275    23.9161    21.3887   -29.3166    73.5946     8.6054     2.3558     0.0185     0.1822
  487.0000    19.1123    23.5971    21.1346   -29.3426    74.8444     8.6017     2.3658     0.0244     0.1737
  487.5000    18.8995    23.2824    20.8835   -29.3685    75.6073     8.5979     2.3748     0.0230     0.1662
  488.0000    18.6891    22.9719    20.6354   -29.3939    75.7304     8.5942     2.3812     0.0199     0.1629
  488.5000    18.4810    22.7569    20.3902   -29.4192    75.8531     8.5905     2.3857     0.0168     0.1602
  489.0000    18.2752    22.6502    20.1481   -29.4447    75.7338     8.5868     2.3790     0.0137     0.1694
  489.5000    18.1239    22.5441    19.9087   -29.4701    74.7823     8.5831     2.3699     0.0166     0.1711
  490.0000    18.3881    22.4391    19.6863   -29.4927    73.4253     8.5793     2.3662     0.0188     0.1731
  490.5000    18.6009    22.3346    19.6282   -29.6615    71.7405     8.5756     2.3628     0.0127     0.1766
  491.0000    18.3552    22.2305    19.5735   -29.8857    71.9872     8.5719     2.3592     0.0134     0.1782
  491.5000    18.0410    22.1269    19.5190   -30.1110    72.0261     8.5682     2.3610     0.0156     0.1764
  492.0000    17.7323    22.0238    19.4646   -30.3364    70.8756     8.5645     2.3644     0.0175     0.1740
  492.5000    17.6312    21.9212    19.4104   -30.5616    69.7364     8.5608     2.3678     0.0148     0.1715
  493.0000    17.9429    21.8191    19.3279   -30.7868    69.0403     8.5570     2.3712     0.0119     0.1691
  493.5000    18.3079    21.7174    19.3784   -31.0119    69.2454     8.5510     2.3713     0.0090     0.1700
  494.0000    18.8024    21.6163    19.4858   -31.2371    69.4296     8.5410     2.3624     0.0085     0.1752
  494.5000    18.5904    21.5156    19.5937   -31.4622    69.4543     8.5387     2.3532     0.0098     0.1804
  495.0000    18.2742    21.4153    19.7018   -31.6874    68.6676     8.5628     2.3439     0.0110     0.1856
  495.5000    17.9640    21.1873    19.8669   -31.9126    67.8863     8.5865     2.3377     0.0123     0.1905
  496.0000    17.6598    20.9023    19.7412   -32.1379    67.6045     8.6105     2.3405     0.0136     0.1901
  496.5000    17.3615    20.6213    19.4843   -32.3627    67.9405     8.6146     2.3506     0.0145     0.1843
  497.0000    17.1116    20.3439    19.2297   -32.5870    68.7709     8.6060     2.3605     0.0168     0.1786
  497.5000    16.9722    20.0703    18.9784   -32.8162    69.5945     8.5962     2.3703     0.0203     0.1729
  498.0000    16.8339    19.8003    18.7305   -32.8980    70.4201     8.5834     2.3783     0.0204     0.1672
  498.5000    16.6968    19.5342    18.4857   -33.3392    71.2447     8.5705     2.3804     0.0182     0.1639
  499.0000    16.5608    19.5063    18.2442   -33.7634    72.0497     8.5575     2.3794     0.0176     0.1642
  499.5000    16.4259    19.5063    18.1239   -34.1839    72.8317     8.5446     2.3785     0.0194     0.1644
  500.0000    16.2911    19.8677    18.7017   -34.6042    73.5863     8.5316     2.3830     0.0212     0.1638
  500.5000    16.1595    20.2363    19.1595   -35.0245    74.3778     8.5187     2.3887     0.0229     0.1591
  501.0000    16.0278    20.6117    19.6286   -35.4448    74.2501     8.5058     2.3981     0.0246     0.1525
  501.5000    15.9363    21.1392    20.1091   -35.8652    73.8297     8.4928     2.4078     0.0257     0.1453
  502.0000    17.9995    21.8300    20.6014   -36.2855    72.9293     8.4799     2.4174     0.0192     0.1376
  502.5000    20.1901    22.5435    21.1058   -36.7058    71.0785     8.4669     2.4292     0.0128     0.1300
  503.0000    22.6473    23.2802    21.6225   -37.1262    69.2428     8.4540     2.4528     0.0105     0.1223
  503.5000    25.6970    23.6575    21.9810   -37.5464    67.4045     8.4410     2.4765     0.0080     0.1146
  504.0000    25.6970    23.0849    20.9459   -37.9672    65.5618     8.4280     2.4987     0.0055     0.1004
  504.5000    22.3811    22.2909    19.8536   -38.3921    63.6931     8.4163     2.5135     0.0036     0.0817
  505.0000    19.3999    21.5242    18.8172   -38.8259    64.6933     8.4285     2.5227     0.0081     0.0758
  505.5000    16.8116    20.7838    17.8363   -38.8422    67.8290     8.4415     2.5222     0.0143     0.0784
  506.0000    15.3613    20.0689    16.9041   -38.7118    70.9271     8.4544     2.5133     0.0279     0.0822
  506.5000    15.2208    19.3783    15.9363   -38.2418    73.7636     8.4673     2.4833     0.0292     0.0989
  507.0000    15.2208    18.7110    15.8564   -37.7890    73.2311     8.4802     2.4539     0.0221     0.1151
  507.5000    15.2208    18.0660    15.7681   -37.3330    71.7012     8.4930     2.4306     0.0156     0.1311
  508.0000    15.1652    17.6312    15.6802   -36.8709    71.3365     8.5059     2.4210     0.0164     0.1415
