~VERSION INFORMATION
 VERS.                2.0:   CWLS LOG ASCII STANDARD - VERSION 2.0
 WRAP.                 NO:   ONE LINE PER DEPTH STEP
~WELL INFORMATION
#MNEM.UNIT      DATA TYPE    INFORMATION
#----------   ------------   ------------------------------
 STRT.F          714.0000:   START DEPTH
 STOP.F         1640.0000:   STOP DEPTH
 STEP.F            0.5000:   STEP LENGTH
 NULL.          -999.2500:   NO VALUE
 COMP. BROWN JOHN E&C INC:   COMPANY
 WELL. NPR 3 STX-15 #83-15:   WELL
 FLD .             TEAPOT:   FIELD
 LOC .      S15 T38N R78W:   LOCATION
 CNTY.            NATRONA:   COUNTY
 STAT.            WYOMING:   STATE
 CTRY. UNITED STATES OF AMERICA:   COUNTRY
 SRVC.            Unknown:   SERVICE COMPANY
 DATE.        30-AUG-1991:   LOGDATE
 API .       490251111300:   API NUMBER
~CURVE INFORMATION
#MNEM.UNIT       API CODE    CURVE DESCRIPTION
#----------   ------------   ------------------------------
 DEPT.F                  :   
 TGAS.UNITS  91 830 01 00:   TOTAL GAS FROM HOTWIRE
 C1  .VF     91 831 01 00:   METHANE
 C2  .VF     91 832 01 00:   ETHANE
 C3  .VF     91 833 01 00:   PROPANE
 C4  .VF     91 834 01 00:   BUTANE
 ROP .MIN/FT 91 810 01 00:   RAT OF DRILLING PENETRATION
~PARAMETER INFORMATION
#MNEM.UNIT          VALUE    DESCRIPTION
#----------   ------------   ------------------------------
 EKB .F              5265:   KELLING BUSHING
 EGL .F              5255:   GROUND LEVEL
 DATE.            5-30-91:   RUN DATE
 DD  .F              1626:   DEPTH DRILLER
 TCS .HRS            1200:   TIME CURCULATED STOPPED
 TLAB.HRS            1815:   TIME LOGGER AT BOTTOM
 ENGI.               HUSK:   RECORDING ENGINEER
 WITN.              TOWER:   WITNESSED BY
 CLNT.            A2DTECH:   CLIENT CODE
 ORIG.           5" PRINT:   ORIGIN OF DATA
 UWI .       490251111300:   UNIQUE WELL ID
 DICO. A2D Technologies, Inc.:   DIGITIZING COMPANY
~OTHER INFORMATION
~A   DEPT     TGAS         C1         C2         C3         C4          ROP 
# ...
 1338.0000  -999.2500  -999.2500  -999.2500     0.3582  -999.2500  -999.2500
 1338.5000  -999.2500  -999.2500  -999.2500     0.3735  -999.2500  -999.2500
 1339.0000  -999.2500  -999.2500  -999.2500     0.3845  -999.2500  -999.2500
 1339.5000  -999.2500  -999.2500  -999.2500     0.3955  -999.2500  -999.2500
 1340.0000  -999.2500  -999.2500  -999.2500     0.4065  -999.2500  -999.2500
 1340.5000  -999.2500  -999.2500  -999.2500     0.4175  -999.2500  -999.2500
 1341.0000  -999.2500  -999.2500  -999.2500     0.4174  -999.2500  -999.2500
 1341.5000  -999.2500  -999.2500  -999.2500     0.4284  -999.2500  -999.2500
 1342.0000  -999.2500  -999.2500  -999.2500     0.4394  -999.2500  -999.2500
 1342.5000  -999.2500  -999.2500  -999.2500     0.4504  -999.2500  -999.2500
 1343.0000  -999.2500  -999.2500  -999.2500     0.4614  -999.2500  -999.2500
 1343.5000  -999.2500  -999.2500  -999.2500     0.4723  -999.2500  -999.2500
 1344.0000  -999.2500  -999.2500  -999.2500     0.4833  -999.2500  -999.2500
 1344.5000  -999.2500  -999.2500  -999.2500     0.4943  -999.2500  -999.2500
 1345.0000  -999.2500  -999.2500  -999.2500     0.5053  -999.2500  -999.2500
 1345.5000  -999.2500  -999.2500  -999.2500     0.5163  -999.2500  -999.2500
 1346.0000    99.0843    14.8877  -999.2500     0.5274  -999.2500  -999.2500
 1346.5000    98.9316    14.8268     4.5234     0.5383  -999.2500  -999.2500
 1347.0000    98.7790    14.7659     4.4805     0.5494  -999.2500  -999.2500
 1347.5000    98.6264    14.7050     4.4377     0.5602  -999.2500  -999.2500
 1348.0000    98.4737    14.6441     4.3948     0.5715  -999.2500  -999.2500
 1348.5000    98.3211    14.5832     4.3520     0.5821  -999.2500  -999.2500
 1349.0000    97.7381    14.5223     4.3091     0.5934  -999.2500  -999.2500
 1349.5000    96.1508    14.4614     4.2662     0.6040  -999.2500  -999.2500
 1350.0000    94.5635    14.4005     4.2234     0.5545  -999.2500  -999.2500
 1350.5000    93.7500    14.3397     4.1805     0.4432  -999.2500  -999.2500
 1351.0000    94.7421    14.2734     4.0780     0.3330  -999.2500  -999.2500
 1351.5000    95.8333    14.1988     3.9471     0.2215  -999.2500  -999.2500
 1352.0000    95.1122    14.1241     3.8161     0.1225  -999.2500  -999.2500
 1352.5000    95.0720    14.1181     3.6852     0.2305  -999.2500  -999.2500
 1353.0000    94.3094    14.0494     3.6834     0.3301  -999.2500  -999.2500
 1353.5000    93.5094    13.9747     3.5544     0.4282  -999.2500  -999.2500
 1354.0000    92.7069    13.9000     3.4235     0.5279  -999.2500  -999.2500
 1354.5000    91.9070    13.8253     3.2926     0.6259  -999.2500  -999.2500
 1355.0000    91.1043    13.7507     3.2146     0.7256  -999.2500  -999.2500
 1355.5000    90.3045    13.6759     3.2145     0.8236  -999.2500  -999.2500
 1356.0000    89.5018    13.6013     3.2145     0.7829  -999.2500  -999.2500
 1356.5000    88.7020    13.5265     3.2144     0.6805  -999.2500  -999.2500
 1357.0000    87.8994    13.4520     3.2145     0.5798  -999.2500  -999.2500
 1357.5000    87.2646    13.3772     3.2144     0.4774  -999.2500  -999.2500
 1358.0000    86.7922    13.3027     3.2144     0.3663  -999.2500  -999.2500
 1358.5000    86.3226    13.2278     3.2143     0.4339  -999.2500  -999.2500
 1359.0000    85.8509    13.1534     3.2143     0.5101  -999.2500  -999.2500
 1359.5000    85.3820    13.0784     3.2143     0.5853  -999.2500  -999.2500
 1360.0000    84.9102    13.0040     3.2142     0.6615     0.0343  -999.2500
 1360.5000    84.4407    12.9291     3.2142     0.7369     0.0572  -999.2500
 1361.0000    83.9267    12.7442     3.2141     0.8129     0.0801  -999.2500
 1361.5000    82.7759    12.5114     3.2142     0.8885     0.1030     0.4381
 1362.0000    81.5096    12.2792     3.2141     0.9644     0.1259     0.4412
 1362.5000    80.2454    12.1360     3.2141     1.0401     0.1487     0.4443
 1363.0000    78.9792    12.0317     3.1871     1.0975     0.1717     0.4474
 1363.5000    77.7148    11.9270     3.0974     1.0850     0.1945     0.4505
 1364.0000    76.4489    11.8227     3.0075     1.0749     0.2174     0.4536
 1364.5000    75.1842    11.7180     2.9177     1.0649     0.2380     0.4548
 1365.0000    73.9185    11.6136     2.8279     1.0547     0.2380     0.4462
 1365.5000    72.6536    11.5090     2.7381     1.0447     0.2380     0.4383
 1366.0000    71.3883    11.4046     2.6483     1.0345     0.2381     0.4304
 1366.5000    70.4767    11.3000     2.5585     1.0246     0.2380     0.4225
 1367.0000    69.8403    11.1955     2.4687     1.0145     0.2381     0.4146
 1367.5000    69.2040    11.0909     2.3788     1.0045     0.2380     0.4067
 1368.0000    68.5676    10.9865     2.2890     0.9945     0.2381     0.4065
 1368.5000    67.9314    10.8819     2.2620     0.9845     0.2380     0.3988
 1369.0000    67.2949    10.7774     2.2620     0.9744     0.2381     0.3909
 1369.5000    66.6585    10.6728     2.2619     0.9644     0.2381     0.3831
 1370.0000    66.0218    10.5683     2.2620     0.9543     0.2381     0.3751
 1370.5000    65.3857    10.4637     2.2618     0.9443     0.2381     0.3676
 1371.0000    64.7488    10.3488     2.2619     0.9342     0.2381     0.3676
 1371.5000    64.1129    10.2412     2.2618     0.9242     0.2381     0.3685
 1372.0000    63.4757    10.1217     2.2619     0.9141     0.2381     0.3700
 1372.5000    62.8401    10.0021     2.2618     0.9042     0.2381     0.3716
 1373.0000    62.2026     9.8826     2.2620     0.8940     0.2381     0.3731
 1373.5000    61.5673     9.7630     2.2617     0.8840     0.2381     0.3747
 1374.0000    60.9296     9.6435     2.2619     0.8738     0.2381     0.3762
 1374.5000    60.2946     9.5240     2.2617     0.8638     0.2381     0.3778
 1375.0000    59.6568     9.4045     2.1627     0.8536     0.2381     0.3793
 1375.5000    58.9301     9.2850     2.0208     1.0731     0.2381     0.3849
 1376.0000    58.6129     9.1655     1.8793     1.3411     0.2381     0.3946
 1376.5000    58.2451     9.0459     1.7374     1.3053     0.2381     0.4043
 1377.0000    57.8748     8.9264     1.5960     1.2586     0.2381     0.4140
 1377.5000    57.5069     8.8069     1.4541     1.2125     0.2381     0.4237
 1378.0000    57.1367     8.6874     1.3126     1.1659     0.2381     0.4334
 1378.5000    56.7687     8.5679     1.1708     1.1197     0.2381     0.4431
 1379.0000    56.3988     8.4484     1.1075     1.1642     0.2381     0.4528
 1379.5000    56.0304     8.3289     1.2263     1.2919     0.2381     0.4625
 1380.0000    55.6608     8.2093     1.3455     1.4189     0.2381     0.4722
 1380.5000    55.2922     8.0898     1.4643     1.5470     0.2381     0.4819
 1381.0000    54.9228     7.9703     1.5390     1.4322     0.2381     0.4922
 1381.5000    54.5540     7.8508     1.5099     1.2153     0.2381     0.4890
 1382.0000    54.1848     7.7866     1.4809     0.9968     0.2381     0.4856
 1382.5000    53.8158     7.7778     1.4518     0.7801     0.2381     0.4823
 1383.0000    53.4467     7.7690     1.4227     0.5613     0.2381     0.4789
 1383.5000    53.0777     7.7601     1.3937     0.3667     0.2381     0.4755
 1384.0000    52.7087     7.7513     1.3646     0.5330     0.2381     0.4721
 1384.5000    52.3397     7.7425     1.3356     0.6868     0.2381     0.4688
 1385.0000    51.9707     7.7336     1.3065     0.8377     0.2381     0.4653
 1385.5000    51.6806     7.7248     1.2775     0.9916     0.2381     0.4620
 1386.0000    51.4695     7.7160     1.2484     0.9748     0.2381     0.4586
 1386.5000    51.2584     7.7071     1.2194     0.5701     0.2381     0.4549
 1387.0000    51.0473     7.6983     1.1903     0.1622     0.2381     0.4597
 1387.5000    50.8362     7.6895     1.1615     0.0000     0.2381     0.4652
 1388.0000    50.6251     7.6806     1.1323     0.0000     0.2381     0.4707
 1388.5000    50.4140     7.6718     1.1035     0.0843     0.2381     0.4763
 1389.0000    50.2029     7.6630     1.0713     0.1724     0.2381     0.4817
 1389.5000    49.9918     7.6542     0.9784     0.2625     0.2381     0.4873
