~VERSION INFORMATION
 VERS.                2.0:   CWLS LOG ASCII STANDARD - VERSION 2.0
 WRAP.                 NO:   ONE LINE PER DEPTH STEP
~WELL INFORMATION
#MNEM.UNIT      DATA TYPE    INFORMATION
#----------   ------------   ------------------------------
 STRT.F           30.0000:   START DEPTH
 STOP.F         1358.0000:   STOP DEPTH
 STEP.F            0.5000:   STEP LENGTH
 NULL.          -999.2500:   NO VALUE
 COMP. FENIX & SCISSON INC:   COMPANY
 WELL.      3 SX14 #85-14:   WELL
 FLD .             TEAPOT:   FIELD
 LOC .      S14 T38N R78W:   LOCATION
 CNTY.            NATRONA:   COUNTY
 STAT.            WYOMING:   STATE
 CTRY. UNITED STATES OF AMERICA:   COUNTRY
 SRVC.              Welex:   SERVICE COMPANY
 DATE.        10-FEB-1977:   LOGDATE
 API .       490251027500:   API NUMBER
~CURVE INFORMATION
#MNEM.UNIT       API CODE    CURVE DESCRIPTION
#----------   ------------   ------------------------------
 DEPT.F                  :   
 ILM .OHMM   07 120 44 00:   INDUCTION LOG MEDIUM
 ILD .OHMM   07 120 46 00:   INDUCTION LOG DEEP
 CALD.IN     45 280 60 00:   CALIPER
 GRD .GAPI   45 310 01 00:   GAMMA RAY FROM DENSITY LOG
 RHOB.G/C3   45 350 01 00:   BULK DENSITY
 DPHI.DEC    45 890 12 00:   DENSITY POROSITY SANDSTONE
 CORR.G/C3   45 356 01 00:   DENSITY CORRECTION
~PARAMETER INFORMATION
#MNEM.UNIT          VALUE    DESCRIPTION
#----------   ------------   ------------------------------
 PD  .                 GL:   PERMANENT DATUM
 EPD .F              5345:   ELEVATION PERMANENT DATUM
 LMF .                 GL:   LOG MEASURED FROM
 DMF .                 GL:   DRILLING MEASURED FROM
 EGL .F              5345:   GROUND LEVEL
 DATE.          2-10-1977:   RUN DATE
 RUN .                  1:   RUN NUMBER
 DD  .F              1362:   DEPTH DRILLER
 DL  .F              1361:   DEPTH LOGGER
 BLI .F              1359:   BOTTOM LOG INTERVAL
 TLI .F                43:   TOP LOG INTERVAL
 CS  .IN            8.625:   CASING SIZE
 CBD .F                43:   CASING BOTTOM DRILLER
 CBL .F                43:   CASING BOTTOM LOGGER
 BS  .IN            7.875:   BIT SIZE
 BSD .F              1362:   BIT SIZE AT DEPTH
 DFT .           AIR MIST:   DRILLING FLUID TYPE
 TCS .HRS               4:   TIME CURCULATED STOPPED
 MRT .F               104:   MAXIMUM RECORDED TEMPERATURE
 LUN .               8611:   LOGGING UNIT NUMBER
 LUL .           GILLETTE:   LOGGING UNIT LOCATION
 ENGI.               DOAK:   RECORDING ENGINEER
 WITN. PETTINGILL/STUEBINGER:   WITNESSED BY
 CLNT.            A2DTECH:   CLIENT CODE
 ORIG.       2", 5" PRINT:   ORIGIN OF DATA
 UWI .       490251027500:   UNIQUE WELL ID
 DICO. A2D Technologies, Inc.:   DIGITIZING COMPANY
~OTHER INFORMATION
~A   DEPT      ILM        ILD         CALD      GRD         RHOB     DPHI        CORR  
# ...
  121.0000     6.4161     5.9498     8.4298   112.9605     2.4455     0.1353     0.0303
  121.5000     6.3315     5.8908     8.4482   113.8137     2.4437     0.1352     0.0316
  122.0000     6.2480     5.8325     8.4463   114.6645     2.4420     0.1359     0.0328
  122.5000     6.1656     5.7747     8.4434   115.5151     2.4431     0.1354     0.0341
  123.0000     6.0843     5.7176     8.4404   116.3670     2.4467     0.1346     0.0354
  123.5000     6.0041     5.6599     8.4373   117.2131     2.4484     0.1337     0.0360
  124.0000     5.9249     5.5667     8.4343   117.8363     2.4478     0.1330     0.0344
  124.5000     5.8825     5.5109     8.4313   117.9162     2.4444     0.1353     0.0328
  125.0000     5.8825     5.4974     8.4283   117.4502     2.4398     0.1375     0.0313
  125.5000     5.8825     5.4857     8.4253   116.9565     2.4352     0.1397     0.0297
  126.0000     5.8825     5.4738     8.4222   116.4351     2.4320     0.1419     0.0282
  126.5000     5.8825     5.4617     8.4192   115.9153     2.4325     0.1436     0.0267
  127.0000     5.8825     5.4497     8.4162   115.3952     2.4356     0.1422     0.0262
  127.5000     5.8825     5.4377     8.4132   114.8760     2.4389     0.1408     0.0266
  128.0000     5.8825     5.4258     8.4101   114.3979     2.4352     0.1397     0.0271
  128.5000     5.8825     5.4139     8.4072   114.1639     2.4325     0.1403     0.0275
  129.0000     5.8825     5.4020     8.4047   113.9309     2.4357     0.1409     0.0280
  129.5000     5.8825     5.3901     8.4017   113.6971     2.4315     0.1416     0.0284
  130.0000     5.8825     5.3783     8.3987   113.4634     2.4298     0.1413     0.0288
  130.5000     5.8410     5.3664     8.3956   113.2296     2.4323     0.1408     0.0293
  131.0000     5.7989     5.3547     8.3926   112.9958     2.4347     0.1403     0.0297
  131.5000     5.7572     5.3429     8.3896   112.7622     2.4331     0.1412     0.0299
  132.0000     5.7157     5.3312     8.3865   112.5086     2.4297     0.1440     0.0289
  132.5000     5.6746     5.3194     8.3835   112.1906     2.4264     0.1457     0.0278
  133.0000     5.6337     5.2846     8.3805   111.8706     2.4246     0.1467     0.0268
  133.5000     5.5932     5.2413     8.3774   111.5509     2.4291     0.1444     0.0258
  134.0000     5.5529     5.1983     8.3744   111.2312     2.4335     0.1421     0.0248
  134.5000     5.5129     5.1557     8.3714   110.9172     2.4341     0.1412     0.0237
  135.0000     5.4732     5.1135     8.3683   110.5692     2.4341     0.1418     0.0227
  135.5000     5.4338     5.0716     8.3653   110.4998     2.4341     0.1425     0.0219
  136.0000     5.3947     5.0301     8.3623   111.3471     2.4420     0.1374     0.0256
  136.5000     5.3559     4.9889     8.3592   112.1689     2.4511     0.1314     0.0293
  137.0000     5.3162     4.9480     8.3562   112.9888     2.4602     0.1255     0.0329
  137.5000     5.3450     4.9390     8.3532   113.9199     2.4652     0.1214     0.0366
  138.0000     5.3945     5.0054     8.3501   114.9612     2.4632     0.1258     0.0378
  138.5000     5.4445     5.0616     8.3471   115.9880     2.4612     0.1261     0.0366
  139.0000     5.4950     5.1185     8.3452   116.5218     2.4622     0.1252     0.0355
  139.5000     5.5459     5.1761     8.3471   115.8025     2.4634     0.1242     0.0343
  140.0000     5.5974     5.2343     8.3490   115.1225     2.4647     0.1233     0.0331
  140.5000     5.6493     5.2931     8.3509   114.4413     2.4662     0.1223     0.0328
  141.0000     5.7016     5.3526     8.3527   113.7651     2.4688     0.1214     0.0370
  141.5000     5.7545     5.4128     8.3546   113.1835     2.4732     0.1180     0.0411
  142.0000     5.8078     5.4736     8.3564   113.4815     2.4776     0.1156     0.0446
  142.5000     5.8617     5.5366     8.3583   113.8401     2.4771     0.1185     0.0435
  143.0000     5.9160     5.6156     8.3602   113.6515     2.4695     0.1213     0.0425
  143.5000     5.9709     5.6487     8.3620   113.4374     2.4623     0.1242     0.0415
  144.0000     6.0262     5.6802     8.3639   113.4180     2.4591     0.1270     0.0405
  144.5000     6.0821     5.7131     8.3657   113.9580     2.4580     0.1273     0.0395
  145.0000     6.1594     5.7461     8.3676   114.5145     2.4580     0.1270     0.0386
  145.5000     6.1474     5.7794     8.3694   114.8449     2.4578     0.1267     0.0376
  146.0000     6.1283     5.8129     8.3713   114.6294     2.4523     0.1264     0.0366
  146.5000     6.1093     5.8467     8.3732   114.5842     2.4467     0.1319     0.0356
  147.0000     6.0904     5.8830     8.3750   115.2698     2.4412     0.1373     0.0346
  147.5000     6.0715     5.8589     8.3769   115.9479     2.4396     0.1384     0.0337
  148.0000     6.0526     5.8149     8.3787   116.6114     2.4393     0.1372     0.0327
  148.5000     6.0339     5.7715     8.3806   116.8297     2.4393     0.1363     0.0322
  149.0000     6.0151     5.7284     8.3825   116.3966     2.4364     0.1392     0.0322
  149.5000     5.9965     5.6857     8.3843   115.9887     2.4330     0.1419     0.0322
  150.0000     5.9779     5.6432     8.3863   115.5676     2.4296     0.1446     0.0322
  150.5000     5.9593     5.6011     8.3864   115.7072     2.4262     0.1472     0.0322
  151.0000     5.9407     5.5594     8.3864   116.0437     2.4230     0.1484     0.0322
  151.5000     5.9369     5.5179     8.3864   115.9406     2.4267     0.1457     0.0322
  152.0000     5.9126     5.4767     8.3864   115.7360     2.4312     0.1431     0.0322
  152.5000     5.8832     5.4359     8.3864   115.5285     2.4374     0.1404     0.0322
  153.0000     5.8539     5.3953     8.3864   115.6525     2.4333     0.1425     0.0321
  153.5000     5.8248     5.3551     8.3864   116.2367     2.4274     0.1454     0.0301
  154.0000     5.7958     5.3151     8.3864   116.7712     2.4216     0.1482     0.0281
  154.5000     5.7669     5.2754     8.3864   117.3048     2.4158     0.1511     0.0262
  155.0000     5.7382     5.2361     8.3865   117.8388     2.4121     0.1528     0.0242
  155.5000     5.7097     5.1970     8.3835   118.3370     2.4168     0.1502     0.0239
  156.0000     5.6813     5.1715     8.3801   117.9369     2.4212     0.1476     0.0238
  156.5000     5.6530     5.1663     8.3768   116.9529     2.4256     0.1450     0.0239
  157.0000     5.6248     5.1596     8.3734   115.9748     2.4267     0.1463     0.0239
  157.5000     5.5969     5.1528     8.3700   115.0076     2.4234     0.1478     0.0261
  158.0000     5.5665     5.1461     8.3666   114.2668     2.4202     0.1494     0.0259
  158.5000     5.6330     5.1394     8.3632   114.6317     2.4166     0.1510     0.0254
  159.0000     5.7223     5.1326     8.3598   114.4839     2.4177     0.1515     0.0240
  159.5000     5.7120     5.1259     8.3564   113.5258     2.4190     0.1511     0.0226
  160.0000     5.6991     5.1192     8.3531   112.5760     2.4193     0.1508     0.0211
  160.5000     5.6861     5.1125     8.3497   113.4785     2.4187     0.1504     0.0197
  161.0000     5.6732     5.1059     8.3463   114.6382     2.4181     0.1501     0.0183
  161.5000     5.6603     5.0992     8.3429   115.8077     2.4180     0.1497     0.0169
  162.0000     5.6475     5.0925     8.3395   116.7074     2.4220     0.1485     0.0154
  162.5000     5.6346     5.0859     8.3361   117.5419     2.4261     0.1465     0.0140
  163.0000     5.6193     5.0779     8.3327   117.6036     2.4293     0.1444     0.0126
  163.5000     5.6689     5.1259     8.3294   117.1815     2.4306     0.1438     0.0112
  164.0000     5.7426     5.1963     8.3260   116.7741     2.4319     0.1434     0.0097
  164.5000     5.8172     5.2677     8.3256   116.4862     2.4332     0.1414     0.0083
  165.0000     5.8927     5.3401     8.3298   116.7328     2.4368     0.1394     0.0074
  165.5000     5.9693     5.4134     8.3339   116.5577     2.4418     0.1372     0.0081
  166.0000     6.0468     5.4878     8.3380   115.1235     2.4531     0.1327     0.0088
