~VERSION INFORMATION
 VERS.                2.0:   CWLS LOG ASCII STANDARD - VERSION 2.0
 WRAP.                 NO:   ONE LINE PER DEPTH STEP
~WELL INFORMATION
#MNEM.UNIT      DATA TYPE    INFORMATION
#----------   ------------   ------------------------------
 STRT.F           75.0000:   START DEPTH
 STOP.F          859.0000:   STOP DEPTH
 STEP.F            0.5000:   STEP LENGTH
 NULL.          -999.2500:   NO VALUE
 COMP. U S NAVY/INTEX OIL CO:   COMPANY
 WELL.     NPR ##3 14S-35:   WELL
 FLD .             TEAPOT:   FIELD
 LOC .      S35 T39N R78W:   LOCATION
 CNTY.            NATRONA:   COUNTY
 STAT.            WYOMING:   STATE
 CTRY. UNITED STATES OF AMERICA:   COUNTRY
 SRVC. Schlumberger Well Surveying Corp:   SERVICE COMPANY
 DATE.        27-FEB-1961:   LOGDATE
 API .       490251023000:   API NUMBER
~CURVE INFORMATION
#MNEM.UNIT       API CODE    CURVE DESCRIPTION
#----------   ------------   ------------------------------
 DEPT.F                  :   
 GRN .CPS    35 310 30 00:   GAMMA RAY
 SPR .MV     05 010 01 00:   SPONTANEOUS POTENTIAL FROM RES.
 ILD .OHMM   05 120 46 00:   INDUCTION LOG DEEP
 ASN .OHMM   05 041 16 00:   AMPLIFIED SHORT NORMAL 16"
 CILD.MMHO   05 110 46 00:   CONDUCTIVITY INDUCTION LOG DEEP
~PARAMETER INFORMATION
#MNEM.UNIT          VALUE    DESCRIPTION
#----------   ------------   ------------------------------
 PD  .                 GL:   PERMANENT DATUM
 EPD .F              5110:   ELEVATION PERMANENT DATUM
 LMF .                 KB:   LOG MEASURED FROM
 DAPD.F                 4:   FEET ABOVE PERMANENT DATUM
 DMF .                 KB:   DRILLING MEASURED FROM
 EKB .F              5114:   KELLING BUSHING
 EGL .F              5110:   GROUND LEVEL
 DATE.            2-27-61:   RUN DATE
 RUN .                  1:   RUN NUMBER
 DD  .F               862:   DEPTH DRILLER
 DL  .F               860:   DEPTH LOGGER
 BLI .F               859:   BOTTOM LOG INTERVAL
 TLI .F                84:   TOP LOG INTERVAL
 CBD .F                12:   CASING BOTTOM DRILLER
 BS  .IN            7.875:   BIT SIZE
 BSD .F               862:   BIT SIZE AT DEPTH
 DFT .       GEL-OIL EMUL:   DRILLING FLUID TYPE
 DFD .                9.4:   DRILLING FLUID DENSITY
 DFV .                 33:   DRILLING FLUID VISCOSITY
 DFPH.                  8:   DRILLING FLUID PH
 DFL .               19.4:   DRILLING FLUID LOSS
 MSS .          FLOW LINE:   MUD SAMPLE SOURCE
 RMS .OHMM            .76:   RESISTIVITY MUD SAMPLE
 MST .F                73:   MUD SAMPLE TEMPERATURE
 RMF .OHMM            .52:   RESISTIVITY MUD FILTRATE SAMPLE
 MFST.F                73:   MUD FILTRATE SAMPLE TEMPERATURE
 RMC .OHMM            1.7:   RESISTIVITY MUD CAKE
 MCST.F                73:   MUD CAKE SAMPLE TEMPERATURE
 MFSS.                  M:   MUD FILTRATE SAMPLE SOURCE
 MCSS.                  M:   MUD CAKE SAMPLE SOURCE
 RMB .OHMM            .73:   RESISTIVITY MUD AT BHT
 BHT .F                77:   BOTTOM HOLE TEMPERATURE
 TCS .HRS               1:   TIME CURCULATED STOPPED
 MRT .F                77:   MAXIMUM RECORDED TEMPERATURE
 LUN .               2523:   LOGGING UNIT NUMBER
 LUL .               CSPR:   LOGGING UNIT LOCATION
 ENGI.             KNOBEL:   RECORDING ENGINEER
 WITN.          JORGENSEN:   WITNESSED BY
 CLNT.            A2DTECH:   CLIENT CODE
 ORIG.       2", 5" PRINT:   ORIGIN OF DATA
 UWI .       490251023000:   UNIQUE WELL ID
 DICO. A2D Technologies, Inc.:   DIGITIZING COMPANY
~OTHER INFORMATION
~A   DEPT      GRN        SPR        ILD        ASN       CILD   
# ...
  197.0000  -999.2500   -33.4144     5.8477     7.5269   169.3788
  197.5000  -999.2500   -33.3248     5.7461     7.5980   167.8357
  198.0000  -999.2500   -33.2353     5.6274     7.7181   171.2402
  198.5000  -999.2500   -33.1456     5.5090     7.7833   174.4886
  199.0000  -999.2500   -33.0564     5.3938     7.6151   177.7370
  199.5000  -999.2500   -32.9656     5.2723     7.4459   180.9854
  200.0000  -999.2500   -32.8969     5.1622     7.2725   184.2339
  200.5000  -999.2500   -32.9311     5.0264     7.1048   187.4823
  201.0000  -999.2500   -33.0441     4.9787     6.9229   190.7307
  201.5000  -999.2500   -33.1579     5.0784     6.8863   193.8878
  202.0000  -999.2500   -33.2728     5.1607     6.8770   193.2999
  202.5000  -999.2500   -33.3876     5.2535     6.9330   191.4686
  203.0000  -999.2500   -33.5015     5.3404     7.0734   187.9561
  203.5000  -999.2500   -33.6179     5.4305     7.2033   184.3966
  204.0000  -999.2500   -33.7292     5.5188     7.3439   180.8373
  204.5000  -999.2500   -33.8507     5.6084     7.4356   177.2784
  205.0000  -999.2500   -33.9064     5.6964     7.4856   173.7186
  205.5000  -999.2500   -33.9017     5.7873     7.5411   170.1606
  206.0000  -999.2500   -33.8876     5.8587     7.5942   168.2576
  206.5000  -999.2500   -33.7237     5.8625     7.6475   167.3707
  207.0000  -999.2500   -33.5602     5.8630     7.7025   166.4855
  207.5000  -999.2500   -33.3932     5.8620     7.7527   165.8053
  208.0000  -999.2500   -33.2303     5.8634     7.8150   165.8089
  208.5000  -999.2500   -33.0631     5.8611     7.8359   166.2296
  209.0000  -999.2500   -32.9004     5.8656     7.7849   167.6583
  209.5000  -999.2500   -32.7196     5.8297     7.7417   169.0868
  210.0000  -999.2500   -32.6976     5.7332     7.6938   170.5149
  210.5000  -999.2500   -32.7797     5.6405     7.6472   171.9386
  211.0000  -999.2500   -32.8845     5.5452     7.6059   173.3611
  211.5000  -999.2500   -32.9869     5.4503     7.5649   174.7836
  212.0000  -999.2500   -33.0908     5.3652     7.5216   176.2062
  212.5000  -999.2500   -33.1937     5.3591     7.4912   176.8537
  213.0000  -999.2500   -33.2973     5.3556     7.5420   176.8537
  213.5000  -999.2500   -33.4007     5.3768     7.5957   175.9555
  214.0000  -999.2500   -33.5028     5.5524     7.6574   174.4775
  214.5000  -999.2500   -33.6099     5.7227     7.8109   172.9877
  215.0000  -999.2500   -33.6811     5.8925     7.9448   171.8173
  215.5000  -999.2500   -33.5312     6.2059     8.0920   167.0389
  216.0000  -999.2500   -33.3703     6.4854     8.2319   159.9386
  216.5000  -999.2500   -33.2095     6.7729     8.4316   152.8443
  217.0000  -999.2500   -33.0491     7.0508     8.7818   145.7425
  217.5000  -999.2500   -32.8899     7.3543     9.0489   137.8448
  218.0000  -999.2500   -32.7265     7.5834     9.8754   135.4469
  218.5000  -999.2500   -32.5726     7.8502    10.5328   132.7503
  219.0000  -999.2500   -32.3947     7.9851    10.9149   130.0557
  219.5000  -999.2500   -32.2865     7.9332    10.6958   127.3668
  220.0000  -999.2500   -32.3270     7.5967    10.0694   124.8023
  220.5000  -999.2500   -32.3944     7.2145     9.8015   130.9953
  221.0000  -999.2500   -32.4700     6.9666     9.4453   136.8891
  221.5000  -999.2500   -32.5417     6.8085     9.1380   142.7837
  222.0000  -999.2500   -32.6154     6.6461     8.8296   146.6969
  222.5000  -999.2500   -32.6884     6.4812     8.5236   149.5952
  223.0000  -999.2500   -32.7606     6.3616     8.3202   151.8142
  223.5000  -999.2500   -32.8376     6.3425     8.2336   152.6747
  224.0000  -999.2500   -32.8797     6.3253     8.3085   153.3654
  224.5000  -999.2500   -32.6928     6.3109     8.3653   154.0466
  225.0000  -999.2500   -32.4955     6.2945     8.4355   154.8125
  225.5000  -999.2500   -32.2978     6.2791     8.4326   155.3427
  226.0000  -999.2500   -32.1017     6.2635     8.3228   155.9531
  226.5000  -999.2500   -31.9039     6.2475     8.2255   156.5616
  227.0000  -999.2500   -31.7075     6.2327     8.1207   157.1702
  227.5000  -999.2500   -31.5094     6.2152     8.0214   157.7788
  228.0000  -999.2500   -31.3131     6.2027     7.9281   158.3874
  228.5000  -999.2500   -31.1148     6.1809     7.9600   158.9959
  229.0000  -999.2500   -30.9183     6.1775     8.0294   159.6045
  229.5000  -999.2500   -30.7179     6.0749     8.0977   160.2655
  230.0000  -999.2500   -30.6937     5.9035     8.1335   160.9072
  230.5000  -999.2500   -30.6955     5.7544     8.0378   165.4567
  231.0000  -999.2500   -30.7177     5.5955     7.9171   169.2500
  231.5000  -999.2500   -31.0026     5.4419     7.7218   173.2551
  232.0000  -999.2500   -31.3313     5.2851     7.5326   177.8134
  232.5000  -999.2500   -31.6534     5.1306     7.3337   182.3754
  233.0000  -999.2500   -31.9788     4.9741     7.1479   186.9532
  233.5000  -999.2500   -32.2995     4.8191     6.9381   191.5486
  234.0000  -999.2500   -32.6315     4.6694     6.8323   196.0721
  234.5000  -999.2500   -32.8875     4.6728     6.8497   200.6538
  235.0000  -999.2500   -32.8860     4.7147     6.8827   202.9058
  235.5000  -999.2500   -32.8725     4.7511     6.9305   202.0120
  236.0000  -999.2500   -32.8564     4.7894     6.9721   200.3567
  236.5000  -999.2500   -32.8430     4.8268     7.0167   198.8978
  237.0000  -999.2500   -32.8278     4.8647     7.0600   196.9689
  237.5000  -999.2500   -32.8136     4.9021     7.1036   195.2447
  238.0000  -999.2500   -32.7988     4.9402     7.1473   193.5204
  238.5000  -999.2500   -32.7842     4.9770     7.1902   191.7961
  239.0000  -999.2500   -32.7699     5.0150     7.2354   190.0718
  239.5000  -999.2500   -32.7554     5.0606     7.2919   187.6052
  240.0000  -999.2500   -32.7411     5.2051     7.3804   183.4669
  240.5000  -999.2500   -32.7271     5.3907     7.4970   178.8577
  241.0000  -999.2500   -32.7106     5.5703     7.6332   173.9679
  241.5000  -999.2500   -32.7136     5.7524     7.7643   168.4502
  242.0000  -999.2500   -32.8723     5.9337     7.9023   162.9325
  242.5000  -999.2500   -33.0433     6.1151     8.0063   157.4148
  243.0000  -999.2500   -33.2126     6.2979     8.0759   153.4990
  243.5000  -999.2500   -33.3831     6.4648     8.1513   151.0160
  244.0000  -999.2500   -33.5510     6.5767     8.2261   148.7976
  244.5000  -999.2500   -33.7236     6.6655     8.2874   147.6528
  245.0000  -999.2500   -33.8895     6.6591     8.1783   146.7936
  245.5000  -999.2500   -34.0779     6.6812     8.0614   148.0268
  246.0000  -999.2500   -34.0516     6.5148     7.9474   148.8110
  246.5000  -999.2500   -33.9705     6.2395     7.8206   152.3560
  247.0000  -999.2500   -33.8995     6.0075     7.7733   155.7677
  247.5000  -999.2500   -33.8248     5.7572     7.7324   161.0810
  248.0000  -999.2500   -33.7516     5.5172     7.6813   167.6474
  248.5000  -999.2500   -33.6778     5.2703     7.6183   174.2184
  249.0000  -999.2500   -33.6041     5.0298     7.5331   180.7964
  249.5000  -999.2500   -33.5305     4.7794     7.2525   187.4863
  250.0000  -999.2500   -33.4571     4.5732     6.9296   197.7527
  250.5000  -999.2500   -33.3838     4.4146     6.6137   211.9410
  251.0000  -999.2500   -33.3102     4.2443     6.2961   226.1294
  251.5000  -999.2500   -33.2371     4.0820     6.0486   238.9780
  252.0000  -999.2500   -33.1631     3.9136     5.8594   248.0361
  252.5000  -999.2500   -33.0966     3.8463     5.6610   259.0180
  253.0000  -999.2500   -33.0312     3.8616     5.4844   254.8397
  253.5000  -999.2500   -32.9710     3.8429     5.4048   248.6323
  254.0000  -999.2500   -32.9105     3.9536     5.5698   242.4249
  254.5000  -999.2500   -32.8502     4.1512     5.9937   234.6934
  255.0000  -999.2500   -32.7896     4.4572     6.2948   223.1062
  255.5000  -999.2500   -32.7293     4.8582     6.6501   209.9198
  256.0000  -999.2500   -32.6688     5.2409     6.9961   196.1609
  256.5000  -999.2500   -32.6084     5.6333     7.3346   180.1990
  257.0000  -999.2500   -32.5479     6.0189     7.6940   164.2370
  257.5000  -999.2500   -32.4876     6.4111     7.9687   153.1599
