~VERSION INFORMATION
 VERS.                2.0:   CWLS LOG ASCII STANDARD - VERSION 2.0
 WRAP.                 NO:   ONE LINE PER DEPTH STEP
~WELL INFORMATION
#MNEM.UNIT      DATA TYPE    INFORMATION
#----------   ------------   ------------------------------
 STRT.F         1470.0000:   START DEPTH
 STOP.F         2310.0000:   STOP DEPTH
 STEP.F            0.5000:   STEP LENGTH
 NULL.          -999.2500:   NO VALUE
 COMP. BROWN JOHN E&C INC:   COMPANY
 WELL. NAVAL PETROLEUM RESERVE 3 STX- #22-10:   WELL
 FLD .             TEAPOT:   FIELD
 LOC .      S10 T38N R78W:   LOCATION
 CNTY.            NATRONA:   COUNTY
 STAT.            WYOMING:   STATE
 CTRY. UNITED STATES OF AMERICA:   COUNTRY
 SRVC.            Unknown:   SERVICE COMPANY
 DATE.        26-AUG-1991:   LOGDATE
 API .       490251111700:   API NUMBER
~CURVE INFORMATION
#MNEM.UNIT       API CODE    CURVE DESCRIPTION
#----------   ------------   ------------------------------
 DEPT.F                  :   
 ROP .MIN/FT 91 810 01 00:   RAT OF DRILLING PENETRATION
 TGAS.UNITS  91 830 01 00:   TOTAL GAS FROM HOTWIRE
~PARAMETER INFORMATION
#MNEM.UNIT          VALUE    DESCRIPTION
#----------   ------------   ------------------------------
 EKB .F              5277:   KELLING BUSHING
 EGL .F              5267:   GROUND LEVEL
 DATE.            8-26-91:   RUN DATE
 DD  .F              2311:   DEPTH DRILLER
 TCS .HRS            0200:   TIME CURCULATED STOPPED
 TLAB.HRS            2335:   TIME LOGGER AT BOTTOM
 ENGI.              TOWER:   RECORDING ENGINEER
 WITN.               HUSK:   WITNESSED BY
 CLNT.            A2DTECH:   CLIENT CODE
 ORIG.           5" PRINT:   ORIGIN OF DATA
 UWI .       490251111700:   UNIQUE WELL ID
 DICO. A2D Technologies, Inc.:   DIGITIZING COMPANY
~OTHER INFORMATION
~A  DEPT         ROP      TGAS  
# ...
 1956.0000     0.6921   140.1477
 1956.5000     0.6706   140.1013
 1957.0000     0.6459   140.0548
 1957.5000     0.6622   140.0084
 1958.0000     0.6800   139.9619
 1958.5000     0.6969   139.9155
 1959.0000     0.6975   139.8690
 1959.5000     0.6972   139.8226
 1960.0000     0.6870   139.7761
 1960.5000     0.6362   139.7296
 1961.0000     0.5860   139.6832
 1961.5000     0.5356   139.6367
 1962.0000     0.4863   139.5903
 1962.5000     0.4610   139.5439
 1963.0000     0.5496   139.4974
 1963.5000     0.6370   139.4509
 1964.0000     0.6546   139.4045
 1964.5000     0.6268   139.3580
 1965.0000     0.5984   139.3116
 1965.5000     0.5701   139.2654
 1966.0000     0.5476   139.2193
 1966.5000     0.5656   139.1714
 1967.0000     0.6037   139.1195
 1967.5000     0.6417   138.7976
 1968.0000     0.6801   138.2454
 1968.5000     0.6810   138.6209
 1969.0000     0.6761   141.7468
 1969.5000     0.6792   144.7965
 1970.0000     0.7282   147.9415
 1970.5000     0.7776   147.8038
 1971.0000     0.8218   147.4430
 1971.5000     0.8597   147.0988
 1972.0000     0.8963   146.7611
 1972.5000     0.8499   146.4235
 1973.0000     0.7965   146.0860
 1973.5000     0.7484   145.7496
 1974.0000     0.7076   145.4829
 1974.5000     0.7097   145.3953
 1975.0000     0.7335   145.3051
 1975.5000     0.7580   145.2148
 1976.0000     0.7381   145.1246
 1976.5000     0.6762   145.0343
 1977.0000     0.6100   144.9440
 1977.5000     0.5441   144.8537
 1978.0000     0.4873   144.7634
 1978.5000     0.4674   144.6732
 1979.0000     0.4592   144.5829
 1979.5000     0.4765   144.4926
 1980.0000     0.5073   144.4019
 1980.5000     0.5526   144.3106
 1981.0000     0.5912   144.2363
 1981.5000     0.6289   144.3542
 1982.0000     0.6663   144.4696
 1982.5000     0.6658   144.5835
 1983.0000     0.6363   144.6973
 1983.5000     0.6069   144.8111
 1984.0000     0.5837   144.9249
 1984.5000     0.5633   145.0387
 1985.0000     0.5883   145.1525
 1985.5000     0.6114   145.2663
 1986.0000     0.6215   145.3801
 1986.5000     0.5899   145.4939
 1987.0000     0.5589   145.6077
 1987.5000     0.5278   145.7214
 1988.0000     0.4965   145.8352
 1988.5000     0.4999   145.9490
 1989.0000     0.5174   146.0628
 1989.5000     0.4917   146.1766
 1990.0000     0.4821   146.2904
 1990.5000     0.5515   146.4042
 1991.0000     0.6200   146.5180
 1991.5000     0.6884   146.6318
 1992.0000     0.7565   146.7456
 1992.5000     0.7928   146.8593
 1993.0000     0.7526   146.9731
 1993.5000     0.7132   147.0869
 1994.0000     0.6741   147.2007
 1994.5000     0.6353   147.3145
 1995.0000     0.6136   147.4283
 1995.5000     0.6313   147.5421
 1996.0000     0.6138   147.6559
 1996.5000     0.5863   147.7701
 1997.0000     0.5582   147.8845
 1997.5000     0.5282   148.0020
 1998.0000     0.4882   148.0720
 1998.5000     0.5389   147.0782
 1999.0000     0.6228   145.9635
 1999.5000     0.6966   144.8482
 2000.0000     0.6756   143.7341
 2000.5000     0.6320   142.6206
 2001.0000     0.5887   141.5065
 2001.5000     0.5451   140.3944
 2002.0000     0.5021   139.2810
 2002.5000     0.4748   138.1292
 2003.0000     0.4932   137.8268
 2003.5000     0.5103   137.8167
 2004.0000     0.5274   137.8192
 2004.5000     0.5444   137.8205
 2005.0000     0.5419   137.8205
 2005.5000     0.5368   137.8205
 2006.0000     0.5393   137.8205
 2006.5000     0.5507   137.8205
 2007.0000     0.5656   137.8205
 2007.5000     0.6025   137.8205
 2008.0000     0.6775   137.8205
 2008.5000     0.7536   137.8197
 2009.0000     0.7821   137.8201
 2009.5000     0.6701   137.8208
 2010.0000     0.5555   137.7929
 2010.5000     0.4778   139.2711
 2011.0000     0.4773   141.4490
 2011.5000     0.5044   143.6384
 2012.0000     0.4753   145.8290
 2012.5000     0.4460   148.0188
 2013.0000     0.4675   150.2095
 2013.5000     0.4570   152.4078
 2014.0000     0.4340   154.4739
 2014.5000     0.4737   153.8849
 2015.0000     0.5119   153.1527
 2015.5000     0.5482   152.4210
 2016.0000     0.5843   151.6928
 2016.5000     0.6205   150.9659
 2017.0000     0.6565   150.2387
 2017.5000     0.6928   149.5108
 2018.0000     0.7312   148.7805
 2018.5000     0.6707   148.0897
 2019.0000     0.5945   148.1204
 2019.5000     0.5230   148.1819
 2020.0000     0.5211   148.2411
 2020.5000     0.5404   148.2994
 2021.0000     0.5573   148.3576
 2021.5000     0.5171   148.4157
 2022.0000     0.4813   148.4739
 2022.5000     0.5245   148.5320
 2023.0000     0.5730   148.5902
 2023.5000     0.6387   148.6484
 2024.0000     0.7061   148.7065
 2024.5000     0.7702   148.7647
 2025.0000     0.7454   148.8228
 2025.5000     0.7169   148.8810
 2026.0000     0.6890   148.9392
 2026.5000     0.6679   148.9973
 2027.0000     0.6620   149.0555
 2027.5000     0.6770   149.1136
 2028.0000     0.6919   149.1710
 2028.5000     0.7080   149.2280
 2029.0000     0.6747   149.2924
 2029.5000     0.6556   149.3518
 2030.0000     0.6804   150.2990
 2030.5000     0.6709   151.9497
 2031.0000     0.6847   155.1901
 2031.5000     0.7542   158.5474
 2032.0000     0.8191   161.9053
 2032.5000     0.7386   165.3050
 2033.0000     0.6500   166.3367
 2033.5000     0.5619   166.7644
 2034.0000     0.4736   167.1716
 2034.5000     0.3858   167.5839
 2035.0000     0.3797   168.0014
 2035.5000     0.4065   168.4100
 2036.0000     0.3658   168.1192
 2036.5000     0.4266   165.0279
 2037.0000     0.5159   161.9311
 2037.5000     0.6067   158.8428
 2038.0000     0.6721   155.7583
 2038.5000     0.7102   152.6580
 2039.0000     0.6613   149.8439
 2039.5000     0.6094   147.2911
 2040.0000     0.5576   144.8047
 2040.5000     0.5164   142.2571
 2041.0000     0.4853   141.5973
 2041.5000     0.5223   144.5759
 2042.0000     0.5650   148.4924
 2042.5000     0.6077   151.9214
 2043.0000     0.5994   151.9724
 2043.5000     0.6034   151.9903
 2044.0000     0.5555   152.0201
 2044.5000     0.5074   152.0497
 2045.0000     0.4585   152.0804
 2045.5000     0.4298   152.1110
 2046.0000     0.4068   152.1417
 2046.5000     0.4103   152.1723
 2047.0000     0.4391   152.2030
 2047.5000     0.4329   152.2337
 2048.0000     0.4151   152.2643
 2048.5000     0.3968   152.2950
 2049.0000     0.4279   152.3256
 2049.5000     0.4640   152.3563
 2050.0000     0.5000   152.3869
 2050.5000     0.5367   152.4176
 2051.0000     0.5561   152.4483
 2051.5000     0.5315   152.4789
 2052.0000     0.5061   152.5096
 2052.5000     0.4831   152.5403
 2053.0000     0.4766   152.5709
 2053.5000     0.4666   152.6016
 2054.0000     0.4336   152.6322
 2054.5000     0.4286   152.6629
 2055.0000     0.4235   152.6935
 2055.5000     0.4393   152.7242
 2056.0000     0.4741   152.7549
 2056.5000     0.5090   152.7855
 2057.0000     0.5440   152.8162
 2057.5000     0.5790   152.8468
 2058.0000     0.6100   152.8775
 2058.5000     0.5830   152.9082
 2059.0000     0.5470   152.9388
 2059.5000     0.5106   152.9695
 2060.0000     0.4755   153.0001
 2060.5000     0.4654   153.0308
 2061.0000     0.5423   153.0614
 2061.5000     0.6162   153.0921
 2062.0000     0.6388   153.1268
 2062.5000     0.6241   153.1647
 2063.0000     0.6538   153.1653
 2063.5000     0.6954   152.3020
 2064.0000     0.7217   148.9589
 2064.5000     0.6625   145.7279
 2065.0000     0.5993   142.4675
 2065.5000     0.5362   140.1716
 2066.0000     0.4853   138.1467
 2066.5000     0.4382   136.1226
 2067.0000     0.4035   135.2632
 2067.5000     0.4057   135.2163
 2068.0000     0.4340   135.1715
 2068.5000     0.4621   135.1311
 2069.0000     0.4908   135.0897
 2069.5000     0.4952   135.0478
 2070.0000     0.4504   135.0058
 2070.5000     0.4028   134.9639
 2071.0000     0.3553   134.9219
 2071.5000     0.3271   134.8799
 2072.0000     0.3196   134.8380
 2072.5000     0.3917   134.7960
 2073.0000     0.4629   134.7541
 2073.5000     0.5346   134.7121
 2074.0000     0.5415   134.6702
 2074.5000     0.5354   134.6282
 2075.0000     0.5289   134.5862
 2075.5000     0.5217   134.5443
 2076.0000     0.5430   134.5023
 2076.5000     0.5938   134.4604
 2077.0000     0.6819   134.4184
