~VERSION INFORMATION
 VERS.                2.0:   CWLS LOG ASCII STANDARD - VERSION 2.0
 WRAP.                 NO:   ONE LINE PER DEPTH STEP
~WELL INFORMATION
#MNEM.UNIT      DATA TYPE    INFORMATION
#----------   ------------   ------------------------------
 STRT.F            0.0000:   START DEPTH
 STOP.F         2230.0000:   STOP DEPTH
 STEP.F            0.5000:   STEP LENGTH
 NULL.          -999.2500:   NO VALUE
 COMP. LAWRENCE/ALLISON INC:   COMPANY
 WELL. NPR 3 SH X 34 #48-34:   WELL
 FLD .            WILDCAT:   FIELD
 LOC .      S34 T39N R78W:   LOCATION
 CNTY.            NATRONA:   COUNTY
 STAT.            WYOMING:   STATE
 CTRY. UNITED STATES OF AMERICA:   COUNTRY
 SRVC.            Unknown:   SERVICE COMPANY
 DATE.        02-SEP-1991:   LOGDATE
 API .       490251110600:   API NUMBER
~CURVE INFORMATION
#MNEM.UNIT       API CODE    CURVE DESCRIPTION
#----------   ------------   ------------------------------
 DEPT.F                  :   
 ROP .MIN/FT 91 810 01 00:   RAT OF DRILLING PENETRATION
 TGAS.UNITS  91 830 01 00:   TOTAL GAS FROM HOTWIRE
 C1  .VF     91 831 01 00:   METHANE
 C2  .VF     91 832 01 00:   ETHANE
 C3  .VF     91 833 01 00:   PROPANE
 C4  .VF     91 834 01 00:   BUTANE
 TT  .US/F   81 520 00 00:   TRANSIT TIME
 GR  .GAPI   81 310 01 00:   GAMMA RAY FROM CEMENT BOND LOG
~PARAMETER INFORMATION
#MNEM.UNIT          VALUE    DESCRIPTION
#----------   ------------   ------------------------------
 EKB .F              5145:   KELLING BUSHING
 EGL .F              5135:   GROUND LEVEL
 DATE.          09-2-1991:   RUN DATE
 RUN .                  1:   RUN NUMBER
 BLI .F              2400:   BOTTOM LOG INTERVAL
 TLI .F              2200:   TOP LOG INTERVAL
 ENGI.           C. TOWER:   RECORDING ENGINEER
 WITN.            R. HUSK:   WITNESSED BY
 CLNT.            A2DTECH:   CLIENT CODE
 ORIG.           5" PRINT:   ORIGIN OF DATA
 UWI .       490251110600:   UNIQUE WELL ID
 DICO. A2D Technologies, Inc.:   DIGITIZING COMPANY
~OTHER INFORMATION
~A    DEPT     ROP       TGAS         C1         C2         C3         C4          TT         GR  
# ...
  931.5000     0.5708     3.1707     8.7500     1.8192  -999.2500  -999.2500  -999.2500  -999.2500
  932.0000     0.5715     3.1707     8.7500     1.8214  -999.2500  -999.2500  -999.2500  -999.2500
  932.5000     0.5710     3.1707     8.7500     1.8236  -999.2500  -999.2500  -999.2500  -999.2500
  933.0000     0.5702     3.1707     8.7500     1.8258  -999.2500  -999.2500  -999.2500  -999.2500
  933.5000     0.5694     3.1707     8.7500     1.8281  -999.2500  -999.2500  -999.2500  -999.2500
  934.0000     0.5687     3.1707     8.7500     1.8303  -999.2500  -999.2500  -999.2500  -999.2500
  934.5000     0.5679     3.1707     8.7500     1.8325  -999.2500  -999.2500  -999.2500  -999.2500
  935.0000     0.5671     3.1707     8.7500     1.8347  -999.2500  -999.2500  -999.2500  -999.2500
  935.5000     0.5663     3.1707     8.7500     1.8369  -999.2500  -999.2500  -999.2500  -999.2500
  936.0000     0.5655     3.1707     8.7500     1.8391  -999.2500  -999.2500  -999.2500  -999.2500
  936.5000     0.5648     3.1707     8.7500     1.8413  -999.2500  -999.2500  -999.2500  -999.2500
  937.0000     0.5640     3.1707     8.7500     1.8435  -999.2500  -999.2500  -999.2500  -999.2500
  937.5000     0.5632     3.1707     8.7500     1.8458  -999.2500  -999.2500  -999.2500  -999.2500
  938.0000     0.5624     3.1707     8.7500     1.8480  -999.2500  -999.2500  -999.2500  -999.2500
  938.5000     0.5616     3.1707     8.7500     1.8502  -999.2500  -999.2500  -999.2500  -999.2500
  939.0000     0.5609     3.1707     8.7500     1.8524  -999.2500  -999.2500  -999.2500  -999.2500
  939.5000     0.5600     3.1707     8.7500     1.8546  -999.2500  -999.2500  -999.2500  -999.2500
  940.0000     0.5581     3.1707     8.7500     1.8568  -999.2500  -999.2500  -999.2500  -999.2500
  940.5000     0.5961     3.1707     8.7500     1.8590  -999.2500  -999.2500  -999.2500  -999.2500
  941.0000     0.6441     3.1707     8.7500     1.8613  -999.2500  -999.2500  -999.2500  -999.2500
  941.5000     0.6925     3.1707     8.7500     1.8635  -999.2500  -999.2500  -999.2500  -999.2500
  942.0000     0.7348     3.1707     8.7500     1.8657  -999.2500  -999.2500  -999.2500  -999.2500
  942.5000     0.7351     3.1707     8.7500     1.8679  -999.2500  -999.2500  -999.2500  -999.2500
  943.0000     0.7350     3.1707     8.7500     1.8701  -999.2500  -999.2500  -999.2500  -999.2500
  943.5000     0.7349     3.1707     8.7500     1.8723  -999.2500  -999.2500  -999.2500  -999.2500
  944.0000     0.7349     3.1707     8.7500     1.8745  -999.2500  -999.2500  -999.2500  -999.2500
  944.5000     0.7349     3.1707     8.7500     1.8767  -999.2500  -999.2500  -999.2500  -999.2500
  945.0000     0.7349     3.1707     8.7500     1.8790  -999.2500  -999.2500  -999.2500  -999.2500
  945.5000     0.7349     3.1707     8.7500     1.8812  -999.2500  -999.2500  -999.2500  -999.2500
  946.0000     0.7349     3.1707     8.7500     1.8834  -999.2500  -999.2500  -999.2500  -999.2500
  946.5000     0.7349     3.1707     8.7500     1.8856  -999.2500  -999.2500  -999.2500  -999.2500
  947.0000     0.7349     3.1707     8.7500     1.8878  -999.2500  -999.2500  -999.2500  -999.2500
  947.5000     0.7349     3.1707     8.7500     1.8900  -999.2500  -999.2500  -999.2500  -999.2500
  948.0000     0.7349     3.1707     8.7500     1.8922  -999.2500  -999.2500  -999.2500  -999.2500
  948.5000     0.7349     3.1707     8.7500     1.8945  -999.2500  -999.2500  -999.2500  -999.2500
  949.0000     0.7351     3.1707     8.7500     1.8967  -999.2500  -999.2500  -999.2500  -999.2500
  949.5000     0.7345     3.1707     8.7500     1.8989  -999.2500  -999.2500  -999.2500  -999.2500
  950.0000     0.7504     3.1707     8.7500     1.8984  -999.2500  -999.2500  -999.2500  -999.2500
  950.5000     0.8103     3.1707     8.7500     1.8951  -999.2500  -999.2500  -999.2500  -999.2500
  951.0000     0.8738     3.1707     8.7500     1.8919  -999.2500  -999.2500  -999.2500  -999.2500
  951.5000     0.9371     3.1707     8.7500     1.8887  -999.2500  -999.2500  -999.2500  -999.2500
  952.0000     0.9966     3.1707     8.7500     1.8855  -999.2500  -999.2500  -999.2500  -999.2500
  952.5000     0.9768     3.1707     8.7500     1.8822  -999.2500  -999.2500  -999.2500  -999.2500
  953.0000     0.9207     3.1707     8.7500     1.8790  -999.2500  -999.2500  -999.2500  -999.2500
  953.5000     0.8655     3.1707     8.7500     1.8757  -999.2500  -999.2500  -999.2500  -999.2500
  954.0000     0.8216     3.1707     8.7500     1.8725  -999.2500  -999.2500  -999.2500  -999.2500
  954.5000     0.8228     3.1707     8.7501     1.8693  -999.2500  -999.2500  -999.2500  -999.2500
  955.0000     0.8229     3.1707     8.7499     1.8660  -999.2500  -999.2500  -999.2500  -999.2500
  955.5000     0.8228     3.1707     8.7426     1.8628  -999.2500  -999.2500  -999.2500  -999.2500
  956.0000     0.8229     3.1707     8.7041     1.8595  -999.2500  -999.2500  -999.2500  -999.2500
  956.5000     0.8228     3.1707     8.6659     1.8563  -999.2500  -999.2500  -999.2500  -999.2500
  957.0000     0.8228     3.1707     8.6278     1.8531  -999.2500  -999.2500  -999.2500  -999.2500
  957.5000     0.8230     3.1707     8.5897     1.8498  -999.2500  -999.2500  -999.2500  -999.2500
  958.0000     0.8231     3.1707     8.5516     1.8466  -999.2500  -999.2500  -999.2500  -999.2500
  958.5000     0.8472     3.1708     8.5135     1.8434  -999.2500  -999.2500  -999.2500  -999.2500
  959.0000     0.8882     3.1739     8.4755     1.8401  -999.2500  -999.2500  -999.2500  -999.2500
  959.5000     0.9289     3.1813     8.4374     1.8369  -999.2500  -999.2500  -999.2500  -999.2500
  960.0000     0.9694     3.1885     8.3993     1.8336  -999.2500  -999.2500  -999.2500  -999.2500
  960.5000     1.0018     3.1959     8.3612     1.8304  -999.2500  -999.2500  -999.2500  -999.2500
  961.0000     1.0111     3.2032     8.3229     1.8272  -999.2500  -999.2500  -999.2500  -999.2500
  961.5000     0.9970     3.2105     8.2842     1.8239  -999.2500  -999.2500  -999.2500  -999.2500
  962.0000     0.9762     3.2178     8.2536     1.8207  -999.2500  -999.2500  -999.2500  -999.2500
  962.5000     0.9387     3.2251     8.3343     1.8175  -999.2500  -999.2500  -999.2500  -999.2500
  963.0000     0.8989     3.2324     8.4142     1.8142  -999.2500  -999.2500  -999.2500  -999.2500
  963.5000     0.8592     3.2397     8.4933     1.8110  -999.2500  -999.2500  -999.2500  -999.2500
  964.0000     0.8197     3.2470     8.5722     1.8078  -999.2500  -999.2500  -999.2500  -999.2500
  964.5000     0.7980     3.2543     8.6512     1.8045  -999.2500  -999.2500  -999.2500  -999.2500
  965.0000     0.7986     3.2617     8.7302     1.8013  -999.2500  -999.2500  -999.2500  -999.2500
  965.5000     0.7991     3.2690     8.8091     1.7980  -999.2500  -999.2500  -999.2500  -999.2500
  966.0000     0.7998     3.2763     8.8881     1.7948  -999.2500  -999.2500  -999.2500  -999.2500
  966.5000     0.8004     3.2836     8.9671     1.7916  -999.2500  -999.2500  -999.2500  -999.2500
  967.0000     0.8010     3.2909     9.0462     1.7883  -999.2500  -999.2500  -999.2500  -999.2500
  967.5000     0.8016     3.2982     9.1248     1.7851  -999.2500  -999.2500  -999.2500  -999.2500
  968.0000     0.8023     3.3055     9.2030     1.7819  -999.2500  -999.2500  -999.2500  -999.2500
  968.5000     0.8029     3.3128     9.2497     1.7786  -999.2500  -999.2500  -999.2500  -999.2500
  969.0000     0.8035     3.3201     9.2498     1.7754  -999.2500  -999.2500  -999.2500  -999.2500
  969.5000     0.8041     3.3274     9.2501     1.7722  -999.2500  -999.2500  -999.2500  -999.2500
  970.0000     0.8048     3.3347     9.2500     1.7689  -999.2500  -999.2500  -999.2500  -999.2500
  970.5000     0.8054     3.3421     9.2500     1.7657  -999.2500  -999.2500  -999.2500  -999.2500
  971.0000     0.8060     3.3494     9.2500     1.7624  -999.2500  -999.2500  -999.2500  -999.2500
  971.5000     0.8066     3.3567     9.2500     1.7592  -999.2500  -999.2500  -999.2500  -999.2500
