~VERSION INFORMATION
 VERS.                2.0:   CWLS LOG ASCII STANDARD - VERSION 2.0
 WRAP.                 NO:   ONE LINE PER DEPTH STEP
~WELL INFORMATION
#MNEM.UNIT      DATA TYPE    INFORMATION
#----------   ------------   ------------------------------
 STRT.F            0.0000:   START DEPTH
 STOP.F          743.0000:   STOP DEPTH
 STEP.F            0.5000:   STEP LENGTH
 NULL.          -999.2500:   NO VALUE
 COMP. LAWRENCE/ALLISON INC:   COMPANY
 WELL.   NPR 3 #33-16SX11:   WELL
 FLD .                NPR:   FIELD
 LOC .      S11 T38N R78W:   LOCATION
 CNTY.            NATRONA:   COUNTY
 STAT.            WYOMING:   STATE
 CTRY. UNITED STATES OF AMERICA:   COUNTRY
 SRVC.           Gearhart:   SERVICE COMPANY
 DATE.        05-JUN-1986:   LOGDATE
 API .       490251107500:   API NUMBER
~CURVE INFORMATION
#MNEM.UNIT       API CODE    CURVE DESCRIPTION
#----------   ------------   ------------------------------
 DEPT.F                  :   
 GRR .GAPI   07 310 01 00:   GAMMA RAY
 RILD.OHMM   07 120 46 00:   INDUCTION LOG DEEP RESISTIVITY
 RILM.OHMM   07 120 44 00:   INDUCTION LOG MEDIUM RESISTIVITY
 RLL .OHMM   07 220 00 00:   LATEROLOG RESISTIVITY
 SPR .MV     07 010 01 00:   SPONTANEOUS POTENTIAL
~PARAMETER INFORMATION
#MNEM.UNIT          VALUE    DESCRIPTION
#----------   ------------   ------------------------------
 PD  .                 GL:   PERMANENT DATUM
 EPD .F              5175:   ELEVATION PERMANENT DATUM
 LMF .                 KB:   LOG MEASURED FROM
 DMF .                 KB:   DRILLING MEASURED FROM
 EKB .F              5175:   KELLING BUSHING
 EGL .F              5175:   GROUND LEVEL
 DATE.        05-JUN-1986:   RUN DATE
 RUN .                  1:   RUN NUMBER
 DD  .F               736:   DEPTH DRILLER
 DL  .F               744:   DEPTH LOGGER
 BLI .F               743:   BOTTOM LOG INTERVAL
 TLI .F                42:   TOP LOG INTERVAL
 CS  .IN            8.625:   CASING SIZE
 CBD .F                42:   CASING BOTTOM DRILLER
 CBL .F                42:   CASING BOTTOM LOGGER
 BS  .IN            7.875:   BIT SIZE
 BSD .F               736:   BIT SIZE AT DEPTH
 DFT .           KCL- GEL:   DRILLING FLUID TYPE
 DFD .                9.2:   DRILLING FLUID DENSITY
 DFV .                 42:   DRILLING FLUID VISCOSITY
 DFPH.                 11:   DRILLING FLUID PH
 MSS .           FLOWLINE:   MUD SAMPLE SOURCE
 RMS .OHMM            .51:   RESISTIVITY MUD SAMPLE
 MST .F                81:   MUD SAMPLE TEMPERATURE
 RMF .OHMM            .48:   RESISTIVITY MUD FILTRATE SAMPLE
 MFST.F                65:   MUD FILTRATE SAMPLE TEMPERATURE
 RMC .OHMM            .81:   RESISTIVITY MUD CAKE
 MCST.F                66:   MUD CAKE SAMPLE TEMPERATURE
 MFSS.               MEAS:   MUD FILTRATE SAMPLE SOURCE
 MCSS.               MEAS:   MUD CAKE SAMPLE SOURCE
 RMB .OHMM            .47:   RESISTIVITY MUD AT BHT
 BHT .F                90:   BOTTOM HOLE TEMPERATURE
 TCS .HRS            1930:   TIME CURCULATED STOPPED
 TLAB.HRS            2114:   TIME LOGGER AT BOTTOM
 LUN .               7609:   LOGGING UNIT NUMBER
 LUL .           GILLETTE:   LOGGING UNIT LOCATION
 ENGI. WEATHERMON/ JOHNSTON:   RECORDING ENGINEER
 WITN.           LENNINGS:   WITNESSED BY
 CLNT.            A2DTECH:   CLIENT CODE
 ORIG.           5" PRINT:   ORIGIN OF DATA
 UWI .       490251107500:   UNIQUE WELL ID
 DICO. A2D Technologies, Inc.:   DIGITIZING COMPANY
~OTHER INFORMATION
~A    DEPT     GRR       RILD       RILM        RLL        SPR   
# ...
  610.0000    80.3642    12.3618    12.5354    14.5762   -39.0290
  610.5000    80.0571    12.3649    12.4507    14.6834   -38.1199
  611.0000    80.3577    12.1958    12.2810    14.6873   -37.5042
  611.5000    81.8722    12.1128    12.1970    14.4870   -38.4267
  612.0000    83.3868    12.0309    12.0319    14.2895   -40.2491
  612.5000    84.5978    11.9502    11.8675    13.8987   -39.6436
  613.0000    85.2019    11.7054    11.7867    13.5187   -39.1894
  613.5000    80.3424    11.6263    11.6255    13.4289   -39.7982
  614.0000    77.6081    11.5471    11.4672    13.2449   -39.7794
  614.5000    75.4808    11.3899    11.3897    13.0643   -38.5871
  615.0000    74.8716    11.3921    11.3127    13.2529   -39.0442
  615.5000    78.5297    11.3120    11.3156    13.0686   -39.3488
  616.0000    81.5419    11.2387    11.3178    12.8939   -38.8953
  616.5000    79.7173    11.1633    11.3201    13.3576   -39.3520
  617.0000    77.8935    11.1655    11.3224    13.5495   -38.8986
  617.5000    80.3185    11.1677    11.2459    13.8407   -38.7480
  618.0000    82.1365    11.0922    11.2482    13.8445   -38.7498
  618.5000    82.4724    11.0945    11.1721    13.7440   -38.7512
  619.0000    82.7377    11.0973    11.0200    13.6593   -38.7527
  619.5000    83.0383    11.0217    10.9449    13.4740   -38.6024
  620.0000    83.9451    10.7954    10.7953    13.2903   -38.4521
  620.5000    86.9771    10.4276    10.5742    13.2938   -38.4539
  621.0000    89.7056    10.0718    10.3532    13.0211   -38.9106
  621.5000    87.8811     9.7120     9.8655    12.7434   -39.2155
  622.0000    86.6642     9.2020     9.2019    12.4061   -38.8932
  622.5000    85.7508     8.7648     8.5233    11.7337   -37.8527
  623.0000    85.4445     8.2902     7.9500    10.7914   -39.0685
  623.5000    86.0485     7.8414     7.5196     9.8555   -39.8287
  624.0000    88.8983     7.5212     7.2119     9.6533   -38.0092
  624.5000    98.1816     7.3155     7.0156     9.8142   -38.1624
  625.0000   106.9799     7.3173     7.0170    10.3594   -38.6194
  625.5000   110.0126     7.3700     7.1172    10.9589   -38.6209
  626.0000   104.2427     7.5276     7.3715    11.8391   -38.9258
  626.5000    92.2669     7.7423     7.7966    12.5242   -38.9273
  627.0000    86.0268     8.0783     8.1318    12.3512   -38.4735
  627.5000    83.5959     8.6614     8.4974    11.9327   -37.7162
  628.0000    82.0756     9.0339     8.9086    11.9359   -37.2624
  628.5000    80.5552     9.3567     9.0990    12.0229   -37.7195
  629.0000    79.3384     9.6237     9.2289    12.0261   -38.0244
  629.5000    78.0760     9.8294     9.3605    12.1139   -38.3294
  630.0000    81.1528     9.9743     9.4941    12.2080   -37.8756
  630.5000    86.9162    10.2546     9.5688    12.5528   -37.8774
  631.0000    91.4656    10.4009     9.6995    13.0034   -37.8788
  631.5000    93.5872    10.5493     9.7694    12.6478   -37.7282
  632.0000    90.8327    10.6998     9.9088    13.1017   -37.2744
  632.5000    89.9388    10.8524     9.9802    13.5720   -37.1245
  633.0000    89.9359    11.0845    10.0522    13.8638   -37.1259
  633.5000    89.3260    11.2431    10.1994    13.7707   -37.2795
  634.0000    86.8951    11.4035    10.4141    13.9695   -37.2809
  634.5000    85.3748    11.5662    10.6367    14.2697   -37.7376
  635.0000    85.6747    11.7312    10.8640    14.0742   -36.9803
  635.5000    86.8857    11.8986    11.0190    14.0789   -36.5266
  636.0000    86.2758    11.9845    11.2546    14.1817   -37.1353
  636.5000    85.0590    12.1560    11.3368    14.3863   -37.2885
  637.0000    85.0561    12.1584    11.4980    14.7987   -37.4417
  637.5000    86.2923    12.2461    11.5809    15.0103   -38.0502
  638.0000    87.1747    12.2485    11.7462    14.8065   -38.8103
  638.5000    87.1711    12.2510    11.8309    14.7073   -39.2670
  639.0000    87.1682    12.2541    11.9162    14.6087   -37.2962
  639.5000    88.0757    12.2565    12.0862    14.3100   -38.0563
  640.0000    89.5903    12.3449    12.1734    13.9177   -38.9683
  640.5000    88.6762    12.3474    12.0917    14.2178   -39.4249
  641.0000    86.2454    12.4364    12.0941    14.4221   -39.1178
  641.5000    84.7250    12.4389    12.0118    14.3253   -38.3660
  642.0000    83.5082    12.3548    11.9306    14.2302   -37.9118
  642.5000    84.1122    12.3579    11.7680    14.0352   -38.3689
  643.0000    85.0501    12.2738    11.6072    13.9411   -38.5221
  643.5000    86.2301    12.2769    11.5288    14.0437   -38.3718
  644.0000    87.1377    12.1938    11.4508    14.2455   -37.7259
  644.5000    87.7418    12.1884    11.4537    14.2494   -37.0090
  645.0000    88.0431    12.0296    11.4560    14.5565   -38.3765
  645.5000    88.3430    11.9483    11.4583    14.6627   -37.6192
  646.0000    87.1254    11.8681    11.4607    14.6666   -37.0137
  646.5000    85.9085    11.8705    11.5439    14.6706   -37.7891
  647.0000    85.2986    11.7082    11.5462    14.4705   -38.5344
  647.5000    85.2957    11.6291    11.4676    14.0748   -38.2324
  648.0000    84.9893    11.4707    11.3901    13.7870   -38.3856
  648.5000    84.3440    11.3139    11.3137    13.5033   -38.5388
  649.0000    83.4654    11.2368    11.3159    13.2271   -38.9955
  649.5000    83.7659    11.0067    11.0836    13.0459   -39.4749
  650.0000    85.8458    10.8850    10.9248    12.8689   -39.7571
  650.5000    89.2197    10.6902    10.8334    12.8729   -38.8492
  651.0000    89.8209    10.5616    10.7116    12.9668   -39.4598
  651.5000    89.8149    10.4172    10.4847    13.1532   -38.6910
  652.0000    89.8076    10.2039    10.2068    13.3422   -38.2517
  652.5000    89.8018    10.0639     9.9979    13.3304   -38.7106
  653.0000    89.7959     9.9263     9.8613    12.7120   -39.6240
  653.5000    89.4865     9.7911     9.7278    12.1925   -39.1717
  654.0000    88.8737     9.6573     9.6626    11.7756   -38.7187
  654.5000    88.2609     9.5253     9.5980    11.5348   -39.1999
  655.0000    87.3344     9.3908     9.4675    11.5380   -39.0288
  655.5000    86.4279     9.2667     9.3393    11.5411   -39.6394
  656.0000    88.5453     9.2041     9.2768    11.6254   -39.0346
  656.5000    91.5743     9.2064     9.2148    11.7109   -39.7970
  657.0000    93.9963     9.2082     9.2173    11.7963   -39.1930
  657.5000    96.4184     9.2101     9.2197    11.7995   -38.2847
  658.0000    98.5370     9.1479     9.2222    11.9690   -39.6541
  658.5000    94.8892     9.1497     9.2248    12.2263   -39.6570
  659.0000    90.8608     9.0884     9.2278    11.9700   -39.6607
  659.5000    88.8062     9.0902     9.1655    11.6480   -39.0566
  660.0000    91.5317     9.0283     9.1047    11.5699   -37.5414
  660.5000    94.2573     8.9673     9.0438    11.3333   -39.0625
  661.0000    94.8599     8.8447     8.9832    11.0227   -37.3962
  661.5000    92.1211     8.7243     8.9207    10.8724   -37.3819
  662.0000    90.5978     8.6034     8.7412    10.8761   -37.4021
  662.5000    89.6815     8.4874     8.6217    10.5665   -36.9247
  663.0000    93.6195     8.3714     8.4458    10.3617   -36.8010
  663.5000    96.6485     8.2574     8.3309    10.4380   -37.4116
  664.0000    97.8581     8.0878     8.1604    10.5880   -38.4768
  664.5000    96.3333     7.9218     8.0494    10.6652   -39.6937
  665.0000    95.4170     7.8135     7.9919    10.8185   -39.5449
  665.5000    95.7146     7.6527     7.8873    11.1286   -38.6363
  666.0000    97.8452     7.4883     7.7795    10.9668   -37.8371
  666.5000    99.6482     7.2913     7.5678    10.4556   -37.4292
  667.0000    97.8199     7.1416     7.3613     9.8200   -37.8874
  667.5000    95.9931     7.0436     7.0611     8.9684   -37.4351
  668.0000    94.1663     6.9473     6.7732     8.4232   -37.5905
  668.5000    92.3395     6.8527     6.5426     8.4846   -37.7452
  669.0000    91.1197     6.8541     6.4536     8.9152   -37.5964
  669.5000    90.8092     7.0069     6.6386     9.6296   -36.4987
  670.0000    95.1745     7.2007     6.9731    10.1158   -35.1750
  670.5000    99.5983     7.4581     7.3244    10.4789   -35.1780
