~VERSION INFORMATION
 VERS.                2.0:   CWLS LOG ASCII STANDARD - VERSION 2.0
 WRAP.                 NO:   ONE LINE PER DEPTH STEP
~WELL INFORMATION
#MNEM.UNIT      DATA TYPE    INFORMATION
#----------   ------------   ------------------------------
 STRT.F           35.0000:   START DEPTH
 STOP.F          977.0000:   STOP DEPTH
 STEP.F            0.5000:   STEP LENGTH
 NULL.          -999.2500:   NO VALUE
 COMP. FENIX & SCISSON INC:   COMPANY
 WELL.  NPR-3 "SX" #52-14:   WELL
 FLD .             TEAPOT:   FIELD
 LOC .      S14 T38N R78W:   LOCATION
 CNTY.            NATRONA:   COUNTY
 STAT.            WYOMING:   STATE
 CTRY. UNITED STATES OF AMERICA:   COUNTRY
 SRVC.            Unknown:   SERVICE COMPANY
 DATE.        13-MAR-1978:   LOGDATE
 API .       490251059900:   API NUMBER
~CURVE INFORMATION
#MNEM.UNIT       API CODE    CURVE DESCRIPTION
#----------   ------------   ------------------------------
 DEPT.F                  :   
 CALD.IN     45 280 60 00:   CALIPER FROM DENSITY LOG
 GRD .GAPI   45 310 01 00:   GAMMA RAY FROM DENSITY LOG
 CORR.G/C3   45 356 01 00:   DENSITY CORRECTION
 RHOB.G/C3   45 350 01 00:   BULK DENSITY
 DPHI.DEC    45 890 12 00:   DENSITY POROSITY SANDSTONE
 SPR .MV     07 010 01 00:   SPONTANEOUS POTENTIAL FROM RES. LOG
 ILD .OHMM   07 120 46 00:   INDUCTION LOG DEEP
 SN  .OHMM   07 040 16 00:   SHORT NORMAL 16'
~PARAMETER INFORMATION
#MNEM.UNIT          VALUE    DESCRIPTION
#----------   ------------   ------------------------------
 PD  .                 GL:   PERMANENT DATUM
 EPD .F              5223:   ELEVATION PERMANENT DATUM
 LMF .                 KB:   LOG MEASURED FROM
 DAPD.F                 4:   FEET ABOVE PERMANENT DATUM
 DMF .                 KB:   DRILLING MEASURED FROM
 EKB .F              5227:   KELLING BUSHING
 EGL .F              5223:   GROUND LEVEL
 DATE.            3-13-78:   RUN DATE
 RUN .                  1:   RUN NUMBER
 DD  .F               975:   DEPTH DRILLER
 DL  .F               977:   DEPTH LOGGER
 BLI .F               971:   BOTTOM LOG INTERVAL
 TLI .F                50:   TOP LOG INTERVAL
 CS  .IN            8.625:   CASING SIZE
 CBD .F                40:   CASING BOTTOM DRILLER
 CBL .F                40:   CASING BOTTOM LOGGER
 BS  .IN            7.875:   BIT SIZE
 BSD .F               975:   BIT SIZE AT DEPTH
 DFT .                KCL:   DRILLING FLUID TYPE
 DFD .                8.6:   DRILLING FLUID DENSITY
 DFV .                 33:   DRILLING FLUID VISCOSITY
 DFPH.               10.5:   DRILLING FLUID PH
 DFL .               11.6:   DRILLING FLUID LOSS
 MSS .          FLOW LINE:   MUD SAMPLE SOURCE
 RMS .OHMM            .34:   RESISTIVITY MUD SAMPLE
 MST .F                60:   MUD SAMPLE TEMPERATURE
 RMF .OHMM            .36:   RESISTIVITY MUD FILTRATE SAMPLE
 MFST.F                62:   MUD FILTRATE SAMPLE TEMPERATURE
 RMC .OHMM            .75:   RESISTIVITY MUD CAKE
 MCST.F                59:   MUD CAKE SAMPLE TEMPERATURE
 MFSS.               MEAS:   MUD FILTRATE SAMPLE SOURCE
 MCSS.               MEAS:   MUD CAKE SAMPLE SOURCE
 RMB .OHMM            .27:   RESISTIVITY MUD AT BHT
 BHT .F                75:   BOTTOM HOLE TEMPERATURE
 TCS .HRS               4:   TIME CURCULATED STOPPED
 MRT .F                75:   MAXIMUM RECORDED TEMPERATURE
 LUN .               2958:   LOGGING UNIT NUMBER
 LUL .               CASP:   LOGGING UNIT LOCATION
 ENGI.             MILLER:   RECORDING ENGINEER
 WITN.            RHOADES:   WITNESSED BY
 CLNT.            A2DTECH:   CLIENT CODE
 ORIG.       2", 5" PRINT:   ORIGIN OF DATA
 UWI .       490251059900:   UNIQUE WELL ID
 DICO. A2D Technologies, Inc.:   DIGITIZING COMPANY
~OTHER INFORMATION
~A   DEPT     CALD         GRD      CORR       RHOB       DPHI        SPR        ILD         SN   
# ...
  885.5000     7.9961    74.2887     0.0489     2.3741     0.1620   -49.4950    14.7560    13.1714
  886.0000     7.9960    74.1512     0.0450     2.3689     0.1645   -50.1642    14.5627    13.0730
  886.5000     7.9960    75.4831     0.0407     2.3657     0.1636   -49.4840    14.3720    12.9754
  887.0000     7.9960    77.0298     0.0394     2.3669     0.1639   -49.7466    14.1835    12.8785
  887.5000     7.9962    78.2330     0.0471     2.3578     0.1690   -50.8204    13.9972    12.7824
  888.0000     7.9738    73.9009     0.0549     2.3539     0.1665   -50.2657    13.8202    12.6869
  888.5000     7.9331    71.2289     0.0627     2.3667     0.1625   -49.7152    13.4980    12.5922
  889.0000     7.8948    72.4254     0.0720     2.3721     0.1404   -49.9562    13.1950    12.4982
  889.5000     7.8957    73.7181     0.0876     2.3882     0.1356   -50.5604    12.8979    12.4049
  890.0000     7.8927    77.0117     0.0964     2.4267     0.1176   -51.1907    12.7250    12.3122
  890.5000     8.0513    78.5423     0.0790     2.4416     0.1209   -50.5440    12.5853    12.2203
  891.0000     8.1986    76.9499     0.0600     2.4354     0.1244   -49.6407    12.4471    12.1291
  891.5000     8.1964    75.6971     0.0412     2.4259     0.1279   -49.5934    12.3104    12.0328
  892.0000     8.1965    77.9561     0.0359     2.4211     0.1308   -49.5997    12.1753    11.9345
  892.5000     8.1964    80.2438     0.0348     2.4218     0.1262   -49.7071    12.0416    11.8304
  893.0000     8.1964    79.7716     0.0351     2.4305     0.1160   -49.8265    11.9221    11.7273
  893.5000     8.1964    78.9156     0.0355     2.4478     0.1156   -49.9462    11.8849    11.6243
  894.0000     8.1964    76.1592     0.0359     2.4569     0.1242   -50.0657    11.8433    11.4903
  894.5000     8.1964    73.5656     0.0363     2.4381     0.1320   -50.1851    11.8019    11.5177
  895.0000     8.1964    72.9466     0.0353     2.4261     0.1354   -50.3050    11.7606    11.5624
  895.5000     8.1964    72.3855     0.0311     2.4169     0.1386   -50.4576    11.7195    11.6064
  896.0000     8.1950    71.8171     0.0270     2.4077     0.1420   -50.7399    11.6785    11.6505
  896.5000     8.1935    71.2284     0.0249     2.3990     0.1453   -51.0220    11.6377    11.6948
  897.0000     8.1920    71.7994     0.0259     2.3969     0.1454   -51.3037    11.5970    11.7393
  897.5000     8.1906    72.5695     0.0258     2.3966     0.1452   -51.5853    11.5564    11.8063
  898.0000     8.1891    73.3550     0.0231     2.3977     0.1473   -51.8677    11.5160    11.7795
  898.5000     8.1876    72.5847     0.0207     2.3948     0.1496   -52.0630    11.4758    11.6884
  899.0000     8.1861    71.5408     0.0233     2.3889     0.1519   -52.1868    11.4357    11.5981
  899.5000     8.1847    70.5539     0.0262     2.3830     0.1542   -52.3080    11.3957    11.5084
  900.0000     8.1832    70.0063     0.0292     2.3794     0.1532   -52.3525    11.3170    11.4194
  900.5000     8.1817    69.6908     0.0272     2.3819     0.1518   -52.1810    11.2231    11.3311
  901.0000     8.1803    69.5487     0.0209     2.3825     0.1527   -52.0142    11.1300    11.2435
  901.5000     8.1788    69.4118     0.0182     2.3753     0.1516   -51.6466    11.0377    11.1566
  902.0000     8.1773    69.2743     0.0175     2.3865     0.1500   -51.2514    10.9461    11.0703
  902.5000     8.1763    69.0892     0.0169     2.3933     0.1503   -50.8526    10.8554    10.9847
  903.0000     8.1763    68.6684     0.0192     2.3872     0.1500   -50.4395    10.7653    10.8998
  903.5000     8.1763    68.4639     0.0266     2.3867     0.1478   -50.8911    10.6761    10.8450
  904.0000     8.1763    68.9885     0.0303     2.3958     0.1456   -51.4582    10.5875    10.8063
  904.5000     8.1763    69.4825     0.0298     2.3988     0.1425   -51.8053    10.4997    10.7678
  905.0000     8.1763    69.9572     0.0293     2.4010     0.1374   -51.8352    10.4126    10.7294
  905.5000     8.1763    70.6543     0.0289     2.4075     0.1337   -51.8657    10.3546    10.6912
  906.0000     8.1763    76.9217     0.0291     2.4119     0.1312   -51.8934    10.3145    10.6531
  906.5000     8.1764    78.8871     0.0319     2.4150     0.1268   -51.9218    10.2745    10.6151
  907.0000     8.1763    78.8564     0.0343     2.4254     0.1223   -51.9534    10.2347    10.5773
  907.5000     8.1751    78.1293     0.0299     2.4382     0.1188   -51.9768    10.1951    10.5396
  908.0000     8.1739    77.4424     0.0251     2.4426     0.1223   -52.2222    10.1555    10.5020
  908.5000     8.1727    76.7266     0.0255     2.4306     0.1256   -52.4654    10.1162    10.4646
  909.0000     8.1715    75.1400     0.0264     2.4373     0.1200   -52.7406    10.0770    10.4273
  909.5000     8.1703    72.5082     0.0215     2.4330     0.1228   -53.0195    10.0379    10.3901
  910.0000     8.1691    73.8034     0.0203     2.4271     0.1256   -53.2989     9.9990    10.3531
  910.5000     8.1679    75.9384     0.0246     2.4244     0.1280   -53.5829     9.9601    10.3162
  911.0000     8.1667    77.9511     0.0288     2.4236     0.1236   -53.6598     9.9214    10.2834
  911.5000     8.1655    77.8098     0.0305     2.4291     0.1248   -53.7279     9.9046    10.2787
  912.0000     8.1643    78.2280     0.0305     2.4285     0.1191   -53.7972     9.8964    10.2739
  912.5000     8.1631    78.4803     0.0305     2.4479     0.1168   -53.8669     9.8879    10.2692
  913.0000     8.1619    78.2451     0.0319     2.4467     0.1146   -53.9366     9.8795    10.2644
  913.5000     8.1607    77.9575     0.0345     2.4449     0.1122   -54.0064     9.8711    10.2597
  914.0000     8.1595    79.2456     0.0356     2.4547     0.1139   -54.0761     9.8626    10.2549
  914.5000     8.1583    80.7750     0.0305     2.4491     0.1183   -54.1458     9.8542    10.2502
  915.0000     8.1571    79.6091     0.0254     2.4432     0.1204   -54.2155     9.8458    10.2454
  915.5000     8.1569    77.9209     0.0275     2.4400     0.1192   -54.2852     9.8374    10.2407
  916.0000     8.1586    76.2159     0.0294     2.4378     0.1177   -54.3549     9.8290    10.2360
  916.5000     8.1602    74.8048     0.0286     2.4415     0.1161   -54.4246     9.8206    10.2312
  917.0000     8.1618    74.7117     0.0244     2.4466     0.1151   -54.4945     9.8123    10.2265
  917.5000     8.1635    75.0031     0.0202     2.4428     0.1176   -54.5633     9.8039    10.2218
  918.0000     8.1651    75.7414     0.0181     2.4419     0.1136   -54.7023     9.7955    10.2170
  918.5000     8.1668    78.6202     0.0175     2.4465     0.1128   -54.8818     9.7872    10.2123
  919.0000     8.1685    83.4019     0.0168     2.4423     0.1190   -55.0617     9.7788    10.2076
  919.5000     8.1701    85.4723     0.0216     2.4365     0.1154   -55.2415     9.7704    10.2028
  920.0000     8.1718    82.7567     0.0303     2.4504     0.1109   -55.4514     9.7621    10.1981
  920.5000     8.1734    82.7411     0.0296     2.4583     0.1078   -55.7786     9.7538    10.1934
  921.0000     8.1751    85.9967     0.0286     2.4641     0.1072   -56.1090     9.7455    10.1875
  921.5000     8.1761    89.1643     0.0258     2.4597     0.1082   -56.4393     9.7371    10.1764
  922.0000     8.1742    89.6802     0.0228     2.4549     0.1127   -56.7701     9.7288    10.1652
  922.5000     8.1723    87.1742     0.0212     2.4503     0.1171   -57.0996     9.7205    10.1541
  923.0000     8.1705    84.4151     0.0249     2.4461     0.1103   -57.3645     9.7122    10.1429
  923.5000     8.1687    82.5490     0.0285     2.4632     0.1053   -57.2146     9.7039    10.1318
  924.0000     8.1669    83.1724     0.0237     2.4569     0.1142   -57.0611     9.6957    10.1206
  924.5000     8.1650    84.0383     0.0174     2.4520     0.1148   -57.0014     9.6874    10.1095
  925.0000     8.1632    84.5686     0.0165     2.4497     0.1154   -57.0291     9.6791    10.0984
  925.5000     8.1614    83.6728     0.0166     2.4442     0.1167   -57.0569     9.6709    10.0873
