~VERSION INFORMATION
 VERS.                2.0:   CWLS LOG ASCII STANDARD - VERSION 2.0
 WRAP.                 NO:   ONE LINE PER DEPTH STEP
~WELL INFORMATION
#MNEM.UNIT      DATA TYPE    INFORMATION
#----------   ------------   ------------------------------
 STRT.F            6.0000:   START DEPTH
 STOP.F         4020.0000:   STOP DEPTH
 STEP.F            0.5000:   STEP LENGTH
 NULL.          -999.2500:   NO VALUE
 COMP. LAWRENCE/ALLISON INC:   COMPANY
 WELL.       66 JX #33-33:   WELL
 FLD .              NPR-3:   FIELD
 LOC .      S33 T39N R78W:   LOCATION
 CNTY.            NATRONA:   COUNTY
 STAT.            WYOMING:   STATE
 CTRY. UNITED STATES OF AMERICA:   COUNTRY
 SRVC.      Dresser Atlas:   SERVICE COMPANY
 DATE.        02-DEC-1983:   LOGDATE
 API .       490251095100:   API NUMBER
~CURVE INFORMATION
#MNEM.UNIT       API CODE    CURVE DESCRIPTION
#----------   ------------   ------------------------------
 DEPT.F                  :   
 CALD.IN     45 280 60 00:   CALIPER
 CNC .DEC    42 890 03 00:   NEUTRON POROSITY SANDSTONE
 PORD.DEC    45 890 12 00:   POROSITY DENSITY SANDSTONE
 DEN .G/C3   45 350 01 00:   COMPENSATED BULK DENSTIY
 CORR.G/C3   45 356 01 00:   DENSITY CORRECTION
 RFOC.OHMM   07 220 04 00:   RESISTIVITY FOCUSED LOG
 RILD.OHMM   07 120 46 00:   INDUCTION LOG DEEP RESISTIVITY
 RILM.OHMM   07 120 44 00:   INDUCTION LOG MEDIUM RESISTIVITY
 GRR .GAPI   07 310 01 00:   GAMMA RAY FROM RES. LOG.
 DT  .US/F   60 520 00 00:   INTERVAL TRANSIT TIME
 SPR .MV     07 010 01 00:   SPONTANEOUS POTENTIAL
~PARAMETER INFORMATION
#MNEM.UNIT          VALUE    DESCRIPTION
#----------   ------------   ------------------------------
 PD  .                 GL:   PERMANENT DATUM
 EPD .F              5141:   ELEVATION PERMANENT DATUM
 LMF .                 KB:   LOG MEASURED FROM
 DAPD.F                10:   FEET ABOVE PERMANENT DATUM
 DMF .                 KB:   DRILLING MEASURED FROM
 EKB .F              5151:   KELLING BUSHING
 EGL .F              5141:   GROUND LEVEL
 DATE.            12-2-83:   RUN DATE
 RUN .                  1:   RUN NUMBER
 DD  .F              4025:   DEPTH DRILLER
 DL  .F              4020:   DEPTH LOGGER
 BLI .F              4018:   BOTTOM LOG INTERVAL
 TLI .F                10:   TOP LOG INTERVAL
 CS  .IN            8.625:   CASING SIZE
 CBD .F               718:   CASING BOTTOM DRILLER
 CBL .F               722:   CASING BOTTOM LOGGER
 BS  .IN            7.875:   BIT SIZE
 BSD .F              4025:   BIT SIZE AT DEPTH
 DFT .            GEL/KCL:   DRILLING FLUID TYPE
 DFD .                  9:   DRILLING FLUID DENSITY
 DFV .                 45:   DRILLING FLUID VISCOSITY
 DFPH.                8.5:   DRILLING FLUID PH
 DFL .                 12:   DRILLING FLUID LOSS
 MSS .           FLOWLINE:   MUD SAMPLE SOURCE
 RMS .OHMM            .37:   RESISTIVITY MUD SAMPLE
 MST .F                88:   MUD SAMPLE TEMPERATURE
 RMF .OHMM            .29:   RESISTIVITY MUD FILTRATE SAMPLE
 MFST.F                88:   MUD FILTRATE SAMPLE TEMPERATURE
 RMC .OHMM            .46:   RESISTIVITY MUD CAKE
 MCST.F                88:   MUD CAKE SAMPLE TEMPERATURE
 MFSS.               MEAS:   MUD FILTRATE SAMPLE SOURCE
 MCSS.               CALC:   MUD CAKE SAMPLE SOURCE
 RMB .OHMM            .26:   RESISTIVITY MUD AT BHT
 BHT .F               127:   BOTTOM HOLE TEMPERATURE
 TCS .HRS               4:   TIME CURCULATED STOPPED
 MRT .F               127:   MAXIMUM RECORDED TEMPERATURE
 LUN .               6264:   LOGGING UNIT NUMBER
 LUL .              WLSTN:   LOGGING UNIT LOCATION
 ENGI.            PANASUK:   RECORDING ENGINEER
 WITN.              SCOTT:   WITNESSED BY
 CLNT.            A2DTECH:   CLIENT CODE
 ORIG.       2", 5" PRINT:   ORIGIN OF DATA
 UWI .       490251095100:   UNIQUE WELL ID
 DICO. A2D Technologies, Inc.:   DIGITIZING COMPANY
~OTHER INFORMATION
~A    DEPT    CALD        CNC       PORD        DEN       CORR       RFOC       RILD       RILM          GRR       DT        SPR   
# ...
 1134.5000     9.7446     0.2994     0.0601     2.5450     0.0619     7.7457     7.9336     7.4595   103.0009  -999.2500   -32.4523
 1135.0000     9.7520     0.2830     0.0566     2.5501     0.0699     7.7392     7.9189     7.4389   103.8870  -999.2500   -32.7197
 1135.5000     9.7594     0.2836     0.0507     2.5563     0.0780     7.7326     7.9042     7.4183   106.1974  -999.2500   -33.0481
 1136.0000     9.7644     0.2886     0.0407     2.5651     0.0888     7.7261     7.8896     7.3977   107.9634  -999.2500   -33.4269
 1136.5000     9.7678     0.2871     0.0308     2.5845     0.1164     7.7197     7.8749     7.3772   108.8118  -999.2500   -33.6511
 1137.0000     9.7711     0.2864     0.0246     2.6076     0.1445     7.7132     7.8604     7.3568   108.9406  -999.2500   -33.6328
 1137.5000     9.7745     0.2878     0.0270     2.6044     0.1541     7.7066     7.8458     7.3364   109.4398  -999.2500   -33.5479
 1138.0000     9.7778     0.2905     0.0311     2.5986     0.1448     7.7000     7.8312     7.3161   108.4794  -999.2500   -33.3662
 1138.5000     9.7813     0.2960     0.0338     2.5931     0.1266     7.6933     7.8167     7.2958   106.4418  -999.2500   -33.2291
 1139.0000     9.7736     0.3005     0.0337     2.5894     0.1157     7.6867     7.8022     7.2756   104.2578  -999.2500   -33.0638
 1139.5000     9.7594     0.3041     0.0327     2.5910     0.1219     7.6810     7.7878     7.2554   103.9335  -999.2500   -32.9261
 1140.0000     9.7451     0.3007     0.0316     2.5937     0.1278     7.6347     7.7733     7.2353   105.2619  -999.2500   -32.7474
 1140.5000     9.7307     0.2945     0.0305     2.5964     0.1340     7.5941     7.7590     7.2168   105.3167  -999.2500   -32.6957
 1141.0000     9.7164     0.2885     0.0302     2.5968     0.1260     7.5537     7.7018     7.1378   106.6675  -999.2500   -32.9636
 1141.5000     9.7030     0.2878     0.0312     2.5954     0.1110     7.5135     7.6108     7.0333   108.0818  -999.2500   -33.1350
 1142.0000     9.7092     0.2901     0.0380     2.5878     0.0959     7.4724     7.5208     6.9440   107.1273  -999.2500   -33.2404
 1142.5000     9.7251     0.2964     0.0452     2.5736     0.0813     7.4022     7.4319     6.8558   105.2136  -999.2500   -33.0501
 1143.0000     9.7407     0.3017     0.0518     2.5646     0.0785     7.3308     7.3441     6.7688   105.0327  -999.2500   -32.8163
 1143.5000     9.7564     0.3056     0.0547     2.5558     0.0762     7.2599     7.2573     6.6831   108.4253  -999.2500   -32.5663
 1144.0000     9.7720     0.2906     0.0601     2.5470     0.0738     7.1898     7.1715     6.5985   111.2854  -999.2500   -32.4069
 1144.5000     9.7878     0.2730     0.0660     2.5385     0.0748     7.1203     7.0867     6.5151   112.2381  -999.2500   -32.5873
 1145.0000     9.8022     0.2750     0.0698     2.5337     0.0774     7.0515     7.0029     6.4327   111.4886  -999.2500   -32.9791
 1145.5000     9.8024     0.2778     0.0712     2.5305     0.0750     6.9834     6.9202     6.3513   110.4218  -999.2500   -32.9118
 1146.0000     9.7995     0.2762     0.0728     2.5275     0.0659     6.9159     6.8384     6.2738   110.8684  -999.2500   -32.7078
 1146.5000     9.7931     0.2848     0.0733     2.5272     0.0615     6.7531     6.7575     6.2284   111.5982  -999.2500   -32.6562
 1147.0000     9.7868     0.2983     0.0730     2.5269     0.0643     6.7732     6.6777     6.1847   112.6331  -999.2500   -32.9725
 1147.5000     9.7804     0.3162     0.0748     2.5264     0.0582     6.8155     6.5987     6.1414   113.0272  -999.2500   -33.2926
 1148.0000     9.7741     0.3135     0.0739     2.5267     0.0510     6.7520     6.5207     6.0984   111.6583  -999.2500   -33.6252
 1148.5000     9.7678     0.3191     0.0662     2.5391     0.0548     6.6926     6.4494     6.0557   109.2551  -999.2500   -33.9341
 1149.0000     9.7614     0.3291     0.0586     2.5520     0.0574     6.6338     6.4434     5.9917   106.8714  -999.2500   -34.2883
 1149.5000     9.7551     0.3382     0.0546     2.5584     0.1006     6.5692     6.4377     5.9959   106.5363  -999.2500   -34.3920
 1150.0000     9.7488     0.3031     0.0550     2.5561     0.0975     6.6096     6.4321     6.0045   108.2879  -999.2500   -34.2376
 1150.5000     9.7424     0.2836     0.0569     2.5539     0.1075     6.6681     6.4265     6.0130   107.5443  -999.2500   -34.1263
 1151.0000     9.7361     0.2777     0.0586     2.5516     0.0909     6.7272     6.4209     6.0216   104.5624  -999.2500   -33.9927
 1151.5000     9.7298     0.2757     0.0610     2.5473     0.0624     6.8155     6.4153     6.0302   105.2372  -999.2500   -33.8710
 1152.0000     9.7234     0.2669     0.0635     2.5425     0.0662     6.7635     6.4097     6.0388   106.7190  -999.2500   -33.7432
 1152.5000     9.7171     0.2574     0.0624     2.5439     0.0535     6.6078     6.4041     6.0474   106.7005  -999.2500   -33.6180
 1153.0000     9.7108     0.2578     0.0602     2.5471     0.0796     6.5094     6.3985     6.0560   106.7525  -999.2500   -33.4923
 1153.5000     9.7044     0.2717     0.0611     2.5478     0.1055     6.5192     6.3904     6.0646   106.7063  -999.2500   -33.3654
 1154.0000     9.6981     0.2806     0.0622     2.5466     0.0956     6.5293     6.4214     6.0733   106.8550  -999.2500   -33.2463
 1154.5000     9.6918     0.2790     0.0606     2.5505     0.0833     6.5397     6.4788     6.0819   108.3243  -999.2500   -33.2550
 1155.0000     9.6854     0.2687     0.0541     2.5575     0.0720     6.5498     6.5367     6.0906   109.4440  -999.2500   -33.2848
 1155.5000     9.6791     0.2566     0.0472     2.5674     0.0917     6.5595     6.5952     6.0993   110.0044  -999.2500   -33.3098
 1156.0000     9.6728     0.2565     0.0435     2.5777     0.1049     6.5692     6.6542     6.1625   110.8019  -999.2500   -33.3367
 1156.5000     9.6664     0.2743     0.0428     2.5775     0.0916     6.6344     6.7074     6.2685   112.4702  -999.2500   -33.3628
 1157.0000     9.6613     0.2886     0.0449     2.5743     0.0725     6.7022     6.7507     6.3763   114.0786  -999.2500   -33.3891
 1157.5000     9.6580     0.2931     0.0470     2.5710     0.0656     6.7706     6.7942     6.5090   115.4822  -999.2500   -33.4170
 1158.0000     9.6546     0.2979     0.0467     2.5709     0.1068     6.8397     6.8380     6.5289   115.2337  -999.2500   -33.4264
 1158.5000     9.6512     0.3002     0.0463     2.5714     0.1365     6.9096     6.8821     6.5542   113.6214  -999.2500   -33.2875
 1159.0000     9.6479     0.2927     0.0480     2.5696     0.1420     6.9801     6.9265     6.5795   112.2318  -999.2500   -33.2594
 1159.5000     9.6445     0.2860     0.0505     2.5655     0.1435     7.0514     6.9711     6.6049   110.5249  -999.2500   -33.5267
 1160.0000     9.6412     0.2794     0.0526     2.5616     0.1240     7.1364     7.0062     6.6299   109.7678  -999.2500   -33.7806
 1160.5000     9.6378     0.2754     0.0524     2.5648     0.1016     7.1026     7.0710     6.5488   111.2186  -999.2500   -34.0215
 1161.0000     9.6345     0.2809     0.0482     2.5699     0.0812     7.0616     6.9913     6.4702   112.7042  -999.2500   -34.3005
 1161.5000     9.6311     0.2882     0.0446     2.5735     0.0852     7.0209     6.8960     6.3926   114.1436  -999.2500   -34.4290
 1162.0000     9.6278     0.2930     0.0463     2.5707     0.0915     6.9288     6.8021     6.3158   114.5313  -999.2500   -34.2670
 1162.5000     9.6244     0.2864     0.0486     2.5667     0.0979     6.8096     6.7095     6.2738   114.9118  -999.2500   -34.1437
 1163.0000     9.6235     0.2854     0.0486     2.5674     0.1026     6.6299     6.5692     6.2583   114.9016  -999.2500   -34.0033
 1163.5000     9.6260     0.2935     0.0486     2.5685     0.1076     6.6582     6.6299     6.2459   112.8480  -999.2500   -33.8742
 1164.0000     9.6285     0.2966     0.0480     2.5696     0.1160     6.7201     6.6361     6.2336   110.4496  -999.2500   -33.7348
 1164.5000     9.6311     0.2909     0.0474     2.5709     0.1244     6.7826     6.6454     6.2212   107.5594  -999.2500   -33.6316
