~VERSION INFORMATION
 VERS.                2.0:   CWLS LOG ASCII STANDARD - VERSION 2.0
 WRAP.                 NO:   ONE LINE PER DEPTH STEP
~WELL INFORMATION
#MNEM.UNIT      DATA TYPE    INFORMATION
#----------   ------------   ------------------------------
 STRT.F           32.5000:   START DEPTH
 STOP.F          433.0000:   STOP DEPTH
 STEP.F            0.5000:   STEP LENGTH
 NULL.          -999.2500:   NO VALUE
 COMP.    FENIX & SCISSON:   COMPANY
 WELL. NPR-3 65-S-10 #65-10:   WELL
 FLD .             TEAPOT:   FIELD
 LOC .      S10 T38N R78W:   LOCATION
 CNTY.            NATRONA:   COUNTY
 STAT.            WYOMING:   STATE
 CTRY. UNITED STATES OF AMERICA:   COUNTRY
 SRVC.           BIRDWELL:   SERVICE COMPANY
 DATE.        13-JUN-1978:   LOGDATE
 API .       490251063000:   API NUMBER
~CURVE INFORMATION
#MNEM.UNIT       API CODE    CURVE DESCRIPTION
#----------   ------------   ------------------------------
 DEPT.F                  :   
 CALD.IN     45 280 60 00:   CALIPER FROM DENSITY LOG
 CORR.G/C3   45 356 01 00:   DENSITY CORRECTION
 DEN .G/C3   45 350 01 00:   COMPENSATED BULK DENSITY
 GRD .GAPI   45 310 01 00:   GAMMA RAY FROM DENSITY LOG
 DPHI.DEC    45 890 12 00:   DENSITY POROSITY SANDSTONE
 IL  .OHMM   05 120 00 00:   INDUCTION LOG 40"
 SN  .OHMM   05 040 16 00:   SHORT NORMAL 16"
 SPR .MV     05 010 01 00:   SPONTANEOUS POTENTIAL FROM RES.
~PARAMETER INFORMATION
#MNEM.UNIT          VALUE    DESCRIPTION
#----------   ------------   ------------------------------
 PD  .                 GL:   PERMANENT DATUM
 EPD .F              5193:   ELEVATION PERMANENT DATUM
 LMF .                 KB:   LOG MEASURED FROM
 DMF .                 KB:   DRILLING MEASURED FROM
 EKB .F              5197:   KELLING BUSHING
 EGL .F              5193:   GROUND LEVEL
 DATE.          6-13-1978:   RUN DATE
 RUN .                  1:   RUN NUMBER
 DD  .F               430:   DEPTH DRILLER
 DL  .F               433:   DEPTH LOGGER
 BLI .F               427:   BOTTOM LOG INTERVAL
 TLI .F                50:   TOP LOG INTERVAL
 CS  .IN            8.625:   CASING SIZE
 CBD .F                40:   CASING BOTTOM DRILLER
 CBL .F                48:   CASING BOTTOM LOGGER
 BS  .IN            7.875:   BIT SIZE
 BSD .F               430:   BIT SIZE AT DEPTH
 DFT .                KCL:   DRILLING FLUID TYPE
 DFD .                8.7:   DRILLING FLUID DENSITY
 DFV .                 32:   DRILLING FLUID VISCOSITY
 DFPH.                9.5:   DRILLING FLUID PH
 DFL .                8.4:   DRILLING FLUID LOSS
 MSS .           FLOWLINE:   MUD SAMPLE SOURCE
 RMS .OHMM            .38:   RESISTIVITY MUD SAMPLE
 MST .F                86:   MUD SAMPLE TEMPERATURE
 RMF .OHMM            .36:   RESISTIVITY MUD FILTRATE SAMPLE
 MFST.F                82:   MUD FILTRATE SAMPLE TEMPERATURE
 MFSS.               MEAS:   MUD FILTRATE SAMPLE SOURCE
 MCSS.               MEAS:   MUD CAKE SAMPLE SOURCE
 TCS .HRS               3:   TIME CURCULATED STOPPED
 MRT .F                73:   MAXIMUM RECORDED TEMPERATURE
 LUN .               2958:   LOGGING UNIT NUMBER
 LUL .               CASP:   LOGGING UNIT LOCATION
 ENGI.           REYNOLDS:   RECORDING ENGINEER
 WITN.           MCGINLEY:   WITNESSED BY
 CLNT.            A2DTECH:   CLIENT CODE
 ORIG.           5" PRINT:   ORIGIN OF DATA
 UWI .       490251063000:   UNIQUE WELL ID
 DICO. A2D Technologies, Inc.:   DIGITIZING COMPANY
~OTHER INFORMATION
~A   DEPT     CALD       CORR        DEN        GRD       DPHI         IL         SN        SPR   
# ...
  356.5000     7.2956     0.0029     2.3959    91.7190     0.1395    15.1512    23.5571   -50.3473
  357.0000     7.2550    -0.0001     2.4101    92.0179     0.1389    14.9600    23.4120   -50.6220
  357.5000     7.2144     0.0014     2.4288    92.0179     0.1380    14.7712    23.2658   -50.6027
  358.0000     7.1545     0.0014     2.4288    92.3169     0.1419    14.5817    22.8093   -50.5802
  358.5000     7.1241     0.0014     2.4235    92.3224     0.1425    14.4910    22.6673   -50.5617
  359.0000     7.1235     0.0028     2.4220    92.6158     0.1413    14.2069    22.2195   -50.5432
  359.5000     7.0782     0.0011     2.4205    93.3632     0.1436    14.0275    22.0817   -50.6736
  360.0000     7.0327     0.0025     2.4212    94.0808     0.1449    13.6583    21.7943   -51.4186
  360.5000     7.0173     0.0070     2.4212    92.2853     0.1454    13.3934    21.5142   -53.0129
  361.0000     7.0764     0.0143     2.4204    90.9387     0.1407    13.1309    21.5283   -53.5897
  361.5000     7.2102     0.0113     2.4189    88.6631     0.1221    12.9597    21.6912   -52.9760
  362.0000     7.2542     0.0068     2.4242    87.1986     0.1108    12.7961    21.4828   -50.7253
  362.5000     7.2985     0.0053     2.4436    86.8982     0.1042    12.7192    21.0625   -47.2842
  363.0000     7.2979     0.0053     2.4620    86.5979     0.1000    12.4726    20.6422   -52.7717
  363.5000     7.2674     0.0067     2.4809    88.9878     0.0973    12.3976    20.2219   -47.2473
  364.0000     7.2668     0.0073     2.4906    91.0791     0.1002    12.3204    19.7480   -48.5634
  364.5000     7.2513     0.0082     2.4914    91.3770     0.1026    12.1645    19.4907   -49.5866
  365.0000     7.2667     0.0081     2.4756    90.9168     0.1041    12.0089    19.2408   -53.1396
  365.5000     7.3247     0.0081     2.4704    90.1780     0.1041    12.0191    18.9982   -59.4420
  366.0000     7.3541     0.0110     2.4696    91.9700     0.1071    11.7835    18.8882   -59.9478
  366.5000     7.3833     0.0106     2.4719    92.5665     0.1128    11.6348    18.7723   -60.3758
  367.0000     7.3826     0.0110     2.4748    92.8640     0.1172    11.5329    18.7908   -60.5061
  367.5000     7.3820     0.0109     2.4748    93.1616     0.1193    11.4953    18.6740   -60.4830
  368.0000     7.3815     0.0168     2.4733    92.8609     0.1110    11.4263    18.5655   -59.0751
  368.5000     7.3809     0.0198     2.4716    93.1624     0.1076    11.4369    18.5821   -58.2139
  369.0000     7.3653     0.0197     2.4703    94.3525     0.1056    11.3673    18.3435   -59.8323
  369.5000     7.3647     0.0167     2.4777    95.6968     0.1056    11.2990    18.2333   -58.1723
  370.0000     7.3791     0.0108     2.4972    94.6487     0.1062    11.3110    18.1238   -54.8800
  370.5000     7.2888     0.0063     2.4942    93.8996     0.1062    11.2433    17.8953   -58.5818
  371.0000     7.2286     0.0048     2.4932    93.7487     0.1050    11.2527    17.9107   -58.8563
  371.5000     7.1683     0.0063     2.4911    94.3452     0.1032    11.1850    17.8031   -61.5164
  372.0000     7.1827     0.0077     2.4896    95.5396     0.0997    11.1962    17.6961   -62.9906
  372.5000     7.2417     0.0092     2.4904    98.5274     0.0973    11.2839    17.7151   -64.4602
  373.0000     7.2562     0.0077     2.4918   100.0208     0.0958    11.2938    17.7302   -63.6931
  373.5000     7.2555     0.0106     2.4956   100.3187     0.0943    11.3057    17.5029   -68.6961
  374.0000     7.2864     0.0106     2.5002    98.4754     0.0913    11.3153    17.5184   -70.2037
  374.5000     7.2992     0.0105     2.5052    97.0267     0.0907    11.2449    17.5366   -69.2878
  375.0000     7.1791     0.0105     2.5082    96.2779     0.0931    11.2569    17.4313   -60.9360
  375.5000     7.2830     0.0105     2.5194    96.7249     0.0943    11.1125    17.3229   -69.1020
  376.0000     7.3718     0.0104     2.5343    99.5633     0.0955    11.2012    17.2226   -74.1846
  376.5000     7.4013     0.0104     2.5418   101.2061     0.0964    11.2882    17.2375   -76.0545
  377.0000     7.4006     0.0104     2.5448   100.6068     0.0970    11.1410    16.9033   -81.4028
  377.5000     7.3701     0.0104     2.5267    99.6986     0.0970    10.9249    16.6831   -55.0338
  378.0000     7.3396     0.0103     2.5149    99.4082     0.0967    10.7108    16.4692   -53.9737
  378.5000     7.3391     0.0103     2.5104   100.6023     0.0962    10.5734    16.4868   -53.2111
  379.0000     7.3385     0.0103     2.5074   102.2451     0.0947    10.4377    16.5009   -53.3461
  379.5000     7.3378     0.0102     2.5012   103.4392     0.0914    10.3772    16.5150   -59.1265
  380.0000     7.3372     0.0086     2.4991   103.8862     0.0876    10.2441    16.4170   -58.8058
  380.5000     7.3367     0.0072     2.5028   104.0346     0.0860    10.1823    16.3208   -57.1504
  381.0000     7.3361     0.0072     2.5080   104.0329     0.0896    10.0957    16.3347   -58.0294
  381.5000     7.3354     0.0072     2.5088   104.1810     0.0917    10.0506    16.2362   -56.8159
  382.0000     7.3349     0.0104     2.5058   104.1792     0.0950     9.9335    16.1391   -56.4998
  382.5000     7.3642     0.0160     2.5020   104.0284     0.0959     9.9420    16.1538   -55.1420
  383.0000     7.3187     0.0115     2.4990   103.8771     0.0854     9.9505    15.9459   -59.2855
  383.5000     7.2734     0.0085     2.4968   103.2778     0.0834     9.8228    15.8501   -59.7181
  384.0000     7.3326     0.0070     2.5117   105.0702     0.0837     9.8317    15.5430   -59.2486
  384.5000     7.3767     0.0055     2.5191   105.3677     0.0837     9.8417    15.4496   -59.2301
  385.0000     7.3611     0.0070     2.5190   105.6653     0.0831     9.8501    15.3568   -58.6756
  385.5000     7.3457     0.0063     2.5169   106.2614     0.0813     9.7888    15.0593   -51.4550
  386.0000     7.3900     0.0054     2.5176   108.3527     0.0801     9.7320    14.9656   -60.2117
  386.5000     7.3296     0.0039     2.5198   108.9492     0.0867     9.6072    14.8758   -60.3466
  387.0000     7.4184     0.0039     2.5206   106.8548     0.0921     9.6839    14.7893   -60.0259
  387.5000     7.4777     0.0038     2.5146   105.9565     0.1024     9.6236    14.8025   -58.8170
  388.0000     7.4621     0.0038     2.5071   105.9472     0.1070     9.6339    14.6156   -60.5796
  388.5000     7.4017     0.0038     2.4987   107.7471     0.1091     9.5103    14.3294   -59.9659
  389.0000     7.4011     0.0052     2.4869   110.5858     0.1172     9.0425    13.9524   -53.8462
  389.5000     7.4156     0.0067     2.4764   112.2286     0.1261     8.4181    13.6762   -50.1121
  390.0000     7.4149     0.0111     2.4659   116.4623     0.1364     7.9739    13.1373   -60.0592
  390.5000     7.4142     0.0155     2.4544   117.1586     0.1435     7.3480    12.1930   -60.1895
  391.0000     7.3838     0.0288     2.4255   117.9042     0.1501     6.7712    11.3922   -60.0176
  391.5000     7.3683     0.0347     2.4188   120.7429     0.1552     6.2354    10.4986   -60.3014
  392.0000     7.3378     0.0243     2.4128   127.7665     0.1364     6.5097     9.0320   -60.1295
  392.5000     7.3223     0.0050     2.4053   131.9505     0.1038     6.6512     8.3235   -60.1110
  393.0000     7.2919     0.0035     2.4187   132.8463     0.0987     6.6098     7.9283   -59.9435
  393.5000     7.2760     0.0035     2.4389   132.8366     0.0945     6.6169     7.6772   -59.7718
  394.0000     7.2608     0.0049     2.4877   116.2509     0.0910     6.7144     8.1762   -59.7533
  394.5000     7.2602     0.0049     2.5009   106.3840     0.0880     6.9092     8.6461   -59.5860
  395.0000     7.2597     0.0064     2.5046   102.7952     0.0880     7.3066     9.3981   -59.4187
  395.5000     7.3188     0.0063     2.5069   102.0460     0.0910     8.1643    10.5067   -59.4002
  396.0000     7.3481     0.0063     2.5083   102.0446     0.0916     8.8140    11.7346   -59.5306
  396.5000     7.3325     0.0063     2.5076   101.4453     0.0904     9.1304    12.2395   -59.5075
