~VERSION INFORMATION
 VERS.                2.0:   CWLS LOG ASCII STANDARD - VERSION 2.0
 WRAP.                 NO:   ONE LINE PER DEPTH STEP
~WELL INFORMATION
#MNEM.UNIT      DATA TYPE    INFORMATION
#----------   ------------   ------------------------------
 STRT.F            7.0000:   START DEPTH
 STOP.F          587.0000:   STOP DEPTH
 STEP.F            0.5000:   STEP LENGTH
 NULL.          -999.2500:   NO VALUE
 COMP. FENIX & SCISSON INC:   COMPANY
 WELL.        NPR-3 #63-3:   WELL
 FLD .             TEAPOT:   FIELD
 LOC .       S3 T38N R78W:   LOCATION
 CNTY.            NATRONA:   COUNTY
 STAT.            WYOMING:   STATE
 CTRY. UNITED STATES OF AMERICA:   COUNTRY
 SRVC.     Wedge Wireline:   SERVICE COMPANY
 DATE.        06-JAN-1978:   LOGDATE
 API .       490251044700:   API NUMBER
~CURVE INFORMATION
#MNEM.UNIT       API CODE    CURVE DESCRIPTION
#----------   ------------   ------------------------------
 DEPT.F                  :   
 ILD .OHMM   05 120 46 00:   INDUCTION LOG DEEP
 SN  .OHMM   05 040 16 00:   SHORT NORMAL
 SPR .MV     05 010 01 00:   SPONTANEOUS POTENTIAL FROM RES.
 CALD.IN     45 280 60 00:   CALIPER FROM DENSITY LOG
 CORR.G/C3   45 356 01 00:   DENSITY CORRECTION
 DPHI.DEC    45 890 12 00:   DENSITY POROSITY SANDSTONE
 GRD .GAPI   45 310 01 00:   GAMMA RAY FROM DENSITY LOG
 RHOB.G/C3   45 350 01 00:   BULK DENSITY
~PARAMETER INFORMATION
#MNEM.UNIT          VALUE    DESCRIPTION
#----------   ------------   ------------------------------
 PD  .                 GL:   PERMANENT DATUM
 EPD .F              5177:   ELEVATION PERMANENT DATUM
 LMF .                 KB:   LOG MEASURED FROM
 DMF .                 KB:   DRILLING MEASURED FROM
 EKB .F              5181:   KELLING BUSHING
 EGL .F              5177:   GROUND LEVEL
 DATE.        06-JAN-1978:   RUN DATE
 RUN .                  1:   RUN NUMBER
 DD  .F               590:   DEPTH DRILLER
 DL  .F               581:   DEPTH LOGGER
 BLI .F               576:   BOTTOM LOG INTERVAL
 TLI .F                20:   TOP LOG INTERVAL
 CS  .IN            9.625:   CASING SIZE
 CBD .F                19:   CASING BOTTOM DRILLER
 CBL .F                19:   CASING BOTTOM LOGGER
 BS  .IN            7.875:   BIT SIZE
 BSD .F               590:   BIT SIZE AT DEPTH
 DFT .                KCL:   DRILLING FLUID TYPE
 DFD .                8.5:   DRILLING FLUID DENSITY
 DFV .                 34:   DRILLING FLUID VISCOSITY
 DFPH.                9.0:   DRILLING FLUID PH
 DFL .                7.8:   DRILLING FLUID LOSS
 MSS .           FLOWLINE:   MUD SAMPLE SOURCE
 RMS .OHMM           0.22:   RESISTIVITY MUD SAMPLE
 MST .F                63:   MUD SAMPLE TEMPERATURE
 RMF .OHMM           0.24:   RESISTIVITY MUD FILTRATE SAMPLE
 MFST.F                63:   MUD FILTRATE SAMPLE TEMPERATURE
 RMC .OHMM           0.48:   RESISTIVITY MUD CAKE
 MCST.F                64:   MUD CAKE SAMPLE TEMPERATURE
 MFSS.               MEAS:   MUD FILTRATE SAMPLE SOURCE
 MCSS.               MEAS:   MUD CAKE SAMPLE SOURCE
 RMB .OHMM           0.19:   RESISTIVITY MUD AT BHT
 BHT .F                71:   BOTTOM HOLE TEMPERATURE
 TCS .HRS               3:   TIME CURCULATED STOPPED
 MRT .F                71:   MAXIMUM RECORDED TEMPERATURE
 LUN .               2958:   LOGGING UNIT NUMBER
 LUL .             CASPER:   LOGGING UNIT LOCATION
 ENGI.             MILLER:   RECORDING ENGINEER
 WITN.         HARRINGTON:   WITNESSED BY
 CLNT.            A2DTECH:   CLIENT CODE
 ORIG.           5" PRINT:   ORIGIN OF DATA
 UWI .       490251044700:   UNIQUE WELL ID
 DICO. A2D Technologies, Inc.:   DIGITIZING COMPANY
~OTHER INFORMATION
~A    DEPT     ILD         SN        SPR       CALD       CORR       DPHI         GRD      RHOB   
# ...
  371.5000    15.9655    10.2180   -41.5886     8.5827    -0.2929     0.1019    82.0690     2.4879
  372.0000    16.4226    10.3030   -41.2823     8.5836    -0.2823     0.1043    76.2178     2.4819
  372.5000    17.0097    10.5870   -40.5431     8.5843    -0.2716     0.1081    72.3348     2.4714
  373.0000    17.9860    10.8878   -39.5132     8.5705    -0.2625     0.1346    69.5136     2.4564
  373.5000    19.3013    11.4309   -38.9193     8.5564    -0.2534     0.1385    68.3557     2.4428
  374.0000    21.5486    11.9188   -38.3254     8.5426    -0.2685     0.1454    68.0845     2.4167
  374.5000    23.9118    12.4506   -37.5654     8.5286    -0.2896     0.1950    68.1126     2.3614
  375.0000    26.9027    13.1391   -36.8438     8.5293    -0.3077     0.2059    70.4846     2.3289
  375.5000    30.0597    13.6998   -36.2500     8.5302    -0.3470     0.2083    77.5611     2.3177
  376.0000    32.2624    14.2845   -35.3654     8.5309    -0.3651     0.2086    87.5689     2.3117
  376.5000    33.6147    14.8941   -34.7715     8.5316    -0.3560     0.2086    92.2904     2.3071
  377.0000    33.6368    15.3316   -34.7587     8.5030    -0.3423     0.2085    95.5434     2.3057
  377.5000    33.6589    15.7543   -34.1621     8.5037    -0.3287     0.2091    96.7406     2.3148
  378.0000    33.6809    16.2019   -32.9868     8.5044    -0.3320     0.2113    96.7636     2.3209
  378.5000    34.4350    16.4753   -32.2476     8.5052    -0.3528     0.2127    96.4919     2.3149
  379.0000    35.8898    16.9011   -31.7990     8.5059    -0.3588     0.2127    94.7579     2.3059
  379.5000    37.1728    17.0260   -31.7863     8.5066    -0.3466     0.2124    90.0814     2.3076
  380.0000    38.5285    17.1533   -30.8989     8.5073    -0.3360     0.2139    70.7206     2.3106
  380.5000    39.8781    17.1611   -30.3050     8.5081    -0.3193     0.2175    68.3818     2.3061
  381.0000    39.5912    17.1690   -29.7111     8.5089    -0.3037     0.2202    75.4067     2.3016
  381.5000    40.2133    17.4152   -29.4080     8.5096    -0.3101     0.2214    81.3664     2.2956
  382.0000    42.2291    17.6652   -29.3953     8.5103    -0.3741     0.2271    73.1657     2.2857
  382.5000    44.6528    17.9203   -29.5283     8.5110    -0.3523     0.2365    67.8962     2.2633
  383.0000    45.9314    18.1772   -29.5127     8.5117    -0.3282     0.2389    69.6864     2.2656
  383.5000    46.2795    18.1856   -29.6487     8.5126    -0.3100     0.2358    74.4787     2.2755
  384.0000    45.9917    18.1939   -29.6331     8.5133    -0.3583     0.2316    79.1350     2.2853
  384.5000    45.3991    18.2026   -29.6206     8.5140    -0.3069     0.2270    81.8006     2.2937
  385.0000    45.4288    18.2127   -29.6051     8.5293    -0.2887     0.2246    84.7600     2.2983
  385.5000    45.4587    18.2211   -29.5926     8.5301    -0.3102     0.2231    87.4256     2.2840
  386.0000    45.4959    18.2295   -29.5801     8.5456    -0.3809     0.2212    88.9165     2.2629
  386.5000    45.5655    18.2378   -29.5676     8.5463    -0.3339     0.2182    89.2327     2.2675
  387.0000    45.8707    17.9965   -29.5552     8.5470    -0.3127     0.2164    88.0861     2.2962
  387.5000    46.2183    18.0069   -29.5396     8.5477    -0.3005     0.2154    87.5155     2.3100
  388.0000    45.6154    17.7666   -29.3817     8.5484    -0.3218     0.2157    87.2443     2.3092
  388.5000    44.4110    17.7768   -29.5177     8.5493    -0.3488     0.2169    87.8598     2.3068
  389.0000    43.8316    17.7850   -29.3568     8.5499    -0.3488     0.2151    89.0690     2.3040
  389.5000    43.8604    17.6710   -29.3443     8.5507    -0.3427     0.2114    90.2599     2.3018
  390.0000    43.2872    17.6812   -29.3314     8.5514    -0.3608     0.2090    89.4013     2.3011
  390.5000    43.3170    17.6893   -29.4647     8.5521    -0.3698     0.2050    85.3122     2.3132
  391.0000    43.0472    17.6974   -29.7398     8.5529    -0.3665     0.1978    85.3347     2.3299
  391.5000    43.0824    17.5838   -29.8727     8.5536    -0.3486     0.1950    86.5319     2.3375
  392.0000    42.8075    17.4713   -30.0058     8.5543    -0.3364     0.1898    88.3165     2.3481
  392.5000    42.8715    17.3593   -29.9927     8.5550    -0.3334     0.1832    80.7088     2.3557
  393.0000    42.8707    17.3693   -29.9774     8.5557    -0.3378     0.1883    70.7459     2.3610
  393.5000    42.3183    17.3773   -29.9650     8.5565    -0.3605     0.1913    69.0007     2.3468
  394.0000    42.0551    17.3852   -29.9525     8.5573    -0.3756     0.1925    72.5530     2.3294
  394.5000    41.5064    17.2738   -30.2311     8.5727    -0.3347     0.1879    79.0718     2.3234
  395.0000    40.6830    17.1631   -30.7996     8.5585    -0.3256     0.1813    86.9942     2.3514
  395.5000    39.2939    17.1730   -31.2201     8.5594    -0.3633     0.1794    93.1841     2.3651
  396.0000    37.7680    16.9438   -31.6468     8.5601    -0.3905     0.1818    98.4929     2.3727
  396.5000    36.5123    16.8370   -32.2126     8.5610    -0.3920     0.1782   100.5712     2.3773
  397.0000    35.5367    16.7293   -32.4913     8.5617    -0.3693     0.1721   101.1811     2.3804
  397.5000    34.3607    16.7389   -32.9143     8.5624    -0.3768     0.1709    92.9221     2.3804
  398.0000    32.7688    16.6316   -32.8988     8.5631    -0.4176     0.1748    86.5474     2.3789
  398.5000    31.6792    16.5231   -32.7409     8.5491    -0.3933     0.1766    85.9769     2.3775
  399.0000    31.0460    16.5326   -32.4377     8.5351    -0.3721     0.1681    86.2986     2.3783
  399.5000    31.0715    16.5402   -32.4253     8.5360    -0.3597     0.1624    86.3211     2.3836
  400.0000    31.5198    16.4287   -32.4128     8.5367    -0.3508     0.1590    86.5936     2.3920
  400.5000    31.5260    16.3596   -32.6000     8.5331    -0.3583     0.1650    88.1057     2.3973
  401.0000    31.5325    16.3404   -32.6797     8.5293    -0.3627     0.1650    93.3921     2.3966
  401.5000    31.5367    16.3525   -32.6642     8.5251    -0.3444     0.1662    98.1166     2.3907
  402.0000    31.5409    16.3645   -32.6487     8.5261    -0.3398     0.1702   101.0279     2.3854
  402.5000    31.5460    16.3742   -32.6363     8.5273    -0.3548     0.1731   102.7900     2.3812
  403.0000    31.5502    16.3838   -32.6239     8.5283    -0.3653     0.1737   102.4963     2.3790
  403.5000    31.5543    16.3935   -32.6115     8.5293    -0.3591     0.1758    99.8532     2.3827
  404.0000    31.7768    16.4032   -32.7539     8.5302    -0.3409     0.1779    94.5668     2.3835
  404.5000    32.0009    16.4153   -32.8773     8.5314    -0.3499     0.1821    90.7489     2.3654
  405.0000    32.0061    16.4249   -32.8618     8.5324    -0.3619     0.1839    89.2805     2.3579
  405.5000    32.0103    16.4346   -33.1401     8.5334    -0.3648     0.1803    89.8678     2.3624
  406.0000    32.0145    16.4443   -33.1277     8.5343    -0.3526     0.1763    92.8047     2.3685
  406.5000    32.0187    16.3411   -33.2606     8.5353    -0.3464     0.1754    94.5668     2.3730
  407.0000    32.0229    16.1293   -33.3936     8.5365    -0.3433     0.1754    96.3289     2.3761
  407.5000    32.0282    16.1389   -33.5234     8.5375    -0.3449     0.1784    96.3632     2.3759
  408.0000    32.0324    16.0351   -33.6595     8.5385    -0.3582     0.1844    95.0485     2.3595
  408.5000    32.0366    15.9364   -33.6439     8.5394    -0.3732     0.1889    92.2173     2.3527
  409.0000    31.8207    15.9462   -33.7769     8.5113    -0.3807     0.1914    92.2173     2.3505
  409.5000    31.6062    15.7373   -33.7614     8.5123    -0.3714     0.1910    96.6226     2.3595
  410.0000    31.1776    15.6385   -33.7490     8.5132    -0.3487     0.1853   104.0627     2.3746
  410.5000    30.7209    15.5403   -33.7366     8.5142    -0.3395     0.1801   108.0764     2.3626
  411.0000    30.1301    15.5517   -33.7238     8.5154    -0.3349     0.1759   109.8385     2.3679
  411.5000    29.7205    15.4497   -33.7086     8.5164    -0.3348     0.1680   111.6006     2.3913
