~VERSION INFORMATION
 VERS.                2.0:   CWLS LOG ASCII STANDARD - VERSION 2.0
 WRAP.                 NO:   ONE LINE PER DEPTH STEP
~WELL INFORMATION
#MNEM.UNIT      DATA TYPE    INFORMATION
#----------   ------------   ------------------------------
 STRT.F           16.0000:   START DEPTH
 STOP.F          474.0000:   STOP DEPTH
 STEP.F            0.5000:   STEP LENGTH
 NULL.          -999.2500:   NO VALUE
 COMP. FENIX & SCISSON INCORPORATED:   COMPANY
 WELL.    NPR #3 #58-SX-3:   WELL
 FLD .             TEAPOT:   FIELD
 LOC .       S3 T38N R78W:   LOCATION
 CNTY.            NATRONA:   COUNTY
 STAT.            WYOMING:   STATE
 CTRY. UNITED STATES OF AMERICA:   COUNTRY
 SRVC.           BIRDWELL:   SERVICE COMPANY
 DATE.        19-OCT-1978:   LOGDATE
 API .       490251072000:   API NUMBER
~CURVE INFORMATION
#MNEM.UNIT       API CODE    CURVE DESCRIPTION
#----------   ------------   ------------------------------
 DEPT.F                  :   
 CALD.IN     45 280 60 00:   CALIPER FROM DENSITY LOG
 CORR.G/C3   45 356 01 00:   DENSITY CORRECTION
 DPHI.DEC    45 890 12 00:   DENSITY POROSITY SANDSTONE
 GRD .GAPI   45 310 01 00:   GAMMA RAY FROM DENSITY LOG
 RHOB.G/C3   45 350 01 00:   BULK DENSITY
 ILD .OHMM   05 120 46 00:   INDUCTION LOG DEEP
 SN  .OHMM   05 040 16 00:   SHORT NORMAL 16"
 SPR .MV     05 010 01 00:   SPONTANEOUS POTENTIAL FROM RES.
~PARAMETER INFORMATION
#MNEM.UNIT          VALUE    DESCRIPTION
#----------   ------------   ------------------------------
 PD  .                 GL:   PERMANENT DATUM
 EPD .F              5198:   ELEVATION PERMANENT DATUM
 LMF .                 KB:   LOG MEASURED FROM
 DAPD.F                 4:   FEET ABOVE PERMANENT DATUM
 DMF .                 KB:   DRILLING MEASURED FROM
 EKB .F              5202:   KELLING BUSHING
 EGL .F              5198:   GROUND LEVEL
 DATE.        19-OCT-1978:   RUN DATE
 RUN .                  1:   RUN NUMBER
 DD  .F               474:   DEPTH DRILLER
 DL  .F               474:   DEPTH LOGGER
 BLI .F               474:   BOTTOM LOG INTERVAL
 TLI .F                30:   TOP LOG INTERVAL
 CBD .F                40:   CASING BOTTOM DRILLER
 CBL .F                38:   CASING BOTTOM LOGGER
 BS  .IN            7.875:   BIT SIZE
 BSD .F               474:   BIT SIZE AT DEPTH
 DFT .                KCL:   DRILLING FLUID TYPE
 DFD .                8.7:   DRILLING FLUID DENSITY
 DFV .                 38:   DRILLING FLUID VISCOSITY
 DFPH.                9.0:   DRILLING FLUID PH
 DFL .                 13:   DRILLING FLUID LOSS
 MSS .           FLOWLINE:   MUD SAMPLE SOURCE
 RMS .OHMM            .25:   RESISTIVITY MUD SAMPLE
 MST .F                58:   MUD SAMPLE TEMPERATURE
 RMF .OHMM             .2:   RESISTIVITY MUD FILTRATE SAMPLE
 MFST.F                60:   MUD FILTRATE SAMPLE TEMPERATURE
 RMC .OHMM            .24:   RESISTIVITY MUD CAKE
 MCST.F                60:   MUD CAKE SAMPLE TEMPERATURE
 MFSS.               MEAS:   MUD FILTRATE SAMPLE SOURCE
 MCSS.               MEAS:   MUD CAKE SAMPLE SOURCE
 RMB .OHMM            .23:   RESISTIVITY MUD AT BHT
 BHT .F                70:   BOTTOM HOLE TEMPERATURE
 TCS .HRS               3:   TIME CURCULATED STOPPED
 MRT .F                70:   MAXIMUM RECORDED TEMPERATURE
 LUN .               2958:   LOGGING UNIT NUMBER
 LUL .               CASP:   LOGGING UNIT LOCATION
 ENGI.           REYNOLDS:   RECORDING ENGINEER
 WITN.           DINSMORE:   WITNESSED BY
 CLNT.            A2DTECH:   CLIENT CODE
 ORIG.           5" PRINT:   ORIGIN OF DATA
 UWI .       490251072000:   UNIQUE WELL ID
 DICO. A2D Technologies, Inc.:   DIGITIZING COMPANY
~OTHER INFORMATION
~A   DEPT     CALD       CORR       DPHI         GRD      RHOB        ILD         SN        SPR   
# ...
  259.0000     7.9567    -0.0058     0.1007    63.1108     2.5057     7.7899     7.7052   -37.2410
  259.5000     7.9562    -0.0073     0.1057    65.5896     2.5094     7.8435     7.7062   -37.3962
  260.0000     7.9556    -0.0075     0.1119    67.9460     2.5049     7.8976     7.7072   -37.4041
  260.5000     7.9550    -0.0061     0.1096    69.8593     2.4961     7.8981     7.7607   -37.5612
  261.0000     7.9543    -0.0048     0.1069    70.5908     2.4894     7.9525     7.7617   -37.7165
  261.5000     7.9538    -0.0020     0.1034    70.8792     2.4916     7.9530     7.8155   -37.7242
  262.0000     7.9533     0.0009     0.1019    71.0182     2.5019     7.9535     7.7637   -37.8775
  262.5000     7.9527     0.0022     0.1004    71.1607     2.5122     7.9540     7.7650   -36.2648
  263.0000     7.9521     0.0036     0.0999    71.5951     2.5188     7.9460     7.7133   -36.1251
  263.5000     7.9366     0.0020     0.1022    72.2496     2.5246     7.8477     7.7145   -37.7572
  264.0000     7.9361    -0.0011     0.1058    81.7714     2.5261     7.9557     7.7155   -37.4700
  264.5000     7.9355    -0.0027     0.1061    85.0158     2.5076     8.2872     7.7165   -34.6754
  265.0000     7.9349    -0.0028     0.1070    80.2803     2.5017     8.6325     7.7701   -34.0932
  265.5000     7.9342    -0.0014     0.1085    72.2694     2.4958     8.9921     7.7713   -34.2485
  266.0000     7.9337     0.0016     0.1146    68.8909     2.4839     9.3034     7.7723   -35.1431
  266.5000     7.9331     0.0071     0.1326    69.1793     2.4552     8.7524     7.7206   -36.7733
  267.0000     7.9325     0.0128     0.1447    69.3218     2.4235     7.9590     7.7218   -38.6985
  267.5000     7.9320     0.0200     0.1567    67.8359     2.3954     7.3365     7.6706   -38.7063
  268.0000     7.9313     0.0273     0.1651    59.7031     2.3733     6.8087     7.5635   -38.5665
  268.5000     7.9307     0.0227     0.1595    58.8099     2.3983     6.2337     7.1697   -38.2650
  269.0000     7.9302     0.0109     0.1341    57.4735     2.4536     6.4495     6.9314   -36.0766
  269.5000     7.9142     0.0078     0.1070    53.0369     2.5007     6.2771     6.7013   -34.3145
  270.0000     7.8401     0.0063     0.0988    58.3850     2.5169     6.2349     6.4349   -33.8778
  270.5000     7.7804     0.0076     0.0967    60.1095     2.5213     6.2779     6.2212   -33.7381
  271.0000     7.7355     0.0075     0.0973    60.5457     2.5146     6.6741     5.9717   -33.7478
  271.5000     7.7053     0.0089     0.0994    60.6882     2.5094     7.3905     6.9835   -33.7575
  272.0000     7.6602     0.0087     0.0997    57.7252     2.5057     8.1372     7.5767   -33.7653
  272.5000     7.6569     0.0086     0.0967    45.8996     2.5071     9.6334     8.0546   -33.9205
  273.0000     7.6295     0.0070     0.0950    42.9384     2.5130    10.8132     8.4473   -33.9283
  273.5000     7.6290     0.0066     0.0944    37.4662     2.5174    11.3405     8.8592   -33.9361
  274.0000     7.6136     0.0048     0.0956    29.7782     2.5203    10.8146     9.1048   -33.9440
  274.5000     7.6129     0.0038     0.1015    28.0990     2.5203    10.3131     9.3559   -33.8041
  275.0000     7.6124     0.0022     0.1109    26.3652     2.5070    10.1747     9.6145   -33.5188
  275.5000     7.6293     0.0035     0.1292    25.6196     2.4768    10.3485     9.7470   -33.0841
  276.0000     7.6408     0.0078     0.1428    25.4667     2.4509    11.2676     9.9487   -32.0594
  276.5000     7.6551     0.0135     0.1519    27.0867     2.4317    12.1425    10.1545   -30.5923
  277.0000     7.6841     0.0194     0.1505    27.5189     2.4302    12.8214    10.4351   -29.3820
  277.5000     7.7130     0.0293     0.1514    26.4762     2.4302    13.3556    10.7333   -28.5449
  278.0000     7.7420     0.0351     0.1558    23.3673     2.4287    13.9120    11.0952   -28.2557
  278.5000     7.7257     0.0393     0.1646    18.9290     2.4228    14.5154    11.4794   -27.8229
  279.0000     7.7111     0.0421     0.1803    15.6288     2.4095    15.3021    11.7966   -27.9782
  279.5000     7.7106     0.0464     0.1939    14.3342     2.3667    22.6919    12.1226   -27.9860
  280.0000     7.7692     0.0477     0.2210    15.9520     2.3254    23.3184    12.4576   -26.9632
  280.5000     7.8130     0.0476     0.2248    18.4561     2.3084    23.3200    12.8100   -26.2316
  281.0000     7.8715     0.0475     0.2113    20.6805     2.3246    23.0068    13.2456   -25.9443
  281.5000     7.9005     0.0459     0.1951    21.8377     2.3533    22.3916    13.7043   -25.8046
  282.0000     7.9149     0.0429     0.1915    22.1279     2.3658    22.6997    14.0830   -25.3718
  282.5000     7.9290     0.0413     0.1948    20.3467     2.3614    23.4854    14.3743   -24.7763
  283.0000     7.9284     0.0397     0.2092    18.7148     2.3289    24.2983    14.6717   -23.9144
  283.5000     7.9129     0.0411     0.2252    18.1170     2.3127    24.9692    14.8740   -23.1847
  284.0000     7.9124     0.0453     0.2382    18.8468     2.3016    25.3123    14.9777   -22.6025
  284.5000     7.8970     0.0686     0.2346    19.4307     2.2854    25.4865    15.0816   -22.0203
  285.0000     7.8817     0.0874     0.2303    20.1622     2.3266    25.4886    15.0835   -21.4381
  285.5000     7.8810     0.0975     0.2057    21.8213     2.3693    25.4902    15.0855   -21.0034
  286.0000     7.8508     0.1034     0.1833    24.8733     2.3789    25.4919    15.0875   -20.7162
  286.5000     7.8502     0.1061     0.1872    26.1957     2.3752    25.4936    15.1921   -20.5764
  287.0000     7.8497     0.1074     0.1934    22.9390     2.3633    25.4952    15.1942   -21.6186
  287.5000     7.8491     0.1073     0.2052    20.8641     2.3493    25.4969    15.3000   -22.3638
  288.0000     7.8484     0.1057     0.2137    18.4920     2.3308    25.4986    15.3020   -22.9695
  288.5000     7.8628     0.1056     0.2055    18.1913     2.3330    26.7424    15.5132   -23.4137
  289.0000     7.8621     0.1070     0.1839    19.3643     2.3721    29.0153    15.6638   -23.7165
  289.5000     7.8763     0.1068     0.1692    19.5052     2.4008    29.6140    15.7818   -23.7243
  290.0000     7.8756     0.1067     0.1665    19.4978     2.4103    28.0501    15.9459   -24.0270
  290.5000     7.8751     0.1020     0.1733    19.6387     2.4014    26.3885    16.1663   -24.0348
  291.0000     7.8745     0.0846     0.1863    20.3686     2.3741    26.0341    16.1684   -24.2085
  291.5000     7.8740     0.0757     0.1934    22.2818     2.3616    27.8661    16.2805   -24.6422
  292.0000     7.8734     0.0742     0.1970    27.6278     2.3535    29.4241    16.3935   -24.6500
  292.5000     7.8727     0.1018     0.1875    29.5056     2.3542    30.6500    16.5072   -24.8052
  293.0000     7.8721     0.1294     0.1670    28.6106     2.3924    31.4963    16.6217   -24.8130
  293.5000     7.8568     0.1161     0.1312    27.5697     2.4772    31.2851    16.6244   -24.6689
  294.0000     7.8562     0.0926     0.1215    26.9718     2.4978    29.8022    16.6266   -23.2061
  294.5000     7.8407     0.0677     0.1324    26.3723     2.4653    27.8775    16.6287   -23.0664
  295.0000     7.8402     0.0438     0.1523    26.3653     2.4262    26.2261    16.6309   -23.2236
  295.5000     7.8396     0.0280     0.1740    26.9491     2.3997    25.3516    16.6331   -23.5263
  296.0000     7.8390     0.0221     0.1864    33.2937     2.3797    25.1816    16.6353   -24.1241
  296.5000     7.8385     0.0191     0.1887    36.5480     2.3746    25.3553    16.6380   -24.8820
  297.0000     7.8379     0.0189     0.1923    36.0845     2.3672    25.6203    16.5271   -25.6165
  297.5000     7.8372     0.0203     0.2088    36.3729     2.3531    25.7059    16.4175   -25.6242
  298.0000     7.8367     0.0275     0.2183    37.1045     2.3391    25.5331    16.0895   -25.1895
  298.5000     7.8361     0.0434     0.2165    37.6883     2.3243    25.3619    15.8748   -25.0479
  299.0000     7.8503     0.0681     0.2118    37.2364     2.3280    25.0214    15.7695   -25.0576
