~VERSION INFORMATION
 VERS.                2.0:   CWLS LOG ASCII STANDARD - VERSION 2.0
 WRAP.                 NO:   ONE LINE PER DEPTH STEP
~WELL INFORMATION
#MNEM.UNIT      DATA TYPE    INFORMATION
#----------   ------------   ------------------------------
 STRT.F           50.0000:   START DEPTH
 STOP.F         1561.5000:   STOP DEPTH
 STEP.F            0.5000:   STEP LENGTH
 NULL.          -999.2500:   NO VALUE
 COMP. FENIX & SCISSON INC:   COMPANY
 WELL.  72 SH 3 STX #72-3:   WELL
 FLD .             TEAPOT:   FIELD
 LOC .       S3 T38N R78W:   LOCATION
 CNTY.            NATRONA:   COUNTY
 STAT.            WYOMING:   STATE
 CTRY. UNITED STATES OF AMERICA:   COUNTRY
 SRVC.           BIRDWELL:   SERVICE COMPANY
 DATE.        31-JUL-1979:   LOGDATE
 API .       490251078600:   API NUMBER
~CURVE INFORMATION
#MNEM.UNIT       API CODE    CURVE DESCRIPTION
#----------   ------------   ------------------------------
 DEPT.F                  :   
 CALD.IN     45 280 60 00:   CALIPER FROM DENSITY LOG
 GRD .GAPI   45 310 01 00:   GAMMA RAY FROM DENSITY LOG
 RHOB.G/C3   45 350 01 00:   BULK DENSITY
 CORR.G/C3   45 356 01 00:   DENSITY CORRECTION
 DPHI.DEC    45 890 12 00:   DENSITY POROSITY SANDSTONE
 GR  .GAPI   81 310 01 00:   GAMMA RAY
~PARAMETER INFORMATION
#MNEM.UNIT          VALUE    DESCRIPTION
#----------   ------------   ------------------------------
 PD  .                 GL:   PERMANENT DATUM
 EPD .F              5165:   ELEVATION PERMANENT DATUM
 LMF .                 KB:   LOG MEASURED FROM
 DAPD.F                10:   FEET ABOVE PERMANENT DATUM
 DMF .                 KB:   DRILLING MEASURED FROM
 EKB .F              5175:   KELLING BUSHING
 EGL .F              5165:   GROUND LEVEL
 DATE.            7-31-79:   RUN DATE
 RUN .                  1:   RUN NUMBER
 DD  .F              1564:   DEPTH DRILLER
 DL  .F              1560:   DEPTH LOGGER
 BLI .F              1560:   BOTTOM LOG INTERVAL
 TLI .F               700:   TOP LOG INTERVAL
 CS  .IN            9.625:   CASING SIZE
 CBD .F               691:   CASING BOTTOM DRILLER
 CBL .F               680:   CASING BOTTOM LOGGER
 BS  .IN            7.875:   BIT SIZE
 BSD .F              1564:   BIT SIZE AT DEPTH
 DFT .                OIL:   DRILLING FLUID TYPE
 BHT .F                92:   BOTTOM HOLE TEMPERATURE
 TCS .HRS               2:   TIME CURCULATED STOPPED
 MRT .F                92:   MAXIMUM RECORDED TEMPERATURE
 LUN .               3029:   LOGGING UNIT NUMBER
 LUL .                CPR:   LOGGING UNIT LOCATION
 ENGI.             MILLER:   RECORDING ENGINEER
 WITN.           DINSMORE:   WITNESSED BY
 CLNT.            A2DTECH:   CLIENT CODE
 ORIG.       2", 5" PRINT:   ORIGIN OF DATA
 UWI .       490251078600:   UNIQUE WELL ID
 DICO. A2D Technologies, Inc.:   DIGITIZING COMPANY
~OTHER INFORMATION
~A   DEPT     CALD        GRD       RHOB       CORR       DPHI          GR  
# ...
  986.0000     9.3671    97.8399     2.5414     0.0016     0.0066    82.8983
  986.5000     9.3617    97.3979     2.5498    -0.0010     0.0018    86.5888
  987.0000     9.3587    93.0783     2.5446    -0.0005    -0.0038    92.6191
  987.5000     9.3587    88.8598     2.5396     0.0120    -0.0054    93.5827
  988.0000     9.3587    86.4584     2.5395     0.0241     0.0069    90.1418
  988.5000     9.3587    90.7380     2.5287     0.0323     0.0142    86.4887
  989.0000     9.3587    95.9695     2.5170     0.0283     0.0186    84.4869
  989.5000     9.3587    97.2603     2.5129     0.0253     0.0137    83.5642
  990.0000     9.3587    94.3518     2.5354     0.0310     0.0066    84.9253
  990.5000     9.3587    91.7616     2.5372     0.0352     0.0125    86.7200
  991.0000     9.3587    93.2126     2.5089     0.0277     0.0202    87.7207
  991.5000     9.3587    94.8531     2.5037     0.0177     0.0170    88.7386
  992.0000     9.3587    92.2895     2.5129     0.0112     0.0132    90.1401
  992.5000     9.3587    89.8538     2.5232     0.0216     0.0158    93.1805
  993.0000     9.3587    92.7470     2.5184     0.0114     0.0194    94.3908
  993.5000     9.3587    95.9037     2.5127     0.0099     0.0178    91.3983
  994.0000     9.3587    96.9178     2.5177     0.0081     0.0133    92.7735
  994.5000     9.3627    93.6836     2.5304     0.0069     0.0088    94.2210
  995.0000     9.3695    94.3193     2.5429     0.0148     0.0044    95.6496
  995.5000     9.3764    98.4304     2.5517     0.0437    -0.0001    96.7252
  996.0000     9.3832   101.3735     2.5385     0.0339    -0.0014    95.8878
  996.5000     9.3900   102.6638     2.5212     0.0234     0.0142    94.5353
  997.0000     9.3968   104.7510     2.5203     0.0386     0.0035    93.1822
  997.5000     9.4037   104.9152     2.5587     0.0555    -0.0034    91.7883
  998.0000     9.4105   103.3072     2.5477     0.0542    -0.0038    94.1845
  998.5000     9.4173   104.0428     2.5174     0.0443     0.0112    97.0548
  999.0000     9.4241   100.6211     2.5132     0.0342     0.0165    97.8701
  999.5000     9.4309    97.0271     2.5254     0.0239     0.0191    96.7786
 1000.0000     9.4378    93.8759     2.5384     0.0232     0.0117    93.0644
 1000.5000     9.4446    93.5191     2.5316     0.0282     0.0098    90.4244
 1001.0000     9.4515    94.4405     2.5157     0.0245     0.0152    90.1838
 1001.5000     9.4582    92.2238     2.5013     0.0203     0.0197    89.4320
 1002.0000     9.4564    89.0672     2.5017     0.0161     0.0242    85.5676
 1002.5000     9.4535    88.6845     2.5043     0.0119     0.0270    81.7117
 1003.0000     9.4506    91.3095     2.5025     0.0089     0.0273    78.8493
 1003.5000     9.4478    92.6559     2.4996     0.0090     0.0263    80.5984
 1004.0000     9.4449    90.0623     2.4967     0.0107     0.0270    82.3309
 1004.5000     9.4420    89.1170     2.4938     0.0170     0.0310    82.2869
 1005.0000     9.4392    90.5474     2.4957     0.0237     0.0297    81.6381
 1005.5000     9.4354    91.9786     2.4990     0.0303     0.0279    83.7832
 1006.0000     9.4315    92.7036     2.5022     0.0332     0.0260    90.0641
 1006.5000     9.4276    91.8057     2.5031     0.0263     0.0254    87.4851
 1007.0000     9.4237    89.7983     2.5038     0.0197     0.0227    84.9433
 1007.5000     9.4199    89.5328     2.5055     0.0155     0.0193    82.4262
 1008.0000     9.4160    91.0140     2.5155     0.0215     0.0160    79.9036
 1008.5000     9.4121    92.4271     2.5254     0.0274     0.0120    77.9343
 1009.0000     9.4082    89.9053     2.5283     0.0333     0.0076    76.2862
 1009.5000     9.4043    87.2273     2.5345     0.0393     0.0046    75.0920
 1010.0000     9.4004    90.3352     2.5429     0.0412     0.0051    79.6473
 1010.5000     9.3966    96.6736     2.5236     0.0312     0.0098    84.4013
 1011.0000     9.3927   100.1911     2.5157     0.0174     0.0146    88.3561
 1011.5000     9.3888   100.3899     2.5216     0.0049     0.0193    91.2348
 1012.0000     9.3849    96.2781     2.5112     0.0120     0.0190    92.4593
 1012.5000     9.3810    92.6850     2.5114     0.0220     0.0142    90.7866
 1013.0000     9.3771    94.2441     2.5265     0.0320     0.0102    87.8293
 1013.5000     9.3732    96.8746     2.5296     0.0410     0.0080    84.8967
 1014.0000     9.3694    98.5503     2.5237     0.0366     0.0145    83.8368
 1014.5000     9.3655    92.6739     2.5153     0.0276     0.0196    84.7515
 1015.0000     9.3616    92.2748     2.5069     0.0186     0.0214    83.6362
 1015.5000     9.3577    95.5837     2.5045     0.0096     0.0232    82.4314
 1016.0000     9.3538    96.7623     2.5097     0.0106     0.0222    82.5615
 1016.5000     9.3499    89.7347     2.5204     0.0177     0.0140    84.8614
 1017.0000     9.3461    88.4632     2.5311     0.0250     0.0066    87.0565
 1017.5000     9.3421    90.6999     2.5334     0.0250     0.0098    89.2482
 1018.0000     9.3389    93.7036     2.5272     0.0234     0.0125    90.7272
 1018.5000     9.3408    95.2318     2.5289     0.0274     0.0099    88.1303
 1019.0000     9.3427    95.0020     2.5336     0.0314     0.0077    84.5777
 1019.5000     9.3447    93.5657     2.5385     0.0351     0.0054    81.8663
 1020.0000     9.3466    92.1608     2.5433     0.0285     0.0028    85.4362
 1020.5000     9.3485    94.8275     2.5451     0.0192     0.0073    89.0034
 1021.0000     9.3504    98.8799     2.5259     0.0098     0.0131    89.3016
 1021.5000     9.3524    97.8248     2.5159     0.0070     0.0189    88.3558
 1022.0000     9.3543    95.4548     2.5062     0.0074     0.0225    87.3614
 1022.5000     9.3562    96.8052     2.5084     0.0108     0.0186    84.8906
 1023.0000     9.3581    99.0782     2.5245     0.0144     0.0123    83.8497
 1023.5000     9.3601    99.8986     2.5406     0.0179     0.0066    85.5919
 1024.0000     9.3620    97.9697     2.5401     0.0199     0.0066    85.8505
 1024.5000     9.3639   101.6485     2.5258     0.0100     0.0145    84.1545
 1025.0000     9.3659   104.9835     2.5115     0.0000     0.0247    84.4348
 1025.5000     9.3678   101.0899     2.5003    -0.0012     0.0246    85.9419
 1026.0000     9.3697    95.4510     2.5030     0.0049     0.0169    87.4749
 1026.5000     9.3716    92.3219     2.5265     0.0134     0.0093    89.0152
 1027.0000     9.3736    92.1977     2.5385     0.0210     0.0054    90.4935
 1027.5000     9.3755    93.5096     2.5352     0.0204     0.0082    89.6353
 1028.0000     9.3774    94.9858     2.5237     0.0140     0.0137    91.7745
 1028.5000     9.3777    95.1111     2.5136     0.0077     0.0186    94.0800
 1029.0000     9.3738    94.1107     2.5134     0.0070     0.0165    93.4757
 1029.5000     9.3701    95.8107     2.5135     0.0069     0.0146    92.7260
 1030.0000     9.3663    97.2001     2.5183     0.0132     0.0176    91.8919
 1030.5000     9.3625    94.8953     2.5237     0.0219     0.0140    95.7897
 1031.0000     9.3587    92.5846     2.5280     0.0306     0.0100   100.3336
 1031.5000     9.3549    90.2735     2.5229     0.0350     0.0106   102.7475
 1032.0000     9.3512    89.9827     2.5229     0.0328     0.0112    97.4211
 1032.5000     9.3474    91.9838     2.5248     0.0310     0.0095    91.8731
 1033.0000     9.3436    91.5963     2.5268     0.0320     0.0085    87.7758
 1033.5000     9.3397    91.0220     2.5284     0.0332     0.0090    86.9163
 1034.0000     9.3414    93.3597     2.5278     0.0344     0.0095    85.7837
 1034.5000     9.3454    96.0025     2.5271     0.0355     0.0100    82.8301
 1035.0000     9.3493    98.6758     2.5257     0.0366     0.0131    84.9583
 1035.5000     9.3532    99.0461     2.5183     0.0349     0.0173    88.3494
 1036.0000     9.3572    95.6720     2.5108     0.0277     0.0192    91.7655
 1036.5000     9.3611    92.6400     2.5053     0.0206     0.0157    94.2135
 1037.0000     9.3650    92.6462     2.5117     0.0134     0.0173    92.8876
 1037.5000     9.3689    98.8499     2.5136     0.0072     0.0195    91.2554
