~VERSION INFORMATION
 VERS.                2.0:   CWLS LOG ASCII STANDARD - VERSION 2.0
 WRAP.                 NO:   ONE LINE PER DEPTH STEP
~WELL INFORMATION
#MNEM.UNIT      DATA TYPE    INFORMATION
#----------   ------------   ------------------------------
 STRT.F           12.0000:   START DEPTH
 STOP.F          510.0000:   STOP DEPTH
 STEP.F            0.5000:   STEP LENGTH
 NULL.          -999.2500:   NO VALUE
 COMP. LAWRENCE-ALLISON &AS:   COMPANY
 WELL. NPR 3 #51-41SX10UP4:   WELL
 FLD .            NATRONA:   FIELD
 LOC .      S10 T38N R78W:   LOCATION
 CNTY.            NATRONA:   COUNTY
 STAT.            WYOMING:   STATE
 CTRY. UNITED STATES OF AMERICA:   COUNTRY
 SRVC.      Dresser Atlas:   SERVICE COMPANY
 DATE.        15-DEC-1984:   LOGDATE
 API .       490251100000:   API NUMBER
~CURVE INFORMATION
#MNEM.UNIT       API CODE    CURVE DESCRIPTION
#----------   ------------   ------------------------------
 DEPT.F                  :   
 RD  .OHMM   11 220 10 00:   RESISTIVITY DEEP
 RS  .OHMM   11 220 09 00:   RESISTIVITY SHALLOW
 SPR .MV     11 010 01 00:   SPONTANEOUS POTENTIAL FROM RES.
 DT  .US/F   60 520 00 00:   INTERVAL TRANSIT TIME
 CALD.IN     45 280 60 00:   CALIPER FROM DENSITY LOG
 CNC .DEC    42 890 00 00:   NEUTRON POROSITY
 CORR.G/C3   45 356 01 00:   DENSITY CORRECTION
 GRD .GAPI   45 310 01 00:   GAMMA RAY FROM DENSITY LOG
 PORD.DEC    45 890 00 00:   POROSITY DENSITY
 RHOB.G/C3   45 350 01 00:   BULK DENSITY
~PARAMETER INFORMATION
#MNEM.UNIT          VALUE    DESCRIPTION
#----------   ------------   ------------------------------
 PD  .                 GL:   PERMANENT DATUM
 EPD .F              5207:   ELEVATION PERMANENT DATUM
 LMF .                 GL:   LOG MEASURED FROM
 DMF .                 GL:   DRILLING MEASURED FROM
 EGL .F              5207:   GROUND LEVEL
 DATE.        15-DEC-1984:   RUN DATE
 RUN .                  1:   RUN NUMBER
 DD  .F               515:   DEPTH DRILLER
 DL  .F               511:   DEPTH LOGGER
 BLI .F               510:   BOTTOM LOG INTERVAL
 TLI .F                20:   TOP LOG INTERVAL
 CS  .IN            8.625:   CASING SIZE
 CBD .F                20:   CASING BOTTOM DRILLER
 CBL .F                20:   CASING BOTTOM LOGGER
 BS  .IN            7.875:   BIT SIZE
 BSD .F               515:   BIT SIZE AT DEPTH
 DFT .          KCL/WATER:   DRILLING FLUID TYPE
 MSS .           FLOWLINE:   MUD SAMPLE SOURCE
 RMS .OHMM           .129:   RESISTIVITY MUD SAMPLE
 MST .F                94:   MUD SAMPLE TEMPERATURE
 RMF .OHMM            .10:   RESISTIVITY MUD FILTRATE SAMPLE
 MFST.F                94:   MUD FILTRATE SAMPLE TEMPERATURE
 RMC .OHMM            .16:   RESISTIVITY MUD CAKE
 MCST.F                94:   MUD CAKE SAMPLE TEMPERATURE
 MFSS.               CALC:   MUD FILTRATE SAMPLE SOURCE
 MCSS.               CALC:   MUD CAKE SAMPLE SOURCE
 TCS .HRS               2:   TIME CURCULATED STOPPED
 MRT .F               100:   MAXIMUM RECORDED TEMPERATURE
 LUN .               6270:   LOGGING UNIT NUMBER
 LUL .                 FM:   LOGGING UNIT LOCATION
 ENGI.            LEBSOCK:   RECORDING ENGINEER
 WITN.          DAN LUERS:   WITNESSED BY
 CLNT.            A2DTECH:   CLIENT CODE
 ORIG.           5" PRINT:   ORIGIN OF DATA
 UWI .       490251100000:   UNIQUE WELL ID
 DICO. A2D Technologies, Inc.:   DIGITIZING COMPANY
~OTHER INFORMATION
~A   DEPT       RD         RS        SPR         DT       CALD          CNC     CORR         GRD      PORD       RHOB   
# ...
  481.0000    10.1639    10.3259   -66.4964  -999.2500     7.8090     0.2652     0.0421   106.0329     0.1303     2.4656
  481.5000    11.0479    11.2433   -66.4907  -999.2500     7.8058     0.2683     0.0293   105.0045     0.1219     2.4725
  482.0000    11.3646    11.5673   -66.4851  -999.2500     7.7954     0.2679     0.0062   104.8335     0.1252     2.4703
  482.5000    11.7700    11.9006   -66.4793  -999.2500     7.7813     0.2676     0.0018   103.9868     0.1264     2.4704
  483.0000    12.3593    12.2435   -66.4724  -999.2500     7.7674     0.2673     0.0140   103.6992     0.1257     2.4720
  483.5000    12.3658    12.2534   -66.4668  -999.2500     7.7681     0.2675     0.0262   103.4093     0.1245     2.4743
  484.0000    12.2872    12.0948   -66.4611  -999.2500     7.7689     0.2627     0.0278   103.7164     0.1206     2.4781
  484.5000    12.3805    12.2751   -66.4555  -999.2500     7.7698     0.2567     0.0143   105.7991     0.1194     2.4782
  485.0000    12.7339    12.9825   -66.4497  -999.2500     7.7555     0.2554     0.0024   106.4003     0.1205     2.4745
  485.5000    13.0974    12.9928   -66.4428  -999.2500     7.7563     0.2626     0.0146   105.2237     0.1238     2.4686
  486.0000    12.7474    13.0031   -66.4372  -999.2500     7.7571     0.2602     0.0130   101.6060     0.1277     2.4702
  486.5000    12.4067    12.6589   -66.4315  -999.2500     7.7578     0.2578     0.0073   100.6484     0.1238     2.4777
  487.0000    12.2309    12.3239   -66.4259  -999.2500     7.7585     0.2577     0.0104   103.0295     0.1183     2.4846
  487.5000    12.0815    12.2488   -66.4201  -999.2500     7.7593     0.2571     0.0392   103.7789     0.1150     2.4891
  488.0000    12.3425    12.3459   -66.4132  -999.2500     7.7601     0.2575     0.0363   104.8245     0.1120     2.4915
  488.5000    12.4345    12.3557   -66.4075  -999.2500     7.7609     0.2649     0.0273   105.5739     0.1129     2.4858
  489.0000    12.7895    12.7118   -66.4019  -999.2500     7.7616     0.2648     0.0034   105.8788     0.1179     2.4781
  489.5000    13.0714    13.0807   -66.3963  -999.2500     7.7623     0.2636    -0.0146   105.7383     0.1227     2.4729
  490.0000    13.1632    13.2730   -66.3905  -999.2500     7.7630     0.2600    -0.0013   105.3034     0.1239     2.4768
  490.5000    13.1702    13.3756   -66.3836  -999.2500     7.7637     0.2539     0.0279   112.1290     0.1164     2.4874
  491.0000    13.1771    13.2026   -66.3779  -999.2500     7.8090     0.2524     0.0099   121.3228     0.1130     2.4865
  491.5000    13.0934    13.1220   -66.3723  -999.2500     7.7800     0.2527     0.0040   126.0722     0.1151     2.4710
  492.0000    12.8317    12.9421   -66.3667  -999.2500     7.7659     0.2530     0.0026   126.0808     0.1252     2.4643
  492.5000    12.4904    12.6122   -66.3609  -999.2500     7.7668     0.2478     0.0042   126.0894     0.1286     2.4682
  493.0000    12.1566    12.2784   -66.3540  -999.2500     7.7675     0.2478     0.0104   126.0980     0.1274     2.4720
  493.5000    11.8317    11.9534   -66.3483  -999.2500     7.7682     0.2532     0.0301   126.1067     0.1249     2.4743
  494.0000    11.4363    11.5569   -66.3427  -999.2500     7.7689     0.2573     0.0257   126.1156     0.1225     2.4751
  494.5000    10.9780    11.1736   -66.3371  -999.2500     7.7696     0.2585     0.0167   126.1260     0.1225     2.4752
  495.0000    10.6111    10.5837   -66.3314  -999.2500     7.7551     0.2525     0.0094   126.1346     0.1225     2.4768
  495.5000    10.0475    10.0229   -66.3244  -999.2500     7.7391     0.2609     0.0034   126.1432     0.1212     2.4813
  496.0000     9.7117     9.4918   -66.3187  -999.2500     7.7125     0.2765     0.0186   126.0037     0.1152     2.4897
  496.5000     9.0686     9.0512   -66.3131  -999.2500     7.7134     0.3044     0.0564   125.8642     0.1104     2.4950
  497.0000     8.4681     8.7508   -66.3074  -999.2500     7.7142     0.3320     0.0776   125.8728     0.1095     2.4943
  497.5000     8.0582     8.2649   -66.3018  -999.2500     7.7297     0.3578     0.0672   125.5851     0.1100     2.4906
  498.0000     7.6430     7.6359   -66.2947  -999.2500     7.7452     0.3665     0.0537   125.5941     0.1140     2.4811
  498.5000     7.2371     7.2313   -66.2891  -999.2500     7.7459     0.3674     0.0313   125.6045     0.1274     2.4675
  499.0000     6.8518     6.8482   -66.2835  -999.2500     7.7467     0.3674     0.0299   125.6131     0.1343     2.4534
  499.5000     6.6678     6.7583   -66.2778  -999.2500     7.7476     0.3673     0.0210   125.6217     0.1475     2.4377
  500.0000     6.6722     6.7650   -66.2722  -999.2500     7.7333     0.3673     0.0106   125.6303     0.1622     2.4108
  500.5000     6.6307     6.7717   -66.2651  -999.2500     7.7342     0.3673     0.0001   125.6390     0.1895     2.3498
  501.0000     6.6251     6.7770   -66.2595  -999.2500     7.7199     0.3673     0.0304   125.6476     0.2162     2.2832
  501.5000     6.5911     6.6894   -66.2539  -999.2500     7.7208     0.3672     0.0425   125.6563     0.2738     2.2146
  502.0000     6.5501     6.6947   -66.2482  -999.2500     7.7215     0.3672     0.0487   125.6652     0.2957     2.1840
  502.5000     6.5085     6.7000   -66.2426  -999.2500     7.7222     0.3672     0.0488   125.6756     0.2843     2.2125
  503.0000     6.5120     6.7054   -66.2355  -999.2500     7.7230     0.3672     0.0474   125.6842     0.2476     2.2734
  503.5000     6.5162     6.7120   -66.2299  -999.2500     7.7387     0.3671     0.0383   125.6928     0.1824     2.3746
  504.0000     6.5648     6.7173   -66.2243  -999.2500     7.7394     0.3671     0.0311   125.7014     0.1485     2.4526
  504.5000     6.5683     6.7226   -66.2186  -999.2500     7.7401     0.3668     0.0297   125.7100     0.1164     2.4932
  505.0000     6.6173     6.7280   -66.2130  -999.2500     7.7408     0.3667     0.0313   125.7187     0.1064     2.5058
  505.5000     6.5752     6.7333   -66.2059  -999.2500     7.7712     0.3667     0.0420   125.7274     0.0985     2.5196
  506.0000     6.5795     6.7389   -66.2003  -999.2500     7.7719     0.3667     0.0923   125.8844     0.0898     2.5288
  506.5000     6.5830     6.7453   -66.1946  -999.2500  -999.2500  -999.2500  -999.2500  -999.2500  -999.2500  -999.2500
  507.0000     6.5865     6.7507   -66.1890  -999.2500  -999.2500  -999.2500  -999.2500  -999.2500  -999.2500  -999.2500
  507.5000     6.6356     6.7560   -66.3314  -999.2500  -999.2500  -999.2500  -999.2500  -999.2500  -999.2500  -999.2500
  508.0000     6.6391     6.7614   -66.3254  -999.2500  -999.2500  -999.2500  -999.2500  -999.2500  -999.2500  -999.2500
  508.5000     6.6435     6.7668   -66.3186  -999.2500  -999.2500  -999.2500  -999.2500  -999.2500  -999.2500  -999.2500
  509.0000     6.6931     6.7735   -66.3130  -999.2500  -999.2500  -999.2500  -999.2500  -999.2500  -999.2500  -999.2500
  509.5000     6.6966     6.7788   -66.1594  -999.2500  -999.2500  -999.2500  -999.2500  -999.2500  -999.2500  -999.2500
  510.0000     6.6999     6.7837   -66.1538  -999.2500  -999.2500  -999.2500  -999.2500  -999.2500  -999.2500  -999.2500
