~VERSION INFORMATION
 VERS.                2.0:   CWLS LOG ASCII STANDARD - VERSION 2.0
 WRAP.                 NO:   ONE LINE PER DEPTH STEP
~WELL INFORMATION
#MNEM.UNIT      DATA TYPE    INFORMATION
#----------   ------------   ------------------------------
 STRT.F           10.0000:   START DEPTH
 STOP.F         2599.5000:   STOP DEPTH
 STEP.F            0.5000:   STEP LENGTH
 NULL.          -999.2500:   NO VALUE
 COMP. FENIX & SCISSON INC:   COMPANY
 WELL.   34-SHX-33 #34-33:   WELL
 FLD .             TEAPOT:   FIELD
 LOC .      S33 T39N R78W:   LOCATION
 CNTY.            NATRONA:   COUNTY
 STAT.            WYOMING:   STATE
 CTRY. UNITED STATES OF AMERICA:   COUNTRY
 SRVC.           BIRDWELL:   SERVICE COMPANY
 DATE.        20-FEB-1978:   LOGDATE
 API .       490251058400:   API NUMBER
~CURVE INFORMATION
#MNEM.UNIT       API CODE    CURVE DESCRIPTION
#----------   ------------   ------------------------------
 DEPT.F                  :   
 GR  .GAPI   30 310 01 00:   GAMMA RAY
 CALI.IN     70 280 01 00:   CALIPER
~PARAMETER INFORMATION
#MNEM.UNIT          VALUE    DESCRIPTION
#----------   ------------   ------------------------------
 PD  .                 GL:   PERMANENT DATUM
 EPD .F              5174:   ELEVATION PERMANENT DATUM
 LMF .                 KB:   LOG MEASURED FROM
 DAPD.F                10:   FEET ABOVE PERMANENT DATUM
 DMF .                 KB:   DRILLING MEASURED FROM
 EKB .F              5184:   KELLING BUSHING
 EGL .F              5174:   GROUND LEVEL
 DATE.            2-20-78:   RUN DATE
 RUN .                  1:   RUN NUMBER
 DD  .F              2590:   DEPTH DRILLER
 DL  .F              2600:   DEPTH LOGGER
 BLI .F              2600:   BOTTOM LOG INTERVAL
 CS  .IN            8.625:   CASING SIZE
 CBD .F               737:   CASING BOTTOM DRILLER
 BS  .IN            8.625:   BIT SIZE
 BSD .F              2590:   BIT SIZE AT DEPTH
 TCS .HRS               2:   TIME CURCULATED STOPPED
 LUL .             CASPER:   LOGGING UNIT LOCATION
 ENGI.             MILLER:   RECORDING ENGINEER
 WITN.           MCGINLEY:   WITNESSED BY
 CLNT.            A2DTECH:   CLIENT CODE
 ORIG.           5" PRINT:   ORIGIN OF DATA
 UWI .       490251058400:   UNIQUE WELL ID
 DICO. A2D Technologies, Inc.:   DIGITIZING COMPANY
~OTHER INFORMATION
~A   DEPT        GR      CALI   
# ...
 1589.5000   140.2646     9.0970
 1590.0000   140.4855     9.0875
 1590.5000   140.6297     9.0514
 1591.0000   140.7500     8.9200
 1591.5000   141.0084     8.7901
 1592.0000   142.0219     8.8251
 1592.5000   144.0216     9.0125
 1593.0000   144.8571     9.1659
 1593.5000   141.1593     9.1614
 1594.0000   136.9982     9.1612
 1594.5000   137.3261     9.1614
 1595.0000   137.5656     9.1614
 1595.5000   137.7979     9.1614
 1596.0000   138.0927     9.1613
 1596.5000   135.2310     9.1613
 1597.0000   131.6233     9.1487
 1597.5000   128.5144     9.1273
 1598.0000   129.7720     9.0971
 1598.5000   139.3209     8.7355
 1599.0000   144.8069     8.4494
 1599.5000   146.5678     8.6452
 1600.0000   145.3796     8.9226
 1600.5000   141.8221     9.1455
 1601.0000   138.3466     9.1624
 1601.5000   134.8873     9.1652
 1602.0000   132.5328     9.1675
 1602.5000   130.8522     9.1696
 1603.0000   131.6335     9.1719
 1603.5000   133.2646     9.1741
 1604.0000   134.9191     9.1764
 1604.5000   137.9498     9.1786
 1605.0000   140.9656     9.1809
 1605.5000   143.9834     9.1813
 1606.0000   146.3609     9.1799
 1606.5000   146.7354     9.1776
 1607.0000   146.7481     9.1753
 1607.5000   147.9180     9.1730
 1608.0000   149.8531     9.1707
 1608.5000   151.5099     9.1684
 1609.0000   149.2764     9.1662
 1609.5000   145.5508     9.1643
 1610.0000   141.6929     9.1595
 1610.5000   140.8110     9.0384
 1611.0000   140.7849     8.9169
 1611.5000   140.8114     8.9927
 1612.0000   140.3671     9.1142
 1612.5000   135.7369     9.2030
 1613.0000   131.5235     9.2012
 1613.5000   129.7685     9.2011
 1614.0000   128.1542     9.2012
 1614.5000   129.5139     9.2011
 1615.0000   132.4604     9.2013
 1615.5000   132.8355     9.2023
 1616.0000   132.6929     9.1710
 1616.5000   132.5195     9.1359
 1617.0000   132.9053     9.1023
 1617.5000   135.0050     9.0994
 1618.0000   141.2530     9.0976
 1618.5000   146.8614     9.0957
 1619.0000   148.7095     9.0937
 1619.5000   148.6677     9.0918
 1620.0000   145.4499     9.0898
 1620.5000   143.2287     9.0878
 1621.0000   143.5065     9.0859
 1621.5000   141.9429     9.0839
 1622.0000   139.0861     9.0820
 1622.5000   137.6425     9.0800
 1623.0000   135.7786     9.0781
 1623.5000   133.8183     9.0761
 1624.0000   132.8800     9.0742
 1624.5000   132.8743     9.0722
 1625.0000   132.7758     9.0702
 1625.5000   132.5884     9.0683
 1626.0000   132.5252     9.0663
 1626.5000   133.7070     9.0644
 1627.0000   136.5690     9.0623
 1627.5000   139.2886     9.0591
 1628.0000   141.0063     9.0532
 1628.5000   141.5303     9.0469
 1629.0000   140.8830     9.0429
 1629.5000   140.1185     9.0315
 1630.0000   139.0370     8.6921
 1630.5000   136.3176     8.8093
 1631.0000   133.7245     9.0360
 1631.5000   133.6372     9.1746
 1632.0000   132.6059     9.2376
 1632.5000   130.9347     9.2618
 1633.0000   130.6114     9.2610
 1633.5000   130.9789     9.2609
 1634.0000   131.9717     9.2610
 1634.5000   133.6677     9.2610
 1635.0000   134.0520     9.2610
 1635.5000   133.6519     9.2610
 1636.0000   131.4387     9.2610
 1636.5000   129.0392     9.2610
 1637.0000   127.0383     9.2612
 1637.5000   128.0118     9.2605
 1638.0000   130.7496     9.2116
 1638.5000   133.3483     9.1620
 1639.0000   133.4285     9.1612
 1639.5000   132.9312     9.1616
 1640.0000   132.4826     9.1601
 1640.5000   134.5148     9.1228
 1641.0000   136.8937     9.1017
 1641.5000   139.2893     9.1037
 1642.0000   141.5565     9.1059
 1642.5000   141.4864     9.1083
 1643.0000   138.0794     9.1106
 1643.5000   134.6391     9.1130
 1644.0000   132.4273     9.1153
 1644.5000   133.7798     9.1177
 1645.0000   136.4640     9.1200
 1645.5000   139.2150     9.1161
 1646.0000   140.7597     9.1010
 1646.5000   140.2363     9.0861
 1647.0000   139.2592     9.0722
 1647.5000   138.8353     9.0836
 1648.0000   139.4627     9.1593
 1648.5000   139.9457     9.2313
 1649.0000   134.3454     9.2819
 1649.5000   126.7650     9.2809
 1650.0000   129.8728     9.2809
 1650.5000   133.0671     9.2809
 1651.0000   134.0139     9.2809
 1651.5000   134.0670     9.2809
 1652.0000   134.4601     9.2809
 1652.5000   136.8373     9.2809
 1653.0000   139.1727     9.2809
 1653.5000   139.5992     9.2809
 1654.0000   139.6063     9.2809
 1654.5000   139.5983     9.2809
 1655.0000   139.6779     9.2809
 1655.5000   139.8400     9.2809
 1656.0000   138.8471     9.2809
 1656.5000   135.7512     9.2809
 1657.0000   132.8876     9.2809
 1657.5000   132.2414     9.2809
 1658.0000   132.2023     9.2809
 1658.5000   132.4949     9.2808
 1659.0000   133.4646     9.2846
 1659.5000   134.6848     9.2890
 1660.0000   137.2092     9.2935
 1660.5000   141.3631     9.2979
 1661.0000   144.0044     9.3024
 1661.5000   144.3338     9.3068
 1662.0000   143.0271     9.3113
 1662.5000   140.7366     9.3157
 1663.0000   140.0654     9.3202
 1663.5000   139.2548     9.3246
 1664.0000   137.8712     9.3291
 1664.5000   136.7289     9.3336
 1665.0000   138.8497     9.3380
 1665.5000   141.2368     9.3425
 1666.0000   143.6385     9.3469
 1666.5000   145.0490     9.3514
 1667.0000   144.5055     9.3560
 1667.5000   142.9889     9.3598
 1668.0000   141.6446     9.3263
 1668.5000   141.6518     9.2894
 1669.0000   141.9415     9.2513
 1669.5000   142.0686     9.2439
 1670.0000   136.8410     9.2473
 1670.5000   129.8266     9.2511
 1671.0000   130.1647     9.2549
 1671.5000   136.2394     9.2587
 1672.0000   139.9341     9.2614
 1672.5000   138.6696     9.2467
 1673.0000   138.5142     9.2291
 1673.5000   139.0785     9.2112
 1674.0000   138.7959     9.1934
 1674.5000   136.6066     9.1808
 1675.0000   134.2474     9.1801
 1675.5000   132.1160     9.1792
 1676.0000   133.1621     9.1783
 1676.5000   134.7990     9.1774
 1677.0000   134.4650     9.1764
 1677.5000   133.7925     9.1755
 1678.0000   132.1599     9.1746
 1678.5000   128.6044     9.1737
 1679.0000   125.0434     9.1728
 1679.5000   121.5386     9.1719
 1680.0000   122.9100     9.1710
 1680.5000   126.7436     9.1701
 1681.0000   130.5524     9.1692
 1681.5000   136.9176     9.1683
 1682.0000   145.6046     9.1674
 1682.5000   146.0874     9.1665
 1683.0000   143.3263     9.1656
 1683.5000   141.9883     9.1646
 1684.0000   143.2050     9.1638
 1684.5000   143.9495     9.1630
 1685.0000   143.6100     9.1616
 1685.5000   141.6399     9.1441
 1686.0000   140.4975     9.0533
 1686.5000   146.8027     9.2864
 1687.0000   150.6009     8.7831
 1687.5000   148.6102     8.7452
 1688.0000   144.5249     8.9016
 1688.5000   140.4432     9.0770
 1689.0000   136.3945     9.2405
 1689.5000   133.1950     9.2631
 1690.0000   135.1882     9.2658
 1690.5000   139.8047     9.2686
 1691.0000   143.1046     9.2715
 1691.5000   144.6788     9.2744
 1692.0000   142.1153     9.2772
 1692.5000   139.3823     9.2801
 1693.0000   136.6498     9.2830
 1693.5000   132.9095     9.2859
 1694.0000   134.8296     9.2888
 1694.5000   137.6965     9.2916
 1695.0000   137.6260     9.2945
 1695.5000   138.3090     9.2974
 1696.0000   139.8396     9.3002
 1696.5000   140.8202     9.3051
 1697.0000   140.6432     9.3107
 1697.5000   140.4929     9.3157
 1698.0000   140.8308     9.3081
 1698.5000   142.2884     9.1471
 1699.0000   145.7555     9.5502
 1699.5000   150.4418     9.3013
 1700.0000   154.6170     9.2927
 1700.5000   154.0786     9.2766
 1701.0000   152.0714     9.2611
 1701.5000   148.1069     9.2604
 1702.0000   144.1983     9.2599
 1702.5000   140.3291     9.2594
 1703.0000   137.1329     9.2590
 1703.5000   137.7230     9.2585
 1704.0000   140.5008     9.2580
 1704.5000   143.2556     9.2575
 1705.0000   146.0726     9.2570
 1705.5000   146.7127     9.2565
 1706.0000   146.5037     9.2560
 1706.5000   146.4004     9.2555
 1707.0000   147.9188     9.2550
 1707.5000   149.3992     9.2545
 1708.0000   150.8769     9.2541
 1708.5000   150.6798     9.2535
 1709.0000   150.2126     9.2531
 1709.5000   149.8710     9.2526
 1710.0000   151.9537     9.2521
 1710.5000   152.0412     9.2516
