~VERSION INFORMATION
 VERS.                2.0:   CWLS LOG ASCII STANDARD - VERSION 2.0
 WRAP.                 NO:   ONE LINE PER DEPTH STEP
~WELL INFORMATION
#MNEM.UNIT      DATA TYPE    INFORMATION
#----------   ------------   ------------------------------
 STRT.F           25.0000:   START DEPTH
 STOP.F          528.0000:   STOP DEPTH
 STEP.F            0.5000:   STEP LENGTH
 NULL.          -999.2500:   NO VALUE
 COMP. FENIX & SCISSON INC:   COMPANY
 WELL.       NPR #3 #11-3:   WELL
 FLD .             NPR #3:   FIELD
 LOC .       S3 T38N R78W:   LOCATION
 CNTY.            NATRONA:   COUNTY
 STAT.            WYOMING:   STATE
 CTRY. UNITED STATES OF AMERICA:   COUNTRY
 SRVC.       Schlumberger:   SERVICE COMPANY
 DATE.        01-MAR-1977:   LOGDATE
 API .       490251028300:   API NUMBER
~CURVE INFORMATION
#MNEM.UNIT       API CODE    CURVE DESCRIPTION
#----------   ------------   ------------------------------
 DEPT.F                  :   
 SPR .MV     07 010 01 00:   SPONTANEOUS POTENTIAL
 LL8 .OHMM   07 220 08 00:   LATEROLOG-8 RES.
 ILM .OHMM   07 120 44 00:   INDUCTION LOG MEDIUM
 ILD .OHMM   07 120 46 00:   INDUCTION LOG DEEP
 GRD .GAPI   45 310 01 00:   GAMMA RAY FROM DENSITY LOG
 CALD.IN     45 280 60 00:   CALIPER
 RHOB.G/C3   45 350 01 00:   BULK DENSITY
 CORR.G/C3   45 356 01 00:   DENSITY CORRECTION
 DPHI.DEC    45 890 12 00:   DENSITY POROSITY SANDSTONE
~PARAMETER INFORMATION
#MNEM.UNIT          VALUE    DESCRIPTION
#----------   ------------   ------------------------------
 PD  .                 GL:   PERMANENT DATUM
 EPD .F              5178:   ELEVATION PERMANENT DATUM
 LMF .                 GL:   LOG MEASURED FROM
 DMF .                 GL:   DRILLING MEASURED FROM
 EKB .F              5183:   KELLING BUSHING
 EGL .F              5178:   GROUND LEVEL
 DATE.           3-1-1977:   RUN DATE
 RUN .                  1:   RUN NUMBER
 DD  .F               535:   DEPTH DRILLER
 DL  .F               526:   DEPTH LOGGER
 BLI .F               520:   BOTTOM LOG INTERVAL
 TLI .F                30:   TOP LOG INTERVAL
 CS  .IN            8.625:   CASING SIZE
 CBD .F                40:   CASING BOTTOM DRILLER
 CBL .F                30:   CASING BOTTOM LOGGER
 BS  .IN            7.875:   BIT SIZE
 BSD .F               535:   BIT SIZE AT DEPTH
 DFT .                KCL:   DRILLING FLUID TYPE
 DFD .                8.7:   DRILLING FLUID DENSITY
 DFV .                 37:   DRILLING FLUID VISCOSITY
 DFPH.                  8:   DRILLING FLUID PH
 DFL .                7.2:   DRILLING FLUID LOSS
 MSS .                PIT:   MUD SAMPLE SOURCE
 RMS .OHMM           .495:   RESISTIVITY MUD SAMPLE
 MST .F                62:   MUD SAMPLE TEMPERATURE
 RMF .OHMM           .406:   RESISTIVITY MUD FILTRATE SAMPLE
 MFST.F                65:   MUD FILTRATE SAMPLE TEMPERATURE
 MFSS.                  M:   MUD FILTRATE SAMPLE SOURCE
 RMB .OHMM           .438:   RESISTIVITY MUD AT BHT
 BHT .F                70:   BOTTOM HOLE TEMPERATURE
 TCS .HRS            0800:   TIME CURCULATED STOPPED
 TLAB.HRS            1130:   TIME LOGGER AT BOTTOM
 MRT .F                70:   MAXIMUM RECORDED TEMPERATURE
 LUN .               5642:   LOGGING UNIT NUMBER
 LUL .               CSPR:   LOGGING UNIT LOCATION
 ENGI.             MARTIN:   RECORDING ENGINEER
 CLNT.            A2DTECH:   CLIENT CODE
 ORIG.       2", 5" PRINT:   ORIGIN OF DATA
 UWI .       490251028300:   UNIQUE WELL ID
 DICO. A2D Technologies, Inc.:   DIGITIZING COMPANY
~OTHER INFORMATION
~A   DEPT      SPR        LL8        ILM        ILD         GRD      CALD       RHOB       CORR       DPHI   
# ...
  390.0000   -41.7553    15.2250    18.5230    17.5360    83.0264     7.9282     2.3737     0.0150     0.1687
  390.5000   -41.2476    16.0243    18.6599    17.6696    82.8614     7.9188     2.3686     0.0159     0.1716
  391.0000   -40.7437    16.6460    18.5451    17.8181    80.1222     7.9232     2.3741     0.0178     0.1706
  391.5000   -40.2396    17.2920    18.4441    17.8163    77.0652     7.9272     2.3649     0.0074     0.1669
  392.0000   -40.3105    17.4903    18.3437    17.8168    76.1511     7.9312     2.3814     0.0131     0.1635
  392.5000   -40.9613    15.9454    18.2437    17.6971    76.8080     7.9352     2.3747     0.0170     0.1652
  393.0000   -41.6147    16.4970    18.1444    17.5247    77.4768     7.9391     2.3570     0.0108     0.1747
  393.5000   -42.2677    17.6528    18.0455    17.3540    78.1519     7.9431     2.3456     0.0047     0.1842
  394.0000   -42.0030    17.2446    17.9472    17.1850    78.6555     7.9471     2.3316     0.0056     0.1936
  394.5000   -41.5845    16.6366    17.8495    17.0176    78.1608     7.9511     2.3234     0.0109     0.2004
  395.0000   -41.1629    15.9417    17.7523    16.8518    77.7711     7.9551     2.3340     0.0162     0.1935
  395.5000   -40.7407    16.0880    17.6556    16.6877    78.0737     7.9591     2.3440     0.0168     0.1881
  396.0000   -40.4448    16.0442    17.5594    16.5251    77.7701     7.9631     2.3540     0.0122     0.1826
  396.5000   -40.2260    15.9763    17.4637    16.3641    78.4419     7.9671     2.3610     0.0081     0.1780
  397.0000   -40.0063    15.8008    17.3686    16.2047    80.6951     7.9711     2.3649     0.0098     0.1752
  397.5000   -39.7873    15.6962    17.2740    16.0467    82.9254     7.9751     2.3687     0.0124     0.1724
  398.0000   -39.8342    15.5914    17.1799    15.9169    84.0529     7.9791     2.3725     0.0133     0.1697
  398.5000   -39.9072    15.4874    17.0863    15.8360    82.2898     7.9830     2.3764     0.0057     0.1669
  399.0000   -39.9724    15.3840    16.9932    15.7555    80.6145     7.9870     2.3802     0.0041     0.1641
  399.5000   -39.7812    15.2813    16.9007    15.6755    78.9055     7.9910     2.3881     0.0095     0.1614
  400.0000   -39.0498    15.1794    16.7877    15.5958    77.1891     7.9950     2.3942     0.0149     0.1583
  400.5000   -38.3307    15.0791    16.6553    15.5166    78.0143     7.9990     2.3822     0.0169     0.1652
  401.0000   -36.7917    14.9774    16.5239    15.4377    78.8430     8.0030     2.3660     0.0128     0.1728
  401.5000   -35.8556    14.8084    16.3936    15.3593    79.7081     8.0070     2.3494     0.0184     0.1828
  402.0000   -37.1706    14.8084    16.2642    15.2812    78.9274     8.0110     2.3702     0.0314     0.1731
  402.5000   -38.6230    14.8084    16.0936    15.2036    77.5634     8.0149     2.3836     0.0434     0.1587
  403.0000   -39.9666    14.8084    16.2431    15.1263    78.8809     8.0163     2.3713     0.0146     0.1685
  403.5000   -39.5658    14.8084    16.2431    15.0848    80.6637     8.0093     2.3595     0.0041     0.1784
  404.0000   -39.1553    14.8084    16.2431    15.2250    82.4451     8.0026     2.3665    -0.0004     0.1757
  404.5000   -38.9861    14.8084    16.1027    15.0848    81.5359     7.9958     2.3763    -0.0003     0.1699
  405.0000   -38.8192    14.6721    15.9704    15.0848    80.1663     7.9890     2.3841     0.0063     0.1642
  405.5000   -38.6519    14.4146    15.8392    15.0854    78.7974     7.9823     2.3926     0.0149     0.1585
  406.0000   -38.7706    14.1713    15.7091    14.9908    77.6277     7.9755     2.3959     0.0090     0.1530
  406.5000   -39.0603    13.9321    15.5800    14.8429    77.6497     7.9687     2.3855     0.0028     0.1611
  407.0000   -39.3519    13.6970    15.4520    14.6964    78.7660     7.9619     2.3815     0.0053     0.1671
  407.5000   -39.6449    13.4658    15.3251    14.5514    80.3915     7.9552     2.3925     0.0109     0.1598
  408.0000   -39.9342    13.3762    15.1992    14.4079    81.7609     7.9484     2.4032     0.0152     0.1539
  408.5000   -40.1783    13.5004    15.0743    14.2658    82.0162     7.9416     2.4140     0.0192     0.1479
  409.0000   -40.1115    13.5011    14.9505    14.1250    82.2679     7.9349     2.4280     0.0227     0.1420
  409.5000   -40.0531    13.3963    14.8277    13.9858    81.0513     7.9281     2.4230     0.0218     0.1367
  410.0000   -40.0025    13.2649    14.7059    13.8472    80.7186     7.9213     2.4149     0.0163     0.1389
  410.5000   -39.6678    13.1344    14.5850    13.7076    81.0424     7.9193     2.4212     0.0140     0.1411
  411.0000   -39.2435    13.0052    14.4651    13.6343    81.6741     7.9207     2.4284     0.0172     0.1379
  411.5000   -38.7947    12.8771    14.3455    13.5094    83.9008     7.9220     2.4348     0.0175     0.1335
  412.0000   -39.3710    12.7703    14.2741    13.6409    84.4425     7.9234     2.4176     0.0096     0.1378
  412.5000   -39.4154    12.7704    14.2648    13.7229    82.1869     7.9248     2.4062     0.0024     0.1483
  413.0000   -38.8123    12.7718    14.4321    13.7750    80.8486     7.9261     2.3943     0.0038     0.1568
  413.5000   -38.2293    12.9577    14.5348    13.8258    81.7499     7.9275     2.4014     0.0083     0.1458
  414.0000   -37.9413    13.1226    14.6376    13.8767    82.6678     7.9289     2.4219     0.0125     0.1349
  414.5000   -38.5843    13.2896    14.7394    13.9278    82.7784     7.9303     2.4424     0.0162     0.1194
  415.0000   -39.2001    13.4587    14.8413    13.9791    82.1904     7.9316     2.4594     0.0109     0.1241
  415.5000   -39.7817    13.6298    14.9441    14.0306    81.6077     7.9330     2.4556     0.0101     0.1302
  416.0000   -40.0787    13.8032    15.0473    14.0823    81.0197     7.9344     2.4595     0.0236     0.1224
  416.5000   -40.3596    13.9788    15.1514    14.1393    81.4983     7.9358     2.4668     0.0302     0.1158
  417.0000   -40.6405    14.1393    15.2250    14.0718    83.0090     7.9371     2.4568     0.0290     0.1225
  417.5000   -40.9217    14.1393    15.0829    13.9760    84.1285     7.9384     2.4372     0.0221     0.1282
  418.0000   -40.7688    14.0429    14.9257    13.8808    84.4068     7.9384     2.4194     0.0152     0.1346
  418.5000   -40.2690    13.9044    14.7703    13.7863    85.6407     7.9384     2.4175     0.0082     0.1435
  419.0000   -40.2410    13.7667    14.6164    13.6925    86.0740     7.9384     2.4149     0.0095     0.1443
  419.5000   -40.3380    13.6305    14.4642    13.5992    84.8684     7.9384     2.4111     0.0116     0.1450
  420.0000   -40.7171    13.4957    14.3135    13.5067    82.3450     7.9384     2.3991     0.0089     0.1485
  420.5000   -41.2817    13.3623    14.1644    13.4147    79.8838     7.9384     2.4063     0.0091     0.1534
  421.0000   -41.8472    13.2301    14.0168    13.3234    80.4717     7.9384     2.4138     0.0124     0.1454
  421.5000   -42.4268    13.0993    13.8708    13.2327    81.4524     7.9384     2.4175     0.0127     0.1418
  422.0000   -42.1528    12.9698    13.7263    13.1426    79.6048     7.9384     2.4192     0.0081     0.1402
  422.5000   -41.4546    12.8415    13.5833    13.0531    80.4645     7.9384     2.4273     0.0091     0.1376
  423.0000   -41.1112    12.7146    13.4418    12.9642    81.3853     7.9384     2.4372     0.0199     0.1290
  423.5000   -41.6374    12.5888    13.3018    12.8759    82.1585     7.9384     2.4469     0.0317     0.1223
  424.0000   -42.1386    12.4644    13.1632    12.7883    82.2800     7.9384     2.4566     0.0444     0.1199
  424.5000   -41.7628    12.3411    13.0261    12.7735    82.4191     7.9384     2.4600     0.0362     0.1193
  425.0000   -41.3162    12.2191    12.8904    12.7659    82.5578     7.9384     2.4549     0.0211     0.1228
  425.5000   -40.8712    12.1947    13.5770    12.7642    82.7195     7.9384     2.4499     0.0018     0.1263
  426.0000   -40.4288    12.5377    14.3000    13.1266    83.4853     7.9384     2.4457     0.0055     0.1295
