~VERSION INFORMATION
 VERS.                2.0:   CWLS LOG ASCII STANDARD - VERSION 2.0
 WRAP.                 NO:   ONE LINE PER DEPTH STEP
~WELL INFORMATION
#MNEM.UNIT      DATA TYPE    INFORMATION
#----------   ------------   ------------------------------
 STRT.F            2.5000:   START DEPTH
 STOP.F         1003.0000:   STOP DEPTH
 STEP.F            0.5000:   STEP LENGTH
 NULL.          -999.2500:   NO VALUE
 COMP. U S NAVY-INTEX OIL:   COMPANY
 WELL.   NPR #3 #87-SX-27:   WELL
 FLD .             TEAPOT:   FIELD
 LOC .      S27 T39N R78W:   LOCATION
 CNTY.            NATRONA:   COUNTY
 STAT.            WYOMING:   STATE
 CTRY. UNITED STATES OF AMERICA:   COUNTRY
 SRVC. Schlumberger Well Surveying Corp:   SERVICE COMPANY
 DATE.        13-AUG-1961:   LOGDATE
 API .       490250659000:   API NUMBER
~CURVE INFORMATION
#MNEM.UNIT       API CODE    CURVE DESCRIPTION
#----------   ------------   ------------------------------
 DEPT.F                  :   
 ASN .OHMM   05 041 16 00:   AMPLIFIER SHORT NORMAL
 SPR .MV     05 010 01 00:   SPONTANEOUS POTENSIAL
 CILD.MMHO   05 110 46 00:   CONDUCTIVITY INDUCTION LOG DEEP
 ILD .OHMM   05 120 46 00:   INDUCTION LOG DEEP
 GRN .MG/TON 35 310 30 00:   GAMMA RAY
 NEUT.NAPI   35 330 01 00:   NEUTRON
~PARAMETER INFORMATION
#MNEM.UNIT          VALUE    DESCRIPTION
#----------   ------------   ------------------------------
 PD  .                 GL:   PERMANENT DATUM
 EPD .F              5082:   ELEVATION PERMANENT DATUM
 LMF .                 KB:   LOG MEASURED FROM
 DAPD.F                 5:   FEET ABOVE PERMANENT DATUM
 DMF .                 KB:   DRILLING MEASURED FROM
 EKB .F              5087:   KELLING BUSHING
 EGL .F              5082:   GROUND LEVEL
 DATE.        13-AUG-1961:   RUN DATE
 RUN .                  1:   RUN NUMBER
 DD  .F              1000:   DEPTH DRILLER
 DL  .F              1003:   DEPTH LOGGER
 BLI .F              1002:   BOTTOM LOG INTERVAL
 TLI .F                90:   TOP LOG INTERVAL
 BS  .IN             6.75:   BIT SIZE
 BSD .F              1000:   BIT SIZE AT DEPTH
 DFT . OIL EMUL (12% OIL):   DRILLING FLUID TYPE
 DFD .                9.3:   DRILLING FLUID DENSITY
 DFV .                 60:   DRILLING FLUID VISCOSITY
 DFL .                  4:   DRILLING FLUID LOSS
 MSS .           FLOWLINE:   MUD SAMPLE SOURCE
 RMS .OHMM           1.29:   RESISTIVITY MUD SAMPLE
 MST .F                80:   MUD SAMPLE TEMPERATURE
 TCS .HRS               1:   TIME CURCULATED STOPPED
 LUN .               2523:   LOGGING UNIT NUMBER
 LUL .               CSPR:   LOGGING UNIT LOCATION
 ENGI.              SCOTT:   RECORDING ENGINEER
 WITN.          JORGENSEN:   WITNESSED BY
 CLNT.            A2DTECH:   CLIENT CODE
 ORIG.       2", 5" PRINT:   ORIGIN OF DATA
 UWI .       490250659000:   UNIQUE WELL ID
 DICO. A2D Technologies, Inc.:   DIGITIZING COMPANY
~OTHER INFORMATION
~A    DEPT     ASN        SPR       CILD        ILD          GRN     NEUT   
# ...
  678.5000     9.0453   -15.4655   135.1351     7.2613     6.6588   265.6953
  679.0000     9.0153   -15.6156   135.1351     7.2605     6.7285   262.2229
  679.5000     9.0151   -15.3053   133.6336     7.2597     6.7375   261.4494
  680.0000     9.0150   -14.8148   132.1321     7.3695     6.6196   269.2950
  680.5000     9.0299   -14.5195   132.1321     7.4162     6.3356   296.3613
  681.0000     9.0297   -14.1141   131.3262     7.4834     6.1860   304.7437
  681.5000     9.0490   -13.9640   130.3729     7.5848     6.1391   308.5302
  682.0000     9.0895   -13.8138   129.1291     7.7078     6.0265   309.2450
  682.5000     9.1595   -13.8138   128.4659     7.8000     6.0208   310.2247
  683.0000     9.2179   -13.8138   127.5123     7.9508     6.2136   325.9308
  683.5000     9.2992   -13.8138   126.1261     8.0068     6.3279   333.8239
  684.0000     9.4218   -13.8138   125.6057     8.1948     6.1977   337.2726
  684.5000     9.6472   -13.8138   124.6246     8.3168     6.1202   344.1271
  685.0000     9.9063   -13.8138   123.1231     8.4562     6.0564   346.8153
  685.5000    10.0585   -13.8138   121.2437     8.6659     6.0400   349.8972
  686.0000    10.2107   -13.8138   118.6186     8.8353     5.9935   351.2509
  686.5000    10.3056   -13.8138   116.3337     9.0801     5.7849   347.3410
  687.0000    10.4732   -13.8939   113.6436     9.2495     5.7206   342.5714
  687.5000    10.6043   -13.9640   108.1081     9.4314     5.6341   359.2636
  688.0000    10.8298   -14.1141   104.4646     9.6637     5.5919   357.1819
  688.5000    10.9886   -14.1792   100.5080     9.9084     5.5776   352.4174
  689.0000    11.2026   -14.4144    96.0961    10.1821     5.5134   370.9750
  689.5000    11.3072   -14.5646    95.5981    10.5060     5.1789   390.7570
  690.0000    11.5040   -14.7147    93.0931    10.8735     4.9480   390.3515
  690.5000    11.6757   -14.8649    90.6882    11.1587     5.0987   384.5051
  691.0000    11.9199   -15.0150    90.0901    11.2334     5.1247   378.8154
  691.5000    12.1749   -15.0150    88.5886    11.3080     5.1288   378.1820
  692.0000    12.2492   -15.0150    88.5886    11.3072     5.1438   379.2786
  692.5000    12.2341   -14.7898    88.5886    11.3819     5.2022   385.7666
  693.0000    12.0975   -14.5445    88.5886    11.3810     5.3568   397.8966
  693.5000    12.0627   -14.2643    88.5886    11.2691     5.5399   404.8823
  694.0000    11.9394   -14.0541    88.5886    10.9950     5.6283   411.5473
  694.5000    11.7949   -13.8038    90.0901    10.7762     5.6411   409.8012
  695.0000    11.7680   -13.5135    90.5656    10.6727     5.6486   407.3061
  695.5000    11.6434   -13.3634    91.5916    10.4736     5.6090   404.6919
  696.0000    11.5966   -13.5135    93.0931    10.3976     5.4299   403.0752
  696.5000    11.5484   -14.0491    94.5946    10.3215     5.2563   400.8822
  697.0000    11.4909   -14.2943    96.0961    10.3207     5.2414   415.2967
  697.5000    11.4521   -14.4144    96.0961    10.3200     5.3695   422.8054
  698.0000    11.4039   -14.5646    96.0961    10.2440     5.5012   428.7903
  698.5000    11.3385   -14.5646    96.0961    10.2431     5.5839   439.5662
  699.0000    11.3378   -14.5646    96.0961    10.2425     5.6408   451.2960
  699.5000    11.3371   -14.5646    96.0961    10.2417     5.5507   461.7182
  700.0000    11.3363   -14.5646    96.0961    10.2410     5.4296   468.8985
  700.5000    11.3356   -14.5646    96.0961    10.3156     5.5290   474.6245
  701.0000    11.4099   -14.5245    96.0961    10.3147     5.6567   479.0046
  701.5000    11.4092   -14.4144    90.1332    10.3893     5.6858   478.8731
  702.0000    11.4084   -14.4144    93.1546    10.3886     5.6976   469.2271
  702.5000    11.3325   -14.3894    95.3703    10.3877     5.7285   440.2650
  703.0000    11.2975   -14.2643    96.3263    10.3870     5.8666   439.8761
  703.5000    11.1677   -14.1141    99.2068    10.3052     5.9794   448.7226
  704.0000    10.9548   -14.1141    99.7398    10.1595     5.8746   463.6496
  704.5000    10.8527   -14.1141   100.7360     9.9322     5.8062   473.0226
  705.0000    10.7282   -13.9640   102.2523     9.6310     5.7942   483.4597
  705.5000    10.5312   -14.1141   102.2673     9.4460     5.8540   487.9008
  706.0000    10.4079   -14.3363   103.7851     9.2440     5.9116   471.8382
  706.5000    10.2755   -14.4299   104.5194     9.0459     5.9217   466.9824
  707.0000    10.2748   -14.5646   105.3153     8.9212     5.9417   467.8936
  707.5000    10.2696   -14.7673   106.8343     8.8628     5.9906   470.4978
  708.0000    10.2179   -14.8649   108.3484     8.7470     6.0321   455.0601
  708.5000    10.1662   -15.0150   111.3665     8.6975     6.0019   413.3037
  709.0000    10.1146   -15.0480   112.3024     8.6323     5.9668   390.7524
  709.5000    10.0629   -15.1652   114.7599     8.5986     5.9386   388.4655
  710.0000    10.0112   -15.3153   115.9171     8.5542     5.9113   414.2648
  710.5000     9.9595   -15.3153   115.9309     8.4771     5.9407   429.3670
  711.0000     9.9079   -15.3153   115.9459     8.4759     5.9866   427.6081
  711.5000     9.8474   -15.3153   114.4618     8.4744     5.9112   424.8575
  712.0000     9.6541   -15.3153   114.4745     8.4729     5.8674   423.7644
  712.5000     9.5007   -15.2277   114.4895     8.3963     5.8433   423.3181
  713.0000     9.5255   -14.9840   114.5045     8.4699     5.8357   425.0627
  713.5000     9.5605   -14.7147   114.5195     8.4684     5.8357   426.5379
  714.0000     9.5303   -14.4965   114.5356     8.4669     5.8281   427.8377
  714.5000     9.3592   -14.2528   114.5495     8.5405     5.8326   425.1663
  715.0000     9.3499   -13.9640   114.5646     8.5392     5.9317   411.6582
  715.5000     9.5148   -13.9640   114.5818     8.4623     6.2190   394.4001
  716.0000     9.5598   -14.1141   115.1751     8.3853     6.3254   392.1132
  716.5000     9.5746   -14.5000   117.6526     8.1817     6.1671   392.1015
  717.0000     9.5648   -14.9229   121.5916     7.9307     6.0836   392.5282
  717.5000     9.4482   -15.3153   125.5506     7.6393     6.0381   392.8395
  718.0000     9.2288   -15.6817   129.6707     7.2871     6.0064   392.0663
  718.5000     9.0117   -15.9254   133.4686     7.0225     5.9723   389.3762
  719.0000     8.8333   -16.2162   135.9260     6.9061     5.9332   381.9533
  719.5000     8.5527   -16.2162   137.2243     6.7814     5.9299   371.1442
  720.0000     8.2683   -16.0661   138.7387     6.6414     6.0724   358.7208
  720.5000     8.0088   -15.7487   138.7538     6.6401     6.2949   343.4246
  721.0000     7.9817   -15.4384   138.7688     6.6441     6.2320   331.6745
  721.5000     8.0418   -15.1652   138.7838     6.7874     6.0687   325.5181
  722.0000     8.2526   -14.9509   137.2982     6.8614     5.9597   330.4839
  722.5000     8.3559   -14.8574   137.3123     6.9352     5.9254   338.0849
  723.0000     8.4251   -14.7147   135.8243     6.9337     5.9555   341.8499
  723.5000     8.4464   -14.7147   135.8428     7.0078     6.0689   344.9842
  724.0000     8.4144   -14.7147   133.7336     7.0059     6.2153   348.4676
  724.5000     8.3860   -14.8649   132.8379     7.0045     6.2645   353.2019
  725.0000     8.4159   -14.8649   131.6317     7.0030     6.1916   349.8385
  725.5000     8.4899   -14.8649   129.8922     7.0013     6.1765   342.5284
  726.0000     8.4725   -15.0150   129.9107     7.0331     6.2732   341.2910
  726.5000     8.4154   -15.0150   129.1041     7.0796     6.3516   344.3525
  727.0000     8.4153   -15.1141   128.1781     7.2979     6.1965   363.7734
  727.5000     8.4610   -15.3153   126.9520     7.3230     6.0648   369.0518
  728.0000     8.5640   -15.3153   126.3262     7.4458     6.0000   372.2641
  728.5000     8.6963   -15.5450   123.9785     7.5665     6.0639   375.8845
  729.0000     8.8952   -15.6386   122.4954     7.6129     6.2322   378.6637
  729.5000     9.0425   -15.9159   122.5075     7.7424     6.2792   381.1774
  730.0000     9.1471   -16.0661   125.3839     8.2452     6.1405   381.0650
