~VERSION INFORMATION
 VERS.                2.0:   CWLS LOG ASCII STANDARD - VERSION 2.0
 WRAP.                 NO:   ONE LINE PER DEPTH STEP
~WELL INFORMATION
#MNEM.UNIT      DATA TYPE    INFORMATION
#----------   ------------   ------------------------------
 STRT.F           23.0000:   START DEPTH
 STOP.F         1106.0000:   STOP DEPTH
 STEP.F            0.5000:   STEP LENGTH
 NULL.          -999.2500:   NO VALUE
 COMP. FENIX & SCISSON INC:   COMPANY
 WELL.       NPR-3 #67-11:   WELL
 FLD . TEAPOT DOME NPR #3:   FIELD
 LOC .      S11 T38N R78W:   LOCATION
 CNTY.            NATRONA:   COUNTY
 STAT.            WYOMING:   STATE
 CTRY. UNITED STATES OF AMERICA:   COUNTRY
 SRVC.            Unknown:   SERVICE COMPANY
 DATE.        06-MAR-1978:   LOGDATE
 API .       490251059100:   API NUMBER
~CURVE INFORMATION
#MNEM.UNIT       API CODE    CURVE DESCRIPTION
#----------   ------------   ------------------------------
 DEPT.F                  :   
 ILD .OHMM   05 120 46 00:   INDUCTION LOG DEEP
 SN  .OHMM   05 040 16 00:   SHORT NORMAL 16"
 SPR .MV     05 010 01 00:   SPONTANEOUS POTENTIAL FROM RES.
 CALD.IN     45 280 60 00:   CALIPER
 GRD .GAPI   45 310 01 00:   GAMMA RAY FROM DENSITY LOG
 CORR.G/C3   45 356 01 00:   DENSITY CORRECTION
 DPHI.DEC    45 890 12 00:   DENSITY POROSITY SANDSTONE
 RHOB.G/C3   45 350 01 00:   BULK DENSITY
~PARAMETER INFORMATION
#MNEM.UNIT          VALUE    DESCRIPTION
#----------   ------------   ------------------------------
 PD  .                 GL:   PERMANENT DATUM
 EPD .F              5243:   ELEVATION PERMANENT DATUM
 LMF .                 KB:   LOG MEASURED FROM
 DAPD.F                 4:   FEET ABOVE PERMANENT DATUM
 DMF .                 KB:   DRILLING MEASURED FROM
 EKB .F              5247:   KELLING BUSHING
 EGL .F              5243:   GROUND LEVEL
 DATE.           3-6-1978:   RUN DATE
 RUN .                  1:   RUN NUMBER
 DD  .F              1104:   DEPTH DRILLER
 DL  .F              1108:   DEPTH LOGGER
 BLI .F              1102:   BOTTOM LOG INTERVAL
 TLI .F                40:   TOP LOG INTERVAL
 CS  .IN            8.625:   CASING SIZE
 CBD .F                40:   CASING BOTTOM DRILLER
 CBL .F                40:   CASING BOTTOM LOGGER
 BS  .IN            7.875:   BIT SIZE
 BSD .F              1104:   BIT SIZE AT DEPTH
 DFT .         LIGNO/SULF:   DRILLING FLUID TYPE
 DFD .                8.6:   DRILLING FLUID DENSITY
 DFV .                 31:   DRILLING FLUID VISCOSITY
 DFL .                  8:   DRILLING FLUID LOSS
 MSS .            MUD PIT:   MUD SAMPLE SOURCE
 RMS .OHMM              2:   RESISTIVITY MUD SAMPLE
 MST .F                58:   MUD SAMPLE TEMPERATURE
 RMF .OHMM            1.2:   RESISTIVITY MUD FILTRATE SAMPLE
 MFST.F                64:   MUD FILTRATE SAMPLE TEMPERATURE
 RMC .OHMM              3:   RESISTIVITY MUD CAKE
 MCST.F                64:   MUD CAKE SAMPLE TEMPERATURE
 MFSS.               MEAS:   MUD FILTRATE SAMPLE SOURCE
 RMB .OHMM            1.5:   RESISTIVITY MUD AT BHT
 BHT .F                78:   BOTTOM HOLE TEMPERATURE
 TCS .HRS               4:   TIME CURCULATED STOPPED
 MRT .F                78:   MAXIMUM RECORDED TEMPERATURE
 LUN .               2959:   LOGGING UNIT NUMBER
 LUL .               CASP:   LOGGING UNIT LOCATION
 ENGI.             MILLER:   RECORDING ENGINEER
 WITN.           MCGINLEY:   WITNESSED BY
 CLNT.            A2DTECH:   CLIENT CODE
 ORIG.       2", 5" PRINT:   ORIGIN OF DATA
 UWI .       490251059100:   UNIQUE WELL ID
 DICO. A2D Technologies, Inc.:   DIGITIZING COMPANY
~OTHER INFORMATION
~A   DEPT      ILD         SN        SPR       CALD         GRD      CORR       DPHI       RHOB   
# ...
  306.5000     5.4393     6.0740   -25.6978     7.7743    77.2624     0.0350     0.1507     2.4202
  307.0000     5.3927     6.0047   -25.2978     7.7738    76.8080     0.0261     0.1560     2.4077
  307.5000     5.3316     5.9611   -25.1517     7.7732    75.7537     0.0172     0.1602     2.4037
  308.0000     5.2712     5.9178   -25.0810     7.7727    77.3745     0.0121     0.1618     2.3995
  308.5000     5.1906     5.8748   -25.0137     7.7721    80.3847     0.0103     0.1518     2.4001
  309.0000     5.1938     5.8322   -24.9461     7.7716    80.2132     0.0102     0.1514     2.4119
  309.5000     5.2066     5.7465   -24.8778     7.7710    79.2078     0.0140     0.1510     2.4140
  310.0000     5.2193     5.7637   -24.8103     7.7705    81.3618     0.0178     0.1491     2.4160
  310.5000     5.2319     5.8042   -24.8603     7.7700    82.1957     0.0209     0.1471     2.4191
  311.0000     5.2394     5.8450   -24.9275     7.7694    82.2756     0.0194     0.1451     2.4222
  311.5000     5.2276     5.8861   -25.0207     7.7689    83.0329     0.0179     0.1431     2.4254
  312.0000     5.2157     5.9275   -25.7404     7.7683    85.1734     0.0165     0.1466     2.4229
  312.5000     5.2039     5.9628   -26.0012     7.7678    86.1681     0.0151     0.1496     2.4182
  313.0000     5.1909     6.0182   -25.6856     7.7672    86.3446     0.0172     0.1510     2.4136
  313.5000     5.2456     6.0383   -25.7057     7.7667    85.4067     0.0195     0.1498     2.4114
  314.0000     5.3355     6.0658   -25.1243     7.7661    82.1625     0.0209     0.1522     2.4182
  314.5000     5.3496     6.0935   -25.0013     7.7656    78.9376     0.0133     0.1551     2.4138
  315.0000     5.3653     6.1213   -24.9980     7.7651    75.6338     0.0053     0.1590     2.4053
  315.5000     5.3809     6.1304   -24.9989     7.7645    74.7980     0.0008     0.1637     2.3970
  316.0000     5.4366     6.1381   -25.0414     7.7640    76.9818     0.0012     0.1651     2.3921
  316.5000     5.5084     6.1689   -25.3817     7.7634    79.3220     0.0049     0.1605     2.3963
  317.0000     5.5335     6.1861   -25.7255     7.7629    82.4813     0.0086     0.1563     2.4005
  317.5000     5.6696     6.2457   -26.0623     7.7624    86.1927     0.0115     0.1523     2.4047
  318.0000     5.8889     6.3612   -26.4052     7.7618    86.9800     0.0126     0.1451     2.4157
  318.5000     6.0891     6.7705   -25.9734     7.7613    87.5404     0.0137     0.1368     2.4318
  319.0000     6.1712     7.0852   -25.5088     7.7607    86.2552     0.0149     0.1359     2.4380
  319.5000     6.2544     7.2035   -26.1919     7.7602    84.0967     0.0160     0.1382     2.4355
  320.0000     6.3387     7.3185   -26.2857     7.7596    82.0984     0.0170     0.1404     2.4328
  320.5000     6.3805     7.3745   -25.5725     7.7591    81.9553     0.0164     0.1427     2.4302
  321.0000     6.4202     7.2558   -24.9551     7.7589    83.4322     0.0160     0.1447     2.4276
  321.5000     6.2884     7.1522   -24.8264     7.7587    84.8804     0.0155     0.1450     2.4254
  322.0000     6.1873     7.0501   -24.8990     7.7586    86.3351     0.0151     0.1453     2.4233
  322.5000     6.0789     6.9286   -25.0215     7.7584    86.8910     0.0168     0.1464     2.4210
  323.0000     6.0038     6.7555   -25.1376     7.7583    85.5617     0.0186     0.1482     2.4188
  323.5000     5.9297     6.6626   -24.9817     7.7582    85.5178     0.0204     0.1483     2.4166
  324.0000     5.8565     6.6123   -24.9062     7.7580    85.7173     0.0223     0.1485     2.4169
  324.5000     5.7999     6.5645   -25.0350     7.7579    84.5759     0.0241     0.1490     2.4172
  325.0000     5.8792     6.5174   -25.1943     7.7578    82.1872     0.0259     0.1513     2.4155
  325.5000     5.9585     6.4792   -26.4035     7.7576    79.7850     0.0270     0.1526     2.4104
  326.0000     6.0740     6.4769   -25.4660     7.7575    78.8696     0.0268     0.1524     2.4101
  326.5000     6.0657     6.5430   -26.6028     7.7573    81.5826     0.0344     0.1523     2.4110
  327.0000     6.0427     6.6319   -25.7047     7.7572    84.8685     0.0436     0.1494     2.4121
  327.5000     6.0182     6.8018   -24.8445     7.7571    88.0672     0.0538     0.1425     2.4194
  328.0000     6.1382     6.9112   -25.0921     7.7569    88.2841     0.0655     0.1329     2.4367
  328.5000     6.3088     6.9975   -25.5438     7.7568    88.0703     0.0769     0.1262     2.4531
  329.0000     6.4847     7.2030   -25.9840     7.7566    87.7640     0.0638     0.1346     2.4513
  329.5000     6.6652     7.4575   -25.9996     7.7565    87.0263     0.0425     0.1407     2.4356
  330.0000     6.7969     7.7107   -25.9941     7.7564    86.3184     0.0209     0.1454     2.4243
  330.5000     6.9520     7.9728   -25.8865     7.7562    87.8121     0.0110     0.1505     2.4225
  331.0000     7.0409     8.0294   -25.7735     7.7561    90.0640     0.0110     0.1507     2.4190
  331.5000     7.0410     8.0538   -25.6609     7.7559    90.1212     0.0110     0.1490     2.4135
  332.0000     7.0418     8.0882   -25.5483     7.7558    82.6260     0.0110     0.1488     2.4132
  332.5000     7.0419     8.0091   -25.4355     7.7557    78.0830     0.0115     0.1486     2.4172
  333.0000     7.0242     7.8126   -25.3199     7.7555    79.2481     0.0121     0.1441     2.4211
  333.5000     6.9248     7.6121   -25.2184     7.7554    80.9919     0.0126     0.1442     2.4252
  334.0000     6.8266     7.3732   -25.9854     7.7552    82.7422     0.0132     0.1452     2.4261
  334.5000     6.7237     7.1729   -26.7809     7.7551    84.4960     0.0138     0.1546     2.4156
  335.0000     6.3985     7.0821   -25.9478     7.7550    85.7535     0.0143     0.1542     2.4073
  335.5000     6.2393     6.9765   -25.1782     7.7548    86.3176     0.0149     0.1434     2.4127
  336.0000     6.2220     6.7726   -25.0576     7.7547    86.2990     0.0139     0.1453     2.4215
  336.5000     6.2046     6.5979   -25.3038     7.7546    86.8763     0.0127     0.1473     2.4242
  337.0000     6.1873     6.6619   -25.5680     7.7544    87.5414     0.0114     0.1413     2.4234
  337.5000     6.1701     6.8808   -25.2815     7.7543    88.2100     0.0099     0.1316     2.4324
  338.0000     6.1529     7.0929   -25.7973     7.7541    88.7517     0.0082     0.1285     2.4443
  338.5000     6.1358     7.3723   -26.5171     7.7540    87.7632     0.0066     0.1265     2.4564
  339.0000     6.1187     7.2674   -25.8498     7.7539    84.4662     0.0050     0.1281     2.4625
  339.5000     6.1017     7.1051   -25.2240     7.7537    82.1473     0.0048     0.1324     2.4566
  340.0000     6.0847     7.1110   -25.4431     7.7536    82.7282     0.0107     0.1330     2.4478
  340.5000     6.0740     7.0416   -25.7116     7.7534    83.4357     0.0174     0.1353     2.4397
  341.0000     5.9419     6.7386   -25.9887     7.7533    84.1685     0.0208     0.1423     2.4373
  341.5000     5.7750     6.4386   -26.2040     7.7532    85.9091     0.0160     0.1461     2.4308
  342.0000     5.5388     6.1304   -26.3613     7.7530    88.9224     0.0114     0.1496     2.4208
  342.5000     5.2881     6.0679   -25.6872     7.7529    91.6245     0.0070     0.1545     2.4108
  343.0000     5.2713     5.9822   -25.7536     7.7528    91.2535     0.0059     0.1556     2.4039
  343.5000     5.2532     5.8976   -25.9421     7.7526    90.9015     0.0050     0.1566     2.4019
  344.0000     5.2389     5.8537   -25.7470     7.7525    91.8142     0.0062     0.1566     2.4000
  344.5000     5.2987     5.9174   -25.4205     7.7523    91.7536     0.0075     0.1538     2.4064
  345.0000     5.3544     5.9776   -25.8381     7.7522    90.6285     0.0088     0.1508     2.4128
  345.5000     5.3872     6.0384   -26.2746     7.7521    90.8484     0.0102     0.1487     2.4176
  346.0000     5.3726     6.0740   -26.7129     7.7519    90.7368     0.0115     0.1473     2.4176
  346.5000     5.3395     6.0542   -26.5191     7.7518    86.3999     0.0128     0.1590     2.4172
