~VERSION INFORMATION
 VERS.                2.0:   CWLS LOG ASCII STANDARD - VERSION 2.0
 WRAP.                 NO:   ONE LINE PER DEPTH STEP
~WELL INFORMATION
#MNEM.UNIT      DATA TYPE    INFORMATION
#----------   ------------   ------------------------------
 STRT.F           86.5000:   START DEPTH
 STOP.F         1282.0000:   STOP DEPTH
 STEP.F            0.5000:   STEP LENGTH
 NULL.          -999.2500:   NO VALUE
 COMP.      UNITED STATES:   COMPANY
 WELL.             NPR #3:   WELL
 FLD .        TEAPOT DOME:   FIELD
 LOC .      S14 T38N R78W:   LOCATION
 CNTY.            NATRONA:   COUNTY
 STAT.            WYOMING:   STATE
 CTRY. UNITED STATES OF AMERICA:   COUNTRY
 SRVC.       Schlumberger:   SERVICE COMPANY
 DATE.        06-JUL-1962:   LOGDATE
 API .       490250631800:   API NUMBER
~CURVE INFORMATION
#MNEM.UNIT       API CODE    CURVE DESCRIPTION
#----------   ------------   ------------------------------
 DEPT.F                  :   
 SPR .MV     05 010 01 00:   SPONTANEOUS POTENTIAL FROM RES.
 CILD.MMHO   05 110 00 00:   CONDUCTIVITY INDUCTION LOG
 ASN .OHMM   05 041 16 00:   AMPLIFIED SHORT NORMAL 16"
 ILD .OHMM   05 120 46 00:   INDUCTION LOG DEEP
 GR  .GAPI   30 310 01 00:   GAMMA RAY
~PARAMETER INFORMATION
#MNEM.UNIT          VALUE    DESCRIPTION
#----------   ------------   ------------------------------
 PD  .                 GL:   PERMANENT DATUM
 EPD .F              5288:   ELEVATION PERMANENT DATUM
 LMF .                 KB:   LOG MEASURED FROM
 DAPD.F                 5:   FEET ABOVE PERMANENT DATUM
 DMF .                 KB:   DRILLING MEASURED FROM
 EKB .F              5293:   KELLING BUSHING
 EGL .F              5288:   GROUND LEVEL
 DATE.             7-6-62:   RUN DATE
 RUN .                  1:   RUN NUMBER
 DD  .F              1286:   DEPTH DRILLER
 DL  .F              1283:   DEPTH LOGGER
 BLI .F              1282:   BOTTOM LOG INTERVAL
 TLI .F                87:   TOP LOG INTERVAL
 CBD .F                10:   CASING BOTTOM DRILLER
 BS  .IN             6.75:   BIT SIZE
 BSD .F              1286:   BIT SIZE AT DEPTH
 DFT .            GEL-OIL:   DRILLING FLUID TYPE
 DFD .               10.3:   DRILLING FLUID DENSITY
 DFV .                 53:   DRILLING FLUID VISCOSITY
 DFL .                3.6:   DRILLING FLUID LOSS
 MSS .           FLOWLINE:   MUD SAMPLE SOURCE
 RMS .OHMM           5.66:   RESISTIVITY MUD SAMPLE
 MST .F                78:   MUD SAMPLE TEMPERATURE
 RMF .OHMM           5.59:   RESISTIVITY MUD FILTRATE SAMPLE
 MFST.F                78:   MUD FILTRATE SAMPLE TEMPERATURE
 RMC .OHMM           4.47:   RESISTIVITY MUD CAKE
 MCST.F                78:   MUD CAKE SAMPLE TEMPERATURE
 MFSS.                  M:   MUD FILTRATE SAMPLE SOURCE
 MCSS.                  M:   MUD CAKE SAMPLE SOURCE
 RMB .OHMM           5.08:   RESISTIVITY MUD AT BHT
 BHT .F                88:   BOTTOM HOLE TEMPERATURE
 TCS .HRS               1:   TIME CURCULATED STOPPED
 MRT .F                88:   MAXIMUM RECORDED TEMPERATURE
 LUN .               2503:   LOGGING UNIT NUMBER
 LUL .               CSPR:   LOGGING UNIT LOCATION
 ENGI.             KNOBEL:   RECORDING ENGINEER
 WITN.          JORGENSEN:   WITNESSED BY
 CLNT.            A2DTECH:   CLIENT CODE
 ORIG.       2", 5" PRINT:   ORIGIN OF DATA
 UWI .       490250631800:   UNIQUE WELL ID
 DICO. A2D Technologies, Inc.:   DIGITIZING COMPANY
~OTHER INFORMATION
~A   DEPT      SPR       CILD        ASN        ILD         GR   
# ...
 1184.5000   -41.2963    88.5933    11.1550    11.6673    60.5390
 1185.0000   -40.9870    88.5933    11.1455    11.5213    62.7471
 1185.5000   -40.6695    88.8635    11.1341    11.3752    58.1693
 1186.0000   -40.3502    89.2006    11.1228    11.2290    51.2230
 1186.5000   -40.3663    89.5376    11.1117    11.0835    46.7276
 1187.0000   -40.5906    89.8746    11.1004    10.9385    48.1628
 1187.5000   -40.8142    90.2116    11.0892    10.8568    49.1413
 1188.0000   -41.0376    90.5487    11.0780    10.8568    48.1773
 1188.5000   -41.1345    90.5954    11.0668    10.8547    50.3207
 1189.0000   -41.1354    90.3507    11.0557    10.8203    53.5790
 1189.5000   -41.1455    90.0698    11.0363    10.7864    69.5445
 1190.0000   -41.2043    89.7881    11.0175    10.7563    64.6917
 1190.5000   -41.2640    89.5933    10.9987    10.7559    55.6973
 1191.0000   -41.3226    89.5938    10.9800    10.7560    54.0332
 1191.5000   -41.3179    89.9271    10.9612    10.7561    48.2696
 1192.0000   -41.8272    90.2879    10.9412    10.7561    48.0830
 1192.5000   -42.4379    90.5954    10.9205    10.7560    53.7869
 1193.0000   -43.0451    90.5954    10.8999    10.7561    61.6552
 1193.5000   -43.4178    89.8849    10.8792    10.7559    65.2259
 1194.0000   -42.7913    89.1451    10.8586    10.7524    66.4449
 1194.5000   -42.1926    88.4053    10.8380    10.8695    63.8718
 1195.0000   -41.7154    87.6655    10.8173    11.0130    61.1473
 1195.5000   -42.0258    86.9254    10.7966    11.1577    53.5977
 1196.0000   -42.4764    86.1848    10.7758    11.3030    56.2093
 1196.5000   -42.7316    85.4432    10.7572    11.4016    58.5529
 1197.0000   -42.5094    84.7016    10.7806    11.4743    52.3176
 1197.5000   -42.3319    84.8254    10.8049    11.5465    54.9742
 1198.0000   -42.2023    85.1062    10.8295    11.5589    52.7403
 1198.5000   -41.9053    85.3871    10.8530    11.4587    56.3019
 1199.0000   -41.4315    86.0131    10.7609    11.3119    65.9112
 1199.5000   -40.9603    87.5391    10.6511    11.1643    74.4132
 1200.0000   -40.5428    89.0651    10.5410    11.0167    73.6590
 1200.5000   -40.7597    90.5911    10.4323    10.8691    57.0568
 1201.0000   -41.0112    92.1170    10.3546    10.7216    61.6634
 1201.5000   -41.1343    93.6430    10.4086    10.5745    59.4296
 1202.0000   -41.1349    95.1690    10.4713    10.4273    57.9714
 1202.5000   -41.1266    95.6006    10.4311    10.3475    60.1384
 1203.0000   -41.4832    95.6006    10.3942    10.2737    58.4086
 1203.5000   -41.9606    95.6006    10.3573    10.2556    57.0038
 1204.0000   -42.4418    96.1049    10.3315    10.2364    56.3725
 1204.5000   -42.9244    96.6482    10.3156    10.2018    62.4213
 1205.0000   -43.4080    97.1915    10.2997    10.1669    63.4427
 1205.5000   -43.3063    97.7348    10.2835    10.1318    64.1116
 1206.0000   -42.5611    98.2781    10.2799    10.0967    62.2415
 1206.5000   -41.8419    98.8213    10.2798    10.0617    58.3183
 1207.0000   -41.1235    99.3646    10.2795    10.0266    56.2171
 1207.5000   -40.4032    99.5308    10.2587     9.9912    48.7489
 1208.0000   -39.6810    99.3243    10.1982     9.9563    47.8691
 1208.5000   -38.9684    99.1178    10.1593     9.9549    46.5972
 1209.0000   -39.2074    98.9112    10.1889     9.9552    46.9505
 1209.5000   -39.6723    98.7047    10.2389     9.9552    59.7388
 1210.0000   -40.1246    98.4982    10.2594     9.9552    57.5407
 1210.5000   -40.0578    98.2917    10.2516     9.9552    66.0022
 1211.0000   -39.8258    98.0852    10.2054     9.9552    66.2603
 1211.5000   -39.5978    97.8786    10.1583     9.9552    68.2116
 1212.0000   -39.3690    97.6721    10.1620     9.9509    70.4637
 1212.5000   -39.1489    97.4656    10.1670     9.9396    65.4716
 1213.0000   -39.1419    97.2591    10.1851     9.9285    64.3901
 1213.5000   -39.1410    97.0526    10.2035     9.9173    67.5956
 1214.0000   -39.3137    96.8460    10.2218     9.9061    61.2760
 1214.5000   -39.5904    96.6395    10.2395     9.8950    57.4355
 1215.0000   -39.8680    97.0789    10.2229     9.8839    72.0610
 1215.5000   -40.1463    97.6633    10.1958     9.8727    59.6995
 1216.0000   -40.4249    98.2476    10.1799     9.8613    65.7435
 1216.5000   -40.7009    98.8319    10.1803     9.8216    74.0938
 1217.0000   -40.9743    99.4163    10.1777     9.7428    75.2420
 1217.5000   -40.9158   100.0006    10.1157     9.6643    71.4850
 1218.0000   -40.4155   100.5850    10.0531     9.5858    75.6583
 1218.5000   -39.9137   101.1693     9.9907     9.5071    77.4333
 1219.0000   -39.9492   101.6069     9.9285     9.4283    71.0763
 1219.5000   -40.3981   101.6069     9.8819     9.3557    68.8932
 1220.0000   -40.7432   101.6069     9.8380     9.3541    70.6396
 1220.5000   -40.4376   101.8084     9.7922     9.3545    60.5932
 1221.0000   -39.7888   102.1129     9.7777     9.3546    61.9286
 1221.5000   -39.1420   102.4175     9.8282     9.3546    56.2347
 1222.0000   -38.5475   102.7221     9.8897     9.3546    54.0405
 1222.5000   -38.8019   103.0266     9.9512     9.3546    53.9319
 1223.0000   -39.1840   103.3312     9.9614     9.3546    57.1794
 1223.5000   -39.5646   103.6091    10.0349     9.3539    61.2811
 1224.0000   -39.9449   103.6091    10.1353     9.3519    53.6336
 1224.5000   -40.1379   103.6091    10.2445     9.3695    44.1172
 1225.0000   -40.1381   102.3350    10.3551     9.6146    52.7469
 1225.5000   -40.1383   101.4213    10.4662     9.8525    64.3833
 1226.0000   -40.1415   100.2455    10.5807    10.0903    62.7178
 1226.5000   -40.4198    96.8953    10.7666    10.3486    73.5816
 1227.0000   -41.7555    92.7682    11.1749    10.7841    66.0757
 1227.5000   -43.4517    86.9494    11.5714    11.2525    60.2066
 1228.0000   -45.1562    81.1307    12.2088    11.7478    56.0509
 1228.5000   -46.8604    75.3119    13.0512    12.5568    52.2266
 1229.0000   -48.5655    70.4462    13.9019    13.4195    54.8808
 1229.5000   -50.2674    66.4259    14.7517    14.2851    42.3372
 1230.0000   -51.9636    62.4057    15.5980    15.1559    47.9902
 1230.5000   -53.1521    58.3855    16.2927    16.0363    48.9178
 1231.0000   -51.5884    56.5595    16.6992    16.3644    36.1618
 1231.5000   -49.5919    56.5595    16.9550    16.5641    32.8111
 1232.0000   -47.6054    57.2969    16.6609    16.3631    37.8841
 1232.5000   -46.0153    59.3763    16.2644    15.9932    41.1102
 1233.0000   -47.1287    61.4557    15.8645    15.6063    47.5833
 1233.5000   -48.1894    63.5351    15.4649    15.2193    41.4212
 1234.0000   -49.2301    65.6146    15.0673    14.8327    46.8860
 1234.5000   -50.1299    67.6940    14.6641    14.4459    51.7488
 1235.0000   -50.0723    68.5722    14.2806    14.0584    53.1241
 1235.5000   -50.9969    68.5722    14.1626    13.6740    50.0787
 1236.0000   -52.1444    70.1069    14.1606    13.3128    56.1915
 1236.5000   -53.2387    71.6665    14.1202    13.1244    54.1453
 1237.0000   -52.6310    73.2261    13.9244    12.9272    52.4740
 1237.5000   -52.4978    74.7856    13.5764    12.7294    56.7807
 1238.0000   -52.4856    76.3452    13.2335    12.5322    53.8233
 1238.5000   -52.1881    77.5817    12.9493    12.3335    59.0123
 1239.0000   -50.6176    77.5817    12.9580    12.2304    55.3667
 1239.5000   -49.1282    78.0955    12.9586    12.1846    62.6952
 1240.0000   -49.7842    78.9331    12.9584    12.1576    58.4761
 1240.5000   -50.8992    79.5944    12.9589    12.1584    56.2072
 1241.0000   -52.0129    79.6081    12.9580    12.1566    61.4699
 1241.5000   -53.0868    79.6212    12.9207    12.1467    61.5441
 1242.0000   -53.2890    78.5827    12.7402    12.2113    54.3750
 1242.5000   -53.2914    78.5827    12.5626    12.1029    56.8681
 1243.0000   -53.2842    78.5827    12.3854    11.9983    71.2232
 1243.5000   -53.0399    80.5255    12.2079    11.8917    66.0378
 1244.0000   -51.9215    82.3867    12.0306    11.7849    65.5666
 1244.5000   -50.8243    84.2479    11.8532    11.6780    58.9137
 1245.0000   -49.7295    86.1092    11.6758    11.5716    52.7856
