~VERSION INFORMATION
 VERS.                2.0:   CWLS LOG ASCII STANDARD - VERSION 2.0
 WRAP.                 NO:   ONE LINE PER DEPTH STEP
~WELL INFORMATION
#MNEM.UNIT      DATA TYPE    INFORMATION
#----------   ------------   ------------------------------
 STRT.F           30.0000:   START DEPTH
 STOP.F          526.0000:   STOP DEPTH
 STEP.F            0.5000:   STEP LENGTH
 NULL.          -999.2500:   NO VALUE
 COMP. FENIX & SCISSON INC:   COMPANY
 WELL.       NPR #37-SX-3:   WELL
 FLD .             TEAPOT:   FIELD
 LOC .       S3 T38N R78W:   LOCATION
 CNTY.            NATRONA:   COUNTY
 STAT.            WYOMING:   STATE
 CTRY. UNITED STATES OF AMERICA:   COUNTRY
 SRVC.              Welex:   SERVICE COMPANY
 DATE.        10-MAR-1977:   LOGDATE
 API .       490251028600:   API NUMBER
~CURVE INFORMATION
#MNEM.UNIT       API CODE    CURVE DESCRIPTION
#----------   ------------   ------------------------------
 DEPT.F                  :   
 ILD .OHMM   07 120 46 00:   INDUCTION LOG DEEP
 ILM .OHMM   07 120 44 00:   INDUCTION LOG MEDIUM
 SPR .MV     07 010 01 00:   SPONTANEOUS POTENTIAL
 SGRD.OHMM   07 220 05 00:   SHALLOW RESISTIVITY
 GRD .GAPI   45 310 01 00:   GAMMA RAY FROM DENSITY LOG
 CALD.IN     45 280 60 00:   CALIPER
 CORR.G/C3   45 356 01 00:   DENSITY CORRECTION
 RHOB.G/C3   45 350 01 00:   BULK DENSITY
 DPOR.DEC    45 890 12 00:   DENSITY POROSITY SANDSTONE
~PARAMETER INFORMATION
#MNEM.UNIT          VALUE    DESCRIPTION
#----------   ------------   ------------------------------
 PD  .                 GL:   PERMANENT DATUM
 EPD .F              5232:   ELEVATION PERMANENT DATUM
 LMF .                 GL:   LOG MEASURED FROM
 DMF .                 GL:   DRILLING MEASURED FROM
 EGL .F              5232:   GROUND LEVEL
 DATE.            3-10-77:   RUN DATE
 RUN .                  1:   RUN NUMBER
 DD  .F               530:   DEPTH DRILLER
 DL  .F               528:   DEPTH LOGGER
 BLI .F               526:   BOTTOM LOG INTERVAL
 TLI .F                35:   TOP LOG INTERVAL
 CS  .IN            8.625:   CASING SIZE
 CBD .F                40:   CASING BOTTOM DRILLER
 CBL .F                42:   CASING BOTTOM LOGGER
 BS  .IN            7.875:   BIT SIZE
 BSD .F               530:   BIT SIZE AT DEPTH
 DFT .            KCL MUD:   DRILLING FLUID TYPE
 DFD .                8.8:   DRILLING FLUID DENSITY
 DFV .                 32:   DRILLING FLUID VISCOSITY
 DFPH.                  8:   DRILLING FLUID PH
 DFL .                7.7:   DRILLING FLUID LOSS
 MSS .            MUD PIT:   MUD SAMPLE SOURCE
 RMS .OHMM            .48:   RESISTIVITY MUD SAMPLE
 MST .F                47:   MUD SAMPLE TEMPERATURE
 RMF .OHMM            .43:   RESISTIVITY MUD FILTRATE SAMPLE
 MFST.F                47:   MUD FILTRATE SAMPLE TEMPERATURE
 RMC .OHMM            .52:   RESISTIVITY MUD CAKE
 MCST.F                47:   MUD CAKE SAMPLE TEMPERATURE
 MFSS.           FANN KIT:   MUD FILTRATE SAMPLE SOURCE
 MCSS.           FANN KIT:   MUD CAKE SAMPLE SOURCE
 RMB .OHMM            .41:   RESISTIVITY MUD AT BHT
 BHT .F                55:   BOTTOM HOLE TEMPERATURE
 TCS .HRS             1.5:   TIME CURCULATED STOPPED
 MRT .F                55:   MAXIMUM RECORDED TEMPERATURE
 LUN .               8611:   LOGGING UNIT NUMBER
 LUL .           GILLETTE:   LOGGING UNIT LOCATION
 ENGI.               DOAK:   RECORDING ENGINEER
 WITN.              BURKE:   WITNESSED BY
 CLNT.            A2DTECH:   CLIENT CODE
 ORIG.       2", 5" PRINT:   ORIGIN OF DATA
 UWI .       490251028600:   UNIQUE WELL ID
 DICO. A2D Technologies, Inc.:   DIGITIZING COMPANY
~OTHER INFORMATION
~A   DEPT      ILD        ILM        SPR       SGRD         GRD        CALD      CORR        RHOB     DPOR   
# ...
  358.5000    19.1545    23.7242   -36.7438    25.2829    98.9936     8.0145     0.0699     2.3987     0.8119
  359.0000    19.1001    23.4957   -36.8248    26.0746   101.4104     8.0141     0.0684     2.3938     0.8035
  359.5000    19.0454    23.2694   -36.9060    26.4141   101.3413     8.0137     0.0670     2.3911     0.7983
  360.0000    18.9907    23.0452   -36.9902    25.6085    98.5381     8.0133     0.0655     2.3891     0.8001
  360.5000    18.9362    22.8232   -36.9457    24.8255    95.6167     8.0129     0.0641     2.3912     0.8038
  361.0000    18.8819    22.6024   -36.8715    25.1313    92.6705     8.0125     0.0626     2.3902     0.7976
  361.5000    18.8400    22.3301   -36.7968    25.5292    89.6645     8.0121     0.0612     2.3807     0.7824
  362.0000    19.2927    21.8607   -36.7225    25.9380    89.5172     8.0117     0.0597     2.3716     0.7660
  362.5000    19.6688    21.4056   -36.6481    26.3493    91.0911     8.0113     0.0583     2.3626     0.7447
  363.0000    20.0535    20.8446   -36.5738    26.7141    93.1532     8.0109     0.0606     2.3562     0.7303
  363.5000    20.4458    21.0142   -36.4995    26.2108    95.4718     8.0105     0.0634     2.3570     0.7344
  364.0000    20.8466    21.2455   -36.4251    25.7706    97.7949     8.0101     0.0661     2.3614     0.7463
  364.5000    20.5179    21.4274   -36.3508    25.5163   100.1195     8.0097     0.0681     2.3692     0.7533
  365.0000    20.1160    21.2030   -36.2765    26.7164   102.2766     8.0093     0.0675     2.3655     0.7446
  365.5000    19.7216    21.0209   -36.2020    26.2073   102.6630     8.0089     0.0670     2.3646     0.7501
  366.0000    19.3357    20.8404   -36.1274    25.5163   102.0480     8.0085     0.0664     2.3626     0.7460
  366.5000    19.0140    20.6539   -36.0547    25.7563   100.2998     8.0081     0.0666     2.3636     0.7443
  367.0000    19.2479    20.8328   -36.0722    26.0801    98.5449     8.0077     0.0675     2.3664     0.7520
  367.5000    19.4953    21.0240   -36.2111    26.4661    97.9031     8.0073     0.0662     2.3694     0.7601
  368.0000    19.7458    21.2162   -36.3488    25.5513    99.1939     8.0070     0.0615     2.3627     0.7598
  368.5000    19.9996    21.4097   -36.4871    24.3717   101.2192     8.0065     0.0569     2.3505     0.7100
  369.0000    20.2777    21.6051   -36.6251    24.6302   102.1870     8.0062     0.0544     2.3449     0.7154
  369.5000    19.9589    21.8022   -36.7632    25.0492    98.5470     8.0058     0.0553     2.3474     0.7172
  370.0000    19.6176    22.0011   -36.9013    24.8486    94.8034     8.0054     0.0562     2.3441     0.7061
  370.5000    19.2822    22.2019   -37.0395    24.4826    96.2978     8.0050     0.0571     2.3520     0.7246
  371.0000    18.9525    22.4352   -37.1778    24.1246    98.3750     8.0046     0.0580     2.3602     0.7434
  371.5000    18.6284    22.2553   -37.3146    23.7716   100.4391     8.0042     0.0588     2.3685     0.7613
  372.0000    18.3099    22.0452   -37.3923    23.4224   100.6723     8.0038     0.0597     2.3726     0.7679
  372.5000    17.9968    21.8370   -37.3661    23.0642    97.7165     8.0034     0.0596     2.3753     0.7718
  373.0000    17.6890    21.6309   -37.3413    23.1168    95.8260     8.0030     0.0586     2.3706     0.7625
  373.5000    17.4601    21.4274   -37.3162    23.1746    96.4308     8.0026     0.0577     2.3653     0.7445
  374.0000    17.3475    21.6325   -37.2911    23.2325    94.9281     8.0022     0.0568     2.3600     0.7348
  374.5000    17.2357    21.8386   -37.2661    23.2755    92.7538     8.0015     0.0570     2.3548     0.7251
  375.0000    17.1250    22.0468   -37.2411    23.0240    91.8655     8.0006     0.0604     2.3519     0.7229
  375.5000    17.0282    22.2569   -37.2161    22.8515    94.6527     7.9997     0.0638     2.3555     0.7283
  376.0000    17.0388    22.4691   -37.2023    23.2460    93.6416     7.9988     0.0672     2.3563     0.7335
  376.5000    17.0479    22.6832   -37.2024    23.6015    91.4274     7.9979     0.0673     2.3543     0.7297
  377.0000    17.0573    22.8994   -37.2024    23.9625    91.0931     7.9970     0.0662     2.3523     0.7244
  377.5000    17.0666    23.1177   -37.2024    24.3290    92.5250     7.9960     0.0651     2.3547     0.7257
  378.0000    17.0759    23.2755   -37.2022    24.5952    91.1550     7.9951     0.0639     2.3586     0.7388
  378.5000    17.0852    22.9013   -37.2000    24.1271    90.1755     7.9942     0.0628     2.3672     0.7566
  379.0000    17.0945    22.5630   -37.2868    23.7684    93.0638     7.9933     0.0624     2.3764     0.7743
  379.5000    17.1039    22.2298   -37.3875    23.2755    97.5059     7.9924     0.0637     2.3834     0.7921
  380.0000    17.1132    21.9014   -37.4883    23.3308    98.9948     7.9915     0.0649     2.3960     0.8099
  380.5000    17.1225    21.5780   -37.5889    23.4232    95.7937     7.9906     0.0662     2.4063     0.8275
  381.0000    17.1319    21.2593   -37.6895    23.4904    93.7400     7.9896     0.0674     2.4098     0.8382
  381.5000    17.1412    20.9451   -37.7900    22.8437    93.9807     7.9887     0.0686     2.4133     0.8472
  382.0000    17.1506    20.6353   -37.8906    22.2299    95.5861     7.9878     0.0698     2.4168     0.8561
  382.5000    17.1599    20.3311   -37.9912    22.4077    97.0576     7.9869     0.0717     2.4177     0.8610
  383.0000    17.1693    20.0921   -38.0917    22.6452    97.4345     7.9860     0.0737     2.4215     0.8663
  383.5000    17.1790    20.2845   -38.1923    22.8851    95.1858     7.9851     0.0757     2.4334     0.8858
  384.0000    17.1866    20.4455   -38.2929    23.1276    93.1647     7.9841     0.0778     2.4450     0.9060
  384.5000    17.1341    20.6077   -38.3934    23.4904    95.6270     7.9832     0.0765     2.4516     0.9226
  385.0000    17.0865    20.8446   -38.4940    23.2672    98.4527     7.9823     0.0744     2.4395     0.9088
  385.5000    17.0406    20.6841   -38.5946    22.8466   100.6423     7.9814     0.0722     2.4297     0.8824
  386.0000    16.7822    20.3975   -38.6951    22.4352    97.0776     7.9805     0.0700     2.4242     0.8642
  386.5000    16.4715    20.1150   -38.7957    21.7342    95.9469     7.9796     0.0679     2.4304     0.8812
  387.0000    16.1666    19.7536   -38.8963    21.0578    96.4448     7.9787     0.0660     2.4277     0.8858
  387.5000    15.8673    19.1690   -38.9971    20.0921    96.8854     7.9777     0.0640     2.4212     0.8782
  388.0000    15.5736    18.6018   -39.0978    20.1066    95.7942     7.9768     0.0621     2.4147     0.8671
  388.5000    15.2843    18.0513   -39.1948    20.1346    93.2469     7.9759     0.0602     2.4079     0.8522
  389.0000    15.0493    17.5166   -39.2410    20.1628    93.2128     7.9750     0.0582     2.4073     0.8323
  389.5000    14.8915    16.9979   -39.2897    20.1909    96.4215     7.9741     0.0563     2.4100     0.8407
  390.0000    14.7354    16.6470   -39.3381    20.2195    99.1041     7.9732     0.0544     2.4127     0.8558
  390.5000    14.5809    16.4903   -39.3882    20.2487   100.4422     7.9722     0.0555     2.4196     0.8641
  391.0000    14.4280    16.3347   -39.4902    20.2780    99.2095     7.9713     0.0570     2.4271     0.8772
  391.5000    14.2767    16.1804   -39.5913    19.8578    97.3377     7.9704     0.0586     2.4296     0.8850
  392.0000    14.1271    15.8446   -39.6919    19.4143    95.4556     7.9695     0.0602     2.4256     0.8773
  392.5000    13.9789    15.3818   -39.7924    18.9808    94.5495     7.9686     0.0618     2.4257     0.8780
  393.0000    13.8324    14.9325   -39.8930    18.5569    96.6674     7.9677     0.0634     2.4314     0.8863
  393.5000    13.7828    14.5809   -39.9936    18.1249    97.4610     7.9668     0.0650     2.4372     0.8946
  394.0000    13.7832    14.3316   -40.0942    17.7001   100.2226     7.9658     0.0666     2.4430     0.9028
  394.5000    13.7835    14.1687   -40.1948    17.1855   102.6204     7.9649     0.0680     2.4483     0.9084
