~VERSION INFORMATION
 VERS.                2.0:   CWLS LOG ASCII STANDARD - VERSION 2.0
 WRAP.                 NO:   ONE LINE PER DEPTH STEP
~WELL INFORMATION
#MNEM.UNIT      DATA TYPE    INFORMATION
#----------   ------------   ------------------------------
 STRT.F           32.0000:   START DEPTH
 STOP.F          557.0000:   STOP DEPTH
 STEP.F            0.5000:   STEP LENGTH
 NULL.          -999.2500:   NO VALUE
 COMP. FENIX & SCISSON U.S. NAVY:   COMPANY
 WELL.   S-3 NPR #3 #31-3:   WELL
 FLD .              NPR-3:   FIELD
 LOC .       S3 T38N R78W:   LOCATION
 CNTY.            NATRONA:   COUNTY
 STAT.            WYOMING:   STATE
 CTRY. UNITED STATES OF AMERICA:   COUNTRY
 SRVC.              Welex:   SERVICE COMPANY
 DATE.        05-MAR-1977:   LOGDATE
 API .       490251039500:   API NUMBER
~CURVE INFORMATION
#MNEM.UNIT       API CODE    CURVE DESCRIPTION
#----------   ------------   ------------------------------
 DEPT.F                  :   
 CALD.IN     45 280 60 00:   CALIPER FROM DENSITY LOG
 DPHI.DEC    45 890 12 00:   DENSITY POROSITY SANDSTONE
 DRHO.G/C3   45 356 01 00:   DENSITY CORRECTION
 GRD .GAPI   45 310 01 00:   GAMMA RAY FROM DENSITY LOG
 RHOB.G/C3   45 350 01 00:   BULK DENSITY
 ILD .OHMM   07 120 46 00:   INDUCTION LOG DEEP
 ILM .OHMM   07 120 44 00:   INDUCTION LOG MEDIUM
 SGRD.OHMM   07 220 05 00:   SHALLOW GUARD RESISTIVITY
 SPR .MV     07 010 01 00:   SPONTANEOUS POTENTIAL FROM RES.
~PARAMETER INFORMATION
#MNEM.UNIT          VALUE    DESCRIPTION
#----------   ------------   ------------------------------
 PD  .                 GL:   PERMANENT DATUM
 EPD .F              5178:   ELEVATION PERMANENT DATUM
 LMF .                 GL:   LOG MEASURED FROM
 DMF .                 GL:   DRILLING MEASURED FROM
 EGL .F              5178:   GROUND LEVEL
 DATE.        05-MAR-1977:   RUN DATE
 RUN .                  1:   RUN NUMBER
 DD  .F               560:   DEPTH DRILLER
 DL  .F               560:   DEPTH LOGGER
 BLI .F               558:   BOTTOM LOG INTERVAL
 TLI .F                40:   TOP LOG INTERVAL
 CS  .IN            8.625:   CASING SIZE
 CBD .F                43:   CASING BOTTOM DRILLER
 CBL .F                43:   CASING BOTTOM LOGGER
 BS  .IN            7.875:   BIT SIZE
 BSD .F               560:   BIT SIZE AT DEPTH
 DFT .                KCL:   DRILLING FLUID TYPE
 DFD .                8.8:   DRILLING FLUID DENSITY
 DFV .                 32:   DRILLING FLUID VISCOSITY
 MSS .           FLOWLINE:   MUD SAMPLE SOURCE
 RMS .OHMM           1.46:   RESISTIVITY MUD SAMPLE
 MST .F                48:   MUD SAMPLE TEMPERATURE
 RMF .OHMM          0.972:   RESISTIVITY MUD FILTRATE SAMPLE
 MFST.F                48:   MUD FILTRATE SAMPLE TEMPERATURE
 RMC .OHMM           2.32:   RESISTIVITY MUD CAKE
 MCST.F                48:   MUD CAKE SAMPLE TEMPERATURE
 MFSS.               MEAS:   MUD FILTRATE SAMPLE SOURCE
 MCSS.               MEAS:   MUD CAKE SAMPLE SOURCE
 RMB .OHMM           1.03:   RESISTIVITY MUD AT BHT
 BHT .F                68:   BOTTOM HOLE TEMPERATURE
 TCS .HRS               2:   TIME CURCULATED STOPPED
 MRT .F                68:   MAXIMUM RECORDED TEMPERATURE
 LUN .               8611:   LOGGING UNIT NUMBER
 LUL .           GILLETTE:   LOGGING UNIT LOCATION
 ENGI.          D. LAWSON:   RECORDING ENGINEER
 WITN.     MR. STUEBINGER:   WITNESSED BY
 CLNT.            A2DTECH:   CLIENT CODE
 ORIG.           5" PRINT:   ORIGIN OF DATA
 UWI .       490251039500:   UNIQUE WELL ID
 DICO. A2D Technologies, Inc.:   DIGITIZING COMPANY
~OTHER INFORMATION
~A   DEPT       CALD     DPHI        DRHO        GRD        RHOB      ILD        ILM       SGRD        SPR   
   32.0000     8.0865  -999.2500    -0.4604    95.7480     2.0822  -999.2500  -999.2500  -999.2500  -999.2500
   32.5000     8.0461  -999.2500    -0.4597    96.0664     2.0731  -999.2500  -999.2500  -999.2500  -999.2500
   33.0000     8.0628  -999.2500    -0.4610    96.6829     2.0624  -999.2500  -999.2500  -999.2500  -999.2500
   33.5000     8.0791  -999.2500    -0.4608    97.6075     2.0540  -999.2500  -999.2500  -999.2500  -999.2500
   34.0000     8.0954  -999.2500    -0.4606    98.8505     2.0706  -999.2500  -999.2500  -999.2500  -999.2500
   34.5000     8.0969  -999.2500    -0.4590    99.4265     2.0827  -999.2500  -999.2500  -999.2500  -999.2500
   35.0000     8.0983  -999.2500    -0.4558    95.8752     2.0768  -999.2500  -999.2500  -999.2500  -999.2500
   35.5000     8.0998  -999.2500    -0.4556    93.0640     2.0738  -999.2500  -999.2500  -999.2500  -999.2500
   36.0000     8.0711  -999.2500    -0.4554    92.0360     2.0829  -999.2500  -999.2500  -999.2500  -999.2500
   36.5000     8.0581  -999.2500    -0.4492    92.9557     2.0980  -999.2500  -999.2500  -999.2500  -999.2500
   37.0000     8.0446  -999.2500    -0.4370    93.8702     2.1146  -999.2500  -999.2500  -999.2500  -999.2500
   37.5000     8.0163  -999.2500    -0.4246    94.7848     2.1342  -999.2500  -999.2500  -999.2500  -999.2500
   38.0000     8.0029  -999.2500    -0.4066    95.4012     2.1480  -999.2500  -999.2500  -999.2500  -999.2500
   38.5000     7.9895     0.2875    -0.3913    95.7248     2.1734  -999.2500  -999.2500  -999.2500  -999.2500
   39.0000     8.0508     0.2798    -0.3791    96.2077     2.1824  -999.2500  -999.2500  -999.2500  -999.2500
   39.5000     8.6178     0.2771    -0.3654    96.9577     2.1885  -999.2500  -999.2500  -999.2500  -999.2500
   40.0000     8.7383     0.2664    -0.3517    97.5742     2.1991  -999.2500  -999.2500  -999.2500  -999.2500
   40.5000     8.7397     0.2570    -0.3365    98.7868     2.2157  -999.2500  -999.2500  -999.2500  -999.2500
   41.0000     8.7259     0.2396    -0.3047   101.1916     2.2450  -999.2500  -999.2500  -999.2500  -999.2500
   41.5000     8.7423     0.2299    -0.2519   106.7262     2.2788  -999.2500  -999.2500  -999.2500  -999.2500
   42.0000     8.7143     0.1982    -0.1943   114.3471     2.3149  -999.2500  -999.2500  -999.2500  -999.2500
   42.5000     8.7158     0.1784    -0.1138   127.6312     2.3562  -999.2500  -999.2500  -999.2500  -999.2500
   43.0000     8.7172     0.1406    -0.0408   137.9348     2.3962    99.4780  1398.2169  1951.0001   -28.7698
   43.5000     8.6246     0.1292     0.0135   148.1242     2.4310     8.7820   268.0590  2019.3793   -30.2629
   44.0000     8.4675     0.1190     0.0182   153.3291     2.4607     1.0445    20.3356  1923.5057   -31.5972
   44.5000     8.3793     0.1121     0.0198   152.7533     2.4623     0.5532     3.4885  1977.0922   -32.3074
   45.0000     8.4258     0.1099     0.0200   148.1537     2.4631     0.4083     3.2115  1678.1058   -32.8881
   45.5000     8.4570     0.1081     0.0202   144.8954     2.4700     0.3141     4.8987  1962.5673   -32.8700
   46.0000     8.4882     0.1081     0.0189   149.8075     2.4678     0.2785     6.0718  1572.4203   -32.5615
   46.5000     8.5195     0.1086     0.0190   151.6442     2.4671     0.3611     5.8674  1948.2473   -32.8446
   47.0000     8.5209     0.1116     0.0177   152.2607     2.4623     0.5429     6.0759  1934.3243   -32.2312
   47.5000     8.5224     0.1148     0.0179   152.7281     2.4538     0.8299     6.2557  1974.5016   -31.0262
   48.0000     8.4940     0.1163     0.0181   152.0033     2.4516     2.2139     6.5158  -999.2500   -30.1188
   48.5000     8.4955     0.1148     0.0183   149.1938     2.4563     5.0437     6.7008  -999.2500   -29.8065
   49.0000     8.4970     0.1102     0.0215   146.5316     2.4635     5.2239     6.7964  -999.2500   -29.7917
   49.5000     8.4988     0.1072     0.0277   145.3597     2.4714     5.1900     6.8934  -999.2500   -30.0753
   50.0000     8.5002     0.1060     0.0308   143.8897     2.4700     5.1571     7.1377  -999.2500   -30.6523
   50.5000     8.4868     0.1030     0.0310   140.6314     2.4799     5.2324     6.8980  -999.2500   -31.2331
   51.0000     8.4883     0.0975     0.0312   140.9549     2.4859     5.5330     6.9965  -999.2500   -31.3710
   51.5000     8.4747     0.0957     0.0299   140.9753     2.4890     6.7186     7.1951  -999.2500   -31.2040
   52.0000     8.5060     0.0951     0.0285   140.3995     2.4906     7.1046     7.3994  -999.2500   -30.8919
   52.5000     8.5040     0.0974     0.0288   139.2276     2.4862     7.2074     7.4020  -999.2500   -30.5798
   53.0000     8.4196     0.0986     0.0259   140.5892     2.4826     6.9671     7.2530  -999.2500   -30.5652
   53.5000     8.3619     0.0994     0.0231   140.1625     2.4819     6.9219     7.2048  -999.2500   -30.8581
   54.0000     8.3633     0.1084     0.0217   138.3894     2.4712     7.0230     7.3082  1915.5360   -32.6389
   54.5000     8.3648     0.1158     0.0204   138.7129     2.4546     7.2239     7.4125  1888.8271   -32.6014
   55.0000     8.3662     0.1167     0.0206   139.0313     2.4537     6.9822     7.0154  1431.7670   -32.5869
   55.5000     8.3677     0.1167     0.0208   140.3040     2.4568     6.2977     6.9214   932.0917   -32.5723
   56.0000     8.3691     0.1194     0.0180   143.8461     2.4479     5.9619     6.9243  1129.2646   -34.1947
   56.5000     8.3855     0.1211     0.0121   143.5633     2.4419     5.9652     6.9266   918.8636   -34.9279
   57.0000     8.4911     0.1210     0.0093   144.1849     2.4450     5.9685     6.9290  1084.6501   -35.2110
   57.5000     8.5226     0.1204     0.0095   144.5033     2.4511     5.9724     6.9314  1554.0878   -34.8952
   58.0000     8.5206     0.1177     0.0097   143.0333     2.4587     6.0589     6.9342  1784.4036   -34.5831
   58.5000     8.4363     0.1164     0.0129   141.8614     2.4543     6.1465     7.0331  1965.5276   -34.2708
   59.0000     8.3779     0.1143     0.0130   142.0308     2.4634     6.2355     7.1335  1574.7921   -33.7897
   59.5000     8.3644     0.1083     0.0192   144.5847     2.4765     6.3257     7.2353  1911.0977   -33.1966
   60.0000     8.3663     0.0975     0.0254   149.3741     2.4846     6.4618     7.3385  1010.9075   -32.5869
   60.5000     8.3826     0.0956     0.0316   151.6602     2.4877     6.6466     7.4432  1080.8540   -32.1259
   61.0000     8.3841     0.0992     0.0318   151.9483     2.4788     6.8842     7.6018   855.8312   -31.8174
   61.5000     8.3855     0.1031     0.0320   151.3725     2.4706     6.7933     7.7102   962.4760   -32.9897
   62.0000     8.3870     0.1048     0.0352   149.1574     2.4714     6.9877     7.8239  1332.1388   -33.7193
   62.5000     8.3884     0.1045     0.0384   145.6061     2.4745     7.0896     7.9870  1908.6899   -34.1512
   63.0000     8.3750     0.1026     0.0431   142.9439     2.4761     7.1922     8.1015  1192.0381   -34.7319
   63.5000     8.3587     0.0996     0.0462   140.5798     2.4807     7.1961     8.2171   922.5883   -35.3224
   64.0000     8.2295     0.0969     0.0509   143.5807     2.4853     7.2000     8.2198  1052.0110   -35.9325
   64.5000     8.0970     0.0960     0.0571   142.7069     2.4899     7.2039     8.2797   872.5507   -36.4741
   65.0000     8.2770     0.1013     0.0543   142.1311     2.4814     7.2078     8.3399  1180.1904   -34.9678
   65.5000     8.4868     0.1142     0.0485   143.6572     2.4593     7.2617     8.3427  1111.1626   -33.4652
   66.0000     8.5775     0.1168     0.0456   144.5614     2.4466     7.2155     8.3456   980.8337   -33.4507
   66.5000     8.5489     0.1102     0.0458   141.8992     2.4677     7.2195     8.2337   967.1576   -33.5850
   67.0000     8.4316     0.1021     0.0460   140.1312     2.4783     7.2243     8.1760   865.6165   -33.4216
   67.5000     8.3736     0.1005     0.0462   140.1516     2.4784     7.1784     8.1261  1007.7518   -33.7048
   68.0000     8.3304     0.1023     0.0464   138.5326     2.4755     7.1318     8.0728   865.2673   -33.9881
