~VERSION INFORMATION
 VERS.                2.0:   CWLS LOG ASCII STANDARD - VERSION 2.0
 WRAP.                 NO:   ONE LINE PER DEPTH STEP
~WELL INFORMATION
#MNEM.UNIT      DATA TYPE    INFORMATION
#----------   ------------   ------------------------------
 STRT.F            0.0000:   START DEPTH
 STOP.F         2694.5000:   STOP DEPTH
 STEP.F            0.5000:   STEP LENGTH
 NULL.          -999.2500:   NO VALUE
 COMP. FENIX & SCISSON INC:   COMPANY
 WELL.       102 A #20-20:   WELL
 FLD .        TEAPOT DOME:   FIELD
 LOC .      S20 T39N R78W:   LOCATION
 CNTY.            NATRONA:   COUNTY
 STAT.            WYOMING:   STATE
 CTRY. UNITED STATES OF AMERICA:   COUNTRY
 SRVC.            Unknown:   SERVICE COMPANY
 DATE.        17-AUG-1965:   LOGDATE
 API .       490251022200:   API NUMBER
~CURVE INFORMATION
#MNEM.UNIT       API CODE    CURVE DESCRIPTION
#----------   ------------   ------------------------------
 DEPT.F                  :   
 CALI.IN     30 280 01 00:   CALIPER FROM GAMMA RAY LOG
 GR  .GAPI   30 310 01 00:   GAMMA RAY
~PARAMETER INFORMATION
#MNEM.UNIT          VALUE    DESCRIPTION
#----------   ------------   ------------------------------
 PD  .                 GL:   PERMANENT DATUM
 LMF .                 GL:   LOG MEASURED FROM
 DMF .                 GL:   DRILLING MEASURED FROM
 DATE.            8-17-65:   RUN DATE
 RUN .                  1:   RUN NUMBER
 DD  .F            2696.5:   DEPTH DRILLER
 DL  .F              2697:   DEPTH LOGGER
 BLI .F              2695:   BOTTOM LOG INTERVAL
 TLI .F              2000:   TOP LOG INTERVAL
 CS  .IN                7:   CASING SIZE
 CBD .F              2678:   CASING BOTTOM DRILLER
 DFT .                OIL:   DRILLING FLUID TYPE
 TCS .HRS               1:   TIME CURCULATED STOPPED
 ENGI.            JACKSON:   RECORDING ENGINEER
 WITN.          JORGENSEN:   WITNESSED BY
 CLNT.            A2DTECH:   CLIENT CODE
 ORIG.           5" PRINT:   ORIGIN OF DATA
 UWI .       490251022200:   UNIQUE WELL ID
 DICO. A2D Technologies, Inc.:   DIGITIZING COMPANY
~OTHER INFORMATION
~A    DEPT      CALI       GR   
# ...
  364.5000     6.4284  -999.2500
  365.0000     6.4332  -999.2500
  365.5000     6.4379  -999.2500
  366.0000     6.4425  -999.2500
  366.5000     6.4533  -999.2500
  367.0000     6.4665  -999.2500
  367.5000     6.4735  -999.2500
  368.0000     6.4736  -999.2500
  368.5000     6.4893  -999.2500
  369.0000     6.5131  -999.2500
  369.5000     6.4447  -999.2500
  370.0000     6.4341  -999.2500
  370.5000     6.4360  -999.2500
  371.0000     6.4404  -999.2500
  371.5000     6.4401  -999.2500
  372.0000     6.4205  -999.2500
  372.5000     6.4272  -999.2500
  373.0000     6.4717  -999.2500
  373.5000     6.4907  -999.2500
  374.0000     6.4998  -999.2500
  374.5000     6.4922  -999.2500
  375.0000     6.4846  -999.2500
  375.5000     6.4879  -999.2500
  376.0000     6.4936  -999.2500
  376.5000     6.4993  -999.2500
  377.0000     6.4985  -999.2500
  377.5000     6.4860  -999.2500
  378.0000     6.4739  -999.2500
  378.5000     6.4768  -999.2500
  379.0000     6.4805  -999.2500
  379.5000     6.4842  -999.2500
  380.0000     6.4878  -999.2500
  380.5000     6.4914  -999.2500
  381.0000     6.4929  -999.2500
  381.5000     6.4765  -999.2500
  382.0000     6.4452  -999.2500
  382.5000     6.4482  -999.2500
  383.0000     6.4534  -999.2500
  383.5000     6.4350  -999.2500
  384.0000     6.4292  -999.2500
  384.5000     6.4389  -999.2500
  385.0000     6.4485  -999.2500
  385.5000     6.4581  -999.2500
  386.0000     6.4521  -999.2500
  386.5000     6.4364  -999.2500
  387.0000     6.4500  -999.2500
  387.5000     6.4514  -999.2500
  388.0000     6.4480  -999.2500
  388.5000     6.4436  -999.2500
  389.0000     6.4684  -999.2500
  389.5000     6.4981  -999.2500
  390.0000     6.4461  -999.2500
  390.5000     6.4586  -999.2500
  391.0000     6.4741  -999.2500
  391.5000     6.4817  -999.2500
  392.0000     6.4779  -999.2500
  392.5000     6.4742  -999.2500
  393.0000     6.4743  -999.2500
  393.5000     6.4465  -999.2500
  394.0000     6.4115  -999.2500
  394.5000     6.4173  -999.2500
  395.0000     6.4332  -999.2500
  395.5000     6.4425  -999.2500
  396.0000     6.4378  -999.2500
  396.5000     6.4345  -999.2500
  397.0000     6.4378  -999.2500
  397.5000     6.4410  -999.2500
  398.0000     6.4443  -999.2500
  398.5000     6.4479  -999.2500
  399.0000     6.4512  -999.2500
  399.5000     6.4492  -999.2500
  400.0000     6.4346  -999.2500
  400.5000     6.4447  -999.2500
  401.0000     6.4549  -999.2500
  401.5000     6.4619  -999.2500
  402.0000     6.4288  -999.2500
  402.5000     6.4532  -999.2500
  403.0000     6.4538  -999.2500
  403.5000     6.4624  -999.2500
  404.0000     6.4720  -999.2500
  404.5000     6.4563  -999.2500
  405.0000     6.4717  -999.2500
  405.5000     6.4656  -999.2500
  406.0000     6.4372  -999.2500
  406.5000     6.4597  -999.2500
  407.0000     6.4776  -999.2500
  407.5000     6.4922  -999.2500
  408.0000     6.4745  -999.2500
  408.5000     6.4696  -999.2500
  409.0000     6.4832  -999.2500
  409.5000     6.4967  -999.2500
  410.0000     6.5104  -999.2500
  410.5000     6.5129  -999.2500
  411.0000     6.5088  -999.2500
  411.5000     6.5039  -999.2500
  412.0000     6.4990  -999.2500
  412.5000     6.4942  -999.2500
  413.0000     6.4887  -999.2500
  413.5000     6.4836  -999.2500
  414.0000     6.4893  -999.2500
  414.5000     6.4956  -999.2500
  415.0000     6.5022  -999.2500
  415.5000     6.4875  -999.2500
  416.0000     6.4488  -999.2500
  416.5000     6.4406  -999.2500
  417.0000     6.4622  -999.2500
  417.5000     6.4822  -999.2500
  418.0000     6.4567  -999.2500
  418.5000     6.4547  -999.2500
  419.0000     6.4725  -999.2500
  419.5000     6.4582  -999.2500
  420.0000     6.4481  -999.2500
  420.5000     6.4715  -999.2500
  421.0000     6.4589  -999.2500
  421.5000     6.4458  -999.2500
  422.0000     6.4331  -999.2500
  422.5000     6.4250  -999.2500
  423.0000     6.4289  -999.2500
  423.5000     6.4324  -999.2500
  424.0000     6.4374  -999.2500
  424.5000     6.4440  -999.2500
  425.0000     6.4505  -999.2500
  425.5000     6.4646  -999.2500
  426.0000     6.4874  -999.2500
  426.5000     6.4784  -999.2500
  427.0000     6.4615  -999.2500
  427.5000     6.4546  -999.2500
  428.0000     6.4588  -999.2500
  428.5000     6.4646  -999.2500
  429.0000     6.4705  -999.2500
  429.5000     6.4886  -999.2500
  430.0000     6.5189  -999.2500
  430.5000     6.4898  -999.2500
  431.0000     6.4594  -999.2500
  431.5000     6.4493  -999.2500
  432.0000     6.4580  -999.2500
  432.5000     6.4787  -999.2500
  433.0000     6.4816  -999.2500
  433.5000     6.4549  -999.2500
  434.0000     6.4287  -999.2500
  434.5000     6.4284  -999.2500
  435.0000     6.4480  -999.2500
  435.5000     6.4598  -999.2500
  436.0000     6.4377  -999.2500
  436.5000     6.4407  -999.2500
  437.0000     6.4486  -999.2500
  437.5000     6.4464  -999.2500
  438.0000     6.4277  -999.2500
  438.5000     6.4243  -999.2500
  439.0000     6.4242  -999.2500
  439.5000     6.4242  -999.2500
  440.0000     6.4242  -999.2500
  440.5000     6.4243  -999.2500
  441.0000     6.4212  -999.2500
  441.5000     6.4176  -999.2500
  442.0000     6.4147  -999.2500
  442.5000     6.4174  -999.2500
  443.0000     6.4199  -999.2500
  443.5000     6.4226  -999.2500
  444.0000     6.4260  -999.2500
  444.5000     6.4320  -999.2500
  445.0000     6.4379  -999.2500
  445.5000     6.4435  -999.2500
  446.0000     6.4326  -999.2500
  446.5000     6.4241  -999.2500
  447.0000     6.4242  -999.2500
  447.5000     6.4243  -999.2500
  448.0000     6.4243  -999.2500
  448.5000     6.4383  -999.2500
  449.0000     6.4665  -999.2500
  449.5000     6.4652  -999.2500
  450.0000     6.4562  -999.2500
  450.5000     6.5391  -999.2500
  451.0000     6.4844  -999.2500
  451.5000     6.4830  -999.2500
  452.0000     6.4735  -999.2500
  452.5000     6.4677  -999.2500
  453.0000     6.4733  -999.2500
  453.5000     6.4791  -999.2500
  454.0000     6.4833  -999.2500
  454.5000     6.4834  -999.2500
  455.0000     6.4862  -999.2500
  455.5000     6.4889  -999.2500
  456.0000     6.4916  -999.2500
  456.5000     6.4913  -999.2500
  457.0000     6.4875  -999.2500
  457.5000     6.4837  -999.2500
  458.0000     6.4780  -999.2500
  458.5000     6.4762  -999.2500
  459.0000     6.4830  -999.2500
  459.5000     6.4763  -999.2500
  460.0000     6.4531  -999.2500
  460.5000     6.4537  -999.2500
  461.0000     6.4538  -999.2500
  461.5000     6.4537  -999.2500
  462.0000     6.4534  -999.2500
  462.5000     6.4843  -999.2500
  463.0000     6.4835  -999.2500
  463.5000     6.4825  -999.2500
  464.0000     6.4689  -999.2500
  464.5000     6.4798  -999.2500
  465.0000     6.4713  -999.2500
  465.5000     6.4538  -999.2500
  466.0000     6.4444  -999.2500
  466.5000     6.4648  -999.2500
  467.0000     6.4643  -999.2500
  467.5000     6.4534  -999.2500
  468.0000     6.4538  -999.2500
  468.5000     6.4538  -999.2500
  469.0000     6.4538  -999.2500
  469.5000     6.4526  -999.2500
  470.0000     6.4555  -999.2500
  470.5000     6.5112  -999.2500
  471.0000     6.4914  -999.2500
  471.5000     6.4897  -999.2500
  472.0000     6.4868  -999.2500
  472.5000     6.4838  -999.2500
  473.0000     6.4833  -999.2500
  473.5000     6.4833  -999.2500
  474.0000     6.4833  -999.2500
  474.5000     6.4833  -999.2500
  475.0000     6.4833  -999.2500
  475.5000     6.4833  -999.2500
  476.0000     6.4833  -999.2500
  476.5000     6.4833  -999.2500
  477.0000     6.4833  -999.2500
  477.5000     6.4829  -999.2500
  478.0000     6.4807  -999.2500
  478.5000     6.4786  -999.2500
  479.0000     6.4765  -999.2500
  479.5000     6.4743  -999.2500
  480.0000     6.4741  -999.2500
  480.5000     6.4751  -999.2500
  481.0000     6.4762  -999.2500
  481.5000     6.4773  -999.2500
  482.0000     6.4783  -999.2500
  482.5000     6.4794  -999.2500
  483.0000     6.4804  -999.2500
  483.5000     6.4815  -999.2500
  484.0000     6.4827  -999.2500
  484.5000     6.4884  -999.2500
  485.0000     6.5023  -999.2500
  485.5000     6.4953  -999.2500
