~VERSION INFORMATION
 VERS.                2.0:   CWLS LOG ASCII STANDARD - VERSION 2.0
 WRAP.                 NO:   ONE LINE PER DEPTH STEP
~WELL INFORMATION
#MNEM.UNIT      DATA TYPE    INFORMATION
#----------   ------------   ------------------------------
 STRT.F           36.0000:   START DEPTH
 STOP.F          518.0000:   STOP DEPTH
 STEP.F            0.5000:   STEP LENGTH
 NULL.          -999.2500:   NO VALUE
 COMP.    FENIX & SCISSON:   COMPANY
 WELL.        NPR #57S-10:   WELL
 FLD .             TEAPOT:   FIELD
 LOC .      S10 T38N R78W:   LOCATION
 CNTY.            NATRONA:   COUNTY
 STAT.            WYOMING:   STATE
 CTRY. UNITED STATES OF AMERICA:   COUNTRY
 SRVC.              Welex:   SERVICE COMPANY
 DATE.        11-MAR-1977:   LOGDATE
 API .       490251029100:   API NUMBER
~CURVE INFORMATION
#MNEM.UNIT       API CODE    CURVE DESCRIPTION
#----------   ------------   ------------------------------
 DEPT.F                  :   
 SPR .MV     07 010 01 00:   SPONTANEOUS POTENTIAL
 ILD .OHMM   07 120 46 00:   INDUCTION LOG DEEP
 ILM .OHMM   07 120 44 00:   INDUCTION LOG MEDIUM
 SGUR.OHMM   07 220 01 00:   SHORT GUARD RESISITIVITY
 CORR.G/C3   45 356 01 00:   DENSITY CORRECTION
 CALD.IN     45 280 60 00:   CALIPER
 GRD .GAPI   45 310 01 00:   GAMMA RAY FROM DENSITY LOG
 RHOB.G/C3   45 350 01 00:   BULK DENSITY
 DPOR.DEC    45 890 12 00:   DENSITY POROSITY SANDSTONE
~PARAMETER INFORMATION
#MNEM.UNIT          VALUE    DESCRIPTION
#----------   ------------   ------------------------------
 PD  .                 GL:   PERMANENT DATUM
 EPD .F              5244:   ELEVATION PERMANENT DATUM
 LMF .                 GL:   LOG MEASURED FROM
 DMF .                 GL:   DRILLING MEASURED FROM
 EGL .F              5244:   GROUND LEVEL
 DATE.          3-11-1977:   RUN DATE
 RUN .                  1:   RUN NUMBER
 DD  .F               530:   DEPTH DRILLER
 DL  .F               522:   DEPTH LOGGER
 BLI .F               520:   BOTTOM LOG INTERVAL
 TLI .F                35:   TOP LOG INTERVAL
 CS  .IN            8.625:   CASING SIZE
 CBD .F                40:   CASING BOTTOM DRILLER
 CBL .F                44:   CASING BOTTOM LOGGER
 BS  .IN            7.875:   BIT SIZE
 BSD .F               530:   BIT SIZE AT DEPTH
 DFT .            KCL MUD:   DRILLING FLUID TYPE
 DFD .                8.8:   DRILLING FLUID DENSITY
 DFV .                  8:   DRILLING FLUID VISCOSITY
 DFPH.                 10:   DRILLING FLUID PH
 DFL .               12.4:   DRILLING FLUID LOSS
 MSS .           FLOWLINE:   MUD SAMPLE SOURCE
 RMS .OHMM           .398:   RESISTIVITY MUD SAMPLE
 MST .F                50:   MUD SAMPLE TEMPERATURE
 RMF .OHMM           .276:   RESISTIVITY MUD FILTRATE SAMPLE
 MFST.F                60:   MUD FILTRATE SAMPLE TEMPERATURE
 RMC .OHMM            .42:   RESISTIVITY MUD CAKE
 MCST.F                60:   MUD CAKE SAMPLE TEMPERATURE
 MFSS.           MEASURED:   MUD FILTRATE SAMPLE SOURCE
 RMB .OHMM            .31:   RESISTIVITY MUD AT BHT
 BHT .F                64:   BOTTOM HOLE TEMPERATURE
 TCS .HRS             2.5:   TIME CURCULATED STOPPED
 MRT .F                64:   MAXIMUM RECORDED TEMPERATURE
 LUN .               8611:   LOGGING UNIT NUMBER
 LUL .           GILLETTE:   LOGGING UNIT LOCATION
 ENGI.               DOAK:   RECORDING ENGINEER
 WITN.         STUEBINGER:   WITNESSED BY
 CLNT.            A2DTECH:   CLIENT CODE
 ORIG.      2" & 5" PRINT:   ORIGIN OF DATA
 UWI .       490251029100:   UNIQUE WELL ID
 DICO. A2D Technologies, Inc.:   DIGITIZING COMPANY
~OTHER INFORMATION
~A   DEPT      SPR        ILD        ILM       SGUR        CORR        CALD      GRD       RHOB       DPOR   
# ...
  364.5000   -33.9833    13.6817    15.9360    20.4083     0.0504     7.9283   101.7196     2.4457     0.1149
  365.0000   -34.6077    13.4649    15.6005    20.3715     0.0488     7.9379    99.4455     2.4362     0.1180
  365.5000   -35.2368    13.3585    16.8394    20.5055     0.0472     7.9271    97.1252     2.4268     0.1212
  366.0000   -35.8906    13.2464    17.9093    20.4580     0.0463     7.9019    96.4867     2.4237     0.1222
  366.5000   -35.7839    13.1351    17.4373    20.4107     0.0494     7.9001    97.5171     2.4368     0.1172
  367.0000   -35.7190    13.0248    16.9433    20.2465     0.0524     7.8979    96.1220     2.4471     0.1120
  367.5000   -35.6539    12.8405    16.4746    19.5292     0.0554     7.8960    94.7192     2.4575     0.1068
  368.0000   -35.6600    12.6042    15.7447    18.8374     0.0575     7.8941    96.3898     2.4678     0.1021
  368.5000   -35.7776    12.3734    17.4217    17.9093     0.0548     7.8922    98.5856     2.4781     0.1017
  369.0000   -35.8935    12.2611    16.7591    18.1430     0.0522     7.8903    99.2979     2.4823     0.1018
  369.5000   -36.0099    12.2307    16.2238    18.5415     0.0495     7.8884    98.6796     2.4709     0.1048
  370.0000   -36.1253    12.1993    15.7056    19.0980     0.0469     7.8865    96.8261     2.4617     0.1078
  370.5000   -36.1998    12.1687    15.3160    18.7694     0.0443     7.8846    94.8813     2.4525     0.1108
  371.0000   -36.1434    12.2658    16.4911    18.2362     0.0417     7.8827    92.9890     2.4433     0.1139
  371.5000   -36.0902    12.3610    17.2621    17.7452     0.0390     7.8808    93.3985     2.4365     0.1169
  372.0000   -36.0375    12.4569    16.9473    17.7452     0.0388     7.8789    95.3882     2.4402     0.1186
  372.5000   -35.9070    12.5091    14.8990    17.6620     0.0402     7.8770    96.9475     2.4495     0.1167
  373.0000   -35.7056    12.4331    14.6274    17.4217     0.0416     7.8751    98.4474     2.4588     0.1142
  373.5000   -35.5045    12.3804    15.1793    17.6697     0.0430     7.8732    96.1602     2.4606     0.1118
  374.0000   -35.3032    12.3284    15.5251    18.0461     0.0434     7.8713    94.5917     2.4514     0.1140
  374.5000   -35.1017    12.2812    15.7669    18.2419     0.0420     7.8694    96.5271     2.4444     0.1170
  375.0000   -34.9013    12.4271    15.8902    18.2419     0.0406     7.8675    96.2001     2.4374     0.1200
  375.5000   -34.6951    12.5623    15.8023    18.6930     0.0392     7.8656    97.8057     2.4379     0.1183
  376.0000   -34.8343    12.6990    15.7437    19.2773     0.0378     7.8637   100.5874     2.4495     0.1146
  376.5000   -35.1656    12.8371    15.6855    19.1007     0.0364     7.8641   102.0119     2.4611     0.1108
  377.0000   -35.5041    12.9765    15.6005    19.4136     0.0350     7.8681   100.6279     2.4617     0.1098
  377.5000   -35.6492    13.0981    16.0235    20.0275     0.0336     7.8720    99.2039     2.4555     0.1120
  378.0000   -35.7033    12.9051    16.8440    20.9382     0.0321     7.8759    98.7114     2.4494     0.1142
  378.5000   -35.7557    12.6923    17.7452    20.4210     0.0346     7.8798   102.3876     2.4476     0.1142
  379.0000   -35.8123    12.4839    17.1919    19.4877     0.0378     7.8837   102.3636     2.4523     0.1142
  379.5000   -35.9910    12.2788    16.6318    18.6073     0.0410     7.8876   100.8702     2.4569     0.1124
  380.0000   -36.1857    12.0771    16.1853    17.9129     0.0442     7.8916    99.3508     2.4617     0.1099
  380.5000   -36.3807    11.8787    16.6337    18.1056     0.0474     7.8955    98.3880     2.4664     0.1074
  381.0000   -36.5755    11.7449    17.1040    18.2390     0.0507     7.8993    99.9999     2.4711     0.1049
  381.5000   -36.7716    11.6288    16.9640    17.8122     0.0539     7.8990   102.0837     2.4759     0.1030
  382.0000   -36.9773    11.5152    16.8501    17.6508     0.0571     7.8820   103.6405     2.4723     0.1034
  382.5000   -36.6716    11.6808    15.0214    17.5827     0.0603     7.8653   104.1150     2.4640     0.1078
  383.0000   -36.2567    11.8468    15.2246    17.5827     0.0635     7.8488   102.6617     2.4557     0.1121
  383.5000   -35.8391    12.0152    15.4661    17.7229     0.0668     7.8323    99.7899     2.4471     0.1163
  384.0000   -35.4216    12.1860    15.7071    18.4478     0.0698     7.8292    96.8984     2.4271     0.1206
  384.5000   -35.0034    12.8498    16.3680    19.8820     0.0691     7.8440    93.1608     2.3943     0.1319
  385.0000   -34.6357    14.2145    18.4275    22.1864     0.0682     7.8587    86.2729     2.3603     0.1444
  385.5000   -34.8109    15.7241    20.7460    24.7698     0.0674     7.8736    77.0473     2.3264     0.1565
  386.0000   -34.9918    17.2621    23.3562    27.6519     0.0666     7.8887    78.5762     2.3201     0.1569
  386.5000   -35.1765    19.6441    27.0030    30.8615     0.0660     7.9008    81.9777     2.3492     0.1470
  387.0000   -35.2179    22.1677    30.0764    34.1034     0.0709     7.8611    85.4395     2.3829     0.1354
  387.5000   -35.2183    24.7211    31.3931    34.4187     0.0757     7.8208    85.5403     2.4164     0.1289
  388.0000   -35.2160    25.8773    26.8846    32.8232     0.0806     7.7808    84.9771     2.4499     0.1250
  388.5000   -35.2276    27.3729    21.3677    30.5443     0.0855     7.7408    87.0535     2.4881     0.1199
  389.0000   -35.5990    28.4307    20.1377    32.8642     0.0902     7.7009    89.1104     2.4741     0.1146
  389.5000   -35.9919    29.2538    19.1028    42.5307     0.0916     7.6631    87.3121     2.4515     0.1241
  390.0000   -36.3815    29.9816    20.4842    38.6030     0.0812     7.6417    85.6238     2.4328     0.1331
  390.5000   -36.5934    29.1302    21.7908    33.8299     0.0712     7.6260    88.8163     2.4141     0.1421
  391.0000   -36.5536    28.3712    22.3183    29.8949     0.0609     7.6815    90.6635     2.4021     0.1472
  391.5000   -36.5170    26.7818    22.5360    28.8636     0.0591     7.7194    90.9566     2.3920     0.1477
  392.0000   -36.4803    25.1727    19.8279    32.2073     0.0614     7.6978    89.7848     2.3816     0.1519
  392.5000   -36.4438    24.8906    17.7592    34.7651     0.0638     7.6777    88.0724     2.3779     0.1597
  393.0000   -36.3494    24.6037    19.6115    27.8539     0.0663     7.6582    86.3492     2.3854     0.1570
  393.5000   -35.8060    24.2816    21.7267    28.8928     0.0687     7.6504    84.6271     2.3933     0.1513
  394.0000   -35.2553    23.9364    21.9275    30.2643     0.0711     7.6815    82.9031     2.4011     0.1461
  394.5000   -34.7042    23.6024    18.0748    31.1056     0.0736     7.7115    81.1463     2.4052     0.1486
  395.0000   -34.1311    23.6901    24.2759    30.3882     0.0739     7.7415    80.7894     2.3971     0.1516
  395.5000   -34.4685    23.8207    27.5988    29.7131     0.0744     7.7730    82.3876     2.3859     0.1547
  396.0000   -35.0438    22.1302    25.7340    30.2285     0.0750     7.8130    84.4736     2.3850     0.1573
  396.5000   -35.5910    19.9231    24.3026    31.3867     0.0754     7.7865    86.0259     2.3907     0.1501
  397.0000   -35.3827    18.0012    22.9481    30.8234     0.0733     7.7347    84.6510     2.3832     0.1557
  397.5000   -35.1432    16.0371    21.6728    29.9816     0.0630     7.6826    82.7050     2.3734     0.1639
  398.0000   -34.8954    16.7541    20.4680    29.0154     0.0529     7.6306    81.4910     2.3639     0.1701
  398.5000   -35.2531    17.6270    19.6353    28.1321     0.0429     7.6347    85.2052     2.3640     0.1689
  399.0000   -35.8990    18.5468    20.2867    27.3454     0.0341     7.6969    88.7926     2.3793     0.1617
  399.5000   -36.5545    19.8166    21.0558    26.8600     0.0372     7.7589    92.3473     2.3913     0.1545
  400.0000   -37.2359    19.5908    21.8541    29.7070     0.0404     7.8214    95.4399     2.4033     0.1473
  400.5000   -37.4816    19.2558    22.6827    29.5160     0.0435     7.8862    94.4029     2.4120     0.1409
