~VERSION INFORMATION
 VERS.                2.0:   CWLS LOG ASCII STANDARD - VERSION 2.0
 WRAP.                 NO:   ONE LINE PER DEPTH STEP
~WELL INFORMATION
#MNEM.UNIT      DATA TYPE    INFORMATION
#----------   ------------   ------------------------------
 STRT.F            1.0000:   START DEPTH
 STOP.F          478.0000:   STOP DEPTH
 STEP.F            0.1000:   STEP LENGTH
 NULL.          -999.2500:   NO VALUE
 COMP. LAWRENCE/ALLISON INC:   COMPANY
 WELL.     58-61 SX #58-3:   WELL
 FLD .             TEAPOT:   FIELD
 LOC .       S3 T38N R78W:   LOCATION
 CNTY.            NATRONA:   COUNTY
 STAT.            WYOMING:   STATE
 CTRY. UNITED STATES OF AMERICA:   COUNTRY
 SRVC.           Gearhart:   SERVICE COMPANY
 DATE.        08-JUL-1988:   LOGDATE
 API .       490251123400:   API NUMBER
~CURVE INFORMATION
#MNEM.UNIT       API CODE    CURVE DESCRIPTION
#----------   ------------   ------------------------------
 DEPT.F                  :   
 GRR .GAPI   07 310 01 00:   GAMMA RAY
 RILD.OHMM   07 120 46 00:   INDUCTION LOG DEEP RESISTIVITY
 RILM.OHMM   07 120 44 00:   INDUCTION LOG MEDIUM RESISTIVITY
~PARAMETER INFORMATION
#MNEM.UNIT          VALUE    DESCRIPTION
#----------   ------------   ------------------------------
 PD  .                 GL:   PERMANENT DATUM
 EPD .F              5184:   ELEVATION PERMANENT DATUM
 LMF .                 KB:   LOG MEASURED FROM
 DAPD.F                 5:   FEET ABOVE PERMANENT DATUM
 DMF .                 KB:   DRILLING MEASURED FROM
 EKB .F              5189:   KELLING BUSHING
 EGL .F              5184:   GROUND LEVEL
 DATE.        08-JUL-1988:   RUN DATE
 RUN .                  1:   RUN NUMBER
 DD  .F               485:   DEPTH DRILLER
 DL  .F               486:   DEPTH LOGGER
 BLI .F               478:   BOTTOM LOG INTERVAL
 CS  .IN            9.625:   CASING SIZE
 CBD .F                45:   CASING BOTTOM DRILLER
 CBL .F                44:   CASING BOTTOM LOGGER
 BS  .IN             8.75:   BIT SIZE
 BSD .F               485:   BIT SIZE AT DEPTH
 DFT .                AIR:   DRILLING FLUID TYPE
 TCS .HRS            2200:   TIME CURCULATED STOPPED
 TLAB.HRS            2315:   TIME LOGGER AT BOTTOM
 LUN .               7597:   LOGGING UNIT NUMBER
 LUL .           GILLETTE:   LOGGING UNIT LOCATION
 ENGI.           JOHNSTON:   RECORDING ENGINEER
 WITN.              FIVAS:   WITNESSED BY
 CLNT.            A2DTECH:   CLIENT CODE
 ORIG.           5" PRINT:   ORIGIN OF DATA
 UWI .       490251123400:   UNIQUE WELL ID
 DICO. A2D Technologies, Inc.:   DIGITIZING COMPANY
~OTHER INFORMATION
~A    DEPT     GRR       RILD       RILM   
# ...
  237.6000   155.3748     7.2494     7.3159
  237.7000   155.0940     7.3285     7.3628
  237.8000   154.6926     7.3814     7.4552
  237.9000   154.3521     7.4231     7.4927
  238.0000   154.0273     7.4748     7.5350
  238.1000   153.5429     7.5603     7.5775
  238.2000   152.9937     7.6025     7.6202
  238.3000   152.5742     7.6134     7.6668
  238.4000   152.2428     7.6566     7.7065
  238.5000   152.0030     7.7319     7.7500
  238.6000   151.7280     7.7755     7.7749
  238.7000   151.1968     7.8194     7.7830
  238.8000   150.9803     7.8635     7.8295
  238.9000   150.7405     7.9079     7.8295
  239.0000   150.5007     7.9399     7.8603
  239.1000   150.2610     7.9399     7.8845
  239.2000   150.0070     7.9399     7.8845
  239.3000   150.0115     7.9399     7.8845
  239.4000   150.0164     7.9154     7.8845
  239.5000   150.0212     7.8845     7.8845
  239.6000   150.0261     7.8817     7.8845
  239.7000   150.0311     7.8295     7.8845
  239.8000   150.5141     7.7936     7.8845
  239.9000   150.8279     7.7002     7.8845
  240.0000   151.1988     7.5992     7.8515
  240.1000   151.6929     7.5492     7.7638
  240.2000   152.1869     7.4032     7.6447
  240.3000   152.6810     7.3334     7.5584
  240.4000   153.1751     7.2513     7.4321
  240.5000   153.6692     7.1559     7.3394
  240.6000   154.0916     7.0404     7.2573
  240.7000   154.3281     6.9513     7.1647
  240.8000   154.0307     6.8838     7.0477
  240.9000   153.8361     6.8067     7.0081
  241.0000   153.7360     6.7163     6.9070
  241.1000   153.7408     6.6087     6.7706
  241.2000   153.7457     6.5269     6.6311
  241.3000   153.7513     6.4617     6.5152
  241.4000   153.9630     6.3663     6.3025
  241.5000   154.3612     6.2881     6.1876
  241.6000   154.7654     6.2471     6.0500
  241.7000   155.0458     6.1715     5.9261
  241.8000   155.5963     6.1397     5.8210
  241.9000   156.0340     6.1053     5.6348
  242.0000   156.5281     6.0857     5.5290
  242.1000   157.0221     6.0793     5.4241
  242.2000   157.5162     6.0433     5.3546
  242.3000   158.0483     6.0113     5.3246
  242.4000   158.5044     6.0011     5.2908
  242.5000   158.8316     6.0011     5.2908
  242.6000   159.1891     6.0011     5.2908
  242.7000   159.6832     6.0011     5.2908
  242.8000   160.1969     6.0340     5.2950
  242.9000   160.6713     6.0433     5.3280
  243.0000   160.9894     6.0433     5.3549
  243.1000   161.3560     6.0514     5.4050
  243.2000   161.7918     6.0857     5.4536
  243.3000   162.0419     6.0857     5.4894
  243.4000   162.0467     6.1115     5.5565
  243.5000   162.0516     6.1460     5.6144
  243.6000   161.9302     6.1806     5.6780
  243.7000   161.6904     6.2155     5.7423
  243.8000   161.4590     6.2506     5.8072
  243.9000   161.4640     6.3134     5.8765
  244.0000   161.4689     6.3849     5.9394
  244.1000   161.3384     6.4466     6.0067
  244.2000   161.0222     6.4846     6.0746
  244.3000   160.5378     6.5580     6.1433
  244.4000   159.9717     6.6323     6.2149
  244.5000   159.3657     6.7074     6.2832
  244.6000   158.7812     6.7953     6.3543
  244.7000   158.2112     6.9081     6.4439
  244.8000   157.5090     7.0001     6.5446
  244.9000   156.9609     7.0327     6.6189
  245.0000   156.1153     7.0956     6.7313
  245.1000   155.2953     7.1759     6.8169
  245.2000   154.4717     7.2570     6.9140
  245.3000   153.5339     7.3516     7.0210
  245.4000   152.7361     7.3868     7.1012
  245.5000   152.2974     7.4796     7.2222
  245.6000   151.8131     7.5757     7.3131
  245.7000   151.0173     7.6235     7.3959
  245.8000   150.0228     7.7207     7.4919
  245.9000   150.0288     7.7972     7.6153
  246.0000   150.4947     7.8574     7.6668
  246.1000   151.1605     7.9190     7.7364
  246.2000   151.8992     8.0021     7.8240
  246.3000   152.4759     8.0518     7.9125
  246.4000   152.4808     8.1338     8.0020
  246.5000   152.2458     8.1955     8.1084
  246.6000   152.0061     8.2417     8.1462
  246.7000   151.7663     8.2882     8.1921
  246.8000   151.5266     8.3386     8.2542
  246.9000   151.2868     8.4259     8.3430
  247.0000   151.0470     8.4886     8.3971
  247.1000   150.6173     8.5155     8.4375
  247.2000   150.1329     8.5340     8.5143
  247.3000   149.5762     8.6355     8.5753
  247.4000   148.8607     8.6818     8.5869
  247.5000   148.2862     8.7308     8.6962
  247.6000   147.8920     8.7572     8.7392
  247.7000   147.4076     8.7680     8.7885
  247.8000   146.9232     8.8187     8.8187
  247.9000   146.3940     8.8672     8.8187
  248.0000   145.2754     8.9173     8.8187
  248.1000   144.4468     8.9431     8.8636
  248.2000   144.0704     8.9431     8.9136
  248.3000   144.1657     8.9431     8.9639
  248.4000   144.4783     8.9935     9.0145
  248.5000   145.2995     9.0059     9.0691
  248.6000   145.5211     9.0059     9.0691
  248.7000   145.9290     9.0059     9.1040
  248.8000   146.3235     9.0071     9.1554
  248.9000   146.5730     9.0579     9.1970
  249.0000   146.8410     9.0691     9.1970
  249.1000   146.8455     9.0965     9.2463
  249.2000   146.8504     9.1328     9.2615
  249.3000   146.7466     9.1328     9.2615
  249.4000   146.5068     9.1328     9.2730
  249.5000   146.2581     9.1743     9.3266
  249.6000   145.7918     9.1970     9.3266
  249.7000   145.4841     9.1970     9.3266
  249.8000   145.1266     9.1970     9.3266
  249.9000   144.6422     9.1970     9.3266
  250.0000   144.1578     9.1969     9.3266
  250.1000   142.4316     9.1968     9.0690
  250.2000   141.6567     9.1966     9.1325
  250.3000   141.4319     9.1965     9.1324
  250.4000   141.4337     9.1964     9.1323
  250.5000   141.4355     9.1963     9.1587
  250.6000   141.4376     9.1962     9.1962
  250.7000   142.0704     9.1961     9.1961
  250.8000   142.5052     9.1959     9.1959
  250.9000   142.9481     9.1958     9.1958
  251.0000   143.6500     9.1957     9.1957
  251.1000   144.1780     9.1955     9.1955
  251.2000   144.6410     9.1954     9.1954
  251.3000   144.9625     9.1953     9.1953
  251.4000   145.2111     9.1952     9.2441
  251.5000   145.3991     9.1950     9.2596
  251.6000   145.3969     9.1992     9.2595
  251.7000   145.1519     9.2593     9.2593
  251.8000   144.9068     9.2592     9.2592
  251.9000   144.6618     9.2591     9.2591
  252.0000   144.3358     9.2590     9.3014
  252.1000   143.8683     9.2588     9.3239
  252.2000   143.5911     9.2587     9.3237
  252.3000   143.1638     9.2586     9.3236
  252.4000   142.8297     9.2584     9.3234
  252.5000   142.4836     9.2583     9.3233
  252.6000   142.0362     9.2582     9.3232
  252.7000   141.7791     9.2580     9.3231
  252.8000   141.5462     9.2579     9.3229
  252.9000   141.4792     9.2578     9.3228
  253.0000   141.3596     9.2577     9.3227
  253.1000   141.1146     9.2575     9.3225
  253.2000   140.8776     9.2574     9.3224
  253.3000   140.8799     9.2573     9.3223
  253.4000   140.6831     9.2571     9.3222
  253.5000   140.7213     9.2570     9.3220
  253.6000   140.9699     9.2569     9.2758
  253.7000   141.2186     9.2568     9.2568
  253.8000   141.4958     9.2545     9.2566
  253.9000   142.1529     9.1919     9.2565
  254.0000   142.7334     9.1918     9.2564
  254.1000   143.3342     9.1917     9.2053
  254.2000   144.0279     9.1723     9.1915
  254.3000   144.5397     9.1273     9.1914
  254.4000   145.0189     9.1272     9.1761
  254.5000   145.6965     9.0793     9.1271
  254.6000   146.1880     9.0633     9.1269
  254.7000   146.5054     9.0389     9.0832
  254.8000   147.0009     8.9998     9.0630
  254.9000   147.5858     8.9997     9.0629
  255.0000   147.9919     8.9996     9.0628
  255.1000   148.3417     8.9994     9.0626
  255.2000   148.5904     8.9700     9.0141
  255.3000   148.8390     8.9364     8.9992
  255.4000   149.1122     8.9363     8.9991
  255.5000   149.3364     8.9362     8.9989
  255.6000   149.4191     8.9360     8.9988
  255.7000   149.4209     8.9359     8.9987
