~VERSION INFORMATION
 VERS.                2.0:   CWLS LOG ASCII STANDARD - VERSION 2.0
 WRAP.                 NO:   ONE LINE PER DEPTH STEP
~WELL INFORMATION
#MNEM.UNIT      DATA TYPE    INFORMATION
#----------   ------------   ------------------------------
 STRT.F          420.0000:   START DEPTH
 STOP.F         1937.0000:   STOP DEPTH
 STEP.F            0.5000:   STEP LENGTH
 NULL.          -999.2500:   NO VALUE
 COMP. LAWRENCE/ALLISON INC:   COMPANY
 WELL.      85 "X" #85-29:   WELL
 FLD .             TEAPOT:   FIELD
 LOC .      S29 T39N R78W:   LOCATION
 CNTY.            NATRONA:   COUNTY
 STAT.            WYOMING:   STATE
 CTRY. UNITED STATES OF AMERICA:   COUNTRY
 SRVC.            Unknown:   SERVICE COMPANY
 DATE.        28-SEP-1987:   LOGDATE
 API .       490251119100:   API NUMBER
~CURVE INFORMATION
#MNEM.UNIT       API CODE    CURVE DESCRIPTION
#----------   ------------   ------------------------------
 DEPT.F                  :   
 ROP .FT/HR  91 810 01 00:   RAT OF DRILLING PENETRATION
 TGAS.TC/CC  91 830 01 00:   TOTAL GAS UNIT
~PARAMETER INFORMATION
#MNEM.UNIT          VALUE    DESCRIPTION
#----------   ------------   ------------------------------
 DATE.        28-SEP-1987:   RUN DATE
 BLI .F              1937:   BOTTOM LOG INTERVAL
 TLI .F               420:   TOP LOG INTERVAL
 LUN .              T-146:   LOGGING UNIT NUMBER
 CLNT.            A2DTECH:   CLIENT CODE
 ORIG.           5" PRINT:   ORIGIN OF DATA
 UWI .       490251119100:   UNIQUE WELL ID
 DICO. A2D Technologies, Inc.:   DIGITIZING COMPANY
~OTHER INFORMATION
~A   DEPT        ROP       TGAS 
# ...
 1270.5000     0.2154     7.0100
 1271.0000     0.2159     6.9727
 1271.5000     0.2165     6.9355
 1272.0000     0.2171     6.8982
 1272.5000     0.2177     6.8610
 1273.0000     0.2183     6.8238
 1273.5000     0.2189     6.7865
 1274.0000     0.2195     6.7493
 1274.5000     0.2201     6.7120
 1275.0000     0.2207     6.6748
 1275.5000     0.2213     6.6375
 1276.0000     0.2219     6.6003
 1276.5000     0.2225     6.5630
 1277.0000     0.2231     6.5258
 1277.5000     0.2236     6.4886
 1278.0000     0.2242     6.4513
 1278.5000     0.2248     6.4141
 1279.0000     0.2254     6.3949
 1279.5000     0.2260     6.3873
 1280.0000     0.2266     6.3797
 1280.5000     0.2272     6.3722
 1281.0000     0.2278     6.3646
 1281.5000     0.2284     6.3570
 1282.0000     0.2290     6.3494
 1282.5000     0.2296     6.3418
 1283.0000     0.2302     6.3342
 1283.5000     0.2307     6.3266
 1284.0000     0.2313     6.3190
 1284.5000     0.2319     6.3114
 1285.0000     0.2325     6.3322
 1285.5000     0.2331     6.3648
 1286.0000     0.2337     6.3974
 1286.5000     0.2343     6.4301
 1287.0000     0.2349     6.4627
 1287.5000     0.2355     6.4953
 1288.0000     0.2361     6.5279
 1288.5000     0.2367     6.5606
 1289.0000     0.2373     6.5932
 1289.5000     0.2378     6.6258
 1290.0000     0.2384     6.6584
 1290.5000     0.2390     6.6911
 1291.0000     0.2396     6.7237
 1291.5000     0.2402     6.7563
 1292.0000     0.2408     6.7889
 1292.5000     0.2414     6.8216
 1293.0000     0.2420     6.8542
 1293.5000     0.2426     6.8868
 1294.0000     0.2432     6.9194
 1294.5000     0.2438     6.9521
 1295.0000     0.2444     6.9847
 1295.5000     0.2449     7.0173
 1296.0000     0.2445     7.0499
 1296.5000     0.2442     7.0826
 1297.0000     0.2438     7.1152
 1297.5000     0.2435     7.1478
 1298.0000     0.2431     7.1804
 1298.5000     0.2428     7.2131
 1299.0000     0.2424     7.2304
 1299.5000     0.2421     7.2228
 1300.0000     0.2417     7.2152
 1300.5000     0.2414     7.2076
 1301.0000     0.2411     7.2000
 1301.5000     0.2407     7.1924
 1302.0000     0.2404     7.1848
 1302.5000     0.2400     7.1772
 1303.0000     0.2397     7.1696
 1303.5000     0.2393     7.1620
 1304.0000     0.2390     7.1544
 1304.5000     0.2386     7.1468
 1305.0000     0.2383     7.1392
 1305.5000     0.2379     7.1316
 1306.0000     0.2376     7.1241
 1306.5000     0.2470     7.1165
 1307.0000     0.2471     7.1089
 1307.5000     0.2566     7.1013
 1308.0000     0.2472     7.0937
 1308.5000     0.2568     7.0861
 1309.0000     0.2474     7.0785
 1309.5000     0.2476     7.0464
 1310.0000     0.2476     6.9923
 1310.5000     0.2477     6.9381
 1311.0000     0.2573     6.8840
 1311.5000     0.2479     6.8299
 1312.0000     0.2480     6.7758
 1312.5000     0.2481     6.7017
 1313.0000     0.3711     6.6103
 1313.5000     0.3806     6.5189
 1314.0000     0.2389     6.4275
 1314.5000     0.2201     6.3361
 1315.0000     0.2202     6.2447
 1315.5000     0.2203     6.1533
 1316.0000     0.2204     6.0619
 1316.5000     0.2205     5.9705
 1317.0000     0.2206     5.8791
 1317.5000     0.2191     5.7877
 1318.0000     0.2019     5.6964
 1318.5000     0.1925     5.6050
 1319.0000     0.1832     5.5136
 1319.5000     0.1833     5.4222
 1320.0000     0.1834     5.3127
 1320.5000     0.1929     6.0581
 1321.0000     0.1930     7.9334
 1321.5000     0.2026    10.9526
 1322.0000     0.2027    11.6980
 1322.5000     0.1932    10.1556
 1323.0000     0.1930     7.8583
 1323.5000     0.1929     6.3206
 1324.0000     0.1927     5.9220
 1324.5000     0.1925     5.5235
 1325.0000     0.1924     5.5048
 1325.5000     0.1922     5.8704
 1326.0000     0.1920     5.8470
 1326.5000     0.1919     5.8282
 1327.0000     0.1917     5.8094
 1327.5000     0.1915     5.7907
 1328.0000     0.1914     6.1516
 1328.5000     0.1912     6.5127
 1329.0000     0.1910     6.4767
 1329.5000     0.1909     6.4351
 1330.0000     0.1907     6.3935
 1330.5000     0.1905     6.3519
 1331.0000     0.1904     6.3103
 1331.5000     0.1902     6.2688
 1332.0000     0.1900     6.2272
 1332.5000     0.1899     6.1856
 1333.0000     0.1897     6.1440
 1333.5000     0.1896     6.1024
 1334.0000     0.1894     6.0608
 1334.5000     0.1892     6.0192
 1335.0000     0.1891     5.9777
 1335.5000     0.1889     5.9361
 1336.0000     0.1887     5.8945
 1336.5000     0.1886     5.8529
 1337.0000     0.1884     5.8113
 1337.5000     0.1882     5.7697
 1338.0000     0.1881     5.7281
 1338.5000     0.1879     5.6866
 1339.0000     0.1877     5.6450
 1339.5000     0.1876     5.6034
 1340.0000     0.1874     5.5618
 1340.5000     0.1872     5.5202
 1341.0000     0.1867     5.4786
 1341.5000     0.1861     5.4370
 1342.0000     0.1856     5.3955
 1342.5000     0.1850     5.3539
 1343.0000     0.1845     5.3123
 1343.5000     0.1839     5.2707
 1344.0000     0.1834     5.2291
 1344.5000     0.1828     5.1875
 1345.0000     0.1823     5.1459
 1345.5000     0.1817     5.1076
 1346.0000     0.1812     5.0886
 1346.5000     0.1806     5.0696
 1347.0000     0.1801     5.0506
 1347.5000     0.1795     5.0316
 1348.0000     0.1790     5.0127
 1348.5000     0.1784     4.9937
 1349.0000     0.1779     4.9747
 1349.5000     0.1773     4.9557
 1350.0000     0.1768     4.9367
 1350.5000     0.1762     4.9177
 1351.0000     0.1757     4.8987
 1351.5000     0.1751     4.8797
 1352.0000     0.1745     4.8608
 1352.5000     0.1740     4.8418
 1353.0000     0.1734     4.8228
 1353.5000     0.1729     4.8038
 1354.0000     0.1723     4.7848
 1354.5000     0.1718     4.7658
 1355.0000     0.1712     4.7468
 1355.5000     0.1717     4.7278
 1356.0000     0.1725     4.7089
 1356.5000     0.1732     4.6899
 1357.0000     0.1740     4.6677
 1357.5000     0.1748     4.7036
 1358.0000     0.1756     4.7469
 1358.5000     0.1764     4.7901
 1359.0000     0.1771     4.8333
 1359.5000     0.1779     4.8765
 1360.0000     0.1787     4.9197
 1360.5000     0.1795     4.9629
 1361.0000     0.1803     5.0061
 1361.5000     0.1810     5.0493
 1362.0000     0.1818     5.0925
 1362.5000     0.1826     5.1357
 1363.0000     0.1834     5.1789
 1363.5000     0.1842     5.2221
 1364.0000     0.1849     5.2653
 1364.5000     0.1857     5.3085
 1365.0000     0.1864     5.3539
 1365.5000     0.1869     4.9629
 1366.0000     0.1873     4.5722
 1366.5000     0.1878     4.1810
 1367.0000     0.1883     4.5495
 1367.5000     0.1887     4.5380
 1368.0000     0.1892     4.5266
 1368.5000     0.1896     4.5130
 1369.0000     0.1901     4.5038
 1369.5000     0.1906     4.4906
 1370.0000     0.1910     4.4793
 1370.5000     0.1915     4.8479
 1371.0000     0.1920     4.8366
 1371.5000     0.1924     4.8254
 1372.0000     0.1929     5.1967
 1372.5000     0.1934     4.8030
 1373.0000     0.1938     4.7726
 1373.5000     0.1943     4.7398
 1374.0000     0.1944     4.7070
 1374.5000     0.2035     4.6742
 1375.0000     0.2032     4.6413
 1375.5000     0.1934     4.6085
 1376.0000     0.1837     4.5757
 1376.5000     0.1930     4.5429
 1377.0000     0.1926     4.5101
 1377.5000     0.2396     4.4773
 1378.0000     0.2582     4.4445
 1378.5000     0.2485     4.4117
 1379.0000     0.2482     4.3789
 1379.5000     0.2573     4.3461
 1380.0000     0.2570     4.3133
 1380.5000     0.2474     4.2805
 1381.0000     0.2473     4.2477
 1381.5000     0.2473     4.2184
 1382.0000     0.2472     4.5873
 1382.5000     0.2472     4.9557
 1383.0000     0.2471     4.9443
 1383.5000     0.2471     4.9330
 1384.0000     0.2470     5.3015
 1384.5000     0.2470     5.2899
 1385.0000     0.2469     5.2762
 1385.5000     0.2469     5.2650
 1386.0000     0.2468     5.2538
 1386.5000     0.2468     5.2443
 1387.0000     0.2467     5.2313
 1387.5000     0.2467     5.2201
 1388.0000     0.2466     5.2089
 1388.5000     0.2466     4.8179
 1389.0000     0.2465     4.8067
 1389.5000     0.2465     4.7955
 1390.0000     0.2464     4.7842
 1390.5000     0.2464     4.7730
 1391.0000     0.2463     4.7618
 1391.5000     0.2463     4.7506
