~VERSION INFORMATION
 VERS.                2.0:   CWLS LOG ASCII STANDARD - VERSION 2.0
 WRAP.                 NO:   ONE LINE PER DEPTH STEP
~WELL INFORMATION
#MNEM.UNIT      DATA TYPE    INFORMATION
#----------   ------------   ------------------------------
 STRT.F            6.0000:   START DEPTH
 STOP.F          606.0000:   STOP DEPTH
 STEP.F            0.5000:   STEP LENGTH
 NULL.          -999.2500:   NO VALUE
 COMP. LAWRENCE/ALLISON INC:   COMPANY
 WELL.       61 STX #15-3:   WELL
 FLD .             TEAPOT:   FIELD
 LOC .       S3 T38N R78W:   LOCATION
 CNTY.            NATRONA:   COUNTY
 STAT.            WYOMING:   STATE
 CTRY. UNITED STATES OF AMERICA:   COUNTRY
 SRVC.      Dresser Atlas:   SERVICE COMPANY
 DATE.        23-SEP-1987:   LOGDATE
 API .       490251115900:   API NUMBER
~CURVE INFORMATION
#MNEM.UNIT       API CODE    CURVE DESCRIPTION
#----------   ------------   ------------------------------
 DEPT.F                  :   
 GRR .GAPI   07 310 01 00:   GAMMA RAY
 RILD.OHMM   07 120 46 00:   INDUCTION LOG DEEP RESISTIVITY
 RILM.OHMM   07 120 44 00:   INDUCTION LOG MEDIUM RESISTIVITY
~PARAMETER INFORMATION
#MNEM.UNIT          VALUE    DESCRIPTION
#----------   ------------   ------------------------------
 PD  .                 GL:   PERMANENT DATUM
 EPD .F              5230:   ELEVATION PERMANENT DATUM
 LMF .                 KB:   LOG MEASURED FROM
 DAPD.F                 8:   FEET ABOVE PERMANENT DATUM
 DMF .                 KB:   DRILLING MEASURED FROM
 EKB .F              5238:   KELLING BUSHING
 EGL .F              5230:   GROUND LEVEL
 DATE.        23-SEP-1987:   RUN DATE
 RUN .                  1:   RUN NUMBER
 DD  .F               618:   DEPTH DRILLER
 DL  .F               614:   DEPTH LOGGER
 BLI .F               612:   BOTTOM LOG INTERVAL
 TLI .F                 8:   TOP LOG INTERVAL
 CS  .IN            9.625:   CASING SIZE
 CBD .F                50:   CASING BOTTOM DRILLER
 CBL .F                49:   CASING BOTTOM LOGGER
 BS  .IN             8.75:   BIT SIZE
 BSD .F               618:   BIT SIZE AT DEPTH
 DFT .                AIR:   DRILLING FLUID TYPE
 TCS .HRS               1:   TIME CURCULATED STOPPED
 LUN .            HL-6274:   LOGGING UNIT NUMBER
 LUL .           GILLETTE:   LOGGING UNIT LOCATION
 ENGI.            PANASUK:   RECORDING ENGINEER
 WITN.             STRONG:   WITNESSED BY
 CLNT.            A2DTECH:   CLIENT CODE
 ORIG.       2", 5" PRINT:   ORIGIN OF DATA
 UWI .       490251115900:   UNIQUE WELL ID
 DICO. A2D Technologies, Inc.:   DIGITIZING COMPANY
~OTHER INFORMATION
~A    DEPT      GRR      RILD       RILM   
# ...
   97.0000   116.6226     7.7991     7.8889
   97.5000   113.9093     7.9130     8.1150
   98.0000   113.5039     7.8635     8.1772
   98.5000   114.8717     7.7083     8.1244
   99.0000   116.9106     7.6060     7.9086
   99.5000   118.9917     7.4546     7.7462
  100.0000   118.0684     7.2570     7.3899
  100.5000   117.1837     7.1134     7.0449
  101.0000   117.4235     7.0701     6.8567
  101.5000   120.1732     6.9784     6.7632
  102.0000   122.4044     6.8891     6.6775
  102.5000   121.7446     6.7999     6.6824
  103.0000   120.6350     6.7583     6.7327
  103.5000   121.7804     6.7170     6.8808
  104.0000   120.4436     6.7236     7.2744
  104.5000   120.0049     6.7289     7.5870
  105.0000   121.1479     6.7356     7.8585
  105.5000   122.2872     6.7877     7.8631
  106.0000   120.5067     6.8402     7.4970
  106.5000   118.8237     6.9410     7.2968
  107.0000   116.7467     7.0939     7.2497
  107.5000   117.2136     7.2481     7.2550
  108.0000   116.7809     7.3549     7.3750
  108.5000   116.3478     7.4632     7.6778
  109.0000   116.6162     7.5732     7.8433
  109.5000   118.6356     7.6382     7.9572
  110.0000   120.9016     7.7458     7.9630
  110.5000   122.9426     7.8057     8.0690
  111.0000   123.8593     7.8661     8.2212
  111.5000   124.3304     7.8723     8.1689
  112.0000   124.5724     7.8801     8.0640
  112.5000   120.9913     7.8304     7.9590
  113.0000   112.6875     7.8381     7.9099
  113.5000   112.9310     7.8443     7.8611
  114.0000   120.1473     7.7928     7.8138
  114.5000   123.5377     7.6952     7.7610
  115.0000   123.7754     7.5969     7.7178
  115.5000   120.6483     7.4969     7.6701
  116.0000   117.5052     7.4525     7.6228
  116.5000   116.4139     7.3559     7.5771
  117.0000   118.0052     7.3110     7.5303
  117.5000   120.4961     7.2176     7.5371
  118.0000   123.4367     7.1734     7.5426
  118.5000   124.8032     7.1296     7.5481
  119.0000   123.9207     7.1366     7.5535
  119.5000   124.8416     7.1415     7.5069
  120.0000   129.1316     7.1269     7.5137
  120.5000   131.3975     7.1040     7.5191
  121.0000   130.9311     7.1099     7.5245
  121.5000   129.4120     7.1158     7.5300
  122.0000   123.3571     7.1224     7.4835
  122.5000   120.0009     7.1280     7.5422
  123.0000   120.0180     7.1336     7.5477
  123.5000   124.5371     7.1406     7.5531
  124.0000   127.2529     7.1959     7.5587
  124.5000   128.6193     7.2016     7.6179
  125.0000   125.7129     7.2780     7.6763
  125.5000   123.0120     7.3135     7.7352
  126.0000   121.2493     7.4227     7.8486
  126.5000   121.4956     7.4801     7.9089
  127.0000   123.3117     7.5380     7.9708
  127.5000   124.6782     7.5963     8.0876
  128.0000   125.3703     7.7156     8.1496
  128.5000   125.3913     7.8233     8.2121
  129.0000   123.6093     7.8839     8.2196
  129.5000   121.6024     8.0000     8.2826
  130.0000   122.5190     8.0619     8.3461
  130.5000   127.2916     8.1259     8.4101
  131.0000   127.5007     8.1888     8.5334
  131.5000   126.8432     8.3095     8.6003
  132.0000   126.4105     8.3737     8.6786
  132.5000   125.7572     8.4973     8.7933
  133.0000   125.5494     8.5646     8.9222
  133.5000   125.3416     8.6308     9.0531
  134.0000   128.5114     8.7580     9.1873
  134.5000   133.9258     8.8871     9.3220
  135.0000   135.7421     9.0824     9.5243
  135.5000   134.8638     9.2162     9.7309
  136.0000   130.1582     9.4170     9.8820
  136.5000   128.1514     9.5557    10.0896
  137.0000   128.3933     9.6966    10.3086
  137.5000   128.6357     9.8414    10.4597
  138.0000   128.2069     9.9175    10.6130
  138.5000   125.7502     9.9253    10.7705
  139.0000   120.3700    10.0021    10.9284
  139.5000   116.5640    10.1497    11.0122
  140.0000   118.0810    10.2300    11.0966
  140.5000   123.7989    10.2381    11.1046
  141.0000   124.2615    10.3890    11.1918
  141.5000   122.4838    10.3971    11.1999
  142.0000   120.7018    10.4074    11.2080
  142.5000   119.1489    10.4879    11.2161
  143.0000   118.7120    10.4962    11.1468
  143.5000   119.6329    10.5045    11.0780
  144.0000   121.6740    10.4402    10.9358
  144.5000   122.5907    10.4505    10.7934
  145.0000   122.6120    10.3846    10.5794
  145.5000   122.8540    10.3948    10.4417
  146.0000   123.9955    10.3311    10.3772
  146.5000   125.3619    10.2681    10.3131
  147.0000   126.7451    10.0758    10.2495
  147.5000   129.2234     9.8660    10.2587
  148.0000   130.1401    10.0134    10.2680
  148.5000   129.7074    10.0213    10.2754
  149.0000   128.1503    10.0312    10.2829
  149.5000   125.3583    10.0391    10.3613
  150.0000   124.1365    10.0470    10.4774
  150.5000   124.1579    10.0549    10.5961
  151.0000   124.1750    10.0630    10.8260
  151.5000   123.5174    10.0727    10.9847
  152.0000   119.0064    10.0511    11.0689
  152.5000   113.9057     9.8327    10.8459
  153.0000   115.5063     9.7481    10.4180
  153.5000   118.0012     9.6896    10.2805
  154.0000   120.2712     9.7639    10.2170
  154.5000   121.4168     9.6383    10.1556
  155.0000   123.9169     9.2529    10.0931
  155.5000   128.2109     9.2595     9.9617
  156.0000   131.6053     9.1339     9.9002
  156.5000   131.8513     8.9590     9.8391
  157.0000   129.8484     8.9020     9.6458
  157.5000   130.0997     8.8470     9.5106
  158.0000   130.5706     8.7938     9.2689
  158.5000   130.3284     8.6807     9.0851
  159.0000   127.4697     8.5660     8.9050
  159.5000   126.5860     8.3396     8.8610
  160.0000   128.1866     8.1741     8.7461
  160.5000   131.3568     8.0133     8.5158
  161.0000   131.3825     7.9637     8.1777
  161.5000   132.3032     7.9144     7.9060
  162.0000   133.4488     7.7574     7.6963
  162.5000   135.2743     7.5003     7.5964
  163.0000   134.8456     7.2995     7.5501
  163.5000   133.2925     7.2055     7.6627
  164.0000   132.8516     7.2120     7.7219
  164.5000   135.3640     7.2673     7.7816
  165.0000   137.4091     7.3739     7.9524
  165.5000   138.7796     7.4820     8.1255
  166.0000   136.5518     7.6458     8.2451
  166.5000   128.4822     7.7578     8.3664
  167.0000   124.6803     7.8716     8.4947
  167.5000   119.5290     7.9319     8.6162
  168.0000   118.6447     8.0497     8.6827
  168.5000   117.7774     8.0554     8.6895
  169.0000   116.6741     8.0612     8.6966
  169.5000   113.7664     7.9561     8.7048
  170.0000   115.2472     7.9069     8.7110
  170.5000   120.7907     7.9689     8.7183
  171.0000   124.6331     7.9746     8.7875
  171.5000   125.3289     8.0358     8.7943
  172.0000   122.8815     8.1550     8.8006
  172.5000   121.5533     8.2175     8.8079
  173.0000   122.2491     8.2805     8.8196
  173.5000   124.0746     8.3477     8.9464
  174.0000   122.2966     8.4678     9.0150
  174.5000   123.2173     8.5919     9.0226
  175.0000   124.8126     8.6578     9.0941
  175.5000   125.9634     8.6641     9.1643
  176.0000   124.4103     8.6717     9.2351
  176.5000   123.9764     8.6779     9.2423
  177.0000   125.8201     8.5648     9.2514
  177.5000   127.4025     8.5118     9.1930
  178.0000   125.6245     8.4023     9.1368
  178.5000   123.6216     8.4083     9.0201
  179.0000   123.6792     8.4144     8.9601
  179.5000   125.4683     8.4206     8.9101
  180.0000   125.0396     8.3683     8.9182
  180.5000   124.6102     8.3758     8.9258
  181.0000   125.7841     8.3818     8.9331
  181.5000   127.8069     8.3299     8.9405
  182.0000   128.0529     8.2784     8.9485
  182.5000   127.1744     8.2858     8.8936
  183.0000   125.4017     8.2917     8.9024
  183.5000   122.2744     8.2992     8.8463
  184.0000   119.1418     8.3051     8.8543
  184.5000   120.2927     8.3110     8.9233
  185.0000   123.2426     8.3170     8.9320
  185.5000   126.4121     8.2085     8.9390
  186.0000   127.5577     8.2015     8.9454
  186.5000   125.5548     8.1073     8.9530
  187.0000   120.4088     8.1146     8.9000
  187.5000   118.6308     8.0658     8.8456
