~VERSION INFORMATION
 VERS.                2.0:   CWLS LOG ASCII STANDARD - VERSION 2.0
 WRAP.                 NO:   ONE LINE PER DEPTH STEP
~WELL INFORMATION
#MNEM.UNIT      DATA TYPE    INFORMATION
#----------   ------------   ------------------------------
 STRT.F            8.0000:   START DEPTH
 STOP.F          614.0000:   STOP DEPTH
 STEP.F            0.5000:   STEP LENGTH
 NULL.          -999.2500:   NO VALUE
 COMP. FENIX & SCISSON INC:   COMPANY
 WELL.       SX 10 #34-10:   WELL
 FLD .             TEAPOT:   FIELD
 LOC .      S10 T38N R78W:   LOCATION
 CNTY.            NATRONA:   COUNTY
 STAT.            WYOMING:   STATE
 CTRY. UNITED STATES OF AMERICA:   COUNTRY
 SRVC.            Unknown:   SERVICE COMPANY
 DATE.        29-JUN-1992:   LOGDATE
 API .       490251065800:   API NUMBER
~CURVE INFORMATION
#MNEM.UNIT       API CODE    CURVE DESCRIPTION
#----------   ------------   ------------------------------
 DEPT.F                  :   
 SPR .MV     05 010 01 00:   SPONTANEOUS POTENTIAL
 ILD .OHMM   05 120 46 00:   INDUCTION LOG DEEP
 SN  .OHMM   05 040 16 00:   SHORT NORMAL 16"
 GR  .GAPI   30 310 01 00:   GAMMA RAY
~PARAMETER INFORMATION
#MNEM.UNIT          VALUE    DESCRIPTION
#----------   ------------   ------------------------------
 PD  .                 GL:   PERMANENT DATUM
 EPD .F              5244:   ELEVATION PERMANENT DATUM
 LMF .                 KB:   LOG MEASURED FROM
 DMF .                 KB:   DRILLING MEASURED FROM
 EKB .F              5246:   KELLING BUSHING
 EGL .F              5244:   GROUND LEVEL
 DATE.        29-JUN-1992:   RUN DATE
 RUN .                  1:   RUN NUMBER
 DD  .F               620:   DEPTH DRILLER
 DL  .F               381:   DEPTH LOGGER
 BLI .F               381:   BOTTOM LOG INTERVAL
 TLI .F                 8:   TOP LOG INTERVAL
 BS  .IN            7.875:   BIT SIZE
 BSD .F               620:   BIT SIZE AT DEPTH
 DFT .                KCL:   DRILLING FLUID TYPE
 LUN .                509:   LOGGING UNIT NUMBER
 LUL .           GILLETTE:   LOGGING UNIT LOCATION
 ENGI.          O. METORF:   RECORDING ENGINEER
 WITN.         JEFF CLARK:   WITNESSED BY
 CLNT.            A2DTECH:   CLIENT CODE
 ORIG.           5" PRINT:   ORIGIN OF DATA
 UWI .       490251065800:   UNIQUE WELL ID
 DICO. A2D Technologies, Inc.:   DIGITIZING COMPANY
~OTHER INFORMATION
~A    DEPT     SPR        ILD         SN          GR  
# ...
  300.0000   -56.5217     4.5748     5.8264   106.4463
  300.5000   -56.2048     4.5742     6.1019   102.5540
  301.0000   -56.0814     4.6692     6.4172   103.7606
  301.5000   -56.0910     4.8662     6.6423   104.3647
  302.0000   -56.1232     5.1421     6.9230    96.8756
  302.5000   -56.1554     5.3221     7.1165    91.1842
  303.0000   -56.1876     5.3955     7.1160    97.4883
  303.5000   -56.2198     5.5078     7.1156    92.6965
  304.0000   -56.2520     5.5069     7.1644    96.6003
  304.5000   -56.2627     5.5061     7.2386    95.4067
  305.0000   -56.2670     5.5435     7.3641    87.3165
  305.5000   -55.9715     5.6199     7.3636    97.0024
  306.0000   -55.8259     5.6581     7.3631    96.6234
  306.5000   -55.8303     5.7361     7.4137   106.8255
  307.0000   -55.9851     5.7751     7.5163   103.8328
  307.5000   -56.2143     5.8143     7.5679    97.8415
  308.0000   -56.4441     5.8135     7.6199    98.1472
  308.5000   -56.4484     5.8126     7.7253    95.1544
  309.0000   -56.4527     5.8521     7.7248    94.5605
  309.5000   -56.4571     5.8514     7.7778    98.1659
  310.0000   -56.4614     5.8506     7.7773   103.2691
  310.5000   -56.4662     5.8498     7.7768   102.3754
  311.0000   -56.4550     5.8087     7.7762    99.3826
  311.5000   -56.4201     5.8079     7.7757   100.2879
  312.0000   -56.3853     5.8070     7.7751   101.4932
  312.5000   -56.3504     5.8062     7.7210    99.1015
  313.0000   -56.3386     5.8054     7.7205    96.4072
  313.5000   -56.3429     5.8047     7.7200   100.3125
  314.0000   -56.3477     5.8039     7.6663   103.0169
  314.5000   -56.6525     5.8031     7.5085   101.5234
  315.0000   -56.8068     5.7226     7.5079   101.5292
  315.5000   -56.8111     5.6432     7.4557   101.8363
  316.0000   -56.8154     5.6425     7.3529    99.4432
  316.5000   -56.8198     5.6417     7.2515    96.7489
  317.0000   -56.8996     5.6410     7.2011   105.4518
  317.5000   -56.8290     5.6014     7.2006   103.6584
  318.0000   -56.8339     5.4480     7.1013   104.2639
  318.5000   -57.2880     5.3170     7.0034   103.5146
  319.0000   -57.5922     5.2614     6.9307    97.6802
  319.5000   -57.7464     5.2245     6.9062   100.0848
  320.0000   -57.7508     5.1166     6.7641   102.4893
  320.5000   -57.7556     5.0457     6.5793   100.3962
  321.0000   -58.0604     4.9758     6.4439   100.3758
  321.5000   -58.2146     4.8985     6.3550   103.4481
  322.0000   -58.3689     4.7724     6.1814   104.9127
  322.5000   -58.3732     4.6417     5.8688   104.3173
  323.0000   -58.3776     4.3915     5.5336   104.3245
  323.5000   -58.5318     4.1548     5.2357   103.1309
  324.0000   -58.5367     3.8235     4.9538    98.9387
  324.5000   -58.5416     3.3759     4.5279    96.8456
  325.0000   -58.5459     3.0222     4.1102   100.6503
  325.5000   -58.4003     2.8006     3.8355   104.9545
  326.0000   -58.2547     2.6133     3.5546    95.6649
  326.5000   -57.8093     2.3967     3.2419    97.4698
  327.0000   -57.8141     2.3800     3.1168    97.1743
  327.5000   -57.1439     2.2594     3.0316    96.2819
  328.0000   -56.4741     2.2281     3.0314    94.1252
  328.5000   -56.1785     2.4371     3.0417    97.7942
  329.0000   -56.6326     2.7979     3.2254    97.7999
  329.5000   -56.7869     3.2344     3.7032    97.5044
  330.0000   -56.9412     3.5624     3.9953    97.2103
  330.5000   -56.9461     3.6114     4.0507    96.6179
  331.0000   -57.1008     3.7638     4.9833   102.9766
  331.5000   -56.9553     4.1170     5.4138   103.5259
  332.0000   -57.1095     4.7264     5.6817    99.6351
  332.5000   -57.1139     5.0639     5.8003    96.3425
  333.0000   -57.1182     5.1692     5.8400    95.4473
  333.5000   -56.9726     4.6276     5.8396    95.1532
  334.0000   -56.6777     4.1715     5.8392    94.8606
  334.5000   -56.6825     4.0291     5.7587    99.8359
  335.0000   -56.6868     3.9188     5.6793   102.9695
  335.5000   -56.8411     3.8114     5.4108   102.9753
  336.0000   -56.8454     3.7847     5.0843   102.0815
  336.5000   -56.8498     3.7581     4.8774    99.3886
  337.0000   -56.8547     3.7061     4.8434   105.6913
  337.5000   -56.8589     3.6927     4.7438   108.7206
  338.0000   -56.8639     3.6794     4.7108   111.7012
  338.5000   -56.7183     3.6789     4.9782   114.7055
  339.0000   -56.7226     3.7815     5.1173   113.2120
  339.5000   -56.7269     4.0236     5.1525   111.4173
  340.0000   -56.7313     4.2224     5.3701   109.3255
  340.5000   -56.5863     4.3703     5.5971   106.9255
  341.0000   -56.5911     4.5233     5.7934   110.5379
  341.5000   -56.7454     4.8462     5.9554   113.8420
  342.0000   -56.7497     5.0158     6.0797   105.7519
  342.5000   -56.7540     5.0499     6.2497   109.9555
  343.0000   -56.7584     5.1194     6.5363   112.6585
  343.5000   -56.7627     5.2621     6.6958   101.2714
  344.0000   -56.7675     5.2979     6.7417    98.8784
  344.5000   -56.7725     5.2972     6.7880   103.9830
  345.0000   -56.7768     5.2965     6.7875   106.3876
  345.5000   -56.7811     5.2958     6.8341   104.8941
  346.0000   -56.7855     5.2586     6.8337   107.5986
  346.5000   -56.7898     5.1499     6.8332   108.2617
  347.0000   -56.7947     5.1137     6.8092    99.4963
  347.5000   -56.7990     5.0429     6.7384   104.6188
  348.0000   -56.8890     5.0422     6.6916   103.7250
  348.5000   -56.9581     5.0765     6.5993   101.6319
  349.0000   -56.9625     5.0409     6.5534    98.0394
  349.5000   -57.2667     5.0054     6.5079    95.6464
  350.0000   -57.4209     4.9030     6.3739    98.3508
  350.5000   -57.2055     4.6378     6.1578    99.5391
  351.0000   -57.2682     4.4488     5.9888   100.4498
  351.5000   -57.1169     4.1513     5.8251   100.7859
  352.0000   -56.8156     3.9547     5.6269   101.6492
  352.5000   -56.6642     4.1074     5.3981   101.9490
  353.0000   -56.6628     4.1495     5.1074   103.1484
  353.5000   -56.6611     4.2067     5.2867   104.3478
  354.0000   -56.6595     4.2353     5.3969   105.5472
  354.5000   -56.3582     4.2347     5.5096   106.7561
  355.0000   -55.7571     4.2635     5.7424   107.9460
  355.5000   -55.4558     4.4594     6.3252   107.9460
  356.0000   -55.4544     5.0659     6.7306   108.2459
  356.5000   -55.4528     5.3531     6.8948   112.1439
  357.0000   -55.4511     5.5789     6.9182   117.8411
  357.5000   -55.4497     5.6169     7.0626   114.2429
  358.0000   -55.4483     5.5774     7.2101   105.5472
  358.5000   -55.2969     5.5382     7.2596   109.1454
  359.0000   -55.2954     5.4614     7.3094   111.8441
  359.5000   -55.1439     5.4607     7.3850   113.9430
  360.0000   -55.1423     5.4599     7.4614   116.0420
  360.5000   -55.1408     5.4971     7.4609   116.3418
  361.0000   -55.1394     5.4963     7.4604   116.0420
  361.5000   -55.1380     5.4577     7.4599   115.0028
  362.0000   -55.1365     5.4569     7.5111   107.6462
  362.5000   -55.1349     5.4561     7.5106   107.0465
  363.0000   -55.1334     5.4932     7.5100   105.2474
  363.5000   -54.9819     5.4924     7.5095    99.8501
  364.0000   -54.9805     5.5299     7.4573   101.3493
  364.5000   -54.9790     5.5291     7.3545   101.9490
  365.0000   -54.9776     5.5666     7.3540   102.8486
  365.5000   -54.9762     5.5658     7.4045   105.8471
  366.0000   -55.1245     5.5651     7.4552   112.7436
  366.5000   -55.2728     5.5260     7.4547   121.1394
  367.0000   -55.2713     5.4494     7.3519   116.3418
  367.5000   -55.2699     5.4487     7.3008   113.3433
  368.0000   -55.2684     5.4479     7.3003   110.0069
  368.5000   -55.4169     5.4471     7.1501   109.4453
  369.0000   -55.1904     5.4464     7.1495   110.0450
  369.5000   -54.9639     5.4456     7.1986   111.5442
  370.0000   -54.8125     5.3332     7.2480   113.9430
  370.5000   -54.9610     5.2958     7.2475   110.2066
  371.0000   -55.2594     5.1507     7.0984   116.0529
  371.5000   -55.4079     5.1144     7.0005   116.3418
  372.0000   -55.4063     5.1492     6.8801   116.0420
  372.5000   -55.4047     5.1485     6.8559   116.6417
