~VERSION INFORMATION
 VERS.                2.0:   CWLS LOG ASCII STANDARD - VERSION 2.0
 WRAP.                 NO:   ONE LINE PER DEPTH STEP
~WELL INFORMATION
#MNEM.UNIT      DATA TYPE    INFORMATION
#----------   ------------   ------------------------------
 STRT.F           99.0000:   START DEPTH
 STOP.F          761.5000:   STOP DEPTH
 STEP.F            0.5000:   STEP LENGTH
 NULL.          -999.2500:   NO VALUE
 COMP.          U.S. NAVY:   COMPANY
 WELL. RES 3 TEAPOT DOM #48S-11:   WELL
 FLD .             TEAPOT:   FIELD
 LOC .      S11 T38N R78W:   LOCATION
 CNTY.            NATRONA:   COUNTY
 STAT.            WYOMING:   STATE
 CTRY. UNITED STATES OF AMERICA:   COUNTRY
 SRVC.       Schlumberger:   SERVICE COMPANY
 DATE.        14-JUL-1963:   LOGDATE
 API .       490250632500:   API NUMBER
~CURVE INFORMATION
#MNEM.UNIT       API CODE    CURVE DESCRIPTION
#----------   ------------   ------------------------------
 DEPT.F                  :   
 SPR .MV     05 010 01 00:   SPONTANEOUS POTENTIAL FROM RES.
 ILD .OHMM   05 120 46 00:   INDUCTION LOG DEEP
 CILD.MMHO   05 110 46 00:   CONDUCTIVITY INDUCTION LOG DEEP
 GR  .GAPI   30 310 01 00:   GAMMA RAY
 ASN .OHMM   05 041 16 00:   AMPLIFIED SHORT NORMAL 16"
~PARAMETER INFORMATION
#MNEM.UNIT          VALUE    DESCRIPTION
#----------   ------------   ------------------------------
 PD  .                 GL:   PERMANENT DATUM
 EPD .F              5187:   ELEVATION PERMANENT DATUM
 LMF .                 KB:   LOG MEASURED FROM
 DAPD.F                 5:   FEET ABOVE PERMANENT DATUM
 DMF .                 KB:   DRILLING MEASURED FROM
 EKB .F              5192:   KELLING BUSHING
 EGL .F              5187:   GROUND LEVEL
 DATE.            7-14-63:   RUN DATE
 RUN .                  1:   RUN NUMBER
 DD  .F               762:   DEPTH DRILLER
 DL  .F               761:   DEPTH LOGGER
 BLI .F               760:   BOTTOM LOG INTERVAL
 TLI .F               100:   TOP LOG INTERVAL
 CS  .IN            8.625:   CASING SIZE
 CBD .F                10:   CASING BOTTOM DRILLER
 BS  .IN            7.875:   BIT SIZE
 BSD .F               762:   BIT SIZE AT DEPTH
 DFT .            GEL-OIL:   DRILLING FLUID TYPE
 DFD .                 10:   DRILLING FLUID DENSITY
 DFV .                 55:   DRILLING FLUID VISCOSITY
 DFPH.                9.5:   DRILLING FLUID PH
 DFL .                  4:   DRILLING FLUID LOSS
 MSS .          FLOW LINE:   MUD SAMPLE SOURCE
 RMS .OHMM           3.11:   RESISTIVITY MUD SAMPLE
 MST .F                78:   MUD SAMPLE TEMPERATURE
 RMF .OHMM           2.31:   RESISTIVITY MUD FILTRATE SAMPLE
 MFST.F                78:   MUD FILTRATE SAMPLE TEMPERATURE
 RMC .OHMM           3.82:   RESISTIVITY MUD CAKE
 MCST.F                78:   MUD CAKE SAMPLE TEMPERATURE
 MFSS.                  M:   MUD FILTRATE SAMPLE SOURCE
 MCSS.                  M:   MUD CAKE SAMPLE SOURCE
 TCS .HRS               1:   TIME CURCULATED STOPPED
 LUN .               4507:   LOGGING UNIT NUMBER
 ENGI.             KNOBEL:   RECORDING ENGINEER
 WITN.          JORGENSEN:   WITNESSED BY
 CLNT.            A2DTECH:   CLIENT CODE
 ORIG.       2", 5" PRINT:   ORIGIN OF DATA
 UWI .       490250632500:   UNIQUE WELL ID
 DICO. A2D Technologies, Inc.:   DIGITIZING COMPANY
~OTHER INFORMATION
~A   DEPT      SPR        ILD       CILD         GR        ASN   
# ...
  709.0000   -29.4205    13.6969    70.1431  -999.2500    13.9195
  709.5000   -30.0031    13.7157    69.9028  -999.2500    13.9186
  710.0000   -29.5210    13.6270    71.0721  -999.2500    13.8776
  710.5000   -29.4174    13.5317    71.3482  -999.2500    13.8342
  711.0000   -29.4181    13.4359    71.6667  -999.2500    13.7909
  711.5000   -29.1423    13.3759    71.9824  -999.2500    13.7477
  712.0000   -28.6403    13.3236    72.2977  -999.2500    13.7044
  712.5000   -28.1240    13.2715    72.6131  -999.2500    13.6614
  713.0000   -27.8956    13.2194    72.9284  -999.2500    13.6170
  713.5000   -27.7392    13.1674    73.2437  -999.2500    13.5404
  714.0000   -27.6019    13.1142    73.5591  -999.2500    13.4626
  714.5000   -27.8135    13.0278    73.8693  -999.2500    13.3849
  715.0000   -28.0822    12.9406    74.2000  -999.2500    13.3073
  715.5000   -28.3553    12.8535    74.5255  -999.2500    13.2297
  716.0000   -28.2194    12.7664    74.8510  -999.2500    13.1519
  716.5000   -27.6662    12.6798    75.1765  -999.2500    13.0745
  717.0000   -27.1168    12.6105    75.5020  -999.2500    13.0137
  717.5000   -26.5650    12.5856    75.8275  -999.2500    13.0151
  718.0000   -26.0203    12.5590    76.0425  -999.2500    13.0142
  718.5000   -25.8543    12.5324    76.2366  -999.2500    12.9923
  719.0000   -25.7058    12.5062    76.4306  -999.2500    12.9703
  719.5000   -25.5550    12.4784    76.6247  -999.2500    12.9483
  720.0000   -25.4048    12.4512    76.8187  -999.2500    12.9264
  720.5000   -25.3232    12.4239    77.0128  -999.2500    12.9044
  721.0000   -25.2442    12.3966    77.2068  -999.2500    12.8825
  721.5000   -25.1649    12.3693    77.4008  -999.2500    12.8606
  722.0000   -25.0855    12.3420    77.5949  -999.2500    12.8386
  722.5000   -25.0061    12.3151    77.7889  -999.2500    12.8167
  723.0000   -24.9276    12.3004    77.9830  -999.2500    12.7948
  723.5000   -24.8480    12.2878    78.1770  -999.2500    12.7728
  724.0000   -24.7248    12.2752    78.3711  -999.2500    12.7508
  724.5000   -24.2990    12.2626    78.5651  -999.2500    12.7290
  725.0000   -23.8772    12.2500    78.7592  -999.2500    12.7167
  725.5000   -23.4620    12.2374    78.8945  -999.2500    12.7312
  726.0000   -23.5088    12.2245    78.8945  -999.2500    12.7449
  726.5000   -23.6533    12.2119    78.8945  -999.2500    12.7585
  727.0000   -23.8006    12.2351    78.8945  -999.2500    12.7722
  727.5000   -23.4351    12.2618    78.8945  -999.2500    12.7858
  728.0000   -22.9880    12.2884    78.8945  -999.2500    12.7995
  728.5000   -22.5392    12.3149    78.8945  -999.2500    12.8131
  729.0000   -22.0918    12.3415    78.8945  -999.2500    12.8267
  729.5000   -21.6486    12.3681    78.8945  -999.2500    12.8404
  730.0000   -21.4662    12.3942    78.8945  -999.2500    12.8540
  730.5000   -21.6716    12.4000    78.8945  -999.2500    12.8676
  731.0000   -21.8723    12.3618    78.8945  -999.2500    12.8813
  731.5000   -22.0683    12.3245    79.0266  -999.2500    12.8949
  732.0000   -22.2575    12.2871    79.2668  -999.2500    12.9088
  732.5000   -22.4453    12.2497    79.5071  -999.2500    12.8862
  733.0000   -22.5850    12.2117    79.7473  -999.2500    12.8360
  733.5000   -22.5369    12.1736    80.1171  -999.2500    12.7856
  734.0000   -22.4930    12.1348    80.7106  -999.2500    12.7351
  734.5000   -22.4507    12.0960    81.3042  -999.2500    12.6846
  735.0000   -22.4045    12.0573    81.8977  -999.2500    12.6342
  735.5000   -22.2624    12.0189    82.4913  -999.2500    12.5837
  736.0000   -21.6401    11.9514    83.0848  -999.2500    12.5332
  736.5000   -21.0387    11.8767    83.6784  -999.2500    12.4829
  737.0000   -20.5630    11.8019    83.8906  -999.2500    12.4317
  737.5000   -20.3566    11.7271    83.7426  -999.2500    12.4438
  738.0000   -20.1411    11.6527    83.5941  -999.2500    12.4953
  738.5000   -19.9762    11.6067    83.4455  -999.2500    12.5476
  739.0000   -19.9796    11.6422    83.2971  -999.2500    12.5997
  739.5000   -19.9797    11.6842    83.1487  -999.2500    12.6514
  740.0000   -19.9798    11.6996    83.0003  -999.2500    12.7050
  740.5000   -19.9812    11.8296    82.2044  -999.2500    12.7695
  741.0000   -20.0628    12.1484    80.5226  -999.2500    13.0593
  741.5000   -20.2478    12.7946    78.8945  -999.2500    13.3404
  742.0000   -20.5127    13.5545    75.3656  -999.2500    13.6562
  742.5000   -21.0975    14.3171    71.1276  -999.2500    14.1253
  743.0000   -21.8579    15.0816    66.8896  -999.2500    15.0661
  743.5000   -22.8369    15.8454    62.6517  -999.2500    15.9910
  744.0000   -24.1126    16.6079    58.4137  -999.2500    16.9192
  744.5000   -25.3940    17.3738    54.7526  -999.2500    17.7051
  745.0000   -26.5046    18.2047    51.1912  -999.2500    18.4148
  745.5000   -26.8061    19.3569    47.6299  -999.2500    19.1103
  746.0000   -26.7942    20.4968    45.7286  -999.2500    19.7917
  746.5000   -27.6710    20.8443    45.7286  -999.2500    20.4652
  747.0000   -28.4141    20.8393    46.0157  -999.2500    20.5420
  747.5000   -29.2604    20.3196    46.6211  -999.2500    20.1947
  748.0000   -30.0454    20.1571    47.2265  -999.2500    19.8534
  748.5000   -30.6554    19.9976    47.8320  -999.2500    19.5977
  749.0000   -30.8183    19.8239    48.4374  -999.2500    19.3806
  749.5000   -30.6871    19.6502    49.0583  -999.2500    19.1620
  750.0000   -30.1222    19.4760    50.1255  -999.2500    18.9432
  750.5000   -29.6178    19.3039    51.1926  -999.2500    18.7471
  751.0000   -30.0066    19.0672    51.7588  -999.2500    18.8268
  751.5000   -30.4247    18.8069    52.2024  -999.2500    19.0071
  752.0000   -30.4272    18.5442    52.8816  -999.2500    19.1487
  752.5000   -29.4462    18.2812    53.5609  -999.2500    19.1241
  753.0000   -29.6911    18.0192    54.2402  -999.2500    19.0688
  753.5000   -30.3894    17.7550    54.9194  -999.2500    19.0145
  754.0000   -31.0926    17.6649    55.5987  -999.2500    18.9640
  754.5000   -31.2538    17.7074  -999.2500  -999.2500    18.6206
  755.0000   -30.0009    17.7521  -999.2500  -999.2500    18.1877
  755.5000   -28.4012    17.7972  -999.2500  -999.2500    18.1336
  756.0000   -26.7849    17.8419  -999.2500  -999.2500    18.1097
  756.5000   -26.0575    17.8869  -999.2500  -999.2500    18.0872
  757.0000   -26.4014    17.9325  -999.2500  -999.2500    18.0650
  757.5000   -26.7633    17.9387  -999.2500  -999.2500    18.0507
  758.0000   -26.8261    17.9022  -999.2500  -999.2500    17.5962
  758.5000   -26.1938    17.8640  -999.2500  -999.2500    16.9693
  759.0000   -25.4623    17.8260  -999.2500  -999.2500    16.3945
  759.5000   -24.8974    17.7881  -999.2500  -999.2500    16.2442
  760.0000   -24.1523    17.7498  -999.2500  -999.2500    16.1252
  760.5000   -22.8710  -999.2500  -999.2500  -999.2500  -999.2500
  761.0000   -22.3781  -999.2500  -999.2500  -999.2500  -999.2500
  761.5000   -22.3880  -999.2500  -999.2500  -999.2500  -999.2500
