~VERSION INFORMATION
 VERS.                2.0:   CWLS LOG ASCII STANDARD - VERSION 2.0
 WRAP.                 NO:   ONE LINE PER DEPTH STEP
~WELL INFORMATION
#MNEM.UNIT      DATA TYPE    INFORMATION
#----------   ------------   ------------------------------
 STRT.F            0.0000:   START DEPTH
 STOP.F          795.0000:   STOP DEPTH
 STEP.F            0.5000:   STEP LENGTH
 NULL.          -999.2500:   NO VALUE
 COMP. BROWN JOHN E&C INC:   COMPANY
 WELL. NPR 3 SX-11 #41-11:   WELL
 FLD .             TEAPOT:   FIELD
 LOC .      S11 T38N R78W:   LOCATION
 CNTY.            NATRONA:   COUNTY
 STAT.            WYOMING:   STATE
 CTRY. UNITED STATES OF AMERICA:   COUNTRY
 SRVC.           Gearhart:   SERVICE COMPANY
 DATE.        19-AUG-1988:   LOGDATE
 API .       490251125300:   API NUMBER
~CURVE INFORMATION
#MNEM.UNIT       API CODE    CURVE DESCRIPTION
#----------   ------------   ------------------------------
 DEPT.F                  :   
 ILD .OHMM   07 120 46 00:   INDUCTION LOG DEEP
 ILM .OHMM   07 120 44 00:   INDUCTION LOG MEDIUM
 GRR .GAPI   07 310 01 00:   GAMMA RAY FROM RES. LOG.
~PARAMETER INFORMATION
#MNEM.UNIT          VALUE    DESCRIPTION
#----------   ------------   ------------------------------
 PD  .                 GL:   PERMANENT DATUM
 EPD .F              5093:   ELEVATION PERMANENT DATUM
 LMF .                 KB:   LOG MEASURED FROM
 DAPD.F                10:   FEET ABOVE PERMANENT DATUM
 DMF .                 KB:   DRILLING MEASURED FROM
 EKB .F              5103:   KELLING BUSHING
 EGL .F              5093:   GROUND LEVEL
 DATE.            8-19-88:   RUN DATE
 RUN .                  1:   RUN NUMBER
 DD  .F               800:   DEPTH DRILLER
 DL  .F             802.5:   DEPTH LOGGER
 BLI .F               794:   BOTTOM LOG INTERVAL
 CS  .IN            9.625:   CASING SIZE
 CBD .F                48:   CASING BOTTOM DRILLER
 CBL .F                48:   CASING BOTTOM LOGGER
 BS  .IN             8.75:   BIT SIZE
 BSD .F               800:   BIT SIZE AT DEPTH
 DFT .                AIR:   DRILLING FLUID TYPE
 TCS .HRS            1900:   TIME CURCULATED STOPPED
 TLAB.HRS            2000:   TIME LOGGER AT BOTTOM
 MRT .F                70:   MAXIMUM RECORDED TEMPERATURE
 LUN .               7597:   LOGGING UNIT NUMBER
 LUL .           GILLETTE:   LOGGING UNIT LOCATION
 ENGI.          HUCKFELDT:   RECORDING ENGINEER
 WITN.             STRONG:   WITNESSED BY
 CLNT.            A2DTECH:   CLIENT CODE
 ORIG.        2" 5" PRINT:   ORIGIN OF DATA
 UWI .       490251125300:   UNIQUE WELL ID
 DICO. A2D Technologies, Inc.:   DIGITIZING COMPANY
~OTHER INFORMATION
~A    DEPT     ILD        ILM         GRR  
# ...
  364.0000     8.6687     8.1355   126.4835
  364.5000     8.7918     8.2424   124.4270
  365.0000     8.8330     8.3506   122.3744
  365.5000     8.7806     8.4290   119.0926
  366.0000     8.7037     8.3935   114.8042
  366.5000     8.6283     8.3423   111.1204
  367.0000     8.5536     8.2913   111.1674
  367.5000     8.4795     8.2406   112.8101
  368.0000     8.4290     8.1903   114.8674
  368.5000     8.5239     8.1403   116.9307
  369.0000     8.6113     8.0905   118.9939
  369.5000     8.6680     8.0411   121.0847
  370.0000     8.5705     7.9920   121.4315
  370.5000     8.5081     7.9696   121.1484
  371.0000     8.5493     8.0342   119.6845
  371.5000     8.6250     8.0910   118.2570
  372.0000     8.7013     8.1482   118.4130
  372.5000     8.7783     8.2166   119.8329
  373.0000     8.8560     8.3405   119.8286
  373.5000     8.9344     8.4663   116.2780
  374.0000     8.9986     8.5937   114.4375
  374.5000     8.9881     8.7232   115.0497
  375.0000     8.9776     8.7499   117.5442
  375.5000     8.9670     8.6682   120.0805
  376.0000     8.9565     8.6102   120.0218
  376.5000     8.9460     8.5526   120.0358
  377.0000     8.9355     8.5078   120.7914
  377.5000     8.9250     8.5130   121.1422
  378.0000     8.9149     8.5354   118.7958
  378.5000     8.9067     8.5577   117.7737
  379.0000     8.8988     8.5877   117.7531
  379.5000     8.8910     8.5812   117.7524
  380.0000     8.8831     8.5705   117.7613
  380.5000     8.8752     8.5599   117.7124
  381.0000     8.8673     8.5493   119.2575
  381.5000     8.8595     8.5387   120.8569
  382.0000     8.8516     8.5282   122.5123
  382.5000     8.8438     8.5175   124.1653
  383.0000     8.8360     8.5072   125.5526
  383.5000     8.8157     8.4774   125.4385
  384.0000     8.7831     8.4499   123.5152
  384.5000     8.7506     8.4222   121.0552
  385.0000     8.7181     8.3947   118.5600
  385.5000     8.6859     8.3672   117.7799
  386.0000     8.6537     8.3398   118.6571
  386.5000     8.6216     8.3125   120.5854
  387.0000     8.5880     8.2855   122.5260
  387.5000     8.5617     8.2625   125.1066
  388.0000     8.5340     8.2437   127.5438
  388.5000     8.5064     8.2248   129.0367
  389.0000     8.4789     8.2060   129.7587
  389.5000     8.4516     8.1872   130.4053
  390.0000     8.4290     8.1685   130.2058
  390.5000     8.4135     8.1498   129.9870
  391.0000     8.3977     8.1310   128.7607
  391.5000     8.3819     8.1144   127.4064
  392.0000     8.3662     8.0848   127.4310
  392.5000     8.3514     8.0557   127.8107
  393.0000     8.4128     8.0265   127.9157
  393.5000     8.4748     7.9972   126.4462
  394.0000     8.5372     7.9696   124.8833
  394.5000     8.6001     8.0368   124.2910
  395.0000     8.6635     8.1027   124.0725
  395.5000     8.7275     8.1692   123.5554
  396.0000     8.7818     8.2362   123.0424
  396.5000     8.8316     8.3014   122.5247
  397.0000     8.8815     8.3640   122.0097
  397.5000     8.9318     8.4271   122.1255
  398.0000     8.9826     8.4907   123.4547
  398.5000     9.0272     8.5548   124.7382
  399.0000     9.0701     8.6144   125.8817
  399.5000     9.1130     8.7073   126.3271
  400.0000     9.1560     8.8012   126.3296
  400.5000     9.1993     8.8962   125.2895
  401.0000     9.2543     8.9986   119.9538
  401.5000     9.1597     8.9986   114.5646
  402.0000     9.0328     8.8286   109.5418
  402.5000     8.9076     8.6519   110.3851
  403.0000     8.7777     8.4790   118.0458
  403.5000     8.6400     8.3097   121.4577
  404.0000     8.5042     8.1438   123.4853
  404.5000     8.3715     7.9811   124.8865
  405.0000     8.2460     7.8219   126.1526
  405.5000     8.1251     7.6773   127.4090
  406.0000     8.0055     7.6123   128.3920
  406.5000     7.9696     7.5524   128.2589
  407.0000     7.9696     7.4928   128.0838
  407.5000     7.9696     7.4651   127.7522
  408.0000     7.9930     7.4445   126.8531
  408.5000     8.0601     7.3957   125.9637
  409.0000     8.1279     7.5571   125.9135
  409.5000     8.1964     7.6978   125.9459
  410.0000     8.2653     7.8412   124.5541
  410.5000     8.3348     7.9375   122.6425
  411.0000     8.4049     8.0364   122.7374
  411.5000     8.4730     8.1365   123.5805
  412.0000     8.5690     8.2379   123.8732
  412.5000     8.6666     8.3506   121.3238
  413.0000     8.7661     8.2730   120.3553
  413.5000     8.8320     8.2859   121.8137
  414.0000     8.8084     8.3038   123.2671
  414.5000     8.7831     8.3217   122.3987
  415.0000     8.7578     8.3397   120.7574
  415.5000     8.7327     8.3507   119.0912
  416.0000     8.7076     8.3096   119.1154
  416.5000     8.6826     8.2754   121.4529
  417.0000     8.6577     8.2413   123.7685
  417.5000     8.6328     8.2074   123.6256
  418.0000     8.6080     8.1736   123.2374
  418.5000     8.5833     8.1399   122.6163
  419.0000     8.5586     8.1064   123.1966
  419.5000     8.5341     8.0730   123.9279
  420.0000     8.5081     8.0444   124.6415
  420.5000     8.5081     8.0442   124.5571
  421.0000     8.6332     8.0785   123.1038
  421.5000     8.7432     8.1237   122.2318
  422.0000     8.8629     8.1693   122.5242
  422.5000     9.0185     8.2667   121.5605
  423.0000     9.1768     8.4401   119.8756
  423.5000     9.3378     8.6172   118.1536
  424.0000     9.5017     8.7903   116.6983
  424.5000     9.6685     8.9454   118.5226
  425.0000     9.8428     9.1032   120.1104
  425.5000    10.0314     9.2637   118.5242
  426.0000    10.2236     9.4686   116.9433
  426.5000    10.4196     9.7186   115.3872
  427.0000    10.6192     9.9030   114.8659
  427.5000    10.8345    10.0635   114.2180
  428.0000    11.0744    10.2233   112.4191
  428.5000    11.3197    10.3828   110.6255
  429.0000    11.5703    10.5317   109.1458
  429.5000    11.8265    10.7571   109.1791
  430.0000    12.0647    11.2313   109.1832
  430.5000    12.2377    11.6887   109.1867
  431.0000    12.4131    11.9397   109.1987
  431.5000    12.5911    12.1781   109.1017
  432.0000    12.7138    12.2475   107.1472
  432.5000    12.6854    12.2275   105.1873
  433.0000    12.4811    12.0833   103.2180
  433.5000    12.2803    11.9408   102.6560
  434.0000    12.0824    11.7458   103.7088
  434.5000    11.8878    11.5387   105.7674
  435.0000    11.6964    11.3350   107.5783
  435.5000    11.5081    11.1351   108.3661
  436.0000    11.3228    10.9488   109.6245
  436.5000    11.2234    10.8664   110.8565
  437.0000    11.1686    10.7885   112.0244
  437.5000    11.1140    10.7112   111.1978
  438.0000    11.0597    10.6345   110.1153
  438.5000    11.0073    10.5583   109.0316
  439.0000    10.8420    10.4827   107.9538
  439.5000    10.8722    10.4492   107.1005
  440.0000    10.9428    10.4811   107.9584
  440.5000    11.0138    10.5143   108.9311
  441.0000    11.0853    10.5477   109.9201
  441.5000    11.1555    10.5811   108.9569
  442.0000    11.1561    10.6146   107.7731
  442.5000    11.0876    10.6462   106.8259
  443.0000    10.9821    10.5533   107.8835
  443.5000    10.8787    10.4475   108.9671
  444.0000    10.7751    10.3299   108.7060
  444.5000    10.5779    10.1311   108.0769
  445.0000    10.3462     9.9349   107.5376
  445.5000    10.1196     9.7424   107.5492
  446.0000    10.0303     9.6513   107.5509
  446.5000     9.9821     9.5918   107.5486
  447.0000     9.9351     9.5325   107.5390
  447.5000     9.8882     9.4737   107.6217
  448.0000     9.8415     9.4210   109.2866
  448.5000     9.7950     9.3877   110.6652
  449.0000     9.7487     9.3544   107.7670
  449.5000     9.7026     9.3213   104.8315
  450.0000     9.6567     9.2883   102.3377
  450.5000     9.6111     9.2554   103.8090
  451.0000     9.5657     9.2226   105.1367
  451.5000     9.5173     9.1899   105.1072
  452.0000     9.4560     9.1410   105.1037
  452.5000     9.3907     9.0605   105.2225
  453.0000     9.3258     8.9807   105.5847
  453.5000     9.2613     8.9017   105.9425
  454.0000     9.1973     8.8233   106.2977
  454.5000     9.1337     8.7456   106.6300
