~VERSION INFORMATION
 VERS.                2.0:   CWLS LOG ASCII STANDARD - VERSION 2.0
 WRAP.                 NO:   ONE LINE PER DEPTH STEP
~WELL INFORMATION
#MNEM.UNIT      DATA TYPE    INFORMATION
#----------   ------------   ------------------------------
 STRT.F           16.0000:   START DEPTH
 STOP.F          634.0000:   STOP DEPTH
 STEP.F            0.5000:   STEP LENGTH
 NULL.          -999.2500:   NO VALUE
 COMP. LAWRENCE/ALLISON INC:   COMPANY
 WELL.    14-15 SX #11-11:   WELL
 FLD .             TEAPOT:   FIELD
 LOC .      S11 T38N R78W:   LOCATION
 CNTY.            NATRONA:   COUNTY
 STAT.            WYOMING:   STATE
 CTRY. UNITED STATES OF AMERICA:   COUNTRY
 SRVC.      Dresser Atlas:   SERVICE COMPANY
 DATE.        06-JAN-1985:   LOGDATE
 API .       490251101700:   API NUMBER
~CURVE INFORMATION
#MNEM.UNIT       API CODE    CURVE DESCRIPTION
#----------   ------------   ------------------------------
 DEPT.F                  :   
 SPR .MV     11 010 01 00:   SPONTANEOUS POTENTIAL FROM RES.
 RD  .OHMM   11 220 10 00:   RESISTIVITY DEEP
 RS  .OHMM   11 220 09 00:   RESISTIVITY SHALLOW
 RMLL.OHMM   20 270 04 00:   RESISTIVITY MICROLATEROLOG
 AC  .US/F   60 520 00 00:   ACCOUSTIC SONIC
 CNC .DEC    42 890 03 00:   COMPENSATED NEUTRON POROSITY SANDSTONE
 PORD.DEC    45 890 12 00:   POROSITY DENSITY SANDSTONE
 GRD .GAPI   45 310 01 00:   GAMMA RAY FROM DENSITY LOG
 CALD.IN     45 280 60 00:   CALIPER FROM DENSITY
 CORR.G/C3   45 356 01 00:   DENSITY CORRECTION
 DEN .G/C3   45 350 01 00:   COMPENSATED BULK DENSTIY
~PARAMETER INFORMATION
#MNEM.UNIT          VALUE    DESCRIPTION
#----------   ------------   ------------------------------
 PD  .                 GL:   PERMANENT DATUM
 EPD .F            5196.8:   ELEVATION PERMANENT DATUM
 LMF .                 KB:   LOG MEASURED FROM
 DMF .                 KB:   DRILLING MEASURED FROM
 EKB .F            5196.8:   KELLING BUSHING
 EGL .F            5196.8:   GROUND LEVEL
 DATE.        06-JAN-1985:   RUN DATE
 RUN .                  1:   RUN NUMBER
 DD  .F               650:   DEPTH DRILLER
 DL  .F               636:   DEPTH LOGGER
 BLI .F               634:   BOTTOM LOG INTERVAL
 CS  .IN            8.625:   CASING SIZE
 CBD .F                20:   CASING BOTTOM DRILLER
 CBL .F                22:   CASING BOTTOM LOGGER
 BS  .IN             6.25:   BIT SIZE
 BSD .F               650:   BIT SIZE AT DEPTH
 DFT .        KCL POLYMER:   DRILLING FLUID TYPE
 RMS .OHMM           .105:   RESISTIVITY MUD SAMPLE
 MST .F                72:   MUD SAMPLE TEMPERATURE
 RMF .OHMM            .08:   RESISTIVITY MUD FILTRATE SAMPLE
 MFST.F                72:   MUD FILTRATE SAMPLE TEMPERATURE
 RMC .OHMM            .13:   RESISTIVITY MUD CAKE
 MCST.F                72:   MUD CAKE SAMPLE TEMPERATURE
 MFSS.               CALC:   MUD FILTRATE SAMPLE SOURCE
 MCSS.               CALC:   MUD CAKE SAMPLE SOURCE
 TCS .HRS               3:   TIME CURCULATED STOPPED
 LUN .               6307:   LOGGING UNIT NUMBER
 LUL .               GLTE:   LOGGING UNIT LOCATION
 ENGI.               MACK:   RECORDING ENGINEER
 WITN.               PAGE:   WITNESSED BY
 CLNT.            A2DTECH:   CLIENT CODE
 ORIG.           5" PRINT:   ORIGIN OF DATA
 UWI .       490251101700:   UNIQUE WELL ID
 DICO. A2D Technologies, Inc.:   DIGITIZING COMPANY
 R1  . POROSITY WITH SANDSTONE:   REMARKS 1
~OTHER INFORMATION
~A   DEPT      SPR         RD         RS       RMLL         AC        CNC       PORD        GRD       CALD       CORR        DEN   
# ...
  138.0000   -66.4710    21.0645    10.0458  -999.2500   105.5102     0.2886     0.1162   108.9771     6.7629     0.0876     2.4794
  138.5000   -66.3274    20.9161     9.9743  -999.2500   105.5876     0.2926     0.1189   110.1135     6.7621     0.0937     2.4802
  139.0000   -66.1823    20.7686     9.9723  -999.2500   105.3643     0.2926     0.1177   110.6548     6.7614     0.0983     2.4841
  139.5000   -66.1883    20.6222     9.9702  -999.2500   104.6146     0.2905     0.1144   109.7530     6.7606     0.0969     2.4894
  140.0000   -66.0417    20.4769    10.0375  -999.2500   103.9402     0.2911     0.1117   104.7666     6.7447     0.0909     2.4940
  140.5000   -66.0492    20.3326    10.1053  -999.2500   103.7163     0.2959     0.1105   105.3777     6.7439     0.0865     2.4963
  141.0000   -66.0551    20.3298    10.1740  -999.2500   103.8695     0.2968     0.1082   106.4427     6.7432     0.0911     2.4987
  141.5000   -66.0611    20.3270    10.3135  -999.2500   104.8492     0.2971     0.0982   105.2370     6.7424     0.1154     2.5101
  142.0000   -66.0671    20.1837    10.4555  -999.2500   106.2048     0.2971     0.0934   106.6060     6.7415     0.1169     2.5268
  142.5000   -66.0731    20.1809    10.4532  -999.2500   107.0341     0.2987     0.0941   110.2429     6.7407     0.0909     2.5215
  143.0000   -66.0790    19.9002    10.4511  -999.2500   106.8108     0.3035     0.1022   114.1823     6.7400     0.0446     2.5080
  143.5000   -66.2361    19.6233    10.1630  -999.2500   106.7373     0.3116     0.1131   119.1807     6.7392     0.0450     2.4944
  144.0000   -66.2420    18.9519    10.0210  -999.2500   107.0408     0.3107     0.1176   119.9417     6.7385     0.0568     2.4831
  144.5000   -66.3991    18.5591     9.8809  -999.2500   107.6445     0.3007     0.1156   116.7722     6.7377     0.0645     2.4869
  145.0000   -66.7071    18.1744     9.8788  -999.2500   108.2483     0.2960     0.1099   114.9627     6.7522     0.0736     2.4976
  145.5000   -66.7131    18.0463     9.8768  -999.2500   108.4761     0.2921     0.1096   116.6329     6.7514     0.0797     2.4999
  146.0000   -66.8702    18.0438     9.8747  -999.2500   108.4783     0.2963     0.1132   120.1184     6.7355     0.0828     2.4984
  146.5000   -67.0272    18.0413     9.8044  -999.2500   108.1046     0.3017     0.1135   119.8219     6.7347     0.0874     2.4924
  147.0000   -67.0413    18.0388     9.8024  -999.2500   107.7309     0.3058     0.1142   118.1637     6.7340     0.0980     2.4917
  147.5000   -67.1903    17.6650     9.7326  -999.2500   107.5827     0.3165     0.1142   118.9261     6.7332     0.0996     2.4918
  148.0000   -67.1964    17.5404     9.5961  -999.2500   107.8858     0.3239     0.1145   120.4450     6.7325     0.0891     2.4902
  148.5000   -67.2036    17.2964     9.5942  -999.2500   108.4143     0.3274     0.1155   119.5433     6.7317     0.0575     2.4889
  149.0000   -67.2096    17.1745     9.5922  -999.2500   109.1684     0.3274     0.1173   116.2209     6.7462     0.0410     2.4844
  149.5000   -67.2156    17.1722     9.5902  -999.2500   109.9226     0.3262     0.1203   117.5886     6.7454     0.0395     2.4769
  150.0000   -67.3801    17.2893     9.5833  -999.2500   110.6804     0.3323     0.1288   122.2844     6.7447     0.0419     2.4686
  150.5000   -67.4889    17.8932     9.5177  -999.2500   111.3035     0.3372     0.1279   124.7213     6.7690     0.0473     2.4656
  151.0000   -67.6768    17.6340     9.3198  -999.2500   111.8092     0.3401     0.1252   124.8877     6.7745     0.0503     2.4687
  151.5000   -67.9805    17.1425     9.0616  -999.2500   112.0369     0.3360     0.1201   124.1463     6.7742     0.0519     2.4831
  152.0000   -68.2841    16.6524     8.8058  -999.2500   111.9640     0.3299     0.1174   120.2280     6.7738     0.0580     2.4869
  152.5000   -68.4367    16.0733     8.5015  -999.2500   111.1391     0.3311     0.1210   117.9738     6.7735     0.0626     2.4809
  153.0000   -68.5892    15.3175     8.2581  -999.2500   109.4120     0.3309     0.1264   116.3247     6.7732     0.0944     2.4756
  153.5000   -68.5907    14.6854     8.0348  -999.2500   108.0546     0.3297     0.1277   113.9192     6.7729     0.1171     2.4689
  154.0000   -68.5922    14.2961     7.8743  -999.2500   106.6847     0.3182     0.1346   110.9048     6.7726     0.1112     2.4530
  154.5000   -68.5937    14.0943     7.8716  -999.2500   105.3323     0.3140     0.1352   113.1929     6.7723     0.0856     2.4545
  155.0000   -68.5952    14.2863     7.9237  -999.2500   104.5088     0.3144     0.1316   118.2004     6.7720     0.0796     2.4591
  155.5000   -68.5967    14.6831     8.1431  -999.2500   104.1606     0.3141     0.1262   119.7559     6.7717     0.0782     2.4751
  156.0000   -68.5983    15.3017     8.5452  -999.2500   104.1628     0.3126     0.1214   114.5997     6.7714     0.0828     2.4796
  156.5000   -68.5998    15.7281     8.8437  -999.2500   104.1650     0.3084     0.1244   109.6224     6.7711     0.1014     2.4683
  157.0000   -68.4501    16.1635     9.0273  -999.2500   104.3928     0.3015     0.1277   104.1906     6.7708     0.1225     2.4631
  157.5000   -68.3006    16.2718     9.0870  -999.2500   105.2221     0.3003     0.1293   105.8704     6.7705     0.1253     2.4654
  158.0000   -68.1511    16.3794     9.0831  -999.2500   105.7507     0.2988     0.1261   109.2138     6.7702     0.1187     2.4798
  158.5000   -68.0015    16.2592     9.0800  -999.2500   104.4747     0.2946     0.1196   113.9187     6.7699     0.1020     2.4829
  159.0000   -68.0031    16.1413     9.0141  -999.2500   102.2213     0.2943     0.1191   114.9928     6.7848     0.0818     2.4852
  159.5000   -67.8535    16.0242     9.0110  -999.2500    99.0656     0.2961     0.1185   114.4027     6.7845     0.0713     2.4913
  160.0000   -67.8550    15.6888     8.8838  -999.2500    94.7821     0.2946     0.1073   109.8792     6.7842     0.0728     2.5125
  160.5000   -67.7054    15.2543     8.8193  -999.2500    94.1823     0.2687     0.0947   107.9276     6.7687     0.0835     2.5360
  161.0000   -67.5559    15.1437     8.7554  -999.2500    98.3204     0.2606     0.0869   101.4374     6.7179     0.0760     2.5474
  161.5000   -67.5574    15.5643     9.0612  -999.2500   102.3076     0.2645     0.0808    93.7369     6.6617     0.0700     2.5542
  162.0000   -67.5589    17.6278    10.0511  -999.2500   105.6181     0.2703     0.0784    94.6597     6.6310     0.0777     2.5482
  162.5000   -67.5604    19.0187    10.9197  -999.2500   105.8459     0.2715     0.0959   102.3903     6.6003     0.1004     2.5203
  163.0000   -67.5619    19.8200    11.2240  -999.2500   105.7729     0.2752     0.1086   109.2214     6.5848     0.1095     2.4779
  163.5000   -67.5634    18.2309    10.3950  -999.2500   105.6236     0.2890     0.1177   110.5941     6.5845     0.1141     2.4779
  164.0000   -67.5650    15.9746     9.2357  -999.2500   105.4015     0.3056     0.1231   111.2163     6.5842     0.1187     2.4818
  164.5000   -67.7175    14.5923     8.6739  -999.2500   105.2446     0.3029     0.1183   111.9818     6.5687     0.1218     2.4924
  165.0000   -67.7190    14.4877     8.6117  -999.2500   105.1052     0.3008     0.1102   111.0187     6.5684     0.1506     2.5077
  165.5000   -67.7085    14.9925     8.7890  -999.2500   105.2583     0.2994     0.1017   108.8348     6.5529     0.1552     2.5190
  166.0000   -67.5710    15.4089     9.0331  -999.2500   105.4861     0.2979     0.0990   112.4428     6.5526     0.1477     2.5174
  166.5000   -67.5725    15.7276     9.2206  -999.2500   105.5635     0.2975     0.0996   118.9793     6.5523     0.1463     2.5160
  167.0000   -67.5740    15.8316     9.4104  -999.2500   105.6410     0.2994     0.1003   121.1346     6.5515     0.1524     2.5177
  167.5000   -67.5755    15.7166     9.4072  -999.2500   105.5674     0.3024     0.1000   119.5057     6.5365     0.1630     2.5214
  168.0000   -67.5770    15.6026     9.4039  -999.2500   105.3441     0.3019     0.0988   112.4750     6.5362     0.1888     2.5222
