~VERSION INFORMATION
 VERS.                2.0:   CWLS LOG ASCII STANDARD - VERSION 2.0
 WRAP.                 NO:   ONE LINE PER DEPTH STEP
~WELL INFORMATION
#MNEM.UNIT      DATA TYPE    INFORMATION
#----------   ------------   ------------------------------
 STRT.F          376.0000:   START DEPTH
 STOP.F         2400.0000:   STOP DEPTH
 STEP.F            0.5000:   STEP LENGTH
 NULL.          -999.2500:   NO VALUE
 COMP. LAWRENCE/ALLISON INC:   COMPANY
 WELL.        55 X #15-15:   WELL
 FLD .            WILDCAT:   FIELD
 LOC .      S15 T38N R78W:   LOCATION
 CNTY.            NATRONA:   COUNTY
 STAT.            WYOMING:   STATE
 CTRY. UNITED STATES OF AMERICA:   COUNTRY
 SRVC.            Unknown:   SERVICE COMPANY
 DATE.        12-APR-1988:   LOGDATE
 API .       490251119800:   API NUMBER
~CURVE INFORMATION
#MNEM.UNIT       API CODE    CURVE DESCRIPTION
#----------   ------------   ------------------------------
 DEPT.F                  :   
 GR  .GAPI   30 310 01 00:   GAMMA RAY
 TGAS.UNITS  91 830 01 00:   TOTAL GAS UNIT
 ROP .FT/HR  91 810 01 00:   RATE OF DRILLING PENETRATION
~PARAMETER INFORMATION
#MNEM.UNIT          VALUE    DESCRIPTION
#----------   ------------   ------------------------------
 PD  .                 GL:   PERMANENT DATUM
 EPD .F              5293:   ELEVATION PERMANENT DATUM
 LMF .                 GL:   LOG MEASURED FROM
 DMF .                 KB:   DRILLING MEASURED FROM
 EKB .F              5304:   KELLING BUSHING
 EGL .F              5293:   GROUND LEVEL
 DATE.        12-APR-1988:   RUN DATE
 RUN .                  1:   RUN NUMBER
 DD  .F              2400:   DEPTH DRILLER
 DL  .F               851:   DEPTH LOGGER
 BLI .F               846:   BOTTOM LOG INTERVAL
 TLI .F               372:   TOP LOG INTERVAL
 CS  .IN                7:   CASING SIZE
 CBL .F               890:   CASING BOTTOM LOGGER
 BSD .F              2400:   BIT SIZE AT DEPTH
 DFT .              WATER:   DRILLING FLUID TYPE
 TCS .HRS               1:   TIME CURCULATED STOPPED
 ENGI.          BANGERTER:   RECORDING ENGINEER
 WITN.             NORHAN:   WITNESSED BY
 CLNT.            A2DTECH:   CLIENT CODE
 ORIG.           5" PRINT:   ORIGIN OF DATA
 UWI .       490251119800:   UNIQUE WELL ID
 DICO. A2D Technologies, Inc.:   DIGITIZING COMPANY
~OTHER INFORMATION
~A   DEPT        GR      TGAS        ROP   
# ...
 2287.0000  -999.2500     4.6953     0.4176
 2287.5000  -999.2500     3.9783     0.4178
 2288.0000  -999.2500     4.0061     0.4181
 2288.5000  -999.2500     4.0285     0.4183
 2289.0000  -999.2500     4.0508     0.4091
 2289.5000  -999.2500     4.0731     0.4094
 2290.0000  -999.2500     4.0954     0.4002
 2290.5000  -999.2500     4.1177     0.3911
 2291.0000  -999.2500     4.1401     0.3912
 2291.5000  -999.2500     3.7778     0.3915
 2292.0000  -999.2500     3.4212     0.3917
 2292.5000  -999.2500     3.0695     0.3920
 2293.0000  -999.2500     3.0925     0.3827
 2293.5000  -999.2500     3.1150     0.3830
 2294.0000  -999.2500     2.7582     0.3833
 2294.5000  -999.2500     2.7815     0.3835
 2295.0000  -999.2500     2.4253     0.3837
 2295.5000  -999.2500     2.4518     0.3934
 2296.0000  -999.2500     2.0896     0.3936
 2296.5000  -999.2500     2.1175     0.3938
 2297.0000  -999.2500     2.1398     0.4035
 2297.5000  -999.2500     2.1621     0.4131
 2298.0000  -999.2500     2.1844     0.4228
 2298.5000  -999.2500     2.2067     0.4324
 2299.0000  -999.2500     2.2290     0.4233
 2299.5000  -999.2500     2.6303     0.4235
 2300.0000  -999.2500     2.6526     0.4238
 2300.5000  -999.2500     3.0543     0.4147
 2301.0000  -999.2500     3.4560     0.4057
 2301.5000  -999.2500     3.4831     0.3966
 2302.0000  -999.2500     3.8787     0.3876
 2302.5000  -999.2500     3.1071     0.3879
 2303.0000  -999.2500     3.1225     0.3883
 2303.5000  -999.2500     3.1405     0.3887
 2304.0000  -999.2500     3.1553     0.3892
 2304.5000  -999.2500     3.1702     0.3989
 2305.0000  -999.2500     3.1850     0.3992
 2305.5000  -999.2500     3.1999     0.4091
 2306.0000  -999.2500     2.8321     0.4095
 2306.5000  -999.2500     3.2296     0.4192
 2307.0000  -999.2500     3.2444     0.4101
 2307.5000  -999.2500     3.2593     0.4012
 2308.0000  -999.2500     3.2741     0.3920
 2308.5000  -999.2500     3.2893     0.3830
 2309.0000  -999.2500     3.3044     0.3646
 2309.5000  -999.2500     3.3224     0.3556
 2310.0000  -999.2500     3.3372     0.3465
 2310.5000  -999.2500     3.3521     0.3469
 2311.0000  -999.2500     3.3669     0.3473
 2311.5000  -999.2500     2.9991     0.3476
 2312.0000  -999.2500     3.0177     0.3481
 2312.5000  -999.2500     3.0325     0.3390
 2313.0000  -999.2500     3.4263     0.3394
 2313.5000  -999.2500     3.4411     0.3398
 2314.0000  -999.2500     3.0771     0.3401
 2314.5000  -999.2500     3.0922     0.3405
 2315.0000  -999.2500     3.0440     0.3409
 2315.5000  -999.2500     2.7426     0.3413
 2316.0000  -999.2500     2.7612     0.3416
 2316.5000  -999.2500     2.7761     0.3420
 2317.0000  -999.2500     2.7909     0.3424
 2317.5000  -999.2500     2.8058     0.3365
 2318.0000  -999.2500     2.8206     0.3337
 2318.5000  -999.2500     3.2144     0.3328
 2319.0000  -999.2500     3.2293     0.3250
 2319.5000  -999.2500     3.2438     0.3255
 2320.0000  -999.2500     3.2589     0.3258
 2320.5000  -999.2500     3.2741     0.3262
 2321.0000  -999.2500     3.2893     0.3266
 2321.5000  -999.2500     3.3044     0.3363
 2322.0000  -999.2500     3.3196     0.3368
 2322.5000  -999.2500     3.3369     0.3372
 2323.0000  -999.2500     2.9691     0.3469
 2323.5000  -999.2500     2.9876     0.3539
 2324.0000  -999.2500     2.6198     0.3665
 2324.5000  -999.2500     2.2595     0.3763
 2325.0000  -999.2500     1.8954     0.3892
 2325.5000  -999.2500     1.5309     0.3959
 2326.0000  -999.2500     1.5461     0.3962
 2326.5000  -999.2500     1.5613     0.3967
 2327.0000  -999.2500     1.5764     0.3971
 2327.5000  -999.2500     1.2154     0.3974
 2328.0000  -999.2500     1.2303     0.3883
 2328.5000  -999.2500     1.2429     0.3792
 2329.0000  -999.2500     1.2600     0.3702
 2329.5000  -999.2500     1.2748     0.3612
 2330.0000  -999.2500     1.6674     0.3616
 2330.5000  -999.2500     1.6825     0.3620
 2331.0000  -999.2500     1.6983     0.3624
 2331.5000  -999.2500     1.7132     0.3627
 2332.0000  -999.2500     1.7280     0.3631
 2332.5000  -999.2500     1.7432     0.3635
 2333.0000  -999.2500     1.3787     0.3638
 2333.5000  -999.2500     1.3973     0.3642
 2334.0000  -999.2500     1.0295     0.3646
 2334.5000  -999.2500     0.6654     0.3555
 2335.0000  -999.2500     0.6821     0.3560
 2335.5000  -999.2500     0.6988     0.3564
 2336.0000  -999.2500     0.8703     0.3567
 2336.5000  -999.2500     1.1065     0.3571
 2337.0000  -999.2500     1.1217     0.3669
 2337.5000  -999.2500     1.1372     0.3673
 2338.0000  -999.2500     1.3415     0.3770
 2338.5000  -999.2500     1.5461     0.3774
 2339.0000  -999.2500     1.5613     0.3872
 2339.5000  -999.2500     1.5764     0.3876
 2340.0000  -999.2500     1.5941     0.3785
 2340.5000  -999.2500     1.6067     0.3789
 2341.0000  -999.2500     1.6219     0.3793
 2341.5000  -999.2500     1.6386     0.3797
 2342.0000  -999.2500     1.6535     0.3801
 2342.5000  -999.2500     1.6674     0.3804
 2343.0000  -999.2500     1.6825     0.3808
 2343.5000  -999.2500     1.6980     0.3812
 2344.0000  -999.2500     2.0918     0.3815
 2344.5000  -999.2500     2.1069     0.3819
 2345.0000  -999.2500     2.1221     0.3823
 2345.5000  -999.2500     2.1373     0.3827
 2346.0000  -999.2500     2.1549     0.3831
 2346.5000  -999.2500     2.1697     0.3834
 2347.0000  -999.2500     2.1846     0.3838
 2347.5000  -999.2500     2.1994     0.3842
 2348.0000  -999.2500     2.2143     0.3751
 2348.5000  -999.2500     2.2291     0.3755
 2349.0000  -999.2500     2.2440     0.3655
 2349.5000  -999.2500     2.2588     0.3480
 2350.0000  -999.2500     2.2737     0.3485
 2350.5000  -999.2500     2.2888     0.3488
 2351.0000  -999.2500     1.9244     0.3492
 2351.5000  -999.2500     1.9430     0.3495
 2352.0000  -999.2500     1.5752     0.3499
 2352.5000  -999.2500     1.5916     0.3503
 2353.0000  -999.2500     1.6086     0.3507
 2353.5000  -999.2500     2.0024     0.3510
 2354.0000  -999.2500     2.0160     0.3514
 2354.5000  -999.2500     2.0321     0.3518
 2355.0000  -999.2500     2.0469     0.3522
 2355.5000  -999.2500     2.0615     0.3525
 2356.0000  -999.2500     2.0766     0.3529
 2356.5000  -999.2500     2.0918     0.3534
 2357.0000  -999.2500     2.1069     0.3608
 2357.5000  -999.2500     2.1249     0.3635
 2358.0000  -999.2500     2.1397     0.3638
 2358.5000  -999.2500     2.1546     0.3643
 2359.0000  -999.2500     2.1694     0.3552
 2359.5000  -999.2500     2.5632     0.3556
 2360.0000  -999.2500     2.1954     0.3560
 2360.5000  -999.2500     2.2140     0.3563
 2361.0000  -999.2500     2.2282     0.3567
 2361.5000  -999.2500     2.2434     0.3571
 2362.0000  -999.2500     2.6375     0.3574
 2362.5000  -999.2500     2.6526     0.3578
 2363.0000  -999.2500     2.6678     0.3582
 2363.5000  -999.2500     3.0647     0.3586
 2364.0000  -999.2500     3.0795     0.3590
 2364.5000  -999.2500     3.0944     0.3688
 2365.0000  -999.2500     3.4882     0.3692
 2365.5000  -999.2500     3.5030     0.3695
 2366.0000  -999.2500     3.5179     0.3699
 2366.5000  -999.2500     3.1538     0.3703
 2367.0000  -999.2500     3.1686     0.3611
 2367.5000  -999.2500     2.8042     0.3616
 2368.0000  -999.2500     2.8194     0.3714
 2368.5000  -999.2500     3.2135     0.3812
 2369.0000  -999.2500     3.6076     0.3910
 2369.5000  -999.2500     3.6255     0.3913
 2370.0000  -999.2500     3.2614     0.3917
 2370.5000  -999.2500     2.5147     0.3921
 2371.0000  -999.2500     2.1506     0.3925
 2371.5000  -999.2500     1.7865     0.3740
 2372.0000  -999.2500     1.8050     0.3368
 2372.5000  -999.2500     1.8199     0.3089
 2373.0000  -999.2500     1.8347     0.2904
 2373.5000  -999.2500     1.8496     0.2813
 2374.0000  -999.2500     1.8644     0.2818
 2374.5000  -999.2500     1.8796     0.2821
 2375.0000  -999.2500     2.2737     0.2710
 2375.5000  -999.2500     1.9090     0.2640
 2376.0000  -999.2500     1.9275     0.2644
 2376.5000  -999.2500     1.9402     0.2648
 2377.0000  -999.2500     1.5783     0.2652
 2377.5000  -999.2500     1.5931     0.2750
