~VERSION INFORMATION
 VERS.                2.0:   CWLS LOG ASCII STANDARD - VERSION 2.0
 WRAP.                 NO:   ONE LINE PER DEPTH STEP
~WELL INFORMATION
#MNEM.UNIT      DATA TYPE    INFORMATION
#----------   ------------   ------------------------------
 STRT.F           15.0000:   START DEPTH
 STOP.F         5640.0000:   STOP DEPTH
 STEP.F            0.5000:   STEP LENGTH
 NULL.          -999.2500:   NO VALUE
 COMP.       F D SERV INC:   COMPANY
 WELL. NAVAL PETROLEUM RESERVE 3 SX-1 #43-10:   WELL
 FLD .         N.P.R. #.3:   FIELD
 LOC .      S10 T38N R78W:   LOCATION
 CNTY.            NATRONA:   COUNTY
 STAT.            WYOMING:   STATE
 CTRY. UNITED STATES OF AMERICA:   COUNTRY
 SRVC.      Dresser Atlas:   SERVICE COMPANY
 DATE.        05-JUL-1986:   LOGDATE
 API .       490251101800:   API NUMBER
~CURVE INFORMATION
#MNEM.UNIT       API CODE    CURVE DESCRIPTION
#----------   ------------   ------------------------------
 DEPT.F                  :   
 GRR .GAPI   07 310 01 00:   GAMMA RAY
 ILD .OHMM   07 120 46 00:   INDUCTION LOG DEEP
 ILM .OHMM   07 120 44 00:   INDUCTION LOG MEDIUM
 CALS.IN     60 280 50 00:   CALIPER FROM SONIC LOG
 GRS .GAPI   60 310 01 00:   GAMMA RAY FROM SONIC LOG
 AC  .US/F   60 520 00 00:   ACCOUSTIC
~PARAMETER INFORMATION
#MNEM.UNIT          VALUE    DESCRIPTION
#----------   ------------   ------------------------------
 PD  .                 GL:   PERMANENT DATUM
 EPD .F              5205:   ELEVATION PERMANENT DATUM
 LMF .                 KB:   LOG MEASURED FROM
 DAPD.F                 5:   FEET ABOVE PERMANENT DATUM
 DMF .                 KB:   DRILLING MEASURED FROM
 EKB .F              5210:   KELLING BUSHING
 EGL .F              5205:   GROUND LEVEL
 DATE.        05-JUL-1986:   RUN DATE
 RUN .                  1:   RUN NUMBER
 DD  .F               560:   DEPTH DRILLER
 DL  .F               560:   DEPTH LOGGER
 BLI .F               550:   BOTTOM LOG INTERVAL
 TLI .F                15:   TOP LOG INTERVAL
 CS  .IN            8.625:   CASING SIZE
 CBD .F                47:   CASING BOTTOM DRILLER
 CBL .F                47:   CASING BOTTOM LOGGER
 BS  .IN            7.875:   BIT SIZE
 BSD .F               560:   BIT SIZE AT DEPTH
 DFT .                AIR:   DRILLING FLUID TYPE
 BHT .F                83:   BOTTOM HOLE TEMPERATURE
 TCS .HRS            2100:   TIME CURCULATED STOPPED
 TLAB.HRS            2230:   TIME LOGGER AT BOTTOM
 MRT .F                83:   MAXIMUM RECORDED TEMPERATURE
 LUN .               7609:   LOGGING UNIT NUMBER
 LUL .           GILLETTE:   LOGGING UNIT LOCATION
 ENGI.              BAURT:   RECORDING ENGINEER
 CLNT.            A2DTECH:   CLIENT CODE
 ORIG. 1" 2" 2.5", 5" PRINT:   ORIGIN OF DATA
 UWI .       490251101800:   UNIQUE WELL ID
 DICO. A2D Technologies, Inc.:   DIGITIZING COMPANY
 R2  . HEADER NOT CLEARLY VISIBLE:   REMARKS 2
~OTHER INFORMATION
~A   DEPT       GRR       ILD        ILM       CALS        GRS         AC   
# ...
 5111.0000  -999.2500  -999.2500  -999.2500    11.6785    67.5003    63.8235
 5111.5000  -999.2500  -999.2500  -999.2500    11.6632    72.4944    63.6682
 5112.0000  -999.2500  -999.2500  -999.2500    11.6327    78.2548    63.0614
 5112.5000  -999.2500  -999.2500  -999.2500    11.6174    82.1971    62.4546
 5113.0000  -999.2500  -999.2500  -999.2500    11.6173    82.5030    61.9167
 5113.5000  -999.2500  -999.2500  -999.2500    11.6020    79.7793    61.6171
 5114.0000  -999.2500  -999.2500  -999.2500    11.6018    74.9337    61.6890
 5114.5000  -999.2500  -999.2500  -999.2500    11.5713    72.8153    62.0626
 5115.0000  -999.2500  -999.2500  -999.2500    11.5560    72.2121    62.4352
 5115.5000  -999.2500  -999.2500  -999.2500    11.5407    78.8824    62.5080
 5116.0000  -999.2500  -999.2500  -999.2500    11.5255    82.5216    62.2774
 5116.5000  -999.2500  -999.2500  -999.2500    11.5101    77.6760    61.3309
 5117.0000  -999.2500  -999.2500  -999.2500    11.4948    73.7394    59.4037
 5117.5000  -999.2500  -999.2500  -999.2500    11.4492    72.5302    57.0623
 5118.0000  -999.2500  -999.2500  -999.2500    11.4188    72.2307    54.5701
 5118.5000  -999.2500  -999.2500  -999.2500    11.3732    70.4154    52.0771
 5119.0000  -999.2500  -999.2500  -999.2500    11.3276    65.5698    50.4898
 5119.5000  -999.2500  -999.2500  -999.2500    11.2971    56.6371    49.7322
 5120.0000  -999.2500  -999.2500  -999.2500    11.2667    36.7884    49.5015
 5120.5000  -999.2500  -999.2500  -999.2500    11.2513    29.5185    50.0259
 5121.0000  -999.2500  -999.2500  -999.2500    11.2360    24.6729    50.6257
 5121.5000  -999.2500  -999.2500  -999.2500    11.2207    22.5545    51.0087
 5122.0000  -999.2500  -999.2500  -999.2500    11.2055    22.2544    51.8245
 5122.5000  -999.2500  -999.2500  -999.2500    11.1901    22.5610    52.7259
 5123.0000  -999.2500  -999.2500  -999.2500    11.1748    23.1699    53.9290
 5123.5000  -999.2500  -999.2500  -999.2500    11.1747    24.3849    55.5084
 5124.0000  -999.2500  -999.2500  -999.2500    11.1745    28.6309    57.0131
 5124.5000  -999.2500  -999.2500  -999.2500    11.1441    35.3004    58.5933
 5125.0000  -999.2500  -999.2500  -999.2500    11.1439    48.6366    59.1177
 5125.5000  -999.2500  -999.2500  -999.2500    11.1135    63.7910    58.8117
 5126.0000  -999.2500  -999.2500  -999.2500    11.0679    77.6717    58.0540
 5126.5000  -999.2500  -999.2500  -999.2500    11.0222    83.7974    57.5226
 5127.0000  -999.2500  -999.2500  -999.2500    10.9918    83.1942    57.2165
 5127.5000  -999.2500  -999.2500  -999.2500    10.9462    81.3789    57.2130
 5128.0000  -999.2500  -999.2500  -999.2500    10.9309    79.5234    57.2095
 5128.5000  -999.2500  -999.2500  -999.2500    10.9156    77.7483    57.3757
 5129.0000  -999.2500  -999.2500  -999.2500    10.9154    77.4481    57.5796
 5129.5000  -999.2500  -999.2500  -999.2500    10.9153    79.8759    57.7269
 5130.0000  -999.2500  -999.2500  -999.2500    10.9152    84.1212    57.7225
 5130.5000  -999.2500  -999.2500  -999.2500    10.9150    87.1551    57.4918
 5131.0000  -999.2500  -999.2500  -999.2500    10.9300    81.7034    57.1867
 5131.5000  -999.2500  -999.2500  -999.2500    10.9298    78.6760    56.8815
 5132.0000  -999.2500  -999.2500  -999.2500    10.9448    77.7495    56.6509
 5132.5000  -999.2500  -999.2500  -999.2500    10.9447    82.9248    56.6473
 5133.0000  -999.2500  -999.2500  -999.2500    10.9597    84.4429    56.7192
 5133.5000  -999.2500  -999.2500  -999.2500    10.9899    84.4457    56.9514
 5134.0000  -999.2500  -999.2500  -999.2500    11.0048    78.3880    57.7671
 5134.5000  -999.2500  -999.2500  -999.2500    11.0198    71.6942    58.5941
 5135.0000  -999.2500  -999.2500  -999.2500    11.0197    71.4240    59.2083
 5135.5000  -999.2500  -999.2500  -999.2500    11.0347    72.6397    59.7369
 5136.0000  -999.2500  -999.2500  -999.2500    11.0497    73.8547    60.0393
 5136.5000  -999.2500  -999.2500  -999.2500    11.0495    75.3952    60.1154
 5137.0000  -999.2500  -999.2500  -999.2500    11.0494    79.0126    60.2750
 5137.5000  -999.2500  -999.2500  -999.2500    11.0341    81.1367    60.4941
 5138.0000  -999.2500  -999.2500  -999.2500    11.0339    79.0184    60.7965
 5138.5000  -999.2500  -999.2500  -999.2500    11.0186    77.2031    61.4759
 5139.0000  -999.2500  -999.2500  -999.2500    11.0033    77.8127    61.9303
 5139.5000  -999.2500  -999.2500  -999.2500    10.9880    79.3307    62.0808
 5140.0000  -999.2500  -999.2500  -999.2500    10.9879    82.0608    62.1570
 5140.5000  -999.2500  -999.2500  -999.2500    10.9725    83.5789    62.3085
 5141.0000  -999.2500  -999.2500  -999.2500    10.9876    84.8744    62.3092
 5141.5000  -999.2500  -999.2500  -999.2500    11.0026    87.8277    62.3099
 5142.0000  -999.2500  -999.2500  -999.2500    11.0176    89.6488    62.3108
 5142.5000  -999.2500  -999.2500  -999.2500    11.0629    90.5607    62.2359
 5143.0000  -999.2500  -999.2500  -999.2500    11.1082    90.5636    62.1612
 5143.5000  -999.2500  -999.2500  -999.2500    11.1686    89.9611    62.4679
 5144.0000  -999.2500  -999.2500  -999.2500    11.2139    89.6602    62.8418
 5144.5000  -999.2500  -999.2500  -999.2500    11.2441    90.8759    63.2195
 5145.0000  -999.2500  -999.2500  -999.2500    11.2591    90.5758    63.8236
 5145.5000  -999.2500  -999.2500  -999.2500    11.3498    85.1248    64.2768
 5146.0000  -999.2500  -999.2500  -999.2500    11.3952    82.7027    64.6547
 5146.5000  -999.2500  -999.2500  -999.2500    11.4556    85.4335    64.8817
 5147.0000  -999.2500  -999.2500  -999.2500    11.4858    89.3758    64.9577
 5147.5000  -999.2500  -999.2500  -999.2500    11.5311    91.1976    64.1290
 5148.0000  -999.2500  -999.2500  -999.2500    11.5764    93.3216    62.9847
 5148.5000  -999.2500  -999.2500  -999.2500    11.6368    94.2336    62.0944
 5149.0000  -999.2500  -999.2500  -999.2500    11.6821    92.4183    61.6426
 5149.5000  -999.2500  -999.2500  -999.2500    11.7274    87.0894    61.7187
 5150.0000  -999.2500  -999.2500  -999.2500    11.7879    84.5452    62.2130
 5150.5000  -999.2500  -999.2500  -999.2500    11.7971    83.6332    63.0224
 5151.0000  -999.2500  -999.2500  -999.2500    11.8027    82.4181    63.8311
 5151.5000  -999.2500  -999.2500  -999.2500    11.8632    81.5061    64.4387
 5152.0000  -999.2500  -999.2500  -999.2500    11.9539    81.5519    65.3394
 5152.5000  -999.2500  -999.2500  -999.2500    12.0144    83.3177    65.7919
 5153.0000  -999.2500  -999.2500  -999.2500    12.0601    86.0420    66.0181
 5153.5000  -999.2500  -999.2500  -999.2500    12.1202    89.9784    65.7164
 5154.0000  -999.2500  -999.2500  -999.2500    12.1654    91.7944    64.9623
 5154.5000  -999.2500  -999.2500  -999.2500    12.1956    89.9726    64.0573
 5155.0000  -999.2500  -999.2500  -999.2500    12.2258    84.8181    63.3786
 5155.5000  -999.2500  -999.2500  -999.2500    12.2862    82.3786    63.1377
 5156.0000  -999.2500  -999.2500  -999.2500    12.3467    80.5247    62.6244
 5156.5000  -999.2500  -999.2500  -999.2500    12.4071    78.7479    62.0965
 5157.0000  -999.2500  -999.2500  -999.2500    12.4676    78.1389    61.5686
 5157.5000  -999.2500  -999.2500  -999.2500    12.5437    77.2269    61.2670
 5158.0000  -999.2500  -999.2500  -999.2500    12.6058    74.1937    61.7195
 5158.5000  -999.2500  -999.2500  -999.2500    12.6489    72.9786    62.3228
 5159.0000  -999.2500  -999.2500  -999.2500    12.7094    72.9757    63.0787
 5159.5000  -999.2500  -999.2500  -999.2500    12.7547    73.2758    63.6048
 5160.0000  -999.2500  -999.2500  -999.2500    12.8303    73.2324    62.7753
 5160.5000  -999.2500  -999.2500  -999.2500    12.8907    72.6631    61.4178
 5161.0000  -999.2500  -999.2500  -999.2500    12.9512    70.5389    59.6833
 5161.5000  -999.2500  -999.2500  -999.2500    12.9965    65.3845    56.5913
 5162.0000  -999.2500  -999.2500  -999.2500    13.0426    58.4118    53.8763
 5162.5000  -999.2500  -999.2500  -999.2500    13.0896    42.3483    52.4434
