~VERSION INFORMATION
 VERS.                2.0:   CWLS LOG ASCII STANDARD - VERSION 2.0
 WRAP.                 NO:   ONE LINE PER DEPTH STEP
~WELL INFORMATION
#MNEM.UNIT      DATA TYPE    INFORMATION
#----------   ------------   ------------------------------
 STRT.F         1470.0000:   START DEPTH
 STOP.F         2310.0000:   STOP DEPTH
 STEP.F            0.5000:   STEP LENGTH
 NULL.          -999.2500:   NO VALUE
 COMP. BROWN JOHN E&C INC:   COMPANY
 WELL. NAVAL PETROLEUM RESERVE 3 STX- #22-10:   WELL
 FLD .             TEAPOT:   FIELD
 LOC .      S10 T38N R78W:   LOCATION
 CNTY.            NATRONA:   COUNTY
 STAT.            WYOMING:   STATE
 CTRY. UNITED STATES OF AMERICA:   COUNTRY
 SRVC.            Unknown:   SERVICE COMPANY
 DATE.        26-AUG-1991:   LOGDATE
 API .       490251111700:   API NUMBER
~CURVE INFORMATION
#MNEM.UNIT       API CODE    CURVE DESCRIPTION
#----------   ------------   ------------------------------
 DEPT.F                  :   
 ROP .MIN/FT 91 810 01 00:   RAT OF DRILLING PENETRATION
 TGAS.UNITS  91 830 01 00:   TOTAL GAS FROM HOTWIRE
~PARAMETER INFORMATION
#MNEM.UNIT          VALUE    DESCRIPTION
#----------   ------------   ------------------------------
 EKB .F              5277:   KELLING BUSHING
 EGL .F              5267:   GROUND LEVEL
 DATE.            8-26-91:   RUN DATE
 DD  .F              2311:   DEPTH DRILLER
 TCS .HRS            0200:   TIME CURCULATED STOPPED
 TLAB.HRS            2335:   TIME LOGGER AT BOTTOM
 ENGI.              TOWER:   RECORDING ENGINEER
 WITN.               HUSK:   WITNESSED BY
 CLNT.            A2DTECH:   CLIENT CODE
 ORIG.           5" PRINT:   ORIGIN OF DATA
 UWI .       490251111700:   UNIQUE WELL ID
 DICO. A2D Technologies, Inc.:   DIGITIZING COMPANY
~OTHER INFORMATION
~A  DEPT         ROP      TGAS  
# ...
 1713.0000     0.8813   161.3715
 1713.5000     0.8632   161.3047
 1714.0000     0.8824   161.2380
 1714.5000     0.9097   161.1712
 1715.0000     0.9373   161.1047
 1715.5000     0.9650   161.0384
 1716.0000     0.9939   160.9754
 1716.5000     0.9692   160.8933
 1717.0000     0.9314   159.8700
 1717.5000     0.8930   158.7247
 1718.0000     0.8552   157.5773
 1718.5000     0.8284   156.4337
 1719.0000     0.8744   155.3058
 1719.5000     0.9187   154.4073
 1720.0000     0.9396   152.9766
 1720.5000     0.9070   151.5750
 1721.0000     0.8521   150.1858
 1721.5000     0.7896   148.7993
 1722.0000     0.7270   147.4120
 1722.5000     0.6745   146.0247
 1723.0000     0.6920   144.6374
 1723.5000     0.7096   143.2501
 1724.0000     0.7079   141.8628
 1724.5000     0.6527   140.4755
 1725.0000     0.5993   139.0882
 1725.5000     0.5459   137.7009
 1726.0000     0.4993   136.3136
 1726.5000     0.4998   134.9263
 1727.0000     0.5950   133.5390
 1727.5000     0.7199   132.1517
 1728.0000     0.8380   130.7645
 1728.5000     0.9433   129.3772
 1729.0000     0.9825   127.9899
 1729.5000     0.9666   126.6026
 1730.0000     0.9506   125.2153
 1730.5000     0.9365   123.8280
 1731.0000     0.9448   122.4406
 1731.5000     0.9535   121.0519
 1732.0000     0.9620   119.6623
 1732.5000     0.9711   118.2796
 1733.0000     0.9411   117.3013
 1733.5000     0.8906   117.7303
 1734.0000     0.8401   118.1233
 1734.5000     0.7898   118.5116
 1735.0000     0.7471   118.9004
 1735.5000     0.7154   119.2892
 1736.0000     0.6844   119.6780
 1736.5000     0.6679   120.1188
 1737.0000     0.7164   120.6116
 1737.5000     0.7714   121.1050
 1738.0000     0.7844   121.5990
 1738.5000     0.7959   122.0886
 1739.0000     0.7861   122.4173
 1739.5000     0.7717   122.3057
 1740.0000     0.7606   122.2054
 1740.5000     0.8022   122.1056
 1741.0000     0.8458   122.0052
 1741.5000     0.8891   121.9051
 1742.0000     0.9325   121.8049
 1742.5000     0.9774   121.7047
 1743.0000     0.9596   121.6046
 1743.5000     0.9252   121.5044
 1744.0000     0.8901   121.4041
 1744.5000     0.8565   121.3042
 1745.0000     0.8504   121.2043
 1745.5000     0.9038   121.1542
 1746.0000     0.9546   121.1541
 1746.5000     0.9993   121.1540
 1747.0000     1.0043   121.1828
 1747.5000     1.0089   121.2402
 1748.0000     1.0026   121.2975
 1748.5000     0.9859   121.3551
 1749.0000     0.9691   121.4126
 1749.5000     0.9347   121.4701
 1750.0000     0.8844   121.5276
 1750.5000     0.8581   121.5851
 1751.0000     0.8766   121.6426
 1751.5000     0.8909   121.7001
 1752.0000     0.8806   121.7576
 1752.5000     0.8461   121.8151
 1753.0000     0.7758   121.8727
 1753.5000     0.6908   121.9302
 1754.0000     0.6062   121.9877
 1754.5000     0.5470   122.0452
 1755.0000     0.5559   122.1027
 1755.5000     0.5988   122.1602
 1756.0000     0.6773   122.2177
 1756.5000     0.7467   122.2756
 1757.0000     0.7197   122.3342
 1757.5000     0.6882   122.3894
 1758.0000     0.6856   122.3502
 1758.5000     0.7118   121.8882
 1759.0000     0.7336   121.4322
 1759.5000     0.7065   120.9773
 1760.0000     0.6786   120.5220
 1760.5000     0.6958   120.0667
 1761.0000     0.7289   119.6129
 1761.5000     0.7625   119.1590
 1762.0000     0.7960   118.6865
 1762.5000     0.8296   118.5814
 1763.0000     0.8638   117.2818
 1763.5000     0.8862   114.9462
 1764.0000     0.9063   112.6229
 1764.5000     0.8915   110.3291
 1765.0000     0.8645   108.3431
 1765.5000     0.8371   108.5980
 1766.0000     0.8096   110.6872
 1766.5000     0.7856   112.8909
 1767.0000     0.7912   113.4623
 1767.5000     0.7976   113.4145
 1768.0000     0.8219   112.0683
 1768.5000     0.8489   110.7599
 1769.0000     0.8758   109.4658
 1769.5000     0.9028   108.1732
 1770.0000     0.9297   106.8803
 1770.5000     0.9488   105.5875
 1771.0000     0.9288   104.2947
 1771.5000     0.9068   103.0019
 1772.0000     0.8848   101.7090
 1772.5000     0.8627   100.4163
 1773.0000     0.8408    99.1221
 1773.5000     0.8188    97.8267
 1774.0000     0.7966    96.5327
 1774.5000     0.7735    95.4446
 1775.0000     0.7643    95.7421
 1775.5000     0.7553    97.0432
 1776.0000     0.7475    97.4754
 1776.5000     0.7625    97.8480
 1777.0000     0.8213    98.2189
 1777.5000     0.8705    98.5937
 1778.0000     0.9192    98.9721
 1778.5000     0.9678    99.3601
 1779.0000     1.0107    98.9118
 1779.5000     1.0057    98.3204
 1780.0000     1.0004    97.7257
 1780.5000     1.0097    97.1324
 1781.0000     1.0517    96.5396
 1781.5000     1.0931    95.9465
 1782.0000     1.1346    95.3524
 1782.5000     1.0557    94.7590
 1783.0000     0.9641    94.2631
 1783.5000     0.8720    94.5202
 1784.0000     0.7763    94.7904
 1784.5000     0.7295    95.0462
 1785.0000     0.6894    95.2849
 1785.5000     0.6636    95.7591
 1786.0000     0.6374    97.0128
 1786.5000     0.6105    97.3847
 1787.0000     0.6166    97.6923
 1787.5000     0.6253    97.9987
 1788.0000     0.6340    98.3098
 1788.5000     0.6232    98.6206
 1789.0000     0.6106    98.9310
 1789.5000     0.5977    99.2469
 1790.0000     0.5849    99.2098
 1790.5000     0.6184    98.9762
 1791.0000     0.6568    98.7404
 1791.5000     0.6953    98.5039
 1792.0000     0.7329    98.2678
 1792.5000     0.7456    98.0318
 1793.0000     0.6869    97.7958
 1793.5000     0.6309    97.5598
 1794.0000     0.5751    97.3239
 1794.5000     0.5651    97.0877
 1795.0000     0.5963    96.8496
 1795.5000     0.5651    96.7091
 1796.0000     0.5352    96.5948
 1796.5000     0.5633    96.4815
 1797.0000     0.6281    96.3681
 1797.5000     0.6910    96.2545
 1798.0000     0.7538    96.1410
 1798.5000     0.8165    96.0275
 1799.0000     0.8698    95.9139
 1799.5000     0.8807    95.8003
 1800.0000     0.8741    95.6868
 1800.5000     0.9454    95.5733
 1801.0000     1.0314    95.4597
 1801.5000     1.1174    95.3462
 1802.0000     1.2018    95.2326
 1802.5000     1.2370    95.1191
 1803.0000     1.1318    95.0055
 1803.5000     1.0312    94.8920
 1804.0000     0.9311    94.7784
 1804.5000     0.8464    94.6649
 1805.0000     0.8311    94.5511
 1805.5000     0.8251    94.4370
 1806.0000     0.7798    94.3246
 1806.5000     0.7342    94.2459
 1807.0000     0.6864    94.3597
 1807.5000     0.6563    94.4701
 1808.0000     0.6390    94.5799
 1808.5000     0.6586    94.6899
 1809.0000     0.6670    94.7998
 1809.5000     0.6453    94.9098
 1810.0000     0.6836    95.0197
 1810.5000     0.7809    95.1296
 1811.0000     0.8781    95.2395
 1811.5000     0.9757    95.3494
 1812.0000     1.0733    95.4594
 1812.5000     1.1709    95.5693
 1813.0000     1.2694    95.6792
 1813.5000     1.3723    95.7891
 1814.0000     1.4264    95.8990
 1814.5000     1.3062    96.0090
 1815.0000     1.0459    96.1189
 1815.5000     0.8060    96.2288
 1816.0000     0.6763    96.3387
 1816.5000     0.6356    96.4486
 1817.0000     0.7150    96.5586
 1817.5000     0.8048    96.6685
 1818.0000     0.8456    96.7784
 1818.5000     0.8360    96.8883
 1819.0000     0.8183    96.9983
 1819.5000     0.8005    97.1082
 1820.0000     0.7829    97.2181
 1820.5000     0.7646    97.3280
 1821.0000     0.7658    97.4379
 1821.5000     0.7738    97.5479
 1822.0000     0.7819    97.6578
 1822.5000     0.7901    97.7678
 1823.0000     0.7981    97.8782
 1823.5000     0.8061    97.9872
 1824.0000     0.7967    98.0720
 1824.5000     0.7699    98.0232
 1825.0000     0.7430    97.9775
 1825.5000     0.7161    97.9323
 1826.0000     0.6888    97.8868
 1826.5000     0.6608    97.8414
 1827.0000     0.6668    97.7960
 1827.5000     0.6755    97.7505
 1828.0000     0.6843    97.7051
 1828.5000     0.6810    97.6597
 1829.0000     0.6767    97.6143
 1829.5000     0.6725    97.5689
 1830.0000     0.6683    97.5235
 1830.5000     0.6640    97.4781
 1831.0000     0.6604    97.4326
 1831.5000     0.6953    97.3872
 1832.0000     0.6843    97.3418
 1832.5000     0.6701    97.2964
 1833.0000     0.6730    97.2510
 1833.5000     0.7260    97.2056
 1834.0000     0.7771    97.1602
