~VERSION INFORMATION
 VERS.                2.0:   CWLS LOG ASCII STANDARD - VERSION 2.0
 WRAP.                 NO:   ONE LINE PER DEPTH STEP
~WELL INFORMATION
#MNEM.UNIT      DATA TYPE    INFORMATION
#----------   ------------   ------------------------------
 STRT.F           92.0000:   START DEPTH
 STOP.F          810.0000:   STOP DEPTH
 STEP.F            0.5000:   STEP LENGTH
 NULL.          -999.2500:   NO VALUE
 COMP. U S NAVY/INTEX OIL CO:   COMPANY
 WELL. NPR #3 #86 S 34-34:   WELL
 FLD .        EAST TEAPOT:   FIELD
 LOC .      S34 T39N R78W:   LOCATION
 CNTY.            NATRONA:   COUNTY
 STAT.            WYOMING:   STATE
 CTRY. UNITED STATES OF AMERICA:   COUNTRY
 SRVC. Schlumberger Well Surveying Corp:   SERVICE COMPANY
 DATE.        22-JUL-1962:   LOGDATE
 API .       490250652900:   API NUMBER
~CURVE INFORMATION
#MNEM.UNIT       API CODE    CURVE DESCRIPTION
#----------   ------------   ------------------------------
 DEPT.F                  :   
 GR  .GAPI   30 310 01 00:   GAMMA RAY
 SPR .MV     05 010 01 00:   SPONTANEOUS POTENTIAL FROM RES.
 CILD.MMHO   05 110 46 00:   CONDUCTIVITY INDUCTION LOG DEEP
 ASN .OHMM   05 041 16 00:   AMPLIFIED SHORT NORMAL 16"
 ILD .OHMM   05 120 46 00:   INDUCTION LOG DEEP
 CALM.IN     15 280 01 00:   CALIPER FROM MICRO LOG
~PARAMETER INFORMATION
#MNEM.UNIT          VALUE    DESCRIPTION
#----------   ------------   ------------------------------
 PD  .                 GL:   PERMANENT DATUM
 EPD .F              5094:   ELEVATION PERMANENT DATUM
 LMF .                 KB:   LOG MEASURED FROM
 DAPD.F                 5:   FEET ABOVE PERMANENT DATUM
 DMF .                 KB:   DRILLING MEASURED FROM
 EKB .F              5099:   KELLING BUSHING
 EGL .F              5094:   GROUND LEVEL
 DATE.            7-22-62:   RUN DATE
 RUN .                  1:   RUN NUMBER
 DD  .F               810:   DEPTH DRILLER
 DL  .F               811:   DEPTH LOGGER
 BLI .F               810:   BOTTOM LOG INTERVAL
 TLI .F               100:   TOP LOG INTERVAL
 BS  .IN             6.75:   BIT SIZE
 BSD .F               810:   BIT SIZE AT DEPTH
 DFT .                GEL:   DRILLING FLUID TYPE
 DFD .               10.3:   DRILLING FLUID DENSITY
 DFV .                 43:   DRILLING FLUID VISCOSITY
 RMS .OHMM              4:   RESISTIVITY MUD SAMPLE
 MST .F                75:   MUD SAMPLE TEMPERATURE
 RMF .OHMM            2.9:   RESISTIVITY MUD FILTRATE SAMPLE
 MFST.F                75:   MUD FILTRATE SAMPLE TEMPERATURE
 RMC .OHMM            3.8:   RESISTIVITY MUD CAKE
 MCST.F                75:   MUD CAKE SAMPLE TEMPERATURE
 TCS .HRS               1:   TIME CURCULATED STOPPED
 LUN .               2503:   LOGGING UNIT NUMBER
 ENGI.           ELLERMAN:   RECORDING ENGINEER
 WITN.          JORGENSON:   WITNESSED BY
 CLNT.            A2DTECH:   CLIENT CODE
 ORIG.   1", 2", 5" PRINT:   ORIGIN OF DATA
 UWI .       490250652900:   UNIQUE WELL ID
 DICO. A2D Technologies, Inc.:   DIGITIZING COMPANY
~OTHER INFORMATION
~A   DEPT       GR        SPR       CILD        ASN        ILD       CALM   
# ...
  300.0000  -999.2500   -37.1874   158.8794     6.8018     6.5985  -999.2500
  300.5000  -999.2500   -37.6705   157.1344     6.8279     6.6770  -999.2500
  301.0000  -999.2500   -37.7834   155.2586     6.8521     6.7546  -999.2500
  301.5000  -999.2500   -37.7856   154.4364     6.9240     6.8313  -999.2500
  302.0000  -999.2500   -37.7843   153.5737     7.0398     6.9079  -999.2500
  302.5000  -999.2500   -37.8195   152.6999     7.1556     6.9845  -999.2500
  303.0000  -999.2500   -38.0809   151.0659     7.2750     7.0612  -999.2500
  303.5000  -999.2500   -38.3432   147.9873     7.3000     7.1381  -999.2500
  304.0000  -999.2500   -38.6039   144.9087     7.3001     7.2127  -999.2500
  304.5000  -999.2500   -38.8257   141.7446     7.3327     7.2778  -999.2500
  305.0000  -999.2500   -38.8207   139.8193     7.3901     7.3556  -999.2500
  305.5000  -999.2500   -38.8199   137.8390     7.4864     7.4341  -999.2500
  306.0000  -999.2500   -38.8199   135.8587     7.6483     7.5127  -999.2500
  306.5000  -999.2500   -38.8199   133.8784     7.7836     7.5912  -999.2500
  307.0000  -999.2500   -38.8199   131.8981     7.8687     7.6697  -999.2500
  307.5000  -999.2500   -38.8199   129.9129     7.9212     7.7484  -999.2500
  308.0000  -999.2500   -38.8199   127.9325     7.9693     7.8278  -999.2500
  308.5000  -999.2500   -38.8200   127.6480     8.0163     7.8402  -999.2500
  309.0000  -999.2500   -38.8200   129.2686     8.0633     7.8397  -999.2500
  309.5000  -999.2500   -38.8187   131.0607     8.0870     7.8037  -999.2500
  310.0000  -999.2500   -38.7523   133.1445     8.0737     7.7215  -999.2500
  310.5000  -999.2500   -38.6024   135.2391     8.0081     7.6399  -999.2500
  311.0000  -999.2500   -38.4535   137.3330     7.8767     7.5581  -999.2500
  311.5000  -999.2500   -38.3050   139.4294     7.7462     7.4761  -999.2500
  312.0000  -999.2500   -38.1966   141.5202     7.6147     7.3940  -999.2500
  312.5000  -999.2500   -38.1989   143.8214     7.5187     7.3227  -999.2500
  313.0000  -999.2500   -38.2003   142.6989     7.4577     7.3498  -999.2500
  313.5000  -999.2500   -38.1960   141.4528     7.4022     7.3771  -999.2500
  314.0000  -999.2500   -37.8980   140.2067     7.5032     7.4041  -999.2500
  314.5000  -999.2500   -37.5676   138.9606     7.6908     7.4309  -999.2500
  315.0000  -999.2500   -37.2372   141.0306     7.7911     7.4577  -999.2500
  315.5000  -999.2500   -36.8968   143.8214     7.6942     7.4846  -999.2500
  316.0000  -999.2500   -36.5583   142.2539     7.7146     7.5112  -999.2500
  316.5000  -999.2500   -36.6393   140.6002     7.8374     7.5288  -999.2500
  317.0000  -999.2500   -36.7461   138.9535     7.7092     7.5285  -999.2500
  317.5000  -999.2500   -36.8521   137.9153     7.4564     7.5286  -999.2500
  318.0000  -999.2500   -36.9513   139.9066     7.3809     7.5286  -999.2500
  318.5000  -999.2500   -36.8873   141.8757     7.4423     7.5286  -999.2500
  319.0000  -999.2500   -36.8153   143.8148     7.5038     7.5286  -999.2500
  319.5000  -999.2500   -36.7439   143.0313     7.5643     7.5286  -999.2500
  320.0000  -999.2500   -36.6728   142.2241     7.6125     7.5286  -999.2500
  320.5000  -999.2500   -36.6016   141.4232     7.5923     7.5286  -999.2500
  321.0000  -999.2500   -36.5304   140.6248     7.5453     7.5286  -999.2500
  321.5000  -999.2500   -36.4591   139.8265     7.4987     7.5286  -999.2500
  322.0000  -999.2500   -36.3883   139.0281     7.4520     7.5285  -999.2500
  322.5000  -999.2500   -36.3428   138.2298     7.4448     7.5283  -999.2500
  323.0000  -999.2500   -36.3839   137.4314     7.4817     7.5303  -999.2500
  323.5000  -999.2500   -36.4226   136.6331     7.5451     7.5696  -999.2500
  324.0000  -999.2500   -36.4613   135.8347     7.6134     7.6087  -999.2500
  324.5000  -999.2500   -36.5000   135.0363     7.7434     7.6475  -999.2500
  325.0000  -999.2500   -36.5409   134.6054     7.8717     7.6864  -999.2500
  325.5000  -999.2500   -36.6151   135.0415     7.9422     7.7286  -999.2500
  326.0000  -999.2500   -36.6937   135.5140     7.8953     7.6429  -999.2500
  326.5000  -999.2500   -36.7197   138.6572     7.6582     7.5128  -999.2500
  327.0000  -999.2500   -36.6181   142.0862     7.4194     7.3817  -999.2500
  327.5000  -999.2500   -36.5189   145.5151     7.1810     7.2507  -999.2500
  328.0000  -999.2500   -36.4194   148.9440     7.0397     7.1198  -999.2500
  328.5000  -999.2500   -36.3200   152.3730     6.9777     6.9902  -999.2500
  329.0000  -999.2500   -36.2206   155.2440     6.9087     6.9045  -999.2500
  329.5000  -999.2500   -36.1210   155.2440     6.8810     6.8945  -999.2500
  330.0000  -999.2500   -36.0205   155.2440     6.9310     6.8798  -999.2500
  330.5000  -999.2500   -35.9274   155.2440     6.9790     6.8653  -999.2500
  331.0000  -999.2500   -36.0285   155.2440     6.9893     6.8508  -999.2500
  331.5000  -999.2500   -36.1394   155.6835     6.9347     6.8362  -999.2500
  332.0000  -999.2500   -36.2495   156.2344     6.9519     6.8216  -999.2500
  332.5000  -999.2500   -36.3594   156.7853     6.9848     6.8075  -999.2500
  333.0000  -999.2500   -36.4692   157.3209     6.9298     6.7628  -999.2500
  333.5000  -999.2500   -36.5791   157.3209     6.8583     6.7013  -999.2500
  334.0000  -999.2500   -36.6889   157.3209     6.7859     6.6404  -999.2500
  334.5000  -999.2500   -36.7987   154.5898     6.7185     6.6189  -999.2500
  335.0000  -999.2500   -36.9087   151.9730     6.7254     6.7432  -999.2500
  335.5000  -999.2500   -37.0182   149.3562     6.8923     6.8631  -999.2500
  336.0000  -999.2500   -37.1315   146.7394     7.0588     6.9828  -999.2500
  336.5000  -999.2500   -37.0524   144.1225     7.2241     7.1025  -999.2500
  337.0000  -999.2500   -36.8951   141.5057     7.3678     7.2222  -999.2500
  337.5000  -999.2500   -36.7431   138.8889     7.4648     7.3402  -999.2500
  338.0000  -999.2500   -36.6004   136.2721     7.5519     7.4263  -999.2500
  338.5000  -999.2500   -36.4636   134.4890     7.5496     7.4245  -999.2500
  339.0000  -999.2500   -36.3280   134.4661     7.5493     7.4249  -999.2500
  339.5000  -999.2500   -36.1908   134.6986     7.5569     7.4248  -999.2500
  340.0000  -999.2500   -36.2136   136.4820     7.6140     7.4185  -999.2500
  340.5000  -999.2500   -36.3686   138.2562     7.6318     7.3717  -999.2500
  341.0000  -999.2500   -36.5249   140.0303     7.5649     7.3248  -999.2500
  341.5000  -999.2500   -36.6819   141.8044     7.4997     7.2780  -999.2500
  342.0000  -999.2500   -36.8280   143.5785     7.4413     7.2313  -999.2500
  342.5000  -999.2500   -36.9674   145.3526     7.4252     7.1846  -999.2500
  343.0000  -999.2500   -37.1080   147.1267     7.4095     7.1378  -999.2500
  343.5000  -999.2500   -37.1250   148.9009     7.3074     7.0911  -999.2500
  344.0000  -999.2500   -37.0631   150.6759     7.1863     7.0444  -999.2500
  344.5000  -999.2500   -36.9998   152.4491     7.1157     6.9975  -999.2500
  345.0000  -999.2500   -36.9365   154.2232     7.1247     6.9502  -999.2500
  345.5000  -999.2500   -36.8732   154.8400     7.1328     6.9092  -999.2500
  346.0000  -999.2500   -36.8100   153.8884     7.1238     6.9815  -999.2500
  346.5000  -999.2500   -36.7467   152.1818     7.1141     7.0570  -999.2500
  347.0000  -999.2500   -36.6835   148.1112     7.1576     7.1309  -999.2500
  347.5000  -999.2500   -36.6202   142.4863     7.3046     7.1984  -999.2500
  348.0000  -999.2500   -36.5570   135.0096     7.6049     7.5170  -999.2500
  348.5000  -999.2500   -36.4936   127.5330     8.4059     7.8665  -999.2500
  349.0000  -999.2500   -36.4299   123.3541     8.7692     8.2118  -999.2500
  349.5000  -999.2500   -36.3678   121.5594     8.6529     8.3653  -999.2500
  350.0000  -999.2500   -36.3884   119.9882     8.9885     8.4878  -999.2500
  350.5000  -999.2500   -36.6068   119.2570     9.6278     8.6116  -999.2500
  351.0000  -999.2500   -36.8130   120.4223    10.4059     8.5929  -999.2500
  351.5000  -999.2500   -36.9584   122.3520     9.7607     8.4240  -999.2500
