~VERSION INFORMATION
 VERS.                2.0:   CWLS LOG ASCII STANDARD - VERSION 2.0
 WRAP.                 NO:   ONE LINE PER DEPTH STEP
~WELL INFORMATION
#MNEM.UNIT      DATA TYPE    INFORMATION
#----------   ------------   ------------------------------
 STRT.F           36.0000:   START DEPTH
 STOP.F         3160.0000:   STOP DEPTH
 STEP.F            0.5000:   STEP LENGTH
 NULL.          -999.2500:   NO VALUE
 COMP.    FENIX & SCISSON:   COMPANY
 WELL.        NPR-3 #28-3:   WELL
 FLD .             TEAPOT:   FIELD
 LOC .       S3 T38N R78W:   LOCATION
 CNTY.            NATRONA:   COUNTY
 STAT.            WYOMING:   STATE
 CTRY. UNITED STATES OF AMERICA:   COUNTRY
 SRVC.            Unknown:   SERVICE COMPANY
 DATE.        01-JUL-1978:   LOGDATE
 API .       490251066500:   API NUMBER
~CURVE INFORMATION
#MNEM.UNIT       API CODE    CURVE DESCRIPTION
#----------   ------------   ------------------------------
 DEPT.F                  :   
 ILD .OHMM   05 120 46 00:   INDUCTION LOG DEEP
 SN  .OHMM   05 040 16 00:   SHORT NORMAL 16"
 SPR .MV     05 010 01 00:   SPONTANEOUS POTENTIAL FROM RES.
 CALD.IN     45 280 60 00:   CALIPER FROM DENSITY LOG
 CORR.G/C3   45 356 01 00:   DENSITY CORRECTION
 DPHI.DEC    45 890 12 00:   DENSITY POROSITY SANDSTONE
 GRD .GAPI   45 310 01 00:   GAMMA RAY FROM DENSITY LOG
 RHOB.G/C3   45 350 01 00:   BULK DENSITY
 GR  .GAPI   30 310 01 00:   GAMMA RAY
~PARAMETER INFORMATION
#MNEM.UNIT          VALUE    DESCRIPTION
#----------   ------------   ------------------------------
 PD  .                 GL:   PERMANENT DATUM
 EPD .F              5264:   ELEVATION PERMANENT DATUM
 LMF .                 KB:   LOG MEASURED FROM
 DAPD.F                 4:   FEET ABOVE PERMANENT DATUM
 DMF .                 KB:   DRILLING MEASURED FROM
 EKB .F              5268:   KELLING BUSHING
 EGL .F              5264:   GROUND LEVEL
 DATE.        01-JUL-1978:   RUN DATE
 RUN .                  1:   RUN NUMBER
 DD  .F               630:   DEPTH DRILLER
 DL  .F               636:   DEPTH LOGGER
 BLI .F               630:   BOTTOM LOG INTERVAL
 TLI .F                50:   TOP LOG INTERVAL
 CS  .IN            8.625:   CASING SIZE
 CBD .F                40:   CASING BOTTOM DRILLER
 BS  .IN            7.875:   BIT SIZE
 BSD .F               630:   BIT SIZE AT DEPTH
 DFT .                KCL:   DRILLING FLUID TYPE
 DFD .                8.6:   DRILLING FLUID DENSITY
 DFV .                 32:   DRILLING FLUID VISCOSITY
 DFPH.                9.5:   DRILLING FLUID PH
 MSS .           FLOWLINE:   MUD SAMPLE SOURCE
 BHT .F                74:   BOTTOM HOLE TEMPERATURE
 TCS .HRS               1:   TIME CURCULATED STOPPED
 MRT .F                74:   MAXIMUM RECORDED TEMPERATURE
 LUN .               2958:   LOGGING UNIT NUMBER
 LUL .               CASP:   LOGGING UNIT LOCATION
 ENGI.             MILLER:   RECORDING ENGINEER
 WITN.           MCGINLEY:   WITNESSED BY
 CLNT.            A2DTECH:   CLIENT CODE
 ORIG.        2" 5" PRINT:   ORIGIN OF DATA
 UWI .       490251066500:   UNIQUE WELL ID
 DICO. A2D Technologies, Inc.:   DIGITIZING COMPANY
~OTHER INFORMATION
~A   DEPT      ILD         SN        SPR       CALD       CORR       DPHI         GRD      RHOB         GR   
# ...
  364.5000     5.9828     6.0539   -41.6156     7.3792    -0.0155     0.1617    87.8949     2.4234  -999.2500
  365.0000     6.1492     6.1787   -41.6226     7.3812    -0.0154     0.1621    87.7570     2.4190  -999.2500
  365.5000     6.1902     6.2195   -41.6282     7.3828    -0.0152     0.1616    88.9672     2.4168  -999.2500
  366.0000     6.1865     6.1742   -41.7841     7.3845    -0.0151     0.1641    89.8756     2.4168  -999.2500
  366.5000     6.1013     6.1297   -41.7898     7.3864    -0.0150     0.1661    90.0367     2.4176  -999.2500
  367.0000     6.0577     6.0855   -41.9470     7.3880    -0.0148     0.1672    90.4966     2.4110  -999.2500
  367.5000     5.9318     5.9566   -41.9527     7.3896    -0.0147     0.1675    91.8610     2.4066  -999.2500
  368.0000     5.7686     5.7540   -41.9583     7.3912    -0.0146     0.1639    94.0299     2.4111  -999.2500
  368.5000     5.5659     5.5568   -41.9640     7.3928    -0.0144     0.1615    95.0185     2.4156  -999.2500
  369.0000     5.3065     5.4035   -41.9711     7.3794    -0.0128     0.1654    93.0868     2.4164  -999.2500
  369.5000     5.1963     5.3276   -41.9768     7.3660    -0.0097     0.1731    89.6575     2.4083  -999.2500
  370.0000     5.1236     5.1803   -41.9825     7.3680    -0.0051     0.1964    91.7646     2.3859  -999.2500
  370.5000     5.1223     5.1430   -41.8378     7.3696    -0.0018     0.1990    93.5699     2.3554  -999.2500
  371.0000     5.1206     5.1063   -41.6935     7.3712     0.0027     0.1951    94.4783     2.3540  -999.2500
  371.5000     5.1551     5.1396   -41.5490     7.3728     0.0058     0.1843    94.8137     2.3697  -999.2500
  372.0000     5.1895     5.2137   -41.4046     7.3744     0.0089     0.1685    94.9527     2.3937  -999.2500
  372.5000     5.3331     5.3903   -41.2601     7.3610     0.0090     0.1631    94.6653     2.4109  -999.2500
  373.0000     5.5283     5.6556   -41.1071     7.3626     0.0092     0.1589    93.9294     2.4178  -999.2500
  373.5000     5.8714     5.9339   -40.8238     7.3643     0.0108     0.1568    91.5493     2.4274  -999.2500
  374.0000     6.2034     6.2708   -40.6779     7.3662     0.0124     0.1457    88.2724     2.4372  -999.2500
  374.5000     6.4643     6.6227   -40.5334     7.3678     0.0141     0.1391    89.4937     2.4485  -999.2500
  375.0000     6.7362     6.8532   -40.6907     7.3694     0.0142     0.1334    91.9831     2.4582  -999.2500
  375.5000     7.0676     7.0430   -40.6978     7.3859     0.0158     0.1298    93.5387     2.4635  -999.2500
  376.0000     7.3649     7.2380   -40.8536     7.4174     0.0174     0.1286    92.9524     2.4680  -999.2500
  376.5000     7.6218     7.4384   -40.8593     7.4489     0.0176     0.1292    94.3121     2.4719  -999.2500
  377.0000     7.7794     7.5917   -40.8650     7.5256     0.0177     0.1289    96.5658     2.4674  -999.2500
  377.5000     7.8312     7.6419   -40.8721     7.5740     0.0178     0.1306    97.9226     2.4660  -999.2500
  378.0000     7.7748     7.5861   -41.0279     7.6335     0.0180     0.1369    98.2372     2.4616  -999.2500
  378.5000     7.7727     7.5314   -41.0336     7.6351     0.0181     0.1386    98.5441     2.4571  -999.2500
  379.0000     7.6641     7.4250   -41.0392     7.6213     0.0183     0.1395    96.7643     2.4557  -999.2500
  379.5000     7.5569     7.2703   -41.0450     7.6080     0.0184     0.1407    94.9821     2.4482  -999.2500
  380.0000     7.3994     7.1682   -41.0520     7.5800     0.0185     0.1457    94.9937     2.4409  -999.2500
  380.5000     7.1959     7.0189   -41.0577     7.5816     0.0186     0.1439    95.1518     2.4395  -999.2500
  381.0000     6.9979     6.8721   -41.0633     7.5683     0.0158     0.1367    94.4189     2.4492  -999.2500
  381.5000     6.8053     6.7755   -41.0691     7.5549     0.0068     0.1337    93.8325     2.4597  -999.2500
  382.0000     6.7529     6.6344   -41.0761     7.5569    -0.0018     0.1367    96.0891     2.4613  -999.2500
  382.5000     6.6159     6.5412   -41.0818     7.5735    -0.0047     0.1440    96.5462     2.4516  -999.2500
  383.0000     6.3896     6.3603   -41.0875     7.5751    -0.0090     0.1507    93.8700     2.4394  -999.2500
  383.5000     6.1710     6.2709   -41.0931     7.5613    -0.0104     0.1515    94.3300     2.4301  -999.2500
  384.0000     5.9188     6.1403   -41.1002     7.5633    -0.0118     0.1539    94.4910     2.4272  -999.2500
  384.5000     5.4839     6.0124   -41.1059     7.5499    -0.0116     0.1595    93.9047     2.4228  -999.2500
  385.0000     5.2598     5.8830   -40.9600     7.5366    -0.0100     0.1610    93.1640     2.4184  -999.2500
  385.5000     5.2222     5.7640   -40.9671     7.5232    -0.0082     0.1702    92.7319     2.4080  -999.2500
  386.0000     5.2574     5.7224   -40.8226     7.4953    -0.0037     0.1712    92.5940     2.3998  -999.2500
  386.5000     5.2749     5.7205   -40.6782     7.4521     0.0009     0.1771    93.2063     2.3924  -999.2500
  387.0000     5.4015     5.7990   -40.6853     7.4084    -0.0020     0.1791    95.1611     2.3858  -999.2500
  387.5000     5.6283     6.0831   -40.5408     7.3506    -0.0093     0.1755    98.0127     2.3955  -999.2500
  388.0000     5.9057     6.3825   -40.3963     7.3223    -0.0122     0.1636    96.9779     2.4172  -999.2500
  388.5000     6.3265     6.6504   -40.2518     7.3090    -0.0120     0.1579    94.5705     2.4203  -999.2500
  389.0000     6.8712     6.9777   -40.1074     7.2956    -0.0118     0.1566    91.9217     2.4233  -999.2500
  389.5000     7.1108     7.2701   -40.1144     7.2976    -0.0073     0.1489    91.1829     2.4296  -999.2500
  390.0000     7.3087     7.4200   -40.1201     7.3141    -0.0027     0.1530    93.5890     2.4361  -999.2500
  390.5000     7.5110     7.5735   -40.2774     7.3157     0.0034     0.1542    95.8427     2.4302  -999.2500
  391.0000     7.5632     7.6230   -40.1315     7.3323     0.0080     0.1506    96.9006     2.4325  -999.2500
  391.5000     7.6115     7.6732   -40.1386     7.3339     0.0127     0.1449    96.9121     2.4385  -999.2500
  392.0000     7.6090     7.6701   -40.1442     7.3355     0.0143     0.1416    93.8745     2.4438  -999.2500
  392.5000     7.6071     7.6676   -40.1513     7.3371     0.0144     0.1374    89.0158     2.4507  -999.2500
  393.0000     7.6578     7.6651   -40.1570     7.3390     0.0145     0.1314    90.3726     2.4611  -999.2500
  393.5000     7.6557     7.6626   -40.1627     7.3406     0.0132     0.1343    91.5800     2.4589  -999.2500
  394.0000     7.6533     7.6595   -40.0180     7.3572     0.0103     0.1346    91.4421     2.4597  -999.2500
  394.5000     7.6513     7.6573   -40.0240     7.3588     0.0075     0.1319    91.6031     2.4628  -999.2500
  395.0000     7.6493     7.6545   -40.0310     7.3604     0.0061     0.1301    91.7641     2.4658  -999.2500
  395.5000     7.6473     7.6520   -40.1868     7.3620     0.0078     0.1375    93.7642     2.4607  -999.2500
  396.0000     7.6448     7.6488   -40.1925     7.3635     0.0079     0.1399    96.5733     2.4539  -999.2500
  396.5000     7.6428     7.6463   -40.1982     7.3652     0.0095     0.1434    96.2859     2.4488  -999.2500
  397.0000     7.6408     7.6438   -40.2052     7.3671     0.0097     0.1443    95.2483     2.4437  -999.2500
  397.5000     7.6388     7.6414   -40.2109     7.3687     0.0098     0.1440    95.4122     2.4445  -999.2500
  398.0000     7.6367     7.6388   -40.2166     7.3703     0.0099     0.1276    94.0784     2.4572  -999.2500
  398.5000     7.6343     7.6357   -40.2223     7.3869     0.0101     0.1265    91.8478     2.4700  -999.2500
  399.0000     7.5797     7.5807   -40.2294     7.4183     0.0087     0.1320    91.7099     2.4708  -999.2500
  399.5000     7.5255     7.5782   -40.3852     7.4349     0.0088     0.1364    93.8170     2.4567  -999.2500
  400.0000     7.5236     7.6810   -40.2399     7.4514     0.0090     0.1334    93.9751     2.4560  -999.2500
  400.5000     7.6263     7.5736   -40.3954     7.4227     0.0061     0.1331    93.5361     2.4605  -999.2500
