~VERSION INFORMATION
 VERS.                2.0:   CWLS LOG ASCII STANDARD - VERSION 2.0
 WRAP.                 NO:   ONE LINE PER DEPTH STEP
~WELL INFORMATION
#MNEM.UNIT      DATA TYPE    INFORMATION
#----------   ------------   ------------------------------
 STRT.F           25.0000:   START DEPTH
 STOP.F          832.0000:   STOP DEPTH
 STEP.F            0.5000:   STEP LENGTH
 NULL.          -999.2500:   NO VALUE
 COMP.          U.S. NAVY:   COMPANY
 WELL. RES 3 TEAPOT DOM #32-S-2:   WELL
 FLD .        TEAPOT DOME:   FIELD
 LOC .       S2 T38N R78W:   LOCATION
 CNTY.            NATRONA:   COUNTY
 STAT.            WYOMING:   STATE
 CTRY. UNITED STATES OF AMERICA:   COUNTRY
 SRVC. Schlumberger Well Surveying Corp:   SERVICE COMPANY
 DATE.        03-AUG-1959:   LOGDATE
 API .       490250646800:   API NUMBER
~CURVE INFORMATION
#MNEM.UNIT       API CODE    CURVE DESCRIPTION
#----------   ------------   ------------------------------
 DEPT.F                  :   
 SPR .MV     05 010 01 00:   SPONTANEOUS POTENTIAL FROM RES.
 ILD .OHMM   05 120 46 00:   INDUCTION LOG DEEP
 CILD.MMHO   05 110 46 00:   CONDUCTIVITY INDUCTION LOG DEEP
 ASN .OHMM   05 041 16 00:   AMPLIFIED SHORT NORMAL 16"
~PARAMETER INFORMATION
#MNEM.UNIT          VALUE    DESCRIPTION
#----------   ------------   ------------------------------
 LMF .                 KB:   LOG MEASURED FROM
 DMF .                 KB:   DRILLING MEASURED FROM
 EKB .F              5126:   KELLING BUSHING
 EGL .F              5122:   GROUND LEVEL
 DATE.           8-3-1959:   RUN DATE
 RUN .                  1:   RUN NUMBER
 DD  .F               840:   DEPTH DRILLER
 DL  .F               841:   DEPTH LOGGER
 BLI .F               835:   BOTTOM LOG INTERVAL
 TLI .F                17:   TOP LOG INTERVAL
 CBD .F                17:   CASING BOTTOM DRILLER
 CBL .F                17:   CASING BOTTOM LOGGER
 BS  .IN             6.75:   BIT SIZE
 BSD .F               840:   BIT SIZE AT DEPTH
 DFT .                GEL:   DRILLING FLUID TYPE
 DFD .                9.5:   DRILLING FLUID DENSITY
 DFV .                100:   DRILLING FLUID VISCOSITY
 DFPH.                9.5:   DRILLING FLUID PH
 DFL .                  4:   DRILLING FLUID LOSS
 RMS .OHMM              4:   RESISTIVITY MUD SAMPLE
 MST .F                73:   MUD SAMPLE TEMPERATURE
 RMF .OHMM            3.9:   RESISTIVITY MUD FILTRATE SAMPLE
 MFST.F                73:   MUD FILTRATE SAMPLE TEMPERATURE
 RMC .OHMM            4.1:   RESISTIVITY MUD CAKE
 MCST.F                73:   MUD CAKE SAMPLE TEMPERATURE
 RMB .OHMM              4:   RESISTIVITY MUD AT BHT
 BHT .F                73:   BOTTOM HOLE TEMPERATURE
 TCS .HRS               1:   TIME CURCULATED STOPPED
 LUN .               2523:   LOGGING UNIT NUMBER
 LUL .              CSPR.:   LOGGING UNIT LOCATION
 ENGI.             ATWOOD:   RECORDING ENGINEER
 WITN.             MARTIN:   WITNESSED BY
 CLNT.            A2DTECH:   CLIENT CODE
 ORIG.           5" PRINT:   ORIGIN OF DATA
 UWI .       490250646800:   UNIQUE WELL ID
 DICO. A2D Technologies, Inc.:   DIGITIZING COMPANY
~OTHER INFORMATION
~A   DEPT      SPR        ILD       CILD        ASN   
# ...
  390.0000   -95.2010     9.7635   103.2807    10.4528
  390.5000   -95.1696     9.7577   103.5106    10.4375
  391.0000   -95.1382     9.7520   103.7404    10.4401
  391.5000   -95.1068     9.7463   103.9703    10.4342
  392.0000   -95.0748     9.7406   104.2002    10.4209
  392.5000   -95.0881     9.7350   104.4301    10.4072
  393.0000   -95.1132     9.7290   104.6600    10.3935
  393.5000   -95.1357     9.7237   104.8890    10.3800
  394.0000   -95.1594     9.7172   105.1182    10.3661
  394.5000   -95.1825     9.7119   105.3469    10.3494
  395.0000   -95.2059     9.6743   105.5753    10.2897
  395.5000   -95.2291     9.6213   105.8038    10.2122
  396.0000   -95.2524     9.5714   106.0818    10.1350
  396.5000   -95.2759     9.5197   106.5845    10.0619
  397.0000   -95.2990     9.4692   107.2260     9.9766
  397.5000   -95.3230     9.4177   107.8623     9.9057
  398.0000   -95.3452     9.3676   108.4985     9.8314
  398.5000   -95.3707     9.3151   109.1348     9.7799
  399.0000   -95.3902     9.2670   109.7711     9.7871
  399.5000   -95.4225     9.2087   110.5640     9.7842
  400.0000   -95.3984     9.1730   110.7334     9.7849
  400.5000   -95.2619     9.1776   110.9581     9.7868
  401.0000   -95.1276     9.1756   111.1828     9.7752
  401.5000   -94.9901     9.1770   111.4076     9.7036
  402.0000   -94.8545     9.1765   111.6323     9.6376
  402.5000   -94.7179     9.1770   111.8570     9.5953
  403.0000   -94.5818     9.1771   112.0817     9.5704
  403.5000   -94.4455     9.1754   112.3545     9.5354
  404.0000   -94.3093     9.1310   113.1628     9.5087
  404.5000   -94.1729     9.0347   114.1911     9.4764
  405.0000   -94.0371     8.8779   115.2193     9.4549
  405.5000   -93.9000     8.7138   116.5909     9.3434
  406.0000   -93.7656     8.5512   118.7502     9.0813
  406.5000   -93.6261     8.3879   121.3071     8.8105
  407.0000   -93.4960     8.2247   123.8431     8.5539
  407.5000   -93.3440     8.0617   126.9512     8.2585
  408.0000   -93.2370     7.8980   130.0594     8.0441
  408.5000   -93.2014     7.7360   133.1676     7.9003
  409.0000   -93.1489     7.5704   136.2757     7.7992
  409.5000   -93.1044     7.4060   138.2140     7.7699
  410.0000   -93.0556     7.3745   137.9141     7.8431
  410.5000   -93.0091     7.4436   137.6142     8.0908
  411.0000   -92.9615     7.6114   136.4548     8.3530
  411.5000   -92.9144     7.7784   133.7556     8.5358
  412.0000   -92.8670     7.9447   131.0564     8.5887
  412.5000   -92.8196     8.1156   128.3572     8.6691
  413.0000   -92.7723     8.2762   125.6580     8.7382
  413.5000   -92.7249     8.4605   123.8205     8.8098
  414.0000   -92.6776     8.5586   123.3706     8.8879
  414.5000   -92.6302     8.5324   122.9404     8.9285
  415.0000   -92.5828     8.5216   122.5405     8.8954
  415.5000   -92.5355     8.5019   122.1406     8.8633
  416.0000   -92.4880     8.4871   121.7408     8.8298
  416.5000   -92.4408     8.4697   121.3071     8.7953
  417.0000   -92.3931     8.4534   122.2222     8.7646
  417.5000   -92.3463     8.4368   123.2219     8.7248
  418.0000   -92.2977     8.4201   124.2216     8.7324
  418.5000   -92.2525     8.4041   125.2213     8.7952
  419.0000   -92.1998     8.3867   125.2736     8.8524
  419.5000   -92.1702     8.3767   124.1092     8.9103
  420.0000   -92.1741     8.4399   122.9449     8.9946
  420.5000   -92.1723     8.5168   121.7805     9.1153
  421.0000   -92.1734     8.5914   120.6161     9.2381
  421.5000   -92.1729     8.6664   119.4518     9.2610
  422.0000   -92.1733     8.7429   118.2874     9.1887
  422.5000   -92.1714     8.8098   117.1231     9.1138
  423.0000   -92.1416     8.7865   115.9355     9.1674
  423.5000   -92.1029     8.7498   115.9355     9.1706
  424.0000   -92.0658     8.7161   115.9355     9.1006
  424.5000   -92.0280     8.6809   117.2717     9.0417
  425.0000   -91.9905     8.6465   118.6213     8.9850
  425.5000   -91.9529     8.6116   119.9709     8.9944
  426.0000   -91.9153     8.5770   121.3071     9.0127
  426.5000   -91.8777     8.5422   121.6965     9.0257
  427.0000   -91.8401     8.5077   122.0821     9.0475
  427.5000   -91.8026     8.4728   122.4677     9.0193
  428.0000   -91.7650     8.4386   122.8533     8.9448
  428.5000   -91.7275     8.4030   123.2389     8.8785
  429.0000   -91.6899     8.3733   123.6245     8.8087
  429.5000   -91.6524     8.3662   123.9928     8.7396
  430.0000   -91.6148     8.3578   124.2017     8.6788
  430.5000   -91.5772     8.3498   124.4017     8.6806
  431.0000   -91.5397     8.3416   124.6016     8.6968
  431.5000   -91.5021     8.3335   124.8016     8.7081
  432.0000   -91.4645     8.3253   125.0019     8.7248
  432.5000   -91.4270     8.3173   125.2026     8.7133
  433.0000   -91.3894     8.3089   125.4035     8.6778
  433.5000   -91.3519     8.3012   125.6043     8.6490
  434.0000   -91.3143     8.2921   125.7866     8.6148
  434.5000   -91.2767     8.2858   126.1599     8.6072
  435.0000   -91.2392     8.2659   126.5016     8.6183
  435.5000   -91.2016     8.2352   126.8433     8.6268
  436.0000   -91.1641     8.2076   127.1857     8.6352
  436.5000   -91.1265     8.1787   127.5286     8.6414
  437.0000   -91.0890     8.1502   127.8724     8.6173
  437.5000   -91.0514     8.1220   128.2173     8.5720
  438.0000   -91.0138     8.0928   128.5631     8.5345
  438.5000   -90.9763     8.0657   128.9099     8.4908
  439.0000   -90.9387     8.0341   129.2560     8.4778
  439.5000   -90.9012     8.0216   129.1505     8.4748
  440.0000   -90.8636     8.0941   128.7941     8.5100
  440.5000   -90.8260     8.1664   128.4398     8.5737
  441.0000   -90.7885     8.2385   128.0855     8.6276
  441.5000   -90.7509     8.3106   127.7291     8.7190
  442.0000   -90.7134     8.3828   126.6253     8.8020
  442.5000   -90.6758     8.4547   125.1448     8.8871
  443.0000   -90.6382     8.5273   123.6612     8.9702
  443.5000   -90.6007     8.5984   122.1755     9.0563
  444.0000   -90.5631     8.6727   120.7032     9.1248
  444.5000   -90.5256     8.7289   119.5166     9.1667
  445.0000   -90.4880     8.7494   119.3212     9.1960
  445.5000   -90.4504     8.7645   119.1577     9.2173
  446.0000   -90.4129     8.7833   118.9941     9.2285
  446.5000   -90.3753     8.7952   118.8305     9.2065
  447.0000   -90.3378     8.8205   118.6669     9.1411
  447.5000   -90.3002     8.7543   119.5300     9.0906
  448.0000   -90.2625     8.6342   120.7896     9.0201
  448.5000   -90.2250     8.5351   122.0492     8.9366
  449.0000   -90.1871     8.4267   123.3089     8.8626
  449.5000   -90.1498     8.3235   124.5685     8.7867
  450.0000   -90.1116     8.2050   125.8281     8.7138
  450.5000   -90.0749     8.1381   127.0877     8.5807
  451.0000   -90.0351     8.0692   128.3474     8.4630
  451.5000   -90.0091     7.9985   129.6098     8.3307
  452.0000   -90.0823     7.9289   130.8700     8.2468
  452.5000   -90.1682     7.8583   132.1280     8.1484
  453.0000   -90.2512     7.7890   133.3826     8.0940
  453.5000   -90.3356     7.7177   134.6353     8.0414
  454.0000   -90.4192     7.6496   135.8895     7.9837
  454.5000   -90.5033     7.5707   137.4056     7.9924
  455.0000   -90.5871     7.5866   137.1216     8.0408
  455.5000   -90.6712     7.6694   136.7753     8.1262
  456.0000   -90.7548     7.7473   136.0920     8.2153
  456.5000   -90.8391     7.8286   134.6837     8.3035
  457.0000   -90.9222     7.9080   133.2755     8.3921
  457.5000   -91.0078     7.9885   131.8672     8.4866
  458.0000   -91.0811     8.0685   130.4589     8.5342
  458.5000   -91.0878     8.1487   129.0506     8.5827
  459.0000   -91.0866     8.2289   127.6424     8.6480
  459.5000   -91.0870     8.3089   126.2341     8.7236
  460.0000   -91.0867     8.3890   124.8258     8.7985
  460.5000   -91.0868     8.4690   123.4175     8.8736
  461.0000   -91.0866     8.5495   122.0093     8.9488
  461.5000   -91.0866     8.6294   120.4118     9.0255
  462.0000   -91.0865     8.6162   120.4118     9.0328
  462.5000   -91.0865     8.5828   120.4118     8.9925
