~VERSION INFORMATION
 VERS.                2.0:   CWLS LOG ASCII STANDARD - VERSION 2.0
 WRAP.                 NO:   ONE LINE PER DEPTH STEP
~WELL INFORMATION
#MNEM.UNIT      DATA TYPE    INFORMATION
#----------   ------------   ------------------------------
 STRT.F           36.0000:   START DEPTH
 STOP.F          518.0000:   STOP DEPTH
 STEP.F            0.5000:   STEP LENGTH
 NULL.          -999.2500:   NO VALUE
 COMP.    FENIX & SCISSON:   COMPANY
 WELL.        NPR #57S-10:   WELL
 FLD .             TEAPOT:   FIELD
 LOC .      S10 T38N R78W:   LOCATION
 CNTY.            NATRONA:   COUNTY
 STAT.            WYOMING:   STATE
 CTRY. UNITED STATES OF AMERICA:   COUNTRY
 SRVC.              Welex:   SERVICE COMPANY
 DATE.        11-MAR-1977:   LOGDATE
 API .       490251029100:   API NUMBER
~CURVE INFORMATION
#MNEM.UNIT       API CODE    CURVE DESCRIPTION
#----------   ------------   ------------------------------
 DEPT.F                  :   
 SPR .MV     07 010 01 00:   SPONTANEOUS POTENTIAL
 ILD .OHMM   07 120 46 00:   INDUCTION LOG DEEP
 ILM .OHMM   07 120 44 00:   INDUCTION LOG MEDIUM
 SGUR.OHMM   07 220 01 00:   SHORT GUARD RESISITIVITY
 CORR.G/C3   45 356 01 00:   DENSITY CORRECTION
 CALD.IN     45 280 60 00:   CALIPER
 GRD .GAPI   45 310 01 00:   GAMMA RAY FROM DENSITY LOG
 RHOB.G/C3   45 350 01 00:   BULK DENSITY
 DPOR.DEC    45 890 12 00:   DENSITY POROSITY SANDSTONE
~PARAMETER INFORMATION
#MNEM.UNIT          VALUE    DESCRIPTION
#----------   ------------   ------------------------------
 PD  .                 GL:   PERMANENT DATUM
 EPD .F              5244:   ELEVATION PERMANENT DATUM
 LMF .                 GL:   LOG MEASURED FROM
 DMF .                 GL:   DRILLING MEASURED FROM
 EGL .F              5244:   GROUND LEVEL
 DATE.          3-11-1977:   RUN DATE
 RUN .                  1:   RUN NUMBER
 DD  .F               530:   DEPTH DRILLER
 DL  .F               522:   DEPTH LOGGER
 BLI .F               520:   BOTTOM LOG INTERVAL
 TLI .F                35:   TOP LOG INTERVAL
 CS  .IN            8.625:   CASING SIZE
 CBD .F                40:   CASING BOTTOM DRILLER
 CBL .F                44:   CASING BOTTOM LOGGER
 BS  .IN            7.875:   BIT SIZE
 BSD .F               530:   BIT SIZE AT DEPTH
 DFT .            KCL MUD:   DRILLING FLUID TYPE
 DFD .                8.8:   DRILLING FLUID DENSITY
 DFV .                  8:   DRILLING FLUID VISCOSITY
 DFPH.                 10:   DRILLING FLUID PH
 DFL .               12.4:   DRILLING FLUID LOSS
 MSS .           FLOWLINE:   MUD SAMPLE SOURCE
 RMS .OHMM           .398:   RESISTIVITY MUD SAMPLE
 MST .F                50:   MUD SAMPLE TEMPERATURE
 RMF .OHMM           .276:   RESISTIVITY MUD FILTRATE SAMPLE
 MFST.F                60:   MUD FILTRATE SAMPLE TEMPERATURE
 RMC .OHMM            .42:   RESISTIVITY MUD CAKE
 MCST.F                60:   MUD CAKE SAMPLE TEMPERATURE
 MFSS.           MEASURED:   MUD FILTRATE SAMPLE SOURCE
 RMB .OHMM            .31:   RESISTIVITY MUD AT BHT
 BHT .F                64:   BOTTOM HOLE TEMPERATURE
 TCS .HRS             2.5:   TIME CURCULATED STOPPED
 MRT .F                64:   MAXIMUM RECORDED TEMPERATURE
 LUN .               8611:   LOGGING UNIT NUMBER
 LUL .           GILLETTE:   LOGGING UNIT LOCATION
 ENGI.               DOAK:   RECORDING ENGINEER
 WITN.         STUEBINGER:   WITNESSED BY
 CLNT.            A2DTECH:   CLIENT CODE
 ORIG.      2" & 5" PRINT:   ORIGIN OF DATA
 UWI .       490251029100:   UNIQUE WELL ID
 DICO. A2D Technologies, Inc.:   DIGITIZING COMPANY
~OTHER INFORMATION
~A   DEPT      SPR        ILD        ILM       SGUR        CORR        CALD      GRD       RHOB       DPOR   
   36.0000  -999.2500  -999.2500  -999.2500  -999.2500    -0.3373     8.0817   102.0916  -999.2500  -999.2500
   36.5000  -999.2500  -999.2500  -999.2500  -999.2500    -0.3293     8.0817   101.6705  -999.2500  -999.2500
   37.0000  -999.2500  -999.2500  -999.2500  -999.2500    -0.2965     8.0509    98.5287  -999.2500  -999.2500
   37.5000  -999.2500  -999.2500  -999.2500  -999.2500    -0.2542     8.0302    95.3870  -999.2500  -999.2500
   38.0000  -999.2500  -999.2500  -999.2500  -999.2500    -0.2224     8.0148    93.0231  -999.2500  -999.2500
   38.5000  -999.2500  -999.2500  -999.2500  -999.2500    -0.1801     7.9944    89.8779  -999.2500  -999.2500
   39.0000  -999.2500  -999.2500  -999.2500  -999.2500    -0.1389     7.9940    89.1688  -999.2500  -999.2500
   39.5000  -999.2500  -999.2500  -999.2500  -999.2500    -0.0834     8.0226    90.4378  -999.2500  -999.2500
   40.0000  -999.2500  -999.2500  -999.2500  -999.2500    -0.0264     8.0510    92.7378  -999.2500  -999.2500
   40.5000  -999.2500  -999.2500  -999.2500  -999.2500     0.0271     8.0795    94.9960  -999.2500  -999.2500
   41.0000  -999.2500  -999.2500  -999.2500  -999.2500     0.0604     8.1075    97.1764  -999.2500  -999.2500
   41.5000  -999.2500  -999.2500  -999.2500  -999.2500     0.0952     8.1352    98.3689  -999.2500  -999.2500
   42.0000  -999.2500  -999.2500  -999.2500  -999.2500     0.1164     8.1809    99.6464  -999.2500  -999.2500
   42.5000  -999.2500  -999.2500  -999.2500  -999.2500     0.0843     8.3987   101.2207  -999.2500  -999.2500
   43.0000  -999.2500  -999.2500  -999.2500  -999.2500     0.0607     9.0575   103.7697  -999.2500  -999.2500
   43.5000  -999.2500  -999.2500  -999.2500  -999.2500     0.0487     9.7367   106.2510     2.0990  -999.2500
   44.0000   -72.6964     0.4318     6.2074     4.9097     0.0409    10.2171   108.7347     2.2816     0.2343
   44.5000   -73.3253     0.3238     6.8012     7.1944     0.0462     9.9254   111.0182     2.3618     0.1732
   45.0000   -73.9454     0.2552     6.8679     7.9727     0.0512     8.9567   110.9236     2.3607     0.1689
   45.5000   -74.5660     0.3232     6.9084     8.7022     0.0556     8.0603   110.2728     2.3510     0.1689
   46.0000   -75.1858     0.5485     6.8155     8.9062     0.0510     8.0361   109.6572     2.3628     0.1682
   46.5000   -76.0485     0.9902     7.9731     9.1261     0.0492     8.0407   110.3878     2.3744     0.1617
   47.0000   -77.1542     1.3621     8.4335     9.3516     0.0525     8.0417   113.2122     2.3853     0.1552
   47.5000   -78.2593     3.8826     8.5141     9.5822     0.0531     8.0418   116.0171     2.3930     0.1508
   48.0000   -79.3651     5.6180     8.5371     9.8185     0.0517     8.0418   118.8261     2.3999     0.1484
   48.5000   -80.4710     5.5914     8.5610    10.0307     0.0504     8.0368   121.1998     2.3965     0.1512
   49.0000   -81.5759     5.5551     8.6671     9.9737     0.0490     8.0279   119.9161     2.3906     0.1541
   49.5000   -82.6818     5.5156     8.9563     9.9388     0.0477     8.0189   118.5104     2.3856     0.1539
   50.0000   -83.4002     6.2249     9.2531    11.1208     0.0462     8.0099   117.7325     2.3937     0.1522
   50.5000   -83.7310     7.8857     9.4050    11.4097     0.0478     8.0009   120.3236     2.4050     0.1477
   51.0000   -84.0629     8.2763     9.4050    11.6795     0.0504     7.9918   123.1165     2.4163     0.1406
   51.5000   -84.3936     8.1392     9.4050    12.2774     0.0531     7.9825   125.5273     2.4276     0.1335
   52.0000   -84.7252     7.9271     9.4049    12.0255     0.0558     7.9845   124.7416     2.4376     0.1282
   52.5000   -85.0592     7.4724     9.4047    11.8399     0.0584     7.9874   122.1135     2.4408     0.1270
   53.0000   -85.3997     7.6804     9.4438    12.0978     0.0612     7.9902   119.5096     2.4442     0.1259
   53.5000   -85.4184     8.3433     9.4919    12.3947     0.0600     7.9930   118.4858     2.4477     0.1247
   54.0000   -85.4159     8.2680     9.2962    11.8509     0.0574     7.9958   118.7974     2.4511     0.1234
   54.5000   -85.4702     7.6318     9.1260    11.2016     0.0548     7.9986   120.2724     2.4545     0.1218
   55.0000   -85.9269     6.5692     8.9821    11.5976     0.0521     8.0014   121.7336     2.4567     0.1206
   55.5000   -86.3861     6.6257     9.0659    12.2851     0.0495     8.0042   122.0230     2.4559     0.1217
   56.0000   -87.3170     6.7003     9.1401    12.2783     0.0469     8.0070   121.8401     2.4506     0.1242
   56.5000   -88.6816     6.7625     9.2149    13.4649     0.0443     8.0098   120.4907     2.4438     0.1268
   57.0000   -90.0440     6.8253     9.4095    13.3289     0.0417     8.0126   119.0346     2.4370     0.1294
   57.5000   -91.4119     6.9225     9.6484    13.1876     0.0398     8.0155   117.5639     2.4303     0.1321
   58.0000   -92.7735     7.2055     9.8934    13.0983     0.0397     8.0183   116.8003     2.4260     0.1333
   58.5000   -93.8822     7.4986    10.1446    14.1159     0.0395     8.0212   120.3822     2.4410     0.1321
   59.0000   -93.0740     7.7510    10.4022    15.0367     0.0393     8.0219   121.1720     2.4370     0.1286
   59.5000   -92.2778     7.6483    10.6663    14.8084     0.0392     8.0219   119.8735     2.4329     0.1269
   60.0000   -90.7553     7.5414    10.9974    14.6274     0.0390     8.0219   121.4026     2.4353     0.1316
   60.5000   -87.6825     7.5960    10.9221    15.1757     0.0388     8.0209   123.4082     2.4266     0.1350
   61.0000   -84.6262     7.6665    10.8264    14.9165     0.0387     8.0170   125.5076     2.4168     0.1385
   61.5000   -81.3783     7.7525    10.7316    14.2902     0.0385     8.0133   126.0750     2.4069     0.1421
   62.0000   -77.9287     7.6959    10.6000    13.6903     0.0383     8.0096   124.0450     2.4049     0.1376
   62.5000   -74.4904     7.6252    10.7050    13.3415     0.0382     8.0058   122.5228     2.4290     0.1328
   63.0000   -71.0590     7.5550    10.8831    13.8953     0.0380     8.0021   121.5089     2.4413     0.1280
   63.5000   -67.7143     7.4856    11.0990    14.1621     0.0373     7.9984   124.0033     2.4467     0.1245
   64.0000   -65.2833     7.3972    10.8468    14.4340     0.0362     7.9946   126.0321     2.4443     0.1264
   64.5000   -62.7908     7.3056    10.5428    14.7112     0.0351     7.9909   127.7337     2.4385     0.1297
   65.0000   -60.2935     7.2149    10.2940    14.7626     0.0340     7.9872   129.3956     2.4366     0.1301
   65.5000   -59.1090     7.1254    10.2151    13.1902     0.0329     7.9834   131.1069     2.4426     0.1266
   66.0000   -57.9747     7.0370    10.1367    12.0263     0.0318     7.9797   131.5774     2.4435     0.1258
   66.5000   -56.8274     6.9497    10.0779    11.4097     0.0306     7.9760   131.7799     2.4404     0.1282
   67.0000   -55.6919     6.8635    10.0233    11.4652     0.0301     7.9722   131.6568     2.4377     0.1297
   67.5000   -55.3706     6.8155     9.9690    11.5130     0.0306     7.9684   130.4866     2.4447     0.1281
   68.0000   -55.4297     6.8479     9.9388    11.2920     0.0311     7.9649   126.6227     2.4521     0.1252
   68.5000   -55.7279     6.8705    10.1187    10.9974     0.0315     7.9670   122.4817     2.4595     0.1224
   69.0000   -55.8204     6.9597    10.2658    11.3047     0.0318     7.9858   118.3263     2.4558     0.1195
   69.5000   -55.7711     7.0866    10.4151    12.1624     0.0306     8.0019   115.3126     2.4455     0.1182
   70.0000   -55.7197     7.2159    10.5665    13.2193     0.0294     8.0021   113.4475     2.4352     0.1211
   70.5000   -55.6744     7.3475    10.7203    12.8736     0.0283     8.0020   111.5865     2.4227     0.1241
   71.0000   -55.2661     7.4724    10.8966    12.4833     0.0271     8.0020   110.4354     2.4273     0.1258
   71.5000   -54.7711     7.5293    10.8702    12.2812     0.0260     8.0020   110.6740     2.4278     0.1258
   72.0000   -54.2625     7.5837    10.8398    12.7371     0.0271     8.0020   113.1357     2.4267     0.1238
