~VERSION INFORMATION
 VERS.                2.0:   CWLS LOG ASCII STANDARD - VERSION 2.0
 WRAP.                 NO:   ONE LINE PER DEPTH STEP
~WELL INFORMATION
#MNEM.UNIT      DATA TYPE    INFORMATION
#----------   ------------   ------------------------------
 STRT.F           85.5000:   START DEPTH
 STOP.F         1080.5000:   STOP DEPTH
 STEP.F            0.5000:   STEP LENGTH
 NULL.          -999.2500:   NO VALUE
 COMP.         U.S.  NAVY:   COMPANY
 WELL.  N.P.R. #3 #67-S-2:   WELL
 FLD .             TEAPOT:   FIELD
 LOC .       S2 T38N R78W:   LOCATION
 CNTY.            NATRONA:   COUNTY
 STAT.            WYOMING:   STATE
 CTRY. UNITED STATES OF AMERICA:   COUNTRY
 SRVC.       Schlumberger:   SERVICE COMPANY
 DATE.        20-JUL-1964:   LOGDATE
 API .       490250639700:   API NUMBER
~CURVE INFORMATION
#MNEM.UNIT       API CODE    CURVE DESCRIPTION
#----------   ------------   ------------------------------
 DEPT.F                  :   
 GR  .GAPI   30 310 01 00:   GAMMA RAY
 DT  .US/F   60 520 33 00:   INTERVAL TRANSIT TIME
 SPR .MV     06 010 01 00:   SPONTANEOUS POTENTIAL
 CILD.MMHO   06 110 46 00:   CONDUCTIVITY INDUCTION LOG DEEP
 ASN .OHMM   06 041 16 00:   AMPLIFIED SHORT NORMAL 16"
 ILD .OHMM   06 120 46 00:   INDUCTION LOG DEEP
~PARAMETER INFORMATION
#MNEM.UNIT          VALUE    DESCRIPTION
#----------   ------------   ------------------------------
 PD  .                 GL:   PERMANENT DATUM
 EPD .F              5207:   ELEVATION PERMANENT DATUM
 LMF .                 KB:   LOG MEASURED FROM
 DAPD.F                 5:   FEET ABOVE PERMANENT DATUM
 DMF .                 KB:   DRILLING MEASURED FROM
 EKB .F              5212:   KELLING BUSHING
 EGL .F              5207:   GROUND LEVEL
 DATE.          7-20-1964:   RUN DATE
 RUN .                  1:   RUN NUMBER
 DD  .F              1080:   DEPTH DRILLER
 DL  .F              1081:   DEPTH LOGGER
 BLI .F              1080:   BOTTOM LOG INTERVAL
 TLI .F                86:   TOP LOG INTERVAL
 CS  .IN            8.625:   CASING SIZE
 CBD .F                10:   CASING BOTTOM DRILLER
 BS  .IN             6.75:   BIT SIZE
 BSD .F              1080:   BIT SIZE AT DEPTH
 DFT .            GEL-OIL:   DRILLING FLUID TYPE
 DFD .                9.5:   DRILLING FLUID DENSITY
 DFV .                 43:   DRILLING FLUID VISCOSITY
 MSS .           FLOWLINE:   MUD SAMPLE SOURCE
 RMS .OHMM           1.85:   RESISTIVITY MUD SAMPLE
 MST .F                83:   MUD SAMPLE TEMPERATURE
 RMF .OHMM           1.29:   RESISTIVITY MUD FILTRATE SAMPLE
 MFST.F                83:   MUD FILTRATE SAMPLE TEMPERATURE
 RMC .OHMM           2.49:   RESISTIVITY MUD CAKE
 MCST.F                83:   MUD CAKE SAMPLE TEMPERATURE
 MFSS.                 FP:   MUD FILTRATE SAMPLE SOURCE
 MCSS.                 FP:   MUD CAKE SAMPLE SOURCE
 TCS .HRS               2:   TIME CURCULATED STOPPED
 LUN .               4507:   LOGGING UNIT NUMBER
 LUL .               CSPR:   LOGGING UNIT LOCATION
 ENGI.             DANNER:   RECORDING ENGINEER
 WITN.          JORGENSEN:   WITNESSED BY
 CLNT.            A2DTECH:   CLIENT CODE
 ORIG.           2" PRINT:   ORIGIN OF DATA
 UWI .       490250639700:   UNIQUE WELL ID
 DICO. A2D Technologies, Inc.:   DIGITIZING COMPANY
~OTHER INFORMATION
~A   DEPT       GR         DT        SPR       CILD        ASN        ILD   
# ...
  449.5000  -999.2500  -999.2500   -22.8310   221.6160     4.6027     4.2755
  450.0000  -999.2500  -999.2500   -23.0613   220.6175     4.7250     4.3319
  450.5000  -999.2500  -999.2500   -23.3428   219.6215     4.8479     4.2993
  451.0000  -999.2500  -999.2500   -23.4051   220.2888     4.9696     4.2652
  451.5000  -999.2500  -999.2500   -23.4831   220.9545     4.9698     4.2327
  452.0000  -999.2500  -999.2500   -23.4689   227.5896     4.8770     4.2321
  452.5000  -999.2500  -999.2500   -23.1909   233.6404     4.6959     4.0814
  453.0000  -999.2500  -999.2500   -22.9160   239.5418     4.5140     3.9312
  453.5000  -999.2500  -999.2500   -22.6385   259.8108     4.3329     3.7818
  454.0000  -999.2500  -999.2500   -22.3633   279.7809     4.1510     3.6318
  454.5000  -999.2500  -999.2500   -22.0860   299.7510     3.9739     3.4824
  455.0000  -999.2500  -999.2500   -21.7555   309.8904     3.8858     3.3326
  455.5000  -999.2500  -999.2500   -21.7091   311.0887     3.8001     3.1832
  456.0000  -999.2500  -999.2500   -21.6528   312.2510     3.7139     3.0379
  456.5000  -999.2500  -999.2500   -21.5951   320.7352     3.6281     3.0194
  457.0000  -999.2500  -999.2500   -21.5386   328.9729     3.5421     3.0011
  457.5000  -999.2500  -999.2500   -21.4813   337.2105     3.4562     2.9832
  458.0000  -999.2500  -999.2500   -21.4246   345.1195     3.4166     2.9649
  458.5000  -999.2500  -999.2500   -21.3580   347.1962     3.4167     2.9471
  459.0000  -999.2500  -999.2500   -21.3908   349.1932     3.4169     2.8200
  459.5000  -999.2500  -999.2500   -21.4296   351.1902     3.4167     2.6028
  460.0000  -999.2500  -999.2500   -21.4686   372.1258     3.2914     2.3843
  460.5000  -999.2500  -999.2500   -21.5075   408.6426     3.1713     2.1672
  461.0000  -999.2500  -999.2500   -21.5464   445.1594     3.0518     1.9486
  461.5000  -999.2500  -999.2500   -21.5853   479.5817     2.9316     1.7442
  462.0000  -999.2500  -999.2500   -21.6241   476.9422     2.8122     1.9240
  462.5000  -999.2500  -999.2500   -21.6630   474.6016     2.6994     2.0961
  463.0000  -999.2500  -999.2500   -21.7019   447.0219     2.6800     2.2661
  463.5000  -999.2500  -999.2500   -21.7409   421.0608     2.6992     2.4381
  464.0000  -999.2500  -999.2500   -21.7797   395.0996     2.7912     2.6082
  464.5000  -999.2500  -999.2500   -21.8187   369.1385     2.8759     2.7803
  465.0000  -999.2500  -999.2500   -21.8576   343.1773     2.9623     2.9377
  465.5000  -999.2500  -999.2500   -21.8965   317.2161     3.2276     3.1531
  466.0000  -999.2500  -999.2500   -21.9354   291.2550     3.6278     3.3520
  466.5000  -999.2500  -999.2500   -21.9744   265.2938     3.9933     3.5523
  467.0000  -999.2500  -999.2500   -22.0133   255.4781     3.9943     3.7345
  467.5000  -999.2500  -999.2500   -22.0523   254.4821     3.9934     3.5833
  468.0000  -999.2500  -999.2500   -22.0913   266.1529     3.9455     3.4432
  468.5000  -999.2500  -999.2500   -22.1302   276.8868     3.8997     3.3038
  469.0000  -999.2500  -999.2500   -22.1283   287.6208     3.8556     3.1638
  469.5000  -999.2500  -999.2500   -22.0739   297.3108     3.8145     3.0379
  470.0000  -999.2500  -999.2500   -22.0195   324.1534     3.6835     2.7562
  470.5000  -999.2500  -999.2500   -21.9651   348.6168     3.5635     2.4997
  471.0000  -999.2500  -999.2500   -21.9107   373.0802     3.4438     2.2431
  471.5000  -999.2500  -999.2500   -21.8563   397.5436     3.3241     2.1421
  472.0000  -999.2500  -999.2500   -21.8019   422.0070     3.2041     2.1826
  472.5000  -999.2500  -999.2500   -21.7475   443.7251     3.0848     2.2492
  473.0000  -999.2500  -999.2500   -21.6931   443.7251     2.9891     2.3158
  473.5000  -999.2500  -999.2500   -21.6387   419.8741     2.9194     2.3415
  474.0000  -999.2500  -999.2500   -21.5844   398.4775     3.1629     2.4979
  474.5000  -999.2500  -999.2500   -21.5877   377.0810     3.3823     2.7509
  475.0000  -999.2500  -999.2500   -21.6509   350.8964     3.6000     3.0036
  475.5000  -999.2500  -999.2500   -21.7138   321.8650     3.8193     3.2566
  476.0000  -999.2500  -999.2500   -21.7771   292.8070     4.0371     3.5093
  476.5000  -999.2500  -999.2500   -21.8398   263.7757     4.2563     3.7623
  477.0000  -999.2500  -999.2500   -21.9031   234.7176     4.4743     4.0150
  477.5000  -999.2500  -999.2500   -21.9658   209.6701     4.6934     4.2333
  478.0000  -999.2500  -999.2500   -22.0292   207.5338     4.9114     4.4601
  478.5000  -999.2500  -999.2500   -22.0917   204.2190     5.0159     4.6597
  479.0000  -999.2500  -999.2500   -22.1528   200.8802     5.0554     4.8593
  479.5000  -999.2500  -999.2500   -22.3366   196.2414     5.0956     5.0589
  480.0000  -999.2500  -999.2500   -22.5146   190.8560     5.2582     5.2586
  480.5000  -999.2500  -999.2500   -22.6913   185.4899     5.4880     5.4581
  481.0000  -999.2500  -999.2500   -22.8694   180.1047     5.7174     5.6579
  481.5000  -999.2500  -999.2500   -23.0461   174.7349     5.9472     5.8259
  482.0000  -999.2500  -999.2500   -23.2243   169.3517     6.1766     5.8809
  482.5000  -999.2500  -999.2500   -23.4009   164.8514     6.4065     5.9639
  483.0000  -999.2500  -999.2500   -23.5791   164.8460     6.5684     6.0474
  483.5000  -999.2500  -999.2500   -23.7408   165.2357     6.6964     6.1304
  484.0000  -999.2500  -999.2500   -23.6513   165.5647     6.8024     6.2138
  484.5000  -999.2500  -999.2500   -23.5675   165.8983     6.8025     6.2968
  485.0000  -999.2500  -999.2500   -23.4849   166.2283     6.8024     6.3243
  485.5000  -999.2500  -999.2500   -23.4013   166.5616     6.7621     6.2930
  486.0000  -999.2500  -999.2500   -23.3186   166.8339     6.7021     6.2473
  486.5000  -999.2500  -999.2500   -23.2351   167.9497     6.6424     6.2010
  487.0000  -999.2500  -999.2500   -23.1522   168.8949     6.5824     6.1553
  487.5000  -999.2500  -999.2500   -23.0689   169.8405     6.5774     6.1090
  488.0000  -999.2500  -999.2500   -22.9859   170.7857     6.5973     6.0634
  488.5000  -999.2500  -999.2500   -22.9027   171.7317     6.6174     6.0170
  489.0000  -999.2500  -999.2500   -22.8195   172.6766     6.6234     5.9714
  489.5000  -999.2500  -999.2500   -22.7485   173.6233     6.6016     5.9249
  490.0000  -999.2500  -999.2500   -22.7653   174.5677     6.5830     5.8793
  490.5000  -999.2500  -999.2500   -22.7803   175.5161     6.5648     5.8327
  491.0000  -999.2500  -999.2500   -22.7949   174.8606     6.5462     5.7871
  491.5000  -999.2500  -999.2500   -22.8099   173.5292     6.5280     5.7406
  492.0000  -999.2500  -999.2500   -22.8244   172.1979     6.5094     5.7276
  492.5000  -999.2500  -999.2500   -22.8393   170.8665     6.4843     5.9497
  493.0000  -999.2500  -999.2500   -22.8539   169.8207     6.5989     6.1226
  493.5000  -999.2500  -999.2500   -22.8688   165.4552     6.7320     6.2954
  494.0000    50.1949  -999.2500   -22.8834   161.8606     6.8650     6.4682
  494.5000    50.9457  -999.2500   -22.8983   156.2990     6.9979     6.6415
  495.0000    52.2463  -999.2500   -22.9128   149.9751     7.1010     6.8136
  495.5000    53.3059  -999.2500   -22.9277   143.6512     7.1986     6.9876
  496.0000    52.4737  -999.2500   -22.9423   140.4781     7.2785     7.1195
  496.5000    50.5046  -999.2500   -22.8901   138.4811     7.3581     7.0939
  497.0000    52.7199  -999.2500   -22.8104   138.5339     7.3796     7.0696
  497.5000    48.3083  -999.2500   -22.7311   139.3327     7.3793     7.0499
  498.0000    43.5463  -999.2500   -22.6514   139.9402     7.2721     7.0251
  498.5000    46.8220  -999.2500   -22.5721   143.3096     7.1255     6.9378
  499.0000    50.7151  -999.2500   -22.4924   146.0281     6.9793     6.8206
  499.5000    52.4398   100.4351   -22.4131   148.7467     6.8971     6.7105
  500.0000    53.8362   101.4083   -22.3334   151.4652     6.8229     6.6213
  500.5000    48.4730   102.3815   -22.2541   154.1838     6.5897     5.3870
  501.0000    53.4085   102.9782   -22.1743   148.9044     6.3066     4.3917
