~VERSION INFORMATION
 VERS.                2.0:   CWLS LOG ASCII STANDARD - VERSION 2.0
 WRAP.                 NO:   ONE LINE PER DEPTH STEP
~WELL INFORMATION
#MNEM.UNIT      DATA TYPE    INFORMATION
#----------   ------------   ------------------------------
 STRT.F            0.0000:   START DEPTH
 STOP.F          814.0000:   STOP DEPTH
 STEP.F            0.5000:   STEP LENGTH
 NULL.          -999.2500:   NO VALUE
 COMP.   FLUOR DANIEL INC:   COMPANY
 WELL. NAVAL PETROLEUM RESERVE 3 SHX- #1-34:   WELL
 FLD .          N.P.R. #3:   FIELD
 LOC .      S34 T39N R78W:   LOCATION
 CNTY.            NATRONA:   COUNTY
 STAT.            WYOMING:   STATE
 CTRY. UNITED STATES OF AMERICA:   COUNTRY
 SRVC.      Western Atlas:   SERVICE COMPANY
 DATE.        24-JAN-1995:   LOGDATE
 API .       490252269400:   API NUMBER
~CURVE INFORMATION
#MNEM.UNIT       API CODE    CURVE DESCRIPTION
#----------   ------------   ------------------------------
 DEPT.F                  :   
 GRR .GAPI   07 310 01 00:   GAMMA RAY FROM RES. LOG.
 RILD.OHMM   07 120 46 00:   INDUCTION LOG DEEP RESISTIVITY
 RILM.OHMM   07 120 44 00:   INDUCTION LOG MEDIUM RESISTIVITY
~PARAMETER INFORMATION
#MNEM.UNIT          VALUE    DESCRIPTION
#----------   ------------   ------------------------------
 PD  .                 GL:   PERMANENT DATUM
 EPD .F              5089:   ELEVATION PERMANENT DATUM
 LMF .                 KB:   LOG MEASURED FROM
 DAPD.F                10:   FEET ABOVE PERMANENT DATUM
 DMF .                 KB:   DRILLING MEASURED FROM
 EKB .F              5099:   KELLING BUSHING
 EDF .F              5098:   DRILLING FLOOR
 EGL .F              5089:   GROUND LEVEL
 DATE.        24-JAN-1995:   RUN DATE
 RUN .                  1:   RUN NUMBER
 DD  .F               826:   DEPTH DRILLER
 DL  .F               824:   DEPTH LOGGER
 BLI .F               817:   BOTTOM LOG INTERVAL
 CS  .IN            9.625:   CASING SIZE
 CBD .F                95:   CASING BOTTOM DRILLER
 CBL .F                94:   CASING BOTTOM LOGGER
 BS  .IN             8.75:   BIT SIZE
 BSD .F               826:   BIT SIZE AT DEPTH
 DFT .                AIR:   DRILLING FLUID TYPE
 MRT .F                90:   MAXIMUM RECORDED TEMPERATURE
 LUN .            HL 6321:   LOGGING UNIT NUMBER
 LUL .         FT. MORGAN:   LOGGING UNIT LOCATION
 ENGI.  MARSHALL BENFIELD:   RECORDING ENGINEER
 WITN.        GARY STRONG:   WITNESSED BY
 CLNT.            A2DTECH:   CLIENT CODE
 ORIG.           5" PRINT:   ORIGIN OF DATA
 UWI .       490252269400:   UNIQUE WELL ID
 DICO. A2D Technologies, Inc.:   DIGITIZING COMPANY
~OTHER INFORMATION
~A    DEPT      GRR      RILD       RILM   
# ...
  182.0000   118.1455     5.5051     5.5012
  182.5000   119.1895     5.4871     5.4893
  183.0000   120.4312     5.4871     5.4827
  183.5000   116.7375     5.6767     5.6968
  184.0000   112.1258     5.8509     5.8370
  184.5000   108.6997     6.0304     5.9779
  185.0000   111.7267     6.2155     6.1219
  185.5000   115.5252     6.4063     6.2696
  186.0000   119.2470     6.6029     6.4212
  186.5000   116.1674     6.8055     6.5757
  187.0000   111.1798     7.0144     6.7237
  187.5000   108.8290     7.1729     6.7237
  188.0000   108.2967     7.1729     6.7237
  188.5000   104.0959     7.0435     6.7244
  189.0000    99.2987     6.9878     6.7223
  189.5000    95.4571     6.8491     6.7274
  190.0000    96.0534     6.3612     6.4121
  190.5000   100.3739     5.9006     6.4382
  191.0000   104.4385     5.0504     5.0837
  191.5000   103.3923     4.0615     4.0992
  192.0000   101.5385     3.2663     3.2966
  192.5000   103.3254     2.6267     2.6511
  193.0000   115.3065     2.2454     2.2702
  193.5000   126.3244     2.0758     2.1073
  194.0000   133.9349     1.9191     1.9560
  194.5000   139.2256     1.7943     1.8445
  195.0000   138.7594     1.7943     1.8431
  195.5000   136.9552     1.9064     2.0641
  196.0000   133.4282     2.1186     2.3744
  196.5000   128.9057     2.3545     2.9234
  197.0000   123.4644     2.8181     3.5993
  197.5000   115.5321     3.4894     4.4316
  198.0000   105.0801     4.3209     5.4563
  198.5000    98.2962     5.3503     6.7179
  199.0000    93.8582     6.6213     8.2712
  199.5000    90.9895     8.0882     9.0791
  200.0000    88.8304     9.7295     9.8198
  200.5000    87.6352    10.0029    10.1011
  201.0000    87.1253     9.9109    10.1037
  201.5000    87.4773     9.1005     9.0765
  202.0000    89.6149     8.2432     8.0546
  202.5000    92.3325     7.4668     7.1481
  203.0000    98.3492     6.7634     6.3436
  203.5000   107.3548     6.1263     5.6296
  204.0000   116.2721     5.5381     5.2360
  204.5000   117.5374     5.3867     5.1888
  205.0000   117.1701     5.3371     5.4705
  205.5000   116.5407     5.3371     5.8348
  206.0000   113.2247     5.4367     6.2234
  206.5000   108.2309     5.5894     6.6378
  207.0000   105.1438     6.1630     7.0799
  207.5000   103.4384     6.8349     7.5515
  208.0000   101.7757     7.5801     8.0544
  208.5000   100.0994     8.1632     8.5491
  209.0000    99.3370     8.3185     8.7232
  209.5000    98.9579     8.4982     8.8590
  210.0000    98.2009     8.6817     8.9970
  210.5000    97.2062     8.8692     9.1370
  211.0000    97.1923     9.0608     9.2793
  211.5000    97.5426     9.2564     9.4238
  212.0000    97.9101     9.4521     9.5706
  212.5000    96.6723     9.6479     9.7356
  213.0000    94.2337     9.6520     9.7780
  213.5000    92.5121     9.6700     9.8206
  214.0000    92.8459     9.6840     9.8633
  214.5000    95.1663     9.6980     9.9062
  215.0000    97.4943     9.7122     9.9493
  215.5000    99.8221     9.7304     9.9926
  216.0000   101.9362     9.7285    10.0239
  216.5000   102.1803     9.8630    10.1402
  217.0000   102.3478     9.9773    10.2577
  217.5000   103.5341    10.0930    10.3768
  218.0000   104.9510    10.2101    10.4973
  218.5000   104.3931    10.3285    10.6184
  219.0000   100.7051    10.3795    10.6722
  219.5000    97.2467    10.3574    10.6492
  220.0000    98.1375    10.3415    10.6333
  220.5000    99.4499    10.3256    10.6175
  221.0000    97.7459    10.3096    10.6012
  221.5000    95.6431    10.2931    10.5861
  222.0000    94.7834    10.2829    10.5737
  222.5000    95.1320    10.4248    10.9219
  223.0000    97.0592    10.5680    11.2241
  223.5000   100.4063    10.7132    11.3840
  224.0000   102.2641    10.8701    11.3844
  224.5000   101.1309    11.0800    11.3829
  225.0000   100.3904    11.0694    11.3821
  225.5000   101.3769    11.3541    11.5519
  226.0000   102.8160    11.5372    11.8311
  226.5000   101.6507    11.8126    12.0889
  227.0000    99.0364    12.0861    12.3849
  227.5000    95.9819    12.6049    13.4004
  228.0000    92.9011    13.1460    14.4992
  228.5000    91.4410    13.7103    15.6933
  229.0000    90.3200    14.2988    16.7887
  229.5000    89.2806    15.0196    16.7802
  230.0000    90.6218    15.1589    16.6931
  230.5000    93.1901    15.0679    16.0321
  231.0000    98.2786    14.8814    15.3990
  231.5000   101.5217    14.5007    14.7923
  232.0000   101.5254    14.1326    14.2097
  232.5000    99.2938    13.7737    14.0561
  233.0000    99.5547    13.4240    13.8835
  233.5000   100.0834    13.0760    13.7131
  234.0000   100.3101    12.8984    13.5447
  234.5000    99.7723    12.7555    13.3785
  235.0000    99.2521    12.6141    13.2142
  235.5000    99.1376    12.4743    13.0520
  236.0000   101.8727    12.3361    12.8918
  236.5000   105.5347    12.1445    12.7335
  237.0000   108.5750    12.2572    12.5772
  237.5000   106.2184    12.0885    12.4228
  238.0000   100.2123    11.9368    12.2722
  238.5000    96.7205    11.5934    11.9192
  239.0000   101.2791    11.2599    11.5763
  239.5000   107.0954    10.9360    11.2390
  240.0000   109.1159    10.3795    10.6765
  240.5000   108.5714     9.6099     9.8801
  241.0000   108.0032     8.8974     9.1476
  241.5000   107.7441     8.2376     8.4691
  242.0000   111.6220     7.6265     7.8408
  242.5000   121.2547     7.0617     7.2600
  243.0000   128.9543     6.6487     6.8365
  243.5000   132.1723     6.3164     6.4954
  244.0000   132.2453     6.0046     6.1714
  244.5000   130.8248     5.8537     6.0182
  245.0000   128.8763     5.8821     6.0328
  245.5000   126.9294     5.9210     6.0527
  246.0000   124.1720     5.9601     6.0726
  246.5000   120.9601     5.9995     6.0927
  247.0000   120.1411     6.0392     6.1127
  247.5000   122.7042     6.0745     6.1308
  248.0000   129.5378     6.0811     6.1377
  248.5000   134.5409     6.0888     6.1453
  249.0000   133.4829     6.0965     6.1531
  249.5000   130.6073     6.1042     6.1608
  250.0000   132.3710     6.1118     6.1686
  250.5000   134.9376     6.1195     6.1764
  251.0000   136.7207     6.1273     6.1845
  251.5000   132.6151     6.1570     6.2144
  252.0000   124.9934     6.2028     6.2604
  252.5000   119.5881     6.2487     6.3067
  253.0000   118.0594     6.2950     6.3534
  253.5000   120.2730     6.3610     6.4200
  254.0000   123.6987     6.3383     6.3971
  254.5000   127.1401     6.2978     6.3563
  255.0000   128.5225     6.2580     6.3161
  255.5000   125.0259     6.2185     6.2762
  256.0000   121.5952     6.1793     6.2366
  256.5000   122.5270     6.1403     6.1972
  257.0000   125.2931     6.1015     6.1581
  257.5000   128.1077     6.0630     6.1192
  258.0000   129.7821     6.0247     6.0805
  258.5000   130.9420     5.9867     6.0420
  259.0000   130.7390     5.9628     6.0179
  259.5000   129.9675     6.0453     6.0986
  260.0000   127.4406     6.1162     6.1678
  260.5000   124.4459     6.1879     6.2378
  261.0000   121.4235     6.2605     6.3085
  261.5000   118.4037     6.3340     6.3800
  262.0000   115.3986     6.4083     6.4528
  262.5000   113.6528     6.4798     6.5433
  263.0000   113.7481     6.5666     6.6469
  263.5000   116.1149     6.6505     6.7518
  264.0000   119.4056     6.7354     6.8583
  264.5000   122.6623     6.8214     6.9665
  265.0000   125.1816     6.9085     7.0764
  265.5000   126.6523     6.9968     7.1881
  266.0000   128.1309     7.0759     7.3018
  266.5000   129.4045     7.1899     7.4147
  267.0000   128.7257     7.3067     7.5084
  267.5000   126.9342     7.2765     7.4429
  268.0000   125.1623     7.2391     7.4110
  268.5000   125.3889     7.2018     7.3730
  269.0000   125.4350     7.1647     7.3352
  269.5000   122.3187     7.1278     7.2977
  270.0000   117.6489     7.0911     7.2603
  270.5000   113.4147     7.0546     7.2231
  271.0000   115.1224     7.0182     7.1861
  271.5000   119.0404     6.9821     7.1492
  272.0000   124.8207     6.9461     7.1126
  272.5000   130.1206     6.9102     7.0762
