~VERSION INFORMATION
 VERS.                2.0:   CWLS LOG ASCII STANDARD - VERSION 2.0
 WRAP.                 NO:   ONE LINE PER DEPTH STEP
~WELL INFORMATION
#MNEM.UNIT      DATA TYPE    INFORMATION
#----------   ------------   ------------------------------
 STRT.F           14.0000:   START DEPTH
 STOP.F          500.0000:   STOP DEPTH
 STEP.F            0.1000:   STEP LENGTH
 NULL.          -999.2500:   NO VALUE
 COMP. LAWRENCE/ALLISON INC:   COMPANY
 WELL.    72-46 SX #10-10:   WELL
 FLD .             TEAPOT:   FIELD
 LOC .      S10 T38N R78W:   LOCATION
 CNTY.            NATRONA:   COUNTY
 STAT.            WYOMING:   STATE
 CTRY. UNITED STATES OF AMERICA:   COUNTRY
 SRVC.           Gearhart:   SERVICE COMPANY
 DATE.        22-MAY-1988:   LOGDATE
 API .       490251122600:   API NUMBER
~CURVE INFORMATION
#MNEM.UNIT       API CODE    CURVE DESCRIPTION
#----------   ------------   ------------------------------
 DEPT.F                  :   
 GRR .GAPI   07 310 01 00:   GAMMA RAY
 RILD.OHMM   07 120 46 00:   INDUCTION LOG DEEP RESISTIVITY
 RILM.OHMM   07 120 44 00:   INDUCTION LOG MEDIUM RESISTIVITY
~PARAMETER INFORMATION
#MNEM.UNIT          VALUE    DESCRIPTION
#----------   ------------   ------------------------------
 PD  .                 GL:   PERMANENT DATUM
 EPD .F              5173:   ELEVATION PERMANENT DATUM
 LMF .                 KB:   LOG MEASURED FROM
 DAPD.F              10.2:   FEET ABOVE PERMANENT DATUM
 DMF .                 KB:   DRILLING MEASURED FROM
 EKB .F            5183.2:   KELLING BUSHING
 EGL .F              5173:   GROUND LEVEL
 DATE.        22-MAY-1988:   RUN DATE
 RUN .                  1:   RUN NUMBER
 DD  .F               505:   DEPTH DRILLER
 DL  .F               504:   DEPTH LOGGER
 BLI .F               500:   BOTTOM LOG INTERVAL
 TLI .F                50:   TOP LOG INTERVAL
 CS  .IN            9.625:   CASING SIZE
 CBD .F                52:   CASING BOTTOM DRILLER
 CBL .F                50:   CASING BOTTOM LOGGER
 BS  .IN             8.75:   BIT SIZE
 BSD .F               505:   BIT SIZE AT DEPTH
 DFT .                AIR:   DRILLING FLUID TYPE
 TLAB.HRS            1339:   TIME LOGGER AT BOTTOM
 LUN .               7597:   LOGGING UNIT NUMBER
 LUL .           GILLETTE:   LOGGING UNIT LOCATION
 ENGI.          HUCKFELDT:   RECORDING ENGINEER
 WITN.             STRONG:   WITNESSED BY
 CLNT.            A2DTECH:   CLIENT CODE
 ORIG.           5" PRINT:   ORIGIN OF DATA
 UWI .       490251122600:   UNIQUE WELL ID
 DICO. A2D Technologies, Inc.:   DIGITIZING COMPANY
~OTHER INFORMATION
~A   DEPT       GRR      RILD       RILM   
# ...
  141.4000   115.9829     8.8491     8.7747
  141.5000   115.7231     8.9026     8.7743
  141.6000   115.2487     8.9026     8.7982
  141.7000   114.9352     8.9405     8.8351
  141.8000   114.6874     8.9920     8.8374
  141.9000   114.2836     9.0277     8.8962
  142.0000   113.5586     9.0277     8.8959
  142.1000   113.0019     9.0277     8.8955
  142.2000   112.3396     9.0737     8.9165
  142.3000   111.7584     9.0909     8.9570
  142.4000   111.1453     9.1148     8.9567
  142.5000   110.4565     9.1545     9.0076
  142.6000   109.9653     9.1545     9.0187
  142.7000   109.6718     9.1545     9.0183
  142.8000   109.4697     9.1976     9.0180
  142.9000   109.3729     9.2186     9.0248
  143.0000   109.4734     9.2186     9.0803
  143.1000   109.7712     9.2279     9.0800
  143.2000   110.2954     9.2832     9.0796
  143.3000   110.5395     9.2832     9.0792
  143.4000   110.9809     9.2832     9.0940
  143.5000   111.3515     9.2832     9.1421
  143.6000   111.6857     9.2832     9.1416
  143.7000   112.1639     9.2832     9.1413
  143.8000   112.4448     9.2832     9.1409
  143.9000   112.8957     9.2832     9.1637
  144.0000   113.4003     9.2832     9.2042
  144.1000   113.9049     9.2832     9.2038
  144.2000   114.4096     9.2832     9.2034
  144.3000   114.9146     9.2832     9.2031
  144.4000   115.5074     9.2832     9.2027
  144.5000   115.7169     9.2832     9.2023
  144.6000   115.9708     9.2832     9.2019
  144.7000   116.2246     9.2832     9.2015
  144.8000   116.4317     9.2734     9.2011
  144.9000   115.8266     9.2186     9.2008
  145.0000   115.5861     9.2186     9.2004
  145.1000   115.3382     9.2186     9.2000
  145.2000   114.9539     9.2186     9.1996
  145.3000   114.5383     9.2012     9.1992
  145.4000   114.2905     9.1545     9.1988
  145.5000   114.0186     9.1545     9.1628
  145.6000   113.7949     9.1072     9.1340
  145.7000   113.7199     9.0909     9.1337
  145.8000   113.6036     9.0909     9.1333
  145.9000   113.4216     9.0772     9.1328
  146.0000   113.4369     9.0277     9.0893
  146.1000   113.7326     9.0277     9.0686
  146.2000   114.1539     9.0277     9.0682
  146.3000   114.6587     9.0277     9.0678
  146.4000   115.1635     9.0066     9.0674
  146.5000   115.6195     8.9649     9.0671
  146.6000   115.8783     8.9649     9.0270
  146.7000   116.3733     8.9649     9.0032
  146.8000   116.8778     8.9255     9.0029
  146.9000   117.2438     8.9026     9.0025
  147.0000   117.4977     8.9026     9.0021
  147.1000   117.7516     8.8962     8.9547
  147.2000   118.0277     8.8407     8.9387
  147.3000   117.5725     8.8407     8.9134
  147.4000   117.2494     8.8407     8.8758
  147.5000   116.8799     8.8407     8.8754
  147.6000   116.3811     8.8407     8.8750
  147.7000   115.8826     8.8407     8.8747
  147.8000   115.3064     8.8407     8.8419
  147.9000   115.0971     8.8407     8.8122
  148.0000   114.8494     8.8407     8.8118
  148.1000   114.7063     8.8196     8.8114
  148.2000   114.7605     8.7792     8.8111
  148.3000   115.0168     8.7792     8.8107
  148.4000   115.2683     8.7792     8.8103
  148.5000   115.5221     8.8186     8.8100
  148.6000   115.7759     8.8407     8.8096
  148.7000   116.1173     8.8407     8.8092
  148.8000   116.6222     8.8407     8.8088
  148.9000   117.1661     8.8407     8.8085
  149.0000   117.4004     8.8407     8.8081
  149.1000   117.6542     8.8407     8.8077
  149.2000   118.0322     8.8407     8.8074
  149.3000   118.3958     8.8407     8.8069
  149.4000   118.3477     8.8407     8.8066
  149.5000   117.4890     8.8407     8.8062
  149.6000   117.2773     8.8407     8.8059
  149.7000   116.7080     8.8407     8.8055
  149.8000   116.0657     8.8407     8.8051
  149.9000   115.5133     8.8407     8.8047
  150.0000   114.7641     8.8407     8.8265
  150.1000   113.2670     8.8596     8.8535
  150.2000   111.7700     8.8786     8.8804
  150.3000   110.5109     8.8975     8.9074
  150.4000   110.5146     8.9164     8.9344
  150.5000   110.5175     8.9353     8.9613
  150.6000   110.5205     8.9543     8.9900
  150.7000   110.5236     8.9632     8.9899
  150.8000   110.5267     8.9471     8.9898
  150.9000   110.5297     8.9003     8.9897
  151.0000   110.5332     8.9000     8.9896
  151.1000   110.5358     8.8998     8.9894
  151.2000   110.5388     8.8995     8.9893
  151.3000   110.5419     8.8993     8.9892
  151.4000   110.5449     8.8990     8.9890
  151.5000   110.5480     8.8988     8.9889
  151.6000   110.7969     8.8985     8.9888
  151.7000   111.0500     8.8983     8.9886
  151.8000   111.3031     8.8680     8.9885
  151.9000   111.5562     8.8360     8.9466
  152.0000   111.7808     8.8358     8.9257
  152.1000   111.7842     8.8355     8.9256
  152.2000   112.2351     8.8353     8.9255
  152.3000   112.5685     8.8350     8.9253
  152.4000   112.8215     8.8348     8.8760
  152.5000   113.1357     8.8345     8.8630
  152.6000   113.6386     8.8298     8.8629
  152.7000   114.2380     8.7725     8.8627
  152.8000   114.6447     8.7723     8.8570
  152.9000   115.1478     8.7720     8.8008
  153.0000   115.5575     8.7718     8.8007
  153.1000   115.7717     8.7600     8.8006
  153.2000   115.7749     8.7104     8.8005
  153.3000   115.7778     8.7101     8.7872
  153.4000   115.6006     8.7099     8.7390
  153.5000   115.3536     8.7097     8.7388
  153.6000   115.0351     8.7094     8.7387
  153.7000   114.5553     8.7092     8.7386
  153.8000   114.2714     8.7089     8.7385
  153.9000   114.0613     8.6616     8.7384
  154.0000   113.6560     8.6478     8.7382
  154.1000   113.3669     8.6476     8.7381
  154.2000   113.3699     8.6474     8.6993
  154.3000   113.3730     8.6472     8.6771
  154.4000   113.3760     8.6469     8.6770
  154.5000   113.5697     8.6467     8.6769
  154.6000   113.8228     8.6464     8.6767
  154.7000   114.0759     8.6462     8.6308
  154.8000   114.3564     8.6347     8.6161
  154.9000   114.9136     8.5856     8.6160
  155.0000   115.1395     8.5854     8.6159
  155.1000   115.5614     8.5851     8.6157
  155.2000   115.9500     8.5849     8.6156
  155.3000   116.2031     8.5846     8.6155
  155.4000   116.4563     8.5844     8.5835
  155.5000   116.7586     8.5841     8.5553
  155.6000   116.9624     8.5839     8.5552
  155.7000   117.2154     8.5836     8.5551
  155.8000   117.4685     8.5584     8.5549
  155.9000   117.7216     8.5235     8.5548
  156.0000   117.9911     8.5233     8.5547
  156.1000   118.2276     8.5230     8.5546
  156.2000   118.3014     8.5228     8.5545
  156.3000   118.4295     8.5225     8.5543
  156.4000   118.7533     8.5010     8.5542
  156.5000   119.2237     8.4628     8.5541
  156.6000   119.2273     8.4626     8.5540
  156.7000   119.4417     8.4624     8.5539
  156.8000   119.6948     8.4237     8.5538
  156.9000   119.9478     8.4031     8.5536
  157.0000   120.2009     8.4028     8.5535
  157.1000   120.4597     8.4026     8.5534
  157.2000   120.7071     8.4023     8.5533
  157.3000   120.9602     8.3571     8.5532
  157.4000   121.2132     8.3434     8.5530
  157.5000   121.3039     8.3432     8.5529
  157.6000   121.0569     8.3430     8.5528
  157.7000   120.7827     8.3391     8.5527
  157.8000   120.5630     8.2845     8.5720
  157.9000   119.9797     8.2434     8.6124
  158.0000   119.4601     8.1959     8.6122
  158.1000   119.1539     8.1487     8.6121
  158.2000   118.6619     8.1120     8.6496
  158.3000   118.3659     8.1114     8.6722
  158.4000   117.9675     8.0187     8.6886
  158.5000   117.4704     7.9628     8.7328
  158.6000   117.0651     7.9169     8.7326
  158.7000   116.7808     7.8714     8.7325
  158.8000   116.2498     7.8260     8.7324
  158.9000   116.2526     7.7778     8.7323
  159.0000   116.4343     7.7362     8.7188
  159.1000   116.6874     7.6916     8.6686
  159.2000   116.8706     7.6255     8.6108
  159.3000   116.8737     7.5505     8.5691
  159.4000   116.8772     7.5039     8.5198
  159.5000   117.0909     7.4058     8.4506
