~VERSION INFORMATION
 VERS.                2.0:   CWLS LOG ASCII STANDARD - VERSION 2.0
 WRAP.                 NO:   ONE LINE PER DEPTH STEP
~WELL INFORMATION
#MNEM.UNIT      DATA TYPE    INFORMATION
#----------   ------------   ------------------------------
 STRT.F           32.5000:   START DEPTH
 STOP.F          433.0000:   STOP DEPTH
 STEP.F            0.5000:   STEP LENGTH
 NULL.          -999.2500:   NO VALUE
 COMP.    FENIX & SCISSON:   COMPANY
 WELL. NPR-3 65-S-10 #65-10:   WELL
 FLD .             TEAPOT:   FIELD
 LOC .      S10 T38N R78W:   LOCATION
 CNTY.            NATRONA:   COUNTY
 STAT.            WYOMING:   STATE
 CTRY. UNITED STATES OF AMERICA:   COUNTRY
 SRVC.           BIRDWELL:   SERVICE COMPANY
 DATE.        13-JUN-1978:   LOGDATE
 API .       490251063000:   API NUMBER
~CURVE INFORMATION
#MNEM.UNIT       API CODE    CURVE DESCRIPTION
#----------   ------------   ------------------------------
 DEPT.F                  :   
 CALD.IN     45 280 60 00:   CALIPER FROM DENSITY LOG
 CORR.G/C3   45 356 01 00:   DENSITY CORRECTION
 DEN .G/C3   45 350 01 00:   COMPENSATED BULK DENSITY
 GRD .GAPI   45 310 01 00:   GAMMA RAY FROM DENSITY LOG
 DPHI.DEC    45 890 12 00:   DENSITY POROSITY SANDSTONE
 IL  .OHMM   05 120 00 00:   INDUCTION LOG 40"
 SN  .OHMM   05 040 16 00:   SHORT NORMAL 16"
 SPR .MV     05 010 01 00:   SPONTANEOUS POTENTIAL FROM RES.
~PARAMETER INFORMATION
#MNEM.UNIT          VALUE    DESCRIPTION
#----------   ------------   ------------------------------
 PD  .                 GL:   PERMANENT DATUM
 EPD .F              5193:   ELEVATION PERMANENT DATUM
 LMF .                 KB:   LOG MEASURED FROM
 DMF .                 KB:   DRILLING MEASURED FROM
 EKB .F              5197:   KELLING BUSHING
 EGL .F              5193:   GROUND LEVEL
 DATE.          6-13-1978:   RUN DATE
 RUN .                  1:   RUN NUMBER
 DD  .F               430:   DEPTH DRILLER
 DL  .F               433:   DEPTH LOGGER
 BLI .F               427:   BOTTOM LOG INTERVAL
 TLI .F                50:   TOP LOG INTERVAL
 CS  .IN            8.625:   CASING SIZE
 CBD .F                40:   CASING BOTTOM DRILLER
 CBL .F                48:   CASING BOTTOM LOGGER
 BS  .IN            7.875:   BIT SIZE
 BSD .F               430:   BIT SIZE AT DEPTH
 DFT .                KCL:   DRILLING FLUID TYPE
 DFD .                8.7:   DRILLING FLUID DENSITY
 DFV .                 32:   DRILLING FLUID VISCOSITY
 DFPH.                9.5:   DRILLING FLUID PH
 DFL .                8.4:   DRILLING FLUID LOSS
 MSS .           FLOWLINE:   MUD SAMPLE SOURCE
 RMS .OHMM            .38:   RESISTIVITY MUD SAMPLE
 MST .F                86:   MUD SAMPLE TEMPERATURE
 RMF .OHMM            .36:   RESISTIVITY MUD FILTRATE SAMPLE
 MFST.F                82:   MUD FILTRATE SAMPLE TEMPERATURE
 MFSS.               MEAS:   MUD FILTRATE SAMPLE SOURCE
 MCSS.               MEAS:   MUD CAKE SAMPLE SOURCE
 TCS .HRS               3:   TIME CURCULATED STOPPED
 MRT .F                73:   MAXIMUM RECORDED TEMPERATURE
 LUN .               2958:   LOGGING UNIT NUMBER
 LUL .               CASP:   LOGGING UNIT LOCATION
 ENGI.           REYNOLDS:   RECORDING ENGINEER
 WITN.           MCGINLEY:   WITNESSED BY
 CLNT.            A2DTECH:   CLIENT CODE
 ORIG.           5" PRINT:   ORIGIN OF DATA
 UWI .       490251063000:   UNIQUE WELL ID
 DICO. A2D Technologies, Inc.:   DIGITIZING COMPANY
~OTHER INFORMATION
~A   DEPT     CALD       CORR        DEN        GRD       DPHI         IL         SN        SPR   
# ...
  316.0000     7.3689     0.0321     2.3605    91.7190     0.1701    14.0674    21.0879   -53.9405
  316.5000     7.3852     0.0189     2.3582    92.7653     0.1652    14.0758    21.1257   -53.9230
  317.0000     7.3826     0.0130     2.3672    93.0643     0.1658    14.0862    21.4117   -53.7589
  317.5000     7.3671     0.0070     2.3777    92.9148     0.1682    14.1919    21.4258   -53.7426
  318.0000     7.3516     0.0085     2.3791    92.3169     0.1723    14.2003    21.4398   -53.8721
  318.5000     7.3211     0.0070     2.3761    91.4200     0.1694    14.1091    21.4539   -53.8565
  319.0000     7.3205     0.0099     2.3761    92.3169     0.1622    14.0227    21.4684   -53.6920
  319.5000     7.2901     0.0129     2.3791    91.5695     0.1592    14.0313    21.1887   -53.8291
  320.0000     7.2597     0.0143     2.3828    91.1211     0.1538    13.9430    20.9129   -53.8095
  320.5000     7.2292     0.0143     2.3910    92.7714     0.1466    13.8556    20.5026   -53.9427
  321.0000     7.1838     0.0158     2.4060    94.2601     0.1377    13.8658    20.0971   -54.0758
  321.5000     7.1385     0.0173     2.4104    93.3632     0.1353    13.7786    19.9022   -54.0563
  322.0000     7.1079     0.0187     2.4179    94.2601     0.1347    13.6925    19.7157   -54.0406
  322.5000     7.0477     0.0187     2.4298    95.3064     0.1329    13.5133    19.5902   -53.7274
  323.0000     7.0173     0.0143     2.4373    94.7085     0.1263    13.3364    19.4719   -52.8185
  323.5000     7.0317     0.0098     2.4388    95.1570     0.1245    13.1618    19.4847   -52.7993
  324.0000     7.1056     0.0083     2.4417    95.1809     0.1251    12.9915    19.4975   -53.0833
  324.5000     7.1647     0.0068     2.4552    91.7190     0.1245    12.8214    19.3766   -53.1153
  325.0000     7.1642     0.0098     2.4559    92.6158     0.1203    12.6536    19.2596   -53.2027
  325.5000     7.1785     0.0186     2.4551    97.9970     0.1155    12.4899    19.0058   -53.1830
  326.0000     7.1330     0.0304     2.4544    97.6503     0.1203    12.4973    18.6330   -53.1635
  326.5000     7.0429     0.0319     2.4551    93.3632     0.1233    12.4170    18.3901   -52.9991
  327.0000     7.0415     0.0272     2.4596    90.6726     0.1155    12.3408    18.4028   -52.6858
  327.5000     7.0567     0.0126     2.4626    91.8685     0.1123    12.3485    18.2884   -52.5213
  328.0000     7.0711     0.0008     2.4655    96.5022     0.1233    12.4428    18.1750   -52.6944
  328.5000     7.0256    -0.0022     2.4670    98.2960     0.1305    12.4502    17.9414   -51.7455
  329.0000     6.9803     0.0008     2.4610    97.9970     0.1299    12.4576    17.7050   -52.0280
  329.5000     6.9796     0.0037     2.4528    98.7444     0.1281    12.5492    17.7196   -52.3099
  330.0000     6.9941     0.0037     2.4401    99.4918     0.1251    12.4723    17.8565   -52.1416
  330.5000     7.0084     0.0052     2.4409    99.6413     0.1218    12.3941    17.9916   -51.9771
  331.0000     7.0076     0.0022     2.4460    99.4918     0.1185    12.2319    18.1277   -52.2591
  331.5000     7.0071    -0.0023     2.4520    99.1640     0.1161    12.2410    18.1396   -53.1324
  332.0000     7.0065    -0.0052     2.4542    98.7444     0.1149    12.1624    18.2768   -52.2238
  332.5000     7.0060    -0.0052     2.4564    99.1928     0.1205    12.0877    18.1634   -51.3153
  333.0000     7.0203    -0.0053     2.4572    99.3423     0.1272    12.0952    18.1784   -51.2997
  333.5000     7.0347    -0.0053     2.4534    99.4918     0.1278    12.1040    18.1903   -51.5818
  334.0000     7.0491    -0.0053     2.4519   100.0897     0.1251    12.1112    18.2023   -52.4980
  334.5000     7.0633    -0.0053     2.4549    99.7907     0.1203    12.1184    18.0890   -51.6952
  335.0000     7.0926    -0.0053     2.4571    97.2149     0.1179    12.1255    17.8540   -51.2332
  335.5000     7.1070    -0.0039     2.4578    92.0179     0.1161    12.1328    17.6216   -52.4080
  336.0000     7.1212    -0.0039     2.4577    93.8117     0.1155    12.1417    17.3923   -51.7971
  336.5000     7.1505    -0.0024     2.4548    96.6517     0.1149    12.1489    17.4066   -50.8886
  337.0000     7.1498    -0.0113     2.4518    97.4200     0.1146    12.1561    17.4180   -49.8274
  337.5000     7.1530    -0.0172     2.4376   100.8371     0.1146    12.1633    17.6709   -49.0677
  338.0000     7.1636    -0.0210     2.3995   102.7803     0.1153    12.1705    17.6854   -49.6472
  338.5000     7.1629    -0.0232     2.3681   103.3782     0.1161    12.2621    17.8192   -49.0364
  339.0000     7.1325    -0.0143     2.3419   102.7803     0.1185    12.7006    17.9540   -49.3183
  339.5000     7.1021    -0.0069     2.3209   100.3886     0.1275    13.3355    18.3404   -46.5565
  340.0000     7.0567     0.0034     2.2880    99.9402     0.1350    14.0988    18.7351   -46.0093
  340.5000     7.0710     0.0123     2.2820    99.5728     0.1425    14.8036    20.0994   -46.1464
  341.0000     7.1450     0.0196     2.2805    92.3169     0.1502    15.6582    21.2358   -46.2795
  341.5000     7.2191     0.0241     2.2815    89.0284     0.1550    17.4862    22.4519   -46.2600
  342.0000     7.2781     0.0255     2.2977    88.8650     0.1589    18.4871    24.0664   -46.2440
  342.5000     7.3522     0.0270     2.3096    88.1315     0.1595    19.0144    25.7970   -47.4152
  343.0000     7.3816     0.0270     2.3201    84.5441     0.1577    19.2895    27.8741   -47.9948
  343.5000     7.3351     0.0270     2.3320    83.9462     0.1549    19.5684    29.6454   -46.7887
  344.0000     7.2757     0.0255     2.3455    83.9462     0.1520    19.5447    30.2834   -46.1778
  344.5000     7.2304     0.0240     2.3619    82.6009     0.1484    19.0596    30.9352   -46.4598
  345.0000     7.2149     0.0225     2.3634    83.3483     0.1460    18.5529    30.9555   -46.4402
  345.5000     7.1993     0.0239     2.3634    86.9357     0.1430    18.0624    30.5526   -46.4245
  346.0000     7.1987     0.0239     2.3596    91.7728     0.1410    17.7726    30.3632   -46.4089
  346.5000     7.2280     0.0254     2.3536    93.3632     0.1401    17.5808    30.1748   -46.3932
  347.0000     7.2574     0.0239     2.3506    93.2138     0.1398    17.1250    29.7870   -46.3776
  347.5000     7.2865     0.0239     2.3528    92.3169     0.1413    16.9009    29.8066   -46.5107
  348.0000     7.2113     0.0239     2.3573    89.1779     0.1419    16.6821    29.6214   -46.4912
  348.5000     7.0465     0.0239     2.3603    89.0284     0.1413    16.6920    29.0358   -46.4755
  349.0000     7.1721     0.0224     2.3618    90.0747     0.1401    16.7019    28.6627   -46.4599
  349.5000     7.3736     0.0238     2.3588    92.6243     0.1401    16.5972    28.2850   -46.4442
  350.0000     7.4328     0.0327     2.3632    92.7653     0.1407    16.2700    27.9169   -46.4255
  350.5000     7.3725     0.0430     2.3483    90.5232     0.1407    16.1679    27.5574   -46.7092
  351.0000     7.3718     0.0415     2.3438    89.9253     0.1401    16.0642    27.9661   -47.2814
  351.5000     7.3863     0.0415     2.3512    89.7758     0.1395    16.0761    27.4097   -47.7093
  352.0000     7.4007     0.0267     2.3557    92.0179     0.1430    16.0857    26.8631   -48.0000
  352.5000     7.4000     0.0178     2.3564    91.4200     0.1442    16.0975    26.1555   -48.7094
  353.0000     7.3844     0.0178     2.3415    92.3169     0.1407    16.1070    25.8109   -48.9932
  353.5000     7.3390     0.0178     2.3467    95.0075     0.1404    15.8939    25.3045   -49.2677
  354.0000     7.3051     0.0178     2.3497    95.9043     0.1428    15.6858    24.9484   -49.6956
  354.5000     7.3378     0.0180     2.3504    95.6054     0.1454    15.5897    24.4812   -49.9748
  355.0000     7.3372     0.0177     2.3526    93.4081     0.1425    15.6013    24.1626   -49.8029
  355.5000     7.3367     0.0133     2.3616    90.9716     0.1413    15.6106    24.0127   -49.7844
  356.0000     7.3361     0.0059     2.3885    91.4200     0.1398    15.5609    23.8673   -50.0681
