~VERSION INFORMATION
 VERS.                2.0:   CWLS LOG ASCII STANDARD - VERSION 2.0
 WRAP.                 NO:   ONE LINE PER DEPTH STEP
~WELL INFORMATION
#MNEM.UNIT      DATA TYPE    INFORMATION
#----------   ------------   ------------------------------
 STRT.F            0.0000:   START DEPTH
 STOP.F         1283.5000:   STOP DEPTH
 STEP.F            0.5000:   STEP LENGTH
 NULL.          -999.2500:   NO VALUE
 COMP.      U.S. NAVY NPR:   COMPANY
 WELL. NAVAL PETROLEUM RESERVE 3 ST-11 #88-11:   WELL
 FLD .             TEAPOT:   FIELD
 LOC .      S11 T38N R78W:   LOCATION
 CNTY.            NATRONA:   COUNTY
 STAT.            WYOMING:   STATE
 CTRY. UNITED STATES OF AMERICA:   COUNTRY
 SRVC.       Schlumberger:   SERVICE COMPANY
 DATE.        01-NOV-1958:   LOGDATE
 API .       490250632600:   API NUMBER
~CURVE INFORMATION
#MNEM.UNIT       API CODE    CURVE DESCRIPTION
#----------   ------------   ------------------------------
 DEPT.F                  :   
 GRN .GAPI   35 310 01 00:   GAMMA RAY
 NEUT.NAPI   35 330 01 00:   NEUTRON
 ASN .OHMM   01 041 16 00:   AMPLIFIED SHORT NORMAL
 LAT .OHMM   01 070 18 00:   LATERAL 18"
 LN  .OHMM   01 060 64 00:   LONG NORMAL 64"
 SPR .MV     01 010 01 00:   SPONTANEOUS POTENTIAL
 CALM.IN     15 280 01 00:   CALIPER FROM MICRO LOG
~PARAMETER INFORMATION
#MNEM.UNIT          VALUE    DESCRIPTION
#----------   ------------   ------------------------------
 LMF .                 KB:   LOG MEASURED FROM
 DMF .                 KB:   DRILLING MEASURED FROM
 EKB .F              5289:   KELLING BUSHING
 EGL .F              5279:   GROUND LEVEL
 DATE.        01-NOV-1958:   RUN DATE
 RUN .                  1:   RUN NUMBER
 DD  .F              1280:   DEPTH DRILLER
 DL  .F              1283:   DEPTH LOGGER
 BLI .F              1282:   BOTTOM LOG INTERVAL
 TLI .F               150:   TOP LOG INTERVAL
 CBD .F                45:   CASING BOTTOM DRILLER
 BS  .IN            7.875:   BIT SIZE
 BSD .F              1280:   BIT SIZE AT DEPTH
 DFT .                GEL:   DRILLING FLUID TYPE
 DFD .                9.1:   DRILLING FLUID DENSITY
 DFV .                 63:   DRILLING FLUID VISCOSITY
 DFL .                2.1:   DRILLING FLUID LOSS
 RMS .OHMM            2.4:   RESISTIVITY MUD SAMPLE
 MST .F                56:   MUD SAMPLE TEMPERATURE
 RMF .OHMM           1.45:   RESISTIVITY MUD FILTRATE SAMPLE
 MFST.F                79:   MUD FILTRATE SAMPLE TEMPERATURE
 RMC .OHMM            1.7:   RESISTIVITY MUD CAKE
 MCST.F                79:   MUD CAKE SAMPLE TEMPERATURE
 MFSS.               MEAS:   MUD FILTRATE SAMPLE SOURCE
 MCSS.               MEAS:   MUD CAKE SAMPLE SOURCE
 RMB .OHMM            1.6:   RESISTIVITY MUD AT BHT
 BHT .F                79:   BOTTOM HOLE TEMPERATURE
 TCS .HRS               1:   TIME CURCULATED STOPPED
 MRT .F                79:   MAXIMUM RECORDED TEMPERATURE
 LUN .               2544:   LOGGING UNIT NUMBER
 LUL .                 NC:   LOGGING UNIT LOCATION
 ENGI.            EARNEST:   RECORDING ENGINEER
 WITN.             MARTIN:   WITNESSED BY
 CLNT.            A2DTECH:   CLIENT CODE
 ORIG.         2.5" PRINT:   ORIGIN OF DATA
 UWI .       490250632600:   UNIQUE WELL ID
 DICO. A2D Technologies, Inc.:   DIGITIZING COMPANY
~OTHER INFORMATION
~A    DEPT       GRN     NEUT        ASN        LAT         LN        SPR       CALM   
# ...
  136.5000     5.5885   431.1980     7.4114    59.9455     6.6249   -11.2112     8.2559
  137.0000     5.6987   440.1074     7.2752    57.9837     6.4902   -11.3581     8.2567
  137.5000     5.6176   431.1045     7.0300    55.1771     6.3556   -11.0790     8.2304
  138.0000     5.9366   431.8530     6.7575    41.4169     6.3154   -11.0726     8.1497
  138.5000     5.9275   435.5488     6.5395    43.4605     6.2223   -10.7938     8.1777
  139.0000     5.8650   451.8618     5.9648    40.8138     6.2239   -10.7885     8.2601
  139.5000     5.7907   442.7780     5.7221    27.2120     6.2252   -11.0568     8.2609
  140.0000     5.6318   431.6093     6.3742    23.7784     6.4350   -11.3251     8.2617
  140.5000     5.5307   426.4732     6.6757    42.0072     6.6361   -11.8669     8.2624
  141.0000     5.3697   426.2878     6.5322    44.8883     6.7733   -12.1351     8.2633
  141.5000     5.1686   430.6489     6.1987    40.1907     7.0466   -12.4034     8.2641
  142.0000     5.0475   436.6396     5.9095    30.3815     7.0479   -12.3976     8.2649
  142.5000     5.0665   424.6428     5.7802    25.6131     7.0492   -12.3921     8.2657
  143.0000     5.1654   421.6107     5.7758    13.8965     7.0505   -12.1131     8.2665
  143.5000     5.0407   414.8469     6.2758     7.0845     7.0519   -11.8340     8.2673
  144.0000     5.0033   407.3367     6.4850     5.8583     6.9172   -11.5550     8.2682
  144.5000     5.1267   410.3618     6.4850     5.5858     6.9186   -11.5495     8.2690
  145.0000     5.1412   428.8229     6.5123     5.5768     6.9199   -11.5431     8.2698
  145.5000     5.2443   430.3330     6.5395     5.4496     6.9213   -11.5378     8.2708
  146.0000     5.3964   424.3155     6.5940     5.4496     6.7866   -11.2590     8.2803
  146.5000     5.4177   426.9609     6.6213     5.4496     6.7881   -10.9801     8.2722
  147.0000     5.2838   430.4698     6.6213     5.4496     6.7450   -10.9748     8.2731
  147.5000     5.1805   427.5228     6.6485     5.4496     6.6546   -10.6960     8.2739
  148.0000     5.2056   407.8459     6.6485     5.5858     6.6562   -10.6906     8.2475
  148.5000     5.1132   402.4144     6.6485     5.6521     6.6576   -10.6851     8.2483
  149.0000     5.0921   418.0408     6.6757     5.7221     6.6589   -10.6796     8.2219
  149.5000     5.1111   419.2871     6.6757     5.7221     6.6605   -10.6742     8.2199
  150.0000     5.1700   405.2595     6.6757     5.8583     6.5257   -10.9431     8.1963
  150.5000     5.2103   405.1465     6.7030     5.8583     6.5272   -11.2114     8.2034
  151.0000     5.2306   408.1514     6.7153     5.9946     6.5285   -11.6079     8.2252
  151.5000     5.2668   418.7697     6.7715     5.9946     6.5299   -11.7465     8.2260
  152.0000     5.1264   427.0118     6.8432     5.9946     6.5312   -11.7400     8.2268
  152.5000     5.0647   430.5519     6.9755     5.9946     6.5325   -11.7347     8.2276
  153.0000     4.9846   435.3486     7.0845     5.9946     6.6707   -11.7294     8.2285
  153.5000     5.1313   433.9752     7.1662     5.9946     6.8157   -11.7242     8.2294
  154.0000     5.0980   435.3758     7.2207     5.9946     6.9444   -11.7189     8.2029
  154.5000     4.7599   438.0452     7.2752     5.9946     7.0817   -11.7136     8.1223
  155.0000     4.9988   438.2393     7.3025     5.9946     7.0831   -11.4347     8.1502
  155.5000     5.1978   423.3803     7.3569     5.9946     7.0844   -11.4009     8.1782
  156.0000     5.0967   414.3775     7.3569     6.1308     7.0858   -11.1502     8.2062
  156.5000     5.0157   410.5990     7.3266     6.1916     7.0872   -11.0781     8.2070
  157.0000     4.9546   412.7913     7.2705     6.2670     7.0885   -10.8657     8.2078
  157.5000     4.8535   403.7884     7.2144     6.3442     7.0899   -10.8602     8.2086
  158.0000     5.0725   398.3424     7.1390     6.5395     7.0912   -10.8547     8.2094
  158.5000     5.0514   384.4678     7.0748     6.6757     7.0928   -10.5757     8.2161
  159.0000     5.1606   377.2483     7.0300     6.8120     6.9582   -10.8427     8.2382
  159.5000     5.2755   374.1024     7.0300     6.6757     6.9595   -10.8374     8.2391
  160.0000     5.2160   367.9712     7.0300     6.6757     6.9609   -10.8321     8.2671
  160.5000     4.9881   363.9518     6.9755     6.5395     6.9622   -11.1004     8.2679
  161.0000     5.0074   377.9995     6.9482     6.5395     6.9635   -11.0951     8.2959
  161.5000     4.8445   387.2430     6.9482     6.5395     7.1008   -11.0898     8.2967
  162.0000     4.4434   395.8808     6.9755     6.5395     7.2381   -11.0845     8.2977
  162.5000     4.7224   403.2975     7.0027     6.5395     7.2394   -11.3754     8.2985
  163.0000     5.0813   411.4604     6.9482     6.5395     7.2408   -11.6626     8.2992
  163.5000     5.1225   421.1161     6.8665     6.5395     7.2421   -12.1629     8.3000
  164.0000     5.0792   416.5913     6.8120     6.5395     7.2435   -12.1568     8.3008
  164.5000     5.1987   416.5446     6.8745     6.5395     7.2449   -11.8778     8.3016
  165.0000     5.2171   429.8678     7.1026     6.5395     7.2462   -11.7538     8.2752
  165.5000     5.1721   450.0364     7.3402     6.6757     7.2476   -11.5933     8.2760
  166.0000     4.9604   420.5783     7.4525     6.8120     7.2489   -11.5878     8.2769
  166.5000     4.7703   415.6040     7.5733     6.8120     7.2503   -11.5814     8.2722
  167.0000     4.7878   426.2652     7.6770     6.9482     7.2519   -11.5761     8.2512
  167.5000     4.8115   429.3140     7.7620     7.0845     7.2533   -11.2973     8.2433
  168.0000     4.9744   410.3338     7.8336     7.2207     7.2546   -11.0185     8.2256
  168.5000     4.8691   405.8692     7.8897     7.3569     7.2559   -11.0132     8.2266
  169.0000     4.7880   420.5784     7.9019     7.3569     7.2572   -11.0079     8.2274
  169.5000     4.7925   424.2634     7.9292     7.3579     7.2585   -11.0024     8.2554
  170.0000     4.6859   436.1581     7.9292     7.4932     7.2599   -10.9605     8.2563
  170.5000     4.8248   424.9162     7.8747     7.4932     7.1252   -10.7179     8.2571
  171.0000     5.0038   421.1377     7.7112     7.4932     7.1266   -10.7125     8.2579
  171.5000     5.1227   414.1984     7.5749     7.4932     7.1139   -10.7070     8.2587
  172.0000     5.0416   405.6166     7.3569     7.4514     6.9932   -10.7015     8.2867
  172.5000     5.0606   394.6840     7.1635     7.3569     6.9653   -10.9696     8.2875
  173.0000     4.9218   388.6399     6.9951     7.3569     6.8230   -10.9641     8.2883
  173.5000     4.7151   388.0649     6.8267     7.2557     6.7253   -11.2322     8.2891
  174.0000     4.6774   397.2130     6.6739     7.0845     6.6743   -11.4995     8.3171
  174.5000     4.5329   412.2467     6.4280     6.9482     6.5923   -11.4942     8.3179
  175.0000     4.5750   415.4012     6.2125     6.8120     6.5257   -11.4889     8.3187
  175.5000     4.9309   406.5130     6.0276     6.6757     6.4591   -11.4836     8.3195
  176.0000     5.0400   398.2565     5.9550     6.5395     6.3247   -11.4783     8.3204
  176.5000     4.8715   390.7463     5.9401     6.5395     6.3260   -11.4729     8.3212
  177.0000     4.8105   375.0264     5.9557     6.5395     6.3274   -11.4675     8.3220
  177.5000     4.7894   378.7114     6.0490     6.5395     6.2991   -11.4119     8.3228
  178.0000     4.7684   384.0125     6.1308     6.6757     6.3300   -11.1830     8.3238
  178.5000     4.7873   393.4241     6.2125     6.6817     6.3719   -11.1775     8.3246
  179.0000     4.5930   419.4288     6.2670     6.8120     6.4686   -10.8985     8.2982
  179.5000     4.3225   430.0408     6.3488     6.8120     6.6059   -10.8930     8.2990
  180.0000     4.2800   439.6698     6.4305     6.8120     6.6163   -10.8875     8.2998
  180.5000     4.2630   444.4041     6.4578     6.9482     6.7613   -10.6075     8.2733
  181.0000     4.4026   445.1827     6.5152     6.9482     6.9063   -10.6022     8.2470
  181.5000     4.5771   442.0058     6.5971     6.9482     7.0192   -10.5969     8.2477
