~VERSION INFORMATION
 VERS.                2.0:   CWLS LOG ASCII STANDARD - VERSION 2.0
 WRAP.                 NO:   ONE LINE PER DEPTH STEP
~WELL INFORMATION
#MNEM.UNIT      DATA TYPE    INFORMATION
#----------   ------------   ------------------------------
 STRT.F           10.0000:   START DEPTH
 STOP.F          519.0000:   STOP DEPTH
 STEP.F            0.5000:   STEP LENGTH
 NULL.          -999.2500:   NO VALUE
 COMP. LAWRENCE/ALLISON INC:   COMPANY
 WELL.     56-16 SX #56-3:   WELL
 FLD .             TEAPOT:   FIELD
 LOC .       S3 T38N R78W:   LOCATION
 CNTY.            NATRONA:   COUNTY
 STAT.            WYOMING:   STATE
 CTRY. UNITED STATES OF AMERICA:   COUNTRY
 SRVC.           Gearhart:   SERVICE COMPANY
 DATE.        02-AUG-1987:   LOGDATE
 API .       490251115700:   API NUMBER
~CURVE INFORMATION
#MNEM.UNIT       API CODE    CURVE DESCRIPTION
#----------   ------------   ------------------------------
 DEPT.F                  :   
 GRR .GAPI   07 310 01 00:   GAMMA RAY
 ILD .OHMM   07 120 46 00:   INDUCTION LOG DEEP
 ILM .OHMM   07 120 44 00:   INDUCTION LOG MEDIUM
~PARAMETER INFORMATION
#MNEM.UNIT          VALUE    DESCRIPTION
#----------   ------------   ------------------------------
 PD  .                 GL:   PERMANENT DATUM
 EPD .F              5192:   ELEVATION PERMANENT DATUM
 LMF .                 KB:   LOG MEASURED FROM
 DAPD.F                 8:   FEET ABOVE PERMANENT DATUM
 DMF .                 KB:   DRILLING MEASURED FROM
 EKB .F              5200:   KELLING BUSHING
 EGL .F              5192:   GROUND LEVEL
 DATE.        02-JUN-1997:   RUN DATE
 RUN .                  1:   RUN NUMBER
 DD  .F               530:   DEPTH DRILLER
 DL  .F               527:   DEPTH LOGGER
 BLI .F               518:   BOTTOM LOG INTERVAL
 TLI .F                30:   TOP LOG INTERVAL
 CS  .IN            8.625:   CASING SIZE
 CBD .F                46:   CASING BOTTOM DRILLER
 CBL .F                48:   CASING BOTTOM LOGGER
 BS  .IN            7.875:   BIT SIZE
 BSD .F               530:   BIT SIZE AT DEPTH
 DFT .           NONE/AIR:   DRILLING FLUID TYPE
 TCS .HRS            0530:   TIME CURCULATED STOPPED
 MRT .F                80:   MAXIMUM RECORDED TEMPERATURE
 LUN .               7597:   LOGGING UNIT NUMBER
 LUL .           GILLETTE:   LOGGING UNIT LOCATION
 ENGI.        K.HUCKFELDT:   RECORDING ENGINEER
 WITN.        LYNDA FIVAS:   WITNESSED BY
 CLNT.            A2DTECH:   CLIENT CODE
 ORIG.           5" PRINT:   ORIGIN OF DATA
 UWI .       490251115700:   UNIQUE WELL ID
 DICO. A2D Technologies, Inc.:   DIGITIZING COMPANY
~OTHER INFORMATION
~A   DEPT       GRR       ILD        ILM   
   10.0000    87.5013  -999.2500  -999.2500
   10.5000    92.6053  -999.2500  -999.2500
   11.0000    95.2564  -999.2500  -999.2500
   11.5000    95.5757  -999.2500  -999.2500
   12.0000    94.7003  -999.2500  -999.2500
   12.5000    91.7073  -999.2500  -999.2500
   13.0000    88.4127  -999.2500  -999.2500
   13.5000    85.4197  -999.2500  -999.2500
   14.0000    85.1358  -999.2500  -999.2500
   14.5000    85.4670  -999.2500  -999.2500
   15.0000    85.7922  -999.2500  -999.2500
   15.5000    85.2066  -999.2500  -999.2500
   16.0000    82.7270  -999.2500  -999.2500
   16.5000    80.4391  -999.2500  -999.2500
   17.0000    80.1552  -999.2500  -999.2500
   17.5000    81.3914  -999.2500  -999.2500
   18.0000    82.0183  -999.2500  -999.2500
   18.5000    82.9469  -999.2500  -999.2500
   19.0000    82.6689  -999.2500  -999.2500
   19.5000    82.0892  -999.2500  -999.2500
   20.0000    79.6995  -999.2500  -999.2500
   20.5000    83.0414  -999.2500  -999.2500
   21.0000    87.8916  -999.2500  -999.2500
   21.5000    92.7964  -999.2500  -999.2500
   22.0000    94.8778  -999.2500  -999.2500
   22.5000    94.3032  -999.2500  -999.2500
   23.0000    93.4218  -999.2500  -999.2500
   23.5000    92.5405  -999.2500  -999.2500
   24.0000    91.6532  -999.2500  -999.2500
   24.5000    91.3752  -999.2500  -999.2500
   25.0000    92.0080  -999.2500  -999.2500
   25.5000    95.3499  -999.2500  -999.2500
   26.0000    98.6917  -999.2500  -999.2500
   26.5000    99.6203  -999.2500  -999.2500
   27.0000    96.9170  -999.2500  -999.2500
   27.5000    93.2428  -999.2500  -999.2500
   28.0000    90.6473  -999.2500  -999.2500
   28.5000    91.5759  -999.2500  -999.2500
   29.0000    92.8062  -999.2500  -999.2500
   29.5000    94.3381  -999.2500  -999.2500
   30.0000    94.9650  -999.2500  -999.2500
   30.5000    95.5920  -999.2500  -999.2500
   31.0000    95.3080  -999.2500  -999.2500
   31.5000    94.4267  -999.2500  -999.2500
   32.0000    94.4562  -999.2500  -999.2500
   32.5000    95.6865  -999.2500  -999.2500
   33.0000    96.9170  -999.2500  -999.2500
   33.5000    96.8567  -999.2500  -999.2500
   34.0000    92.7467  -999.2500  -999.2500
   34.5000    90.9544  -999.2500  -999.2500
   35.0000    90.6764  -999.2500  -999.2500
   35.5000    91.0076  -999.2500  -999.2500
   36.0000    91.6345  -999.2500  -999.2500
   36.5000    92.5631  -999.2500  -999.2500
   37.0000    95.6033  -999.2500  -999.2500
   37.5000    97.1352  -999.2500  -999.2500
   38.0000    97.1588  -999.2500  -999.2500
   38.5000    95.3705  -999.2500  -999.2500
   39.0000    93.8321  -999.2500  -999.2500
   39.5000    92.0483  -999.2500  -999.2500
   40.0000    90.6227  -999.2500  -999.2500
   40.5000    89.4397  -999.2500  -999.2500
   41.0000    89.4633  -999.2500  -999.2500
   41.5000    90.0903  -999.2500  -999.2500
   42.0000    91.0189  -999.2500  -999.2500
   42.5000    91.6458  -999.2500  -999.2500
   43.0000    92.5744  -999.2500  -999.2500
   43.5000    94.4080  -999.2500  -999.2500
   44.0000    98.0515  -999.2500  -999.2500
   44.5000   111.4188  -999.2500  -999.2500
   45.0000   113.1825  -999.2500  -999.2500
   45.5000   113.2112  -999.2500  -999.2500
   46.0000   112.6256  -999.2500  -999.2500
   46.5000   113.2585  -999.2500  -999.2500
   47.0000   114.7904  -999.2500  -999.2500
   47.5000   118.1323  -999.2500  -999.2500
   48.0000   120.8708    10.7975    10.5475
   48.5000   121.4919     9.0156    14.4206
   49.0000   120.3147     8.8954    12.9065
   49.5000   118.5284     8.9632    11.0798
   50.0000   114.9321     9.2196     9.1234
   50.5000   113.4475     9.5492     8.5636
   51.0000   116.3439     9.7546     8.1024
   51.5000   117.7238     9.7599     8.0003
   52.0000   117.1382     9.3039     8.0581
   52.5000   116.5644     8.6870     8.2295
   53.0000   115.9788     8.1658     8.4631
   53.5000   116.0084     8.1768     8.5832
   54.0000   116.3336     8.4726     8.7657
   54.5000   117.2622     8.6471     8.8286
   55.0000   118.1908     8.7119     8.8305
   55.5000   119.4211     8.5969     8.7707
   56.0000   121.5566     8.5412     8.7121
   56.5000   121.2783     8.4881     8.5938
   57.0000   121.3078     8.4927     8.5360
   57.5000   121.5420     8.4377     8.5378
   58.0000   120.9520     8.4434     8.5396
   58.5000   120.9742     8.5066     8.4239
   59.0000   122.5002     8.5113     8.3673
   59.5000   124.6296     8.5750     8.3690
   60.0000   124.9490     8.6392     8.5110
   60.5000   124.0618     8.7871     8.3964
   61.0000   119.8563     8.7288     8.3411
   61.5000   116.5558     8.5525     8.2862
   62.0000   119.5901     8.3797     8.2898
   62.5000   122.3228     8.2682     8.2926
   63.0000   123.2458     8.2710     8.2954
   63.5000   123.5649     8.2738     8.2982
   64.0000   122.0788     8.2195     8.3010
   64.5000   121.1871     8.2223     8.3618
   65.0000   120.9032     8.2252     8.3647
   65.5000   122.4337     8.1712     8.3676
   66.0000   124.8647     8.2314     8.3710
   66.5000   125.4858     8.2913     8.3152
   67.0000   124.9002     8.3517     8.3767
   67.5000   124.3102     8.3545     8.4380
   68.0000   124.9357     8.3573     8.4997
   68.5000   124.6518     8.4182     8.6215
   69.0000   123.4269     8.5383     8.7451
   69.5000   120.7300     8.6601     8.9323
   70.0000   119.5812     8.9060     9.1235
   70.5000   119.2929     9.0958     9.3188
   71.0000   119.0090     9.2896     9.3869
   71.5000   118.4278     9.2928     9.3902
   72.0000   117.8378     9.2326     9.3941
   72.5000   117.8600     9.2357     9.3973
   73.0000   118.7827     9.2389     9.5320
   73.5000   120.3088     9.1775     9.5352
   74.0000   122.1365     9.1814     9.5385
   74.5000   122.1780     9.1845     9.4101
   75.0000   120.9653     9.1876     9.3474
   75.5000   120.3797     9.1267     9.2858
   76.0000   122.0030     9.1305     9.1616
   76.5000   123.7379     9.0082     9.1013
   77.0000   123.1523     8.8875     8.9788
   77.5000   120.7568     8.6480     8.7926
   78.0000   120.1668     8.4648     8.6008
   78.5000   122.3006     8.1888     8.3856
   79.0000   123.2233     8.1351     8.2147
   79.5000   122.9394     8.0811     8.1606
   80.0000   121.7505     8.0282     8.0508
   80.5000   120.5611     8.0316     7.9978
   81.0000   121.1827     8.0343     8.0012
   81.5000   122.7210     8.0370     8.1159
   82.0000   123.3298     8.0955     8.1752
   82.5000   121.8392     8.1545     8.2350
   83.0000   119.7498     8.2138     8.4113
   83.5000   117.0526     8.3310     8.4744
   84.0000   117.3720     8.4500     8.6007
   84.5000   119.8030     8.5712     8.7182
   85.0000   121.6307     8.6935     8.7820
   85.5000   121.3424     8.8176     8.8462
   86.0000   120.7568     8.9434     8.9730
   86.5000   120.4766     9.0085     9.0386
   87.0000   120.1931     9.1370     9.1682
   87.5000   120.5128     9.2035     9.1713
   88.0000   120.8326     9.2705     9.1744
   88.5000   120.8507     9.2098     9.1775
   89.0000   120.2688     9.0864     9.1170
   89.5000   118.7783     8.9646     9.1838
   90.0000   117.5894     8.9677     9.1233
   90.5000   117.3010     8.9708     9.1359
   91.0000   117.6249     8.9745     9.0663
   91.5000   118.5476     8.9775     9.0066
   92.0000   119.7720     8.9179     9.0105
   92.5000   120.9964     8.9217     8.9504
   93.0000   122.2207     8.8625     8.9542
   93.5000   123.1435     8.9278     8.9573
   94.0000   122.5460     8.9928     9.0228
   94.5000   118.5460     8.9958     9.0258
   95.0000   117.1635     9.0613     9.0289
   95.5000   117.4874     9.1906     9.1583
   96.0000   118.4101     9.3235     9.2270
   96.5000   117.2212     9.5275     9.2998
   97.0000   113.9207     9.7915     9.4925
   97.5000   110.3185    10.0001     9.5619
   98.0000   110.6379    10.0729     9.6990
   98.5000   111.2590    10.2876     9.8380
   99.0000   110.6734    10.5068     9.9099
   99.5000   109.4845    10.8051    10.0520
  100.0000   109.5023    11.1890    10.1255
  100.5000   111.4732    11.5865    10.2706
