~VERSION INFORMATION
 VERS.                2.0:   CWLS LOG ASCII STANDARD - VERSION 2.0
 WRAP.                 NO:   ONE LINE PER DEPTH STEP
~WELL INFORMATION
#MNEM.UNIT      DATA TYPE    INFORMATION
#----------   ------------   ------------------------------
 STRT.F            4.0000:   START DEPTH
 STOP.F          564.0000:   STOP DEPTH
 STEP.F            0.1000:   STEP LENGTH
 NULL.          -999.2500:   NO VALUE
 COMP.       F D SERV INC:   COMPANY
 WELL. NAVAL PETROLEUM RESERVE 3 SX-3 #88-4-3:   WELL
 FLD .             TEAPOT:   FIELD
 LOC .       S3 T38N R78W:   LOCATION
 CNTY.            NATRONA:   COUNTY
 STAT.            WYOMING:   STATE
 CTRY. UNITED STATES OF AMERICA:   COUNTRY
 SRVC.      Western Atlas:   SERVICE COMPANY
 DATE.        15-OCT-1992:   LOGDATE
 API .       490252255000:   API NUMBER
~CURVE INFORMATION
#MNEM.UNIT       API CODE    CURVE DESCRIPTION
#----------   ------------   ------------------------------
 DEPT.F                  :   
 GRR .GAPI   07 310 01 00:   GAMMA RAY
 RILD.OHMM   07 120 46 00:   INDUCTION LOG DEEP RESISTIVITY
 RILM.OHMM   07 120 44 00:   INDUCTION LOG MEDIUM RESISTIVITY
~PARAMETER INFORMATION
#MNEM.UNIT          VALUE    DESCRIPTION
#----------   ------------   ------------------------------
 PD  .                 GL:   PERMANENT DATUM
 EPD .F              5129:   ELEVATION PERMANENT DATUM
 LMF .                 KB:   LOG MEASURED FROM
 DAPD.F                10:   FEET ABOVE PERMANENT DATUM
 DMF .                 KB:   DRILLING MEASURED FROM
 EKB .F              5139:   KELLING BUSHING
 EGL .F              5129:   GROUND LEVEL
 DATE.        15-OCT-1992:   RUN DATE
 RUN .                  1:   RUN NUMBER
 DD  .F               570:   DEPTH DRILLER
 DL  .F               570:   DEPTH LOGGER
 BLI .F               564:   BOTTOM LOG INTERVAL
 TLI .F               564:   TOP LOG INTERVAL
 CS  .IN            8.625:   CASING SIZE
 CBL .F                94:   CASING BOTTOM LOGGER
 BS  .IN            7.875:   BIT SIZE
 BSD .F               570:   BIT SIZE AT DEPTH
 DFT .           AIR FOAM:   DRILLING FLUID TYPE
 TCS .HRS               4:   TIME CURCULATED STOPPED
 MRT .F                72:   MAXIMUM RECORDED TEMPERATURE
 LUN .            HL-6345:   LOGGING UNIT NUMBER
 LUL .          FT.MORGAN:   LOGGING UNIT LOCATION
 ENGI.             BURLEY:   RECORDING ENGINEER
 WITN.        DARY STRONG:   WITNESSED BY
 CLNT.            A2DTECH:   CLIENT CODE
 ORIG.           5" PRINT:   ORIGIN OF DATA
 UWI .       490252255000:   UNIQUE WELL ID
 DICO. A2D Technologies, Inc.:   DIGITIZING COMPANY
~OTHER INFORMATION
~A    DEPT      GRR      RILD       RILM   
# ...
  149.6000   111.8820     9.8756     9.9844
  149.7000   112.4818     9.8745     9.9487
  149.8000   112.9829     9.8737     9.8900
  149.9000   113.4737     9.8661     9.8397
  150.0000   113.9245     9.8542     9.8218
  150.1000   114.2863     9.8422     9.8039
  150.2000   114.2869     9.8303     9.7860
  150.3000   114.2875     9.8183     9.7681
  150.4000   114.2881     9.8064     9.7503
  150.5000   114.2887     9.8013     9.7324
  150.6000   114.2893     9.8010     9.7145
  150.7000   114.2454     9.8007     9.7071
  150.8000   113.9898     9.8004     9.7074
  150.9000   113.7470     9.8002     9.7077
  151.0000   113.4977     9.7999     9.7080
  151.1000   113.1070     9.7996     9.7082
  151.2000   112.5173     9.7993     9.7085
  151.3000   111.6890     9.7991     9.7088
  151.4000   110.3844     9.8416     9.7090
  151.5000   109.1919     9.8676     9.7093
  151.6000   108.3188     9.8673     9.7096
  151.7000   107.2965     9.8670     9.7099
  151.8000   105.9622     9.8667     9.6681
  151.9000   104.6730     9.8665     9.6425
  152.0000   104.6737     9.8662     9.6239
  152.1000   104.4405     9.8659     9.5681
  152.2000   104.5570     9.8477     9.5089
  152.3000   104.8074     9.7963     9.4578
  152.4000   104.9768     9.7960     9.4429
  152.5000   105.0376     9.7957     9.4431
  152.6000   105.5796     9.7955     9.4434
  152.7000   106.0381     9.7671     9.4374
  152.8000   106.7164     9.7100     9.3779
  152.9000   107.4664     9.6580     9.3781
  153.0000   108.2165     9.6577     9.3784
  153.1000   108.9666     9.6574     9.3513
  153.2000   109.7937     9.6193     9.3133
  153.3000   110.2426     9.5893     9.3136
  153.4000   110.5696     9.5890     9.3138
  153.5000   110.6977     9.5888     9.2659
  153.6000   110.6983     9.5884     9.2492
  153.7000   110.6580     9.5882     9.2494
  153.8000   110.0981     9.5879     9.2497
  153.9000   109.6600     9.5877     9.2459
  154.0000   108.9925     9.5740     9.1855
  154.1000   108.4786     9.5200     9.1858
  154.2000   108.2294     9.5197     9.1860
  154.3000   107.9958     9.4735     9.1863
  154.4000   108.2972     9.4182     9.1865
  154.5000   108.5123     9.3861     9.1868
  154.6000   108.7627     9.3741     9.1871
  154.7000   109.2385     9.3199     9.1873
  154.8000   109.9269     9.3196     9.1876
  154.9000   110.4271     9.3194     9.1878
  155.0000   111.0076     9.2865     9.1881
  155.1000   111.4275     9.2536     9.1883
  155.2000   111.9278     9.2534     9.1886
  155.3000   112.3202     9.2531     9.1889
  155.4000   112.5706     9.2528     9.1891
  155.5000   112.8150     9.2526     9.1667
  155.6000   112.8157     9.2212     9.1253
  155.7000   112.6113     9.1873     9.1256
  155.8000   112.3621     9.1780     9.1259
  155.9000   112.0098     9.1224     9.1261
  156.0000   111.5107     9.1222     9.1264
  156.1000   111.0105     9.1219     9.1266
  156.2000   110.1126     9.1217     9.1269
  156.3000   109.7129     9.1214     9.1271
  156.4000   109.0647     9.1212     9.1274
  156.5000   108.1192     9.1209     9.1277
  156.6000   106.9654     9.1708     9.1279
  156.7000   106.2057     9.1847     9.1282
  156.8000   105.2215     9.1844     9.1284
  156.9000   104.2228     9.2017     9.1287
  157.0000   103.5128     9.2487     9.1289
  157.1000   103.0137     9.2484     9.1292
  157.2000   102.5996     9.2482     9.1600
  157.3000   102.6003     9.2479     9.1940
  157.4000   102.8423     9.2476     9.1943
  157.5000   103.4736     9.2474     9.1946
  157.6000   104.3633     9.2523     9.1948
  157.7000   105.3633     9.3120     9.1951
  157.8000   106.3631     9.3118     9.1953
  157.9000   107.4160     9.3115     9.1956
  158.0000   108.1263     9.3113     9.1958
  158.1000   109.0620     9.3110     9.1961
  158.2000   110.0619     9.3107     9.1963
  158.3000   110.8104     9.3104     9.1966
  158.4000   111.0608     9.3102     9.1969
  158.5000   111.3294     9.3100     9.1971
  158.6000   111.0981     9.3097     9.1974
  158.7000   111.0298     9.3094     9.1977
  158.8000   110.7705     9.3092     9.1487
  158.9000   110.2715     9.3089     9.1338
  159.0000   109.7725     9.2630     9.1341
  159.1000   109.2277     9.2432     9.1179
  159.2000   108.7743     9.2430     9.0707
  159.3000   108.4513     9.2304     9.0710
  159.4000   108.2021     9.1764     9.0236
  159.5000   107.8787     9.1132     9.0080
  159.6000   107.4261     9.0696     8.9824
  159.7000   107.4268     9.0489     8.9455
  159.8000   107.2052     9.0487     8.9457
  159.9000   106.7848     9.0376     8.9460
  160.0000   106.4060     8.9848     8.9003
  160.1000   106.1568     8.9846     8.8488
  160.2000   105.9076     8.9016     8.7976
  160.3000   105.6583     8.8283     8.7467
  160.4000   105.4091     8.7964     8.6961
  160.5000   105.1599     8.7870     8.6389
  160.6000   104.9107     8.7344     8.5958
  160.7000   104.3385     8.6846     8.5460
  160.8000   102.9085     8.5953     8.4966
  160.9000   102.6220     8.5515     8.4474
  161.0000   102.1975     8.5333     8.3985
  161.1000   102.0217     8.4834     8.3423
  161.2000   102.1329     8.4314     8.2610
  161.3000   102.4431     8.3383     8.2265
  161.4000   102.9522     8.3133     8.2058
  161.5000   103.8287     8.2869     8.1474
  161.6000   104.6600     8.2224     8.0543
  161.7000   105.5032     8.1330     7.9996
  161.8000   106.3592     8.0821     7.9614
  161.9000   107.4140     8.0383     7.8869
  162.0000   108.6596     7.9579     7.8145
  162.1000   109.8473     7.8890     7.7789
  162.2000   110.6594     7.8572     7.7792
  162.3000   111.6594     7.8521     7.7794
  162.4000   112.5582     7.8018     7.7432
  162.5000   113.2080     7.8016     7.7254
  162.6000   113.4593     7.7697     7.7256
  162.7000   114.2068     7.7465     7.7258
  162.8000   114.7589     7.7333     7.7260
  162.9000   115.4064     7.6918     7.7263
  163.0000   116.1564     7.6916     7.7265
  163.1000   116.9518     7.6914     7.7267
  163.2000   117.9742     7.6912     7.7440
  163.3000   118.9515     7.6910     7.7816
  163.4000   119.5649     7.6908     7.7818
  163.5000   119.7804     7.6906     7.7820
  163.6000   119.7811     7.6903     7.7822
  163.7000   119.7412     7.6901     7.7824
  163.8000   119.4815     7.7192     7.7827
  163.9000   119.4821     7.7439     7.7829
  164.0000   119.4827     7.7546     7.7831
  164.1000   119.4833     7.7981     7.7833
  164.2000   119.4839     7.7978     7.7835
  164.3000   119.4845     7.7976     7.7837
  164.4000   119.4852     7.7974     7.7995
  164.5000   119.4857     7.7972     7.8390
  164.6000   119.6700     7.7970     7.8393
  164.7000   119.9204     7.7967     7.8822
  164.8000   120.1708     7.7965     7.8949
  164.9000   120.4212     7.7963     7.8951
  165.0000   120.6918     7.7961     7.9102
  165.1000   120.9221     7.7959     7.9512
  165.2000   121.3514     7.7956     7.9514
  165.3000   121.7237     7.7954     7.9516
  165.4000   121.9741     7.8403     7.9519
  165.5000   122.2246     7.8499     7.9521
  165.6000   122.4999     7.8497     7.9523
  165.7000   122.5005     7.8495     7.9525
  165.8000   122.1530     7.8493     7.9528
  165.9000   121.7771     7.8491     7.9530
  166.0000   121.3835     7.8488     7.9532
  166.1000   120.6771     7.8486     7.9534
  166.2000   120.3983     7.8739     7.9537
  166.3000   119.7383     7.9035     7.9575
  166.4000   118.9895     7.9033     8.0102
  166.5000   118.3589     7.9031     8.0104
  166.6000   117.7924     7.9463     8.0106
  166.7000   117.0436     7.9583     8.0327
  166.8000   116.1914     7.9828     8.0675
  166.9000   115.7612     8.0140     8.0705
  167.0000   115.0978     8.0138     8.1248
  167.1000   114.5758     8.0135     8.1250
  167.2000   114.2641     8.0563     8.1562
  167.3000   113.7767     8.0696     8.1827
  167.4000   113.4882     8.0694     8.1829
  167.5000   113.2782     8.0691     8.1831
  167.6000   113.0290     8.0735     8.1834
  167.7000   112.6711     8.1255     8.2237
