~VERSION INFORMATION
 VERS.                2.0:   CWLS LOG ASCII STANDARD - VERSION 2.0
 WRAP.                 NO:   ONE LINE PER DEPTH STEP
~WELL INFORMATION
#MNEM.UNIT      DATA TYPE    INFORMATION
#----------   ------------   ------------------------------
 STRT.F          110.5000:   START DEPTH
 STOP.F         1944.0000:   STOP DEPTH
 STEP.F            0.5000:   STEP LENGTH
 NULL.          -999.2500:   NO VALUE
 COMP.    FENIX & SCISSON:   COMPANY
 WELL.   NPR 3 SHX #34-10:   WELL
 FLD .             TEAPOT:   FIELD
 LOC .      S10 T38N R78W:   LOCATION
 CNTY.            NATRONA:   COUNTY
 STAT.            WYOMING:   STATE
 CTRY. UNITED STATES OF AMERICA:   COUNTRY
 SRVC.            Unknown:   SERVICE COMPANY
 DATE.        14-APR-1978:   LOGDATE
 API .       490251061800:   API NUMBER
~CURVE INFORMATION
#MNEM.UNIT       API CODE    CURVE DESCRIPTION
#----------   ------------   ------------------------------
 DEPT.F                  :   
 ILD .OHMM   05 120 46 00:   INDUCTION LOG DEEP
 CILD.MMHO   05 110 00 00:   CONDUCTIVITY INDUCTION LOG
 NPHI.DEC    42 890 01 00:   NEUTRON POROSITY LIMESTONE
 GRD .GAPI   45 310 01 00:   GAMMA RAY FROM DENSITY LOG
~PARAMETER INFORMATION
#MNEM.UNIT          VALUE    DESCRIPTION
#----------   ------------   ------------------------------
 PD  .                 GL:   PERMANENT DATUM
 EPD .F              5244:   ELEVATION PERMANENT DATUM
 LMF .                 KB:   LOG MEASURED FROM
 DMF .                 KB:   DRILLING MEASURED FROM
 EKB .F              5252:   KELLING BUSHING
 EGL .F              5244:   GROUND LEVEL
 DATE.          4-14-1978:   RUN DATE
 RUN .                  1:   RUN NUMBER
 DD  .F              1953:   DEPTH DRILLER
 DL  .F              1950:   DEPTH LOGGER
 BLI .F              1944:   BOTTOM LOG INTERVAL
 TLI .F               715:   TOP LOG INTERVAL
 CS  .IN            9.625:   CASING SIZE
 CBD .F               708:   CASING BOTTOM DRILLER
 CBL .F               712:   CASING BOTTOM LOGGER
 BS  .IN             8.75:   BIT SIZE
 BSD .F              1953:   BIT SIZE AT DEPTH
 DFT .                OIL:   DRILLING FLUID TYPE
 TCS .HRS               5:   TIME CURCULATED STOPPED
 LUN .               2958:   LOGGING UNIT NUMBER
 LUL .               CASP:   LOGGING UNIT LOCATION
 ENGI.             MILLER:   RECORDING ENGINEER
 CLNT.            A2DTECH:   CLIENT CODE
 ORIG.           5" PRINT:   ORIGIN OF DATA
 UWI .       490251061800:   UNIQUE WELL ID
 DICO. A2D Technologies, Inc.:   DIGITIZING COMPANY
~OTHER INFORMATION
~A   DEPT      ILD       CILD       NPHI        GRD   
# ...
 1424.5000     9.9257   112.2752  -999.2500  -999.2500
 1425.0000     9.9099   112.3694  -999.2500  -999.2500
 1425.5000     9.8940   112.4636  -999.2500  -999.2500
 1426.0000     9.8781   112.5578  -999.2500  -999.2500
 1426.5000     9.8623   112.6520  -999.2500  -999.2500
 1427.0000     9.8516   112.7463  -999.2500  -999.2500
 1427.5000     9.8605   112.8405  -999.2500  -999.2500
 1428.0000     9.8690   112.9347  -999.2500  -999.2500
 1428.5000     9.8774   113.0289  -999.2500  -999.2500
 1429.0000     9.8858   113.1231  -999.2500  -999.2500
 1429.5000     9.8942   113.2173  -999.2500  -999.2500
 1430.0000     9.9026   113.3116  -999.2500  -999.2500
 1430.5000     9.9110   113.4058  -999.2500  -999.2500
 1431.0000     9.9194   113.5000  -999.2500  -999.2500
 1431.5000     9.9278   113.5942  -999.2500  -999.2500
 1432.0000     9.9362   113.6884  -999.2500  -999.2500
 1432.5000     9.9446   113.7827  -999.2500  -999.2500
 1433.0000     9.9531   113.8769  -999.2500  -999.2500
 1433.5000     9.9617   113.9711  -999.2500  -999.2500
 1434.0000     9.9691   114.0653  -999.2500  -999.2500
 1434.5000     9.9439   114.1595  -999.2500  -999.2500
 1435.0000     9.9168   114.2537  -999.2500  -999.2500
 1435.5000     9.8898   114.3480  -999.2500  -999.2500
 1436.0000     9.8629   114.4422  -999.2500  -999.2500
 1436.5000     9.8360   114.5364  -999.2500  -999.2500
 1437.0000     9.8091   114.6306  -999.2500  -999.2500
 1437.5000     9.7822   114.7248  -999.2500  -999.2500
 1438.0000     9.7553   114.8190  -999.2500  -999.2500
 1438.5000     9.7284   114.9133  -999.2500  -999.2500
 1439.0000     9.7015   114.9254  -999.2500  -999.2500
 1439.5000     9.6745   114.9254  -999.2500  -999.2500
 1440.0000     9.6504   114.9254  -999.2500  -999.2500
 1440.5000     9.6435   114.9254  -999.2500  -999.2500
 1441.0000     9.6361   114.9254  -999.2500  -999.2500
 1441.5000     9.6287   114.9254  -999.2500  -999.2500
 1442.0000     9.6212   114.9254  -999.2500  -999.2500
 1442.5000     9.6137   114.9254  -999.2500  -999.2500
 1443.0000     9.6062   114.9254  -999.2500  -999.2500
 1443.5000     9.5988   114.9254  -999.2500  -999.2500
 1444.0000     9.5913   114.9254  -999.2500  -999.2500
 1444.5000     9.5838   114.9254  -999.2500  -999.2500
 1445.0000     9.5763   114.9254  -999.2500  -999.2500
 1445.5000     9.5703   114.9254  -999.2500  -999.2500
 1446.0000     9.5704   114.9254  -999.2500  -999.2500
 1446.5000     9.5704   114.9254  -999.2500  -999.2500
 1447.0000     9.5704   114.9254  -999.2500  -999.2500
 1447.5000     9.5704   114.9254  -999.2500  -999.2500
 1448.0000     9.5704   114.9254  -999.2500  -999.2500
 1448.5000     9.5704   114.9254  -999.2500  -999.2500
 1449.0000     9.5704   114.9254  -999.2500  -999.2500
 1449.5000     9.5704   114.9254  -999.2500  -999.2500
 1450.0000     9.5704   114.9254  -999.2500  -999.2500
 1450.5000     9.5704   114.9254  -999.2500  -999.2500
 1451.0000     9.5702   114.9254  -999.2500  -999.2500
 1451.5000     9.5794   114.9254  -999.2500  -999.2500
 1452.0000     9.5917   114.9254  -999.2500  -999.2500
 1452.5000     9.6040   114.9254  -999.2500  -999.2500
 1453.0000     9.6163   114.9254  -999.2500  -999.2500
 1453.5000     9.6286   114.9254  -999.2500  -999.2500
 1454.0000     9.6408   114.9254  -999.2500  -999.2500
 1454.5000     9.6440   114.9254  -999.2500  -999.2500
 1455.0000     9.6091   114.9254  -999.2500  -999.2500
 1455.5000     9.5753   114.9254  -999.2500  -999.2500
 1456.0000     9.5415   115.3341  -999.2500  -999.2500
 1456.5000     9.5073   115.7222  -999.2500  -999.2500
 1457.0000     9.4626   116.1102  -999.2500  -999.2500
 1457.5000     9.4053   116.4983  -999.2500  -999.2500
 1458.0000     9.3483   116.8863  -999.2500  -999.2500
 1458.5000     9.2911   117.2744  -999.2500  -999.2500
 1459.0000     9.2340   117.6651  -999.2500  -999.2500
 1459.5000     9.1768   117.9309  -999.2500  -999.2500
 1460.0000     9.1197   117.9941  -999.2500  -999.2500
 1460.5000     9.0618   118.0539  -999.2500  -999.2500
 1461.0000     9.0224   118.1147  -999.2500  -999.2500
 1461.5000     8.9684   118.1755  -999.2500  -999.2500
 1462.0000     8.9707   118.2363  -999.2500  -999.2500
 1462.5000     8.9588   118.2971  -999.2500  -999.2500
 1463.0000     8.9440   118.3578  -999.2500  -999.2500
 1463.5000     8.9292   118.4186  -999.2500  -999.2500
 1464.0000     8.9145   118.4794  -999.2500  -999.2500
 1464.5000     8.8997   118.5402  -999.2500  -999.2500
 1465.0000     8.8850   118.6010  -999.2500  -999.2500
 1465.5000     8.8703   118.6618  -999.2500  -999.2500
 1466.0000     8.8555   118.7225  -999.2500  -999.2500
 1466.5000     8.8407   118.7833  -999.2500  -999.2500
 1467.0000     8.8255   118.8441  -999.2500  -999.2500
 1467.5000     8.8135   118.9055  -999.2500  -999.2500
 1468.0000     8.8825   117.3281  -999.2500  -999.2500
 1468.5000     8.9556   115.7350  -999.2500  -999.2500
 1469.0000     9.0284   114.1419  -999.2500  -999.2500
 1469.5000     9.1010   112.9507  -999.2500  -999.2500
 1470.0000     9.1736   113.0614  -999.2500  -999.2500
 1470.5000     9.2463   113.1628  -999.2500  -999.2500
 1471.0000     9.3189   113.2658  -999.2500  -999.2500
 1471.5000     9.3916   113.3677  -999.2500  -999.2500
 1472.0000     9.4640   113.4696  -999.2500  -999.2500
 1472.5000     9.5369   113.5715  -999.2500  -999.2500
 1473.0000     9.5699   113.6734  -999.2500  -999.2500
 1473.5000     9.5705   113.7754  -999.2500  -999.2500
 1474.0000     9.5705   113.8773  -999.2500  -999.2500
 1474.5000     9.5704   113.9792  -999.2500  -999.2500
 1475.0000     9.5704   114.0811  -999.2500  -999.2500
 1475.5000     9.5704   114.1830  -999.2500  -999.2500
 1476.0000     9.5704   114.2849  -999.2500  -999.2500
 1476.5000     9.5705   114.3868  -999.2500  -999.2500
 1477.0000     9.5777   114.4888  -999.2500  -999.2500
 1477.5000     9.5940   114.5907  -999.2500  -999.2500
 1478.0000     9.6102   114.6926  -999.2500  -999.2500
 1478.5000     9.6263   114.7945  -999.2500  -999.2500
 1479.0000     9.6427   114.8931  -999.2500  -999.2500
 1479.5000     9.6046   116.0359  -999.2500  -999.2500
 1480.0000     9.5171   117.5828  -999.2500  -999.2500
 1480.5000     9.4293   118.9011  -999.2500  -999.2500
 1481.0000     9.3414   118.8721  -999.2500  -999.2500
 1481.5000     9.2537   118.8431  -999.2500  -999.2500
 1482.0000     9.1652   118.8141  -999.2500  -999.2500
 1482.5000     9.1314   118.7851  -999.2500  -999.2500
 1483.0000     9.1308   118.7561  -999.2500  -999.2500
 1483.5000     9.1308   118.7271  -999.2500  -999.2500
 1484.0000     9.1309   118.6981  -999.2500  -999.2500
 1484.5000     9.1309   118.6691  -999.2500  -999.2500
 1485.0000     9.1309   118.6401  -999.2500  -999.2500
 1485.5000     9.1309   118.6111  -999.2500  -999.2500
 1486.0000     9.1309   118.5822  -999.2500  -999.2500
 1486.5000     9.1309   118.5531  -999.2500  -999.2500
 1487.0000     9.1309   118.5242  -999.2500  -999.2500
 1487.5000     9.1309   118.4952  -999.2500  -999.2500
 1488.0000     9.1309   118.4662  -999.2500  -999.2500
 1488.5000     9.1309   118.4372  -999.2500  -999.2500
 1489.0000     9.1309   118.4082  -999.2500  -999.2500
 1489.5000     9.1309   118.3792  -999.2500  -999.2500
 1490.0000     9.1309   118.3502  -999.2500  -999.2500
 1490.5000     9.1309   118.3212  -999.2500  -999.2500
 1491.0000     9.1309   118.2922  -999.2500  -999.2500
 1491.5000     9.1309   118.2632  -999.2500  -999.2500
 1492.0000     9.1309   118.2342  -999.2500  -999.2500
 1492.5000     9.1309   118.2052  -999.2500  -999.2500
 1493.0000     9.1309   118.1762  -999.2500  -999.2500
 1493.5000     9.1309   118.1472  -999.2500  -999.2500
 1494.0000     9.1309   118.1183  -999.2500  -999.2500
 1494.5000     9.1309   118.0893  -999.2500  -999.2500
 1495.0000     9.1309   118.0603  -999.2500  -999.2500
 1495.5000     9.1309   118.0313  -999.2500  -999.2500
 1496.0000     9.1309   118.0023  -999.2500  -999.2500
 1496.5000     9.1309   117.9733  -999.2500  -999.2500
 1497.0000     9.1309   117.9443  -999.2500  -999.2500
