~VERSION INFORMATION
 VERS.                2.0:   CWLS LOG ASCII STANDARD - VERSION 2.0
 WRAP.                 NO:   ONE LINE PER DEPTH STEP
~WELL INFORMATION
#MNEM.UNIT      DATA TYPE    INFORMATION
#----------   ------------   ------------------------------
 STRT.F           68.0000:   START DEPTH
 STOP.F          560.0000:   STOP DEPTH
 STEP.F            0.5000:   STEP LENGTH
 NULL.          -999.2500:   NO VALUE
 COMP.               NAVY:   COMPANY
 WELL. RES 3 TEAPOT DOM #24S-11:   WELL
 FLD .             TEAPOT:   FIELD
 LOC .      S11 T38N R78W:   LOCATION
 CNTY.            NATRONA:   COUNTY
 STAT.            WYOMING:   STATE
 CTRY. UNITED STATES OF AMERICA:   COUNTRY
 SRVC.       Schlumberger:   SERVICE COMPANY
 DATE.        16-JUL-1963:   LOGDATE
 API .       490250634300:   API NUMBER
~CURVE INFORMATION
#MNEM.UNIT       API CODE    CURVE DESCRIPTION
#----------   ------------   ------------------------------
 DEPT.F                  :   
 GR  .GAPI   30 310 01 00:   GAMMA RAY
 CALS.IN     60 280 50 00:   CALIPER FROM SONIC LOG
 DT  .US/F   60 520 00 00:   INTERVAL TRANSIT TIME
 SPR .MV     05 010 01 00:   SPONTANEOUS POTENTIAL FROM RES.
 CILD.MMHO   05 110 00 00:   CONDUCTIVITY INDUCTION LOG
 ASN .OHMM   05 041 16 00:   AMPLIFIED SHORT NORMAL 16"
 ILD .OHMM   05 120 46 00:   INDUCTION LOG DEEP
~PARAMETER INFORMATION
#MNEM.UNIT          VALUE    DESCRIPTION
#----------   ------------   ------------------------------
 PD  .                 GL:   PERMANENT DATUM
 EPD .F              5168:   ELEVATION PERMANENT DATUM
 LMF .                 KB:   LOG MEASURED FROM
 DAPD.F                 5:   FEET ABOVE PERMANENT DATUM
 DMF .                 KB:   DRILLING MEASURED FROM
 EKB .F              5173:   KELLING BUSHING
 EGL .F              5168:   GROUND LEVEL
 DATE.            7-16-63:   RUN DATE
 RUN .                  1:   RUN NUMBER
 DD  .F               562:   DEPTH DRILLER
 DL  .F               561:   DEPTH LOGGER
 BLI .F               560:   BOTTOM LOG INTERVAL
 TLI .F                94:   TOP LOG INTERVAL
 CS  .IN            8.625:   CASING SIZE
 CBD .F                10:   CASING BOTTOM DRILLER
 BS  .IN            6.875:   BIT SIZE
 BSD .F               562:   BIT SIZE AT DEPTH
 DFT .            NATURAL:   DRILLING FLUID TYPE
 DFD .                 10:   DRILLING FLUID DENSITY
 DFV .                 65:   DRILLING FLUID VISCOSITY
 MSS .           FLOWLINE:   MUD SAMPLE SOURCE
 RMS .OHMM            3.4:   RESISTIVITY MUD SAMPLE
 MST .F                76:   MUD SAMPLE TEMPERATURE
 RMF .OHMM            1.8:   RESISTIVITY MUD FILTRATE SAMPLE
 MFST.F                75:   MUD FILTRATE SAMPLE TEMPERATURE
 RMC .OHMM            3.4:   RESISTIVITY MUD CAKE
 MCST.F                75:   MUD CAKE SAMPLE TEMPERATURE
 MFSS.                 FP:   MUD FILTRATE SAMPLE SOURCE
 MCSS.                 FP:   MUD CAKE SAMPLE SOURCE
 TCS .HRS               1:   TIME CURCULATED STOPPED
 MRT .F                80:   MAXIMUM RECORDED TEMPERATURE
 LUN .               4507:   LOGGING UNIT NUMBER
 LUL .               CSPR:   LOGGING UNIT LOCATION
 ENGI.            GIFFORD:   RECORDING ENGINEER
 WITN.          JORGENSON:   WITNESSED BY
 CLNT.            A2DTECH:   CLIENT CODE
 ORIG.       2", 5" PRINT:   ORIGIN OF DATA
 UWI .       490250634300:   UNIQUE WELL ID
 DICO. A2D Technologies, Inc.:   DIGITIZING COMPANY
~OTHER INFORMATION
~A   DEPT       GR         CALS       DT        SPR       CILD        ASN        ILD   
# ...
  113.5000  -999.2500     7.0429   116.3142   -36.6528   161.5254     7.3284     6.3009
  114.0000  -999.2500     7.0347   115.9960   -36.5988   159.6202     7.3714     6.4032
  114.5000  -999.2500     7.0264   115.4305   -36.5451   158.2055     7.4737     6.4400
  115.0000  -999.2500     7.0183   114.7910   -36.5383   157.5777     7.5753     6.4778
  115.5000  -999.2500     7.0185   114.4748   -36.5384   155.7817     7.6779     6.5154
  116.0000  -999.2500     7.0332   114.8036   -36.5387   153.7167     7.7086     6.5528
  116.5000  -999.2500     7.0484   114.3488   -36.5382   151.6456     7.6973     6.5850
  117.0000  -999.2500     7.0636   113.7907   -36.5058   149.5752     7.7106     6.7239
  117.5000  -999.2500     7.0787   113.8760   -36.3912   147.5054     7.8207     6.8851
  118.0000  -999.2500     7.0946   114.4891   -36.2779   144.9321     7.9325     7.0479
  118.5000  -999.2500     7.0692   114.7013   -36.1604   141.7568     8.0458     7.2116
  119.0000  -999.2500     7.0275   113.6801   -36.1334   139.6266     8.1699     7.4047
  119.5000  -999.2500     6.9850   112.7422   -36.1323   137.6509     8.2687     7.4640
  120.0000  -999.2500     6.9440   112.1769   -36.1367   135.6752     8.2982     7.5263
  120.5000  -999.2500     6.9029   112.0863   -36.3386   134.2192     8.3081     7.5899
  121.0000  -999.2500     6.8623   112.3867   -36.9479   133.9370     8.3183     7.6535
  121.5000  -999.2500     6.8363   112.1883   -37.2361   133.6547     8.3842     7.7174
  122.0000  -999.2500     6.8435   111.9839   -36.8847   133.3725     8.4682     7.7870
  122.5000  -999.2500     6.8540   112.6083   -36.5514   135.4322     8.4149     7.6073
  123.0000  -999.2500     6.8919   112.1853   -36.5374   138.3037     8.2956     7.3480
  123.5000  -999.2500     6.9346   112.7150   -36.4814   141.1753     8.1753     7.1977
  124.0000  -999.2500     6.9774   112.4099   -36.4094   144.0469     8.0552     7.0284
  124.5000  -999.2500     7.0202   111.6653   -36.3365   146.5810     7.9400     6.8583
  125.0000  -999.2500     7.0583   111.6923   -36.2637   147.6587     7.8521     6.7849
  125.5000  -999.2500     7.0586   112.0908   -36.1910   148.7364     7.7392     6.7661
  126.0000  -999.2500     7.0584   112.4843   -36.1185   149.8140     7.6175     6.7487
  126.5000  -999.2500     7.0589   112.4874   -36.0430   150.8917     7.5981     6.7312
  127.0000  -999.2500     7.0809   112.2034   -35.9664   151.9694     7.6657     6.7138
  127.5000  -999.2500     7.1040   111.6918   -35.7830   153.0394     7.6606     6.6958
  128.0000  -999.2500     7.0922   112.3159   -36.1425   152.4539     7.6424     6.7075
  128.5000  -999.2500     7.0208   112.6658   -36.4916   150.3790     7.6543     6.7332
  129.0000  -999.2500     6.9517   112.6089   -36.3398   149.0404     7.6547     6.7592
  129.5000  -999.2500     6.9058   112.6440   -36.0348   147.4772     7.6076     6.7853
  130.0000  -999.2500     6.8969   112.9076   -35.9295   145.3722     7.6212     6.8114
  130.5000  -999.2500     6.9352   113.1002   -35.8541   145.5063     7.7196     6.8375
  131.0000  -999.2500     6.9759   112.3446   -35.7820   145.7026     7.8163     6.8637
  131.5000  -999.2500     7.0164   111.5418   -35.7315   145.8805     7.9134     6.8899
  132.0000  -999.2500     7.0517   111.1723   -35.5904   146.0557     7.9374     6.9036
  132.5000  -999.2500     7.0286   110.8028   -35.4358   146.2308     7.9569     6.9198
  133.0000  -999.2500     7.0079   110.4334   -35.3900   146.3783     7.9436     6.9361
  133.5000  -999.2500     6.9881   110.2719   -35.6758   145.3722     7.8464     6.9525
  134.0000  -999.2500     6.9683   110.2719   -35.9425   144.4668     7.7984     6.9688
  134.5000  -999.2500     6.9486   110.2719   -36.0847   142.8901     7.8284     6.9860
  135.0000  -999.2500     6.9279   110.1687   -35.9282   141.3134     7.9177     7.0314
  135.5000  -999.2500     6.9026   109.8868   -36.1173   139.7367     8.0427     7.1340
  136.0000  -999.2500     6.8482   109.0962   -36.3222   138.1600     8.2041     7.2355
  136.5000  -999.2500     6.8244   108.3056   -36.5275   136.5833     8.3622     7.3363
  137.0000  -999.2500     6.7978   107.5150   -36.7328   136.3179     8.4979     7.3718
  137.5000  -999.2500     6.8512   106.6476   -36.6542   136.3179     8.5233     7.3175
  138.0000  -999.2500     6.9158   107.2962   -36.4927   139.2801     8.3753     7.2639
  138.5000  -999.2500     6.8389   107.7573   -36.3319   142.7062     8.1573     7.2122
  139.0000  -999.2500     6.7295   108.1299   -36.1721   147.3843     7.9373     7.0595
  139.5000  -999.2500     6.6168   109.8691   -35.8884   149.6273     7.7315     6.8666
  140.0000  -999.2500     6.5927   111.3874   -35.5714   151.7086     7.5981     6.6857
  140.5000  -999.2500     6.6843   112.9615   -35.2495   153.7797     7.4658     6.5785
  141.0000  -999.2500     6.7931   114.0586   -35.2335   155.8818     7.4246     6.4765
  141.5000  -999.2500     6.7966   114.4565   -35.4138   157.1645     7.4193     6.3749
  142.0000  -999.2500     6.7929   114.6022   -35.5270   158.1895     7.4370     6.2852
  142.5000  -999.2500     6.9366   114.0730   -35.5274   159.2123     7.4540     6.2874
  143.0000  -999.2500     7.0609   113.4945   -35.6096   159.9554     7.4550     6.2877
  143.5000  -999.2500     7.0351   113.3938   -35.8150   160.6181     7.4557     6.2877
  144.0000  -999.2500     6.8661   112.4032   -36.0192   161.2807     7.4154     6.2877
  144.5000  -999.2500     6.8548   112.4144   -36.1228   161.9434     7.3645     6.2877
  145.0000  -999.2500     6.9089   113.0916   -35.8068   162.4749     7.3154     6.2875
  145.5000  -999.2500     6.9807   114.2728   -35.4858   161.3862     7.3136     6.2858
  146.0000  -999.2500     7.0525   115.5353   -35.1655   160.2975     7.3142     6.3604
  146.5000  -999.2500     7.1267   115.8125   -35.1205   158.8783     7.2945     6.4499
  147.0000  -999.2500     7.0560   114.9219   -35.1238   156.3380     7.2763     6.5398
  147.5000  -999.2500     6.9181   114.4131   -35.2787   153.7978     7.3369     6.6295
  148.0000  -999.2500     6.7797   114.4700   -35.6286   151.2576     7.5282     6.7191
  148.5000  -999.2500     6.6740   114.4008   -35.4767   148.7173     7.7326     6.8083
  149.0000  -999.2500     6.7321   113.5942   -35.1181   146.1074     7.7896     6.8960
  149.5000  -999.2500     6.8573   113.3873   -34.7565   143.4205     7.8393     7.0125
  150.0000  -999.2500     6.9869   113.5952   -34.7252   140.7337     7.9019     7.1255
  150.5000  -999.2500     7.0231   113.0814   -34.7665   138.4120     7.9569     7.2387
  151.0000  -999.2500     7.0341   112.4592   -34.8062   139.1927     8.0385     7.2924
  151.5000  -999.2500     7.0383   112.9738   -34.8452   139.9668     8.1719     7.2520
  152.0000  -999.2500     7.0384   112.7761   -34.8834   140.7459     8.1691     7.2060
  152.5000  -999.2500     7.0384   111.0775   -34.9216   141.5261     8.1491     7.1598
  153.0000  -999.2500     7.0379   109.9640   -35.1240   142.3541     8.0708     7.1142
  153.5000  -999.2500     7.0091   109.6949   -35.3486   144.9684     7.9884     7.0018
  154.0000  -999.2500     6.9380   109.9698   -35.5683   147.7604     7.9003     6.8325
  154.5000  -999.2500     6.8678   109.2648   -35.5086   150.5523     7.8122     6.6601
  155.0000  -999.2500     6.8160   110.3972   -34.9501   153.3442     7.7240     6.4839
  155.5000  -999.2500     6.8459   111.5811   -34.5083   156.1320     7.6341     6.5318
  156.0000  -999.2500     6.9061   111.7825   -34.5153   158.4921     7.5776     6.5834
  156.5000  -999.2500     6.9589   111.4245   -34.5142   157.1814     7.5912     6.6949
  157.0000  -999.2500     6.9366   110.7586   -34.4196   153.7787     7.6078     6.7796
  157.5000  -999.2500     6.9135   110.3747   -34.2402   150.2364     7.6496     6.8898
  158.0000  -999.2500     6.8908   110.3783   -34.0612   146.6942     7.7485     7.0024
  158.5000  -999.2500     6.8815   110.2980   -33.9178   143.1519     8.0411     7.1151
