~VERSION INFORMATION
 VERS.                2.0:   CWLS LOG ASCII STANDARD - VERSION 2.0
 WRAP.                 NO:   ONE LINE PER DEPTH STEP
~WELL INFORMATION
#MNEM.UNIT      DATA TYPE    INFORMATION
#----------   ------------   ------------------------------
 STRT.F           82.0000:   START DEPTH
 STOP.F          750.0000:   STOP DEPTH
 STEP.F            0.5000:   STEP LENGTH
 NULL.          -999.2500:   NO VALUE
 COMP. U S NAVY/INTEX OIL CO:   COMPANY
 WELL.      GOVT #18-S-35:   WELL
 FLD .             TEAPOT:   FIELD
 LOC .      S35 T39N R78W:   LOCATION
 CNTY.            NATRONA:   COUNTY
 STAT.            WYOMING:   STATE
 CTRY. UNITED STATES OF AMERICA:   COUNTRY
 SRVC. Schlumberger Well Surveying Corp:   SERVICE COMPANY
 DATE.        19-JUL-1962:   LOGDATE
 API .       490250649300:   API NUMBER
~CURVE INFORMATION
#MNEM.UNIT       API CODE    CURVE DESCRIPTION
#----------   ------------   ------------------------------
 DEPT.F                  :   
 SPR .MV     05 010 01 00:   SPONTANEOUS POTENTIAL
 ILD .OHMM   05 120 46 00:   INDUCTION LOG DEEP
 CILD.MMHO   05 110 46 00:   CONDUCTIVITY INDUCTION LOG DEEP
 ASN .OHMM   05 041 16 00:   AMPLIFIED SHORT NORMAL 16"
 NEUT.NAPI   35 330 01 00:   NEUTRON GAMMA RAY
~PARAMETER INFORMATION
#MNEM.UNIT          VALUE    DESCRIPTION
#----------   ------------   ------------------------------
 PD  .                 GL:   PERMANENT DATUM
 EPD .F              5107:   ELEVATION PERMANENT DATUM
 LMF .                 KB:   LOG MEASURED FROM
 DAPD.F                 5:   FEET ABOVE PERMANENT DATUM
 DMF .                 KB:   DRILLING MEASURED FROM
 EKB .F              5112:   KELLING BUSHING
 EGL .F              5107:   GROUND LEVEL
 DATE.            7-19-62:   RUN DATE
 RUN .                  1:   RUN NUMBER
 DD  .F               745:   DEPTH DRILLER
 DL  .F               745:   DEPTH LOGGER
 BLI .F               744:   BOTTOM LOG INTERVAL
 TLI .F                80:   TOP LOG INTERVAL
 BS  .IN             6.75:   BIT SIZE
 BSD .F               745:   BIT SIZE AT DEPTH
 DFT .       OIL EMULSION:   DRILLING FLUID TYPE
 DFD .                 10:   DRILLING FLUID DENSITY
 DFV .                 46:   DRILLING FLUID VISCOSITY
 DFL .                2.9:   DRILLING FLUID LOSS
 RMS .OHMM           3.75:   RESISTIVITY MUD SAMPLE
 MST .F                87:   MUD SAMPLE TEMPERATURE
 RMF .OHMM           2.65:   RESISTIVITY MUD FILTRATE SAMPLE
 MFST.F                87:   MUD FILTRATE SAMPLE TEMPERATURE
 RMC .OHMM           3.54:   RESISTIVITY MUD CAKE
 MCST.F                87:   MUD CAKE SAMPLE TEMPERATURE
 TCS .HRS              .5:   TIME CURCULATED STOPPED
 LUN .               2503:   LOGGING UNIT NUMBER
 LUL .             CASPER:   LOGGING UNIT LOCATION
 ENGI.             DANNER:   RECORDING ENGINEER
 WITN.          JORGENSEN:   WITNESSED BY
 CLNT.            A2DTECH:   CLIENT CODE
 ORIG.       2", 5" PRINT:   ORIGIN OF DATA
 UWI .       490250649300:   UNIQUE WELL ID
 DICO. A2D Technologies, Inc.:   DIGITIZING COMPANY
~OTHER INFORMATION
~A   DEPT      SPR          ILD      CILD         ASN     NEUT   
# ...
  448.0000   -62.7165     9.3561    99.1502     9.8580  -999.2500
  448.5000   -62.6798     9.3473    98.8349     9.8892  -999.2500
  449.0000   -62.7702     9.3385    98.5197     9.8471  -999.2500
  449.5000   -62.8658     9.3275    98.6497     9.8089  -999.2500
  450.0000   -62.9607     9.2327   100.0489     9.8363  -999.2500
  450.5000   -63.0595     9.0431   101.4481     9.8366  -999.2500
  451.0000   -63.0258     8.8541   103.6103     9.7857  -999.2500
  451.5000   -62.9561     8.6645   107.0270     9.5148  -999.2500
  452.0000   -62.8856     8.4751   110.4309     9.2381  -999.2500
  452.5000   -62.8156     8.2854   113.6978     8.9617  -999.2500
  453.0000   -62.7455     8.0951   115.8729     8.7381  -999.2500
  453.5000   -62.6755     7.9169   118.0479     8.5514  -999.2500
  454.0000   -62.6055     7.9122   120.2209     8.3676  -999.2500
  454.5000   -62.5355     7.9131   121.2587     8.2899  -999.2500
  455.0000   -62.4654     7.9132   122.1233     8.5530  -999.2500
  455.5000   -62.3943     7.9124   121.6885     8.7492  -999.2500
  456.0000   -62.3252     7.9455   120.3679     8.6618  -999.2500
  456.5000   -62.3401     7.9842   119.0474     8.5786  -999.2500
  457.0000   -62.6518     8.0229   117.7268     8.5385  -999.2500
  457.5000   -62.9519     8.0616   117.1334     8.5596  -999.2500
  458.0000   -63.2524     8.1002   116.7421     8.5873  -999.2500
  458.5000   -63.5545     8.1389   116.3508     8.6151  -999.2500
  459.0000   -63.8509     8.1775   115.9595     8.6423  -999.2500
  459.5000   -63.6290     8.2160   115.5683     8.6525  -999.2500
  460.0000   -63.3407     8.2576   114.9016     8.6343  -999.2500
  460.5000   -63.0533     8.2991   114.0730     8.6194  -999.2500
  461.0000   -62.7655     8.3405   113.2444     8.6829  -999.2500
  461.5000   -62.7738     8.3819   112.4158     8.7806  -999.2500
  462.0000   -62.9697     8.4234   111.5872     8.8871  -999.2500
  462.5000   -63.1647     8.4648   110.7586     8.9970  -999.2500
  463.0000   -63.2429     8.5062   109.9300     8.9879  -999.2500
  463.5000   -63.1535     8.5479   109.1014     8.9660  -999.2500
  464.0000   -63.1051     8.5891   108.2729     8.9446  -999.2500
  464.5000   -63.3404     8.6096   107.4443     8.9233  -999.2500
  465.0000   -63.5746     8.5656   108.4357     8.9386  -999.2500
  465.5000   -63.8082     8.5240   109.6362     8.9627  -999.2500
  466.0000   -64.0417     8.4822   110.8367     8.9831  -999.2500
  466.5000   -64.2757     8.4405   112.0372     8.9411  -999.2500
  467.0000   -64.5087     8.3988   112.5376     8.9001  -999.2500
  467.5000   -64.6800     8.3569   112.7356     8.8575  -999.2500
  468.0000   -64.6131     8.3174   112.9340     8.8249  -999.2500
  468.5000   -64.5553     8.3163   113.1318     8.8004  -999.2500
  469.0000   -64.4444     8.3165   113.3299     8.8151  -999.2500
  469.5000   -64.1472     8.3165   113.5280     8.8357  -999.2500
  470.0000   -63.9589     8.3165   113.7261     8.8774  -999.2500
  470.5000   -63.7772     8.3165   113.9241     8.9245  -999.2500
  471.0000   -63.5964     8.3165   114.1222     8.9714  -999.2500
  471.5000   -63.4686     8.3166   114.3203     9.0008  -999.2500
  472.0000   -63.4035     8.3170   114.5184     8.9222  -999.2500
  472.5000   -63.3374     8.3141   114.7165     8.8392  -999.2500
  473.0000   -63.2660     8.2532   114.9146     8.7674  -999.2500
  473.5000   -63.1662     8.1924   115.1126     8.7196  -999.2500
  474.0000   -63.0644     8.1320   115.3107     8.6473  -999.2500
  474.5000   -62.9626     8.0716   115.8790     8.5563  -999.2500
  475.0000   -62.8605     8.0113   116.9355     8.4621  -999.2500
  475.5000   -62.7588     7.9515   117.9919     8.4234  -999.2500
  476.0000   -62.6953     7.8966   119.0484     8.3868  -999.2500
  476.5000   -62.8305     7.7996   120.1048     8.3479  -999.2500
  477.0000   -62.9623     7.7034   121.1613     8.2733  -999.2500
  477.5000   -63.0935     7.6082   123.0703     8.1375  -999.2500
  478.0000   -63.2252     7.5068   126.6217     8.0026  -999.2500
  478.5000   -63.3082     7.2604   132.3633     7.8671    91.1865
  479.0000   -63.3591     7.0060   138.1048     7.7319    98.3449
  479.5000   -63.4088     6.7517   143.8464     7.5963   115.3445
  480.0000   -63.4591     6.4984   149.6976     7.4127    70.2297
  480.5000   -63.4569     6.2955   152.2883     7.1398   116.6582
  481.0000   -63.4155     6.3000   154.7379     6.8648    91.8965
  481.5000   -63.3734     6.3001   155.1426     6.7914   120.9736
  482.0000   -63.3312     6.3000   155.5199     6.8429   102.9964
  482.5000   -63.2861     6.3019   154.5363     6.7858   169.1935
  483.0000   -63.3537     6.3926   151.7137     6.7868   243.1505
  483.5000   -63.4456     6.6008   146.3273     7.0250   209.8623
  484.0000   -63.7757     6.8079   140.1647     7.3461   182.0728
  484.5000   -64.2041     7.0160   134.0020     7.5426   114.9976
  485.0000   -64.4797     7.2241   129.7715     7.7305    71.7668
  485.5000   -64.4466     7.4087   128.0108     7.7670    99.4906
  486.0000   -64.4184     7.3990   126.3548     7.7990    63.1584
  486.5000   -64.3888     7.3859   125.5683     7.8051   109.4063
  487.0000   -64.3597     7.3735   125.8984     7.7931    57.3888
  487.5000   -64.3306     7.3612   126.2286     7.7805    93.0396
  488.0000   -64.3003     7.3489   126.6779     7.7561    54.8473
  488.5000   -64.2312     7.3368   127.8517     7.7061    13.5050
  489.0000   -64.1103     7.3245   129.7130     7.6573   -24.0464
  489.5000   -64.0845     7.3154   132.5095     7.6043    22.7213
  490.0000   -64.0843     7.1093   135.3043     7.4570    69.5616
  490.5000   -64.0851     6.8272   138.8857     7.3137    33.3943
  491.0000   -64.0836     6.5463   146.2148     7.1713   224.3571
  491.5000   -63.9892     6.2741   153.5406     7.0306   184.3926
  492.0000   -63.6942     5.9348   165.5847     6.7920   133.9700
  492.5000   -63.4020     5.5892   179.9395     6.5152   144.1588
  493.0000   -63.1138     5.2488   189.0071     6.2370   160.3401
  493.5000   -62.9889     5.0869   194.6522     5.9586    77.0553
  494.0000   -62.8890     5.1615   196.0685     5.6923    62.2676
  494.5000   -62.7896     5.2271   192.6391     5.6576   107.2204
  495.0000   -62.6866     5.2931   188.9415     5.6657    75.3376
  495.5000   -62.8560     5.3629   185.2440     5.7207    87.8362
  496.0000   -63.1128     5.5705   180.5427     6.0494    85.4110
  496.5000   -63.2709     5.9299   167.7772     6.5180   148.8599
  497.0000   -63.2404     6.2880   155.0118     6.8887   131.4326
  497.5000   -63.2125     6.6473   146.0468     7.0984   215.8106
  498.0000   -63.1839     7.0182   137.8603     7.3170   195.1770
  498.5000   -63.1553     7.2435   132.0004     7.4518   270.5998
  499.0000   -63.1254     7.4331   130.2016     7.5665   174.7371
  499.5000   -63.0987     7.6095   128.4733     7.6808   130.2967
  500.0000   -63.1972     7.6500   126.7646     7.7954   192.0088
  500.5000   -63.6995     7.6859   125.0559     7.9068   220.8421
  501.0000   -64.1162     7.7223   123.3473     7.9834   150.2898
  501.5000   -64.2256     7.7588   121.6386     8.0622   120.2758
  502.0000   -64.1991     7.7954   119.9130     8.1411   138.1922
  502.5000   -63.8924     7.8291   119.1429     8.2200    47.6433
  503.0000   -63.5875     7.8610   118.6924     8.2988    83.9861
  503.5000   -63.2810     7.8927   118.2527     8.3776    65.2280
  504.0000   -62.8709     7.9243   117.8108     8.4590   137.3666
  504.5000   -62.9853     7.9560   117.3527     8.5005   176.3297
  505.0000   -63.0712     7.9876   116.8088     8.5315   132.5172
  505.5000   -62.9222     8.0193   116.2651     8.5623   116.2229
  506.0000   -62.7719     8.0509   115.7212     8.5928   130.7894
  506.5000   -62.7494     8.0826   115.1773     8.6215   152.7443
  507.0000   -62.9509     8.1143   114.6335     8.6963   176.2340
  507.5000   -63.1492     8.1459   114.0896     8.7772   130.2106
  508.0000   -63.3486     8.1777   113.5458     8.7782   135.9161
  508.5000   -63.5485     8.2109   113.7777     8.7343   125.7448
