~VERSION INFORMATION
 VERS.                2.0:   CWLS LOG ASCII STANDARD - VERSION 2.0
 WRAP.                 NO:   ONE LINE PER DEPTH STEP
~WELL INFORMATION
#MNEM.UNIT      DATA TYPE    INFORMATION
#----------   ------------   ------------------------------
 STRT.F          110.5000:   START DEPTH
 STOP.F         1944.0000:   STOP DEPTH
 STEP.F            0.5000:   STEP LENGTH
 NULL.          -999.2500:   NO VALUE
 COMP.    FENIX & SCISSON:   COMPANY
 WELL.   NPR 3 SHX #34-10:   WELL
 FLD .             TEAPOT:   FIELD
 LOC .      S10 T38N R78W:   LOCATION
 CNTY.            NATRONA:   COUNTY
 STAT.            WYOMING:   STATE
 CTRY. UNITED STATES OF AMERICA:   COUNTRY
 SRVC.            Unknown:   SERVICE COMPANY
 DATE.        14-APR-1978:   LOGDATE
 API .       490251061800:   API NUMBER
~CURVE INFORMATION
#MNEM.UNIT       API CODE    CURVE DESCRIPTION
#----------   ------------   ------------------------------
 DEPT.F                  :   
 ILD .OHMM   05 120 46 00:   INDUCTION LOG DEEP
 CILD.MMHO   05 110 00 00:   CONDUCTIVITY INDUCTION LOG
 NPHI.DEC    42 890 01 00:   NEUTRON POROSITY LIMESTONE
 GRD .GAPI   45 310 01 00:   GAMMA RAY FROM DENSITY LOG
~PARAMETER INFORMATION
#MNEM.UNIT          VALUE    DESCRIPTION
#----------   ------------   ------------------------------
 PD  .                 GL:   PERMANENT DATUM
 EPD .F              5244:   ELEVATION PERMANENT DATUM
 LMF .                 KB:   LOG MEASURED FROM
 DMF .                 KB:   DRILLING MEASURED FROM
 EKB .F              5252:   KELLING BUSHING
 EGL .F              5244:   GROUND LEVEL
 DATE.          4-14-1978:   RUN DATE
 RUN .                  1:   RUN NUMBER
 DD  .F              1953:   DEPTH DRILLER
 DL  .F              1950:   DEPTH LOGGER
 BLI .F              1944:   BOTTOM LOG INTERVAL
 TLI .F               715:   TOP LOG INTERVAL
 CS  .IN            9.625:   CASING SIZE
 CBD .F               708:   CASING BOTTOM DRILLER
 CBL .F               712:   CASING BOTTOM LOGGER
 BS  .IN             8.75:   BIT SIZE
 BSD .F              1953:   BIT SIZE AT DEPTH
 DFT .                OIL:   DRILLING FLUID TYPE
 TCS .HRS               5:   TIME CURCULATED STOPPED
 LUN .               2958:   LOGGING UNIT NUMBER
 LUL .               CASP:   LOGGING UNIT LOCATION
 ENGI.             MILLER:   RECORDING ENGINEER
 CLNT.            A2DTECH:   CLIENT CODE
 ORIG.           5" PRINT:   ORIGIN OF DATA
 UWI .       490251061800:   UNIQUE WELL ID
 DICO. A2D Technologies, Inc.:   DIGITIZING COMPANY
~OTHER INFORMATION
~A   DEPT      ILD       CILD       NPHI        GRD   
# ...
  256.5000  -999.2500  -999.2500     0.2974    56.4645
  257.0000  -999.2500  -999.2500     0.2785    54.9550
  257.5000  -999.2500  -999.2500     0.2805    54.5766
  258.0000  -999.2500  -999.2500     0.2797    54.2315
  258.5000  -999.2500  -999.2500     0.2624    53.9167
  259.0000  -999.2500  -999.2500     0.2507    53.7451
  259.5000  -999.2500  -999.2500     0.2455    53.5707
  260.0000  -999.2500  -999.2500     0.2560    53.3852
  260.5000  -999.2500  -999.2500     0.2329    53.6149
  261.0000  -999.2500  -999.2500     0.2327    53.9629
  261.5000  -999.2500  -999.2500     0.2194    54.3130
  262.0000  -999.2500  -999.2500     0.2159    54.6858
  262.5000  -999.2500  -999.2500     0.2153    54.2561
  263.0000  -999.2500  -999.2500     0.2159    53.5607
  263.5000  -999.2500  -999.2500     0.2196    52.8629
  264.0000  -999.2500  -999.2500     0.2278    52.3382
  264.5000  -999.2500  -999.2500     0.2347    52.3487
  265.0000  -999.2500  -999.2500     0.2315    52.3498
  265.5000  -999.2500  -999.2500     0.2399    52.3544
  266.0000  -999.2500  -999.2500     0.2416    52.3250
  266.5000  -999.2500  -999.2500     0.2341    51.6713
  267.0000  -999.2500  -999.2500     0.2311    51.0026
  267.5000  -999.2500  -999.2500     0.2235    50.3937
  268.0000  -999.2500  -999.2500     0.2105    51.5715
  268.5000  -999.2500  -999.2500     0.2190    52.5089
  269.0000  -999.2500  -999.2500     0.2258    52.1902
  269.5000  -999.2500  -999.2500     0.2251    51.8969
  270.0000  -999.2500  -999.2500     0.2228    51.5846
  270.5000  -999.2500  -999.2500     0.2214    52.1764
  271.0000  -999.2500  -999.2500     0.2021    52.9732
  271.5000  -999.2500  -999.2500     0.2083    53.7776
  272.0000  -999.2500  -999.2500     0.2142    54.1237
  272.5000  -999.2500  -999.2500     0.2335    54.0818
  273.0000  -999.2500  -999.2500     0.2263    54.0320
  273.5000  -999.2500  -999.2500     0.2191    53.9826
  274.0000  -999.2500  -999.2500     0.2182    53.9530
  274.5000  -999.2500  -999.2500     0.2363    53.6872
  275.0000  -999.2500  -999.2500     0.2395    52.8721
  275.5000  -999.2500  -999.2500     0.2202    52.0624
  276.0000  -999.2500  -999.2500     0.2275    51.9453
  276.5000  -999.2500  -999.2500     0.2364    51.9448
  277.0000  -999.2500  -999.2500     0.2379    52.2610
  277.5000  -999.2500  -999.2500     0.2592    52.8263
  278.0000  -999.2500  -999.2500     0.2332    53.1203
  278.5000  -999.2500  -999.2500     0.2089    53.0376
  279.0000  -999.2500  -999.2500     0.1997    52.9728
  279.5000  -999.2500  -999.2500     0.1953    52.1702
  280.0000  -999.2500  -999.2500     0.2009    51.1184
  280.5000  -999.2500  -999.2500     0.2045    50.7024
  281.0000  -999.2500  -999.2500     0.2045    50.6253
  281.5000  -999.2500  -999.2500     0.2039    50.5354
  282.0000  -999.2500  -999.2500     0.2049    51.4774
  282.5000  -999.2500  -999.2500     0.2059    52.7221
  283.0000  -999.2500  -999.2500     0.2051    53.0854
  283.5000  -999.2500  -999.2500     0.2042    52.8078
  284.0000  -999.2500  -999.2500     0.2033    52.5304
  284.5000  -999.2500  -999.2500     0.2063    52.2480
  285.0000  -999.2500  -999.2500     0.2121    52.1980
  285.5000  -999.2500  -999.2500     0.2129    52.3435
  286.0000  -999.2500  -999.2500     0.2110    52.3409
  286.5000  -999.2500  -999.2500     0.2102    52.8044
  287.0000  -999.2500  -999.2500     0.2120    53.4212
  287.5000  -999.2500  -999.2500     0.2139    54.0392
  288.0000  -999.2500  -999.2500     0.2186    54.6591
  288.5000  -999.2500  -999.2500     0.2178    54.9552
  289.0000  -999.2500  -999.2500     0.2170    54.7350
  289.5000  -999.2500  -999.2500     0.2188    53.6233
  290.0000  -999.2500  -999.2500     0.2222    52.0494
  290.5000  -999.2500  -999.2500     0.2138    50.4057
  291.0000  -999.2500  -999.2500     0.2134    49.5665
  291.5000  -999.2500  -999.2500     0.2170    50.0403
  292.0000  -999.2500  -999.2500     0.2186    51.3269
  292.5000  -999.2500  -999.2500     0.2186    53.2435
  293.0000  -999.2500  -999.2500     0.2228    53.3168
  293.5000  -999.2500  -999.2500     0.2352    53.2758
  294.0000  -999.2500  -999.2500     0.2338    53.2253
  294.5000  -999.2500  -999.2500     0.2270    53.1894
  295.0000  -999.2500  -999.2500     0.2218    53.3480
  295.5000  -999.2500  -999.2500     0.2411    54.6931
  296.0000  -999.2500  -999.2500     0.2253    56.5760
  296.5000  -999.2500  -999.2500     0.2245    57.4003
  297.0000  -999.2500  -999.2500     0.2224    57.4952
  297.5000  -999.2500  -999.2500     0.2245    57.5992
  298.0000  -999.2500  -999.2500     0.2309    56.4092
  298.5000  -999.2500  -999.2500     0.2359    55.0901
  299.0000  -999.2500  -999.2500     0.2327    54.5675
  299.5000  -999.2500  -999.2500     0.2178    54.5548
  300.0000  -999.2500  -999.2500     0.2264    54.4438
  300.5000  -999.2500  -999.2500     0.2375    53.9558
  301.0000  -999.2500  -999.2500     0.2298    54.2271
  301.5000  -999.2500  -999.2500     0.2347    55.0550
  302.0000  -999.2500  -999.2500     0.2523    55.8995
  302.5000  -999.2500  -999.2500     0.2623    56.3496
  303.0000  -999.2500  -999.2500     0.2560    56.5507
  303.5000  -999.2500  -999.2500     0.2405    55.0626
  304.0000  -999.2500  -999.2500     0.2344    54.7598
  304.5000  -999.2500  -999.2500     0.2303    54.7653
  305.0000  -999.2500  -999.2500     0.2176    54.4081
  305.5000  -999.2500  -999.2500     0.2053    54.0004
  306.0000  -999.2500  -999.2500     0.2057    53.6027
  306.5000  -999.2500  -999.2500     0.2113    53.7051
  307.0000  -999.2500  -999.2500     0.2154    54.6030
  307.5000  -999.2500  -999.2500     0.2156    55.4908
  308.0000  -999.2500  -999.2500     0.2119    56.3835
  308.5000  -999.2500  -999.2500     0.2107    57.2729
  309.0000  -999.2500  -999.2500     0.2130    57.9854
  309.5000  -999.2500  -999.2500     0.2093    57.8344
  310.0000  -999.2500  -999.2500     0.2081    57.6949
  310.5000  -999.2500  -999.2500     0.2138    57.5571
  311.0000  -999.2500  -999.2500     0.2243    57.4197
  311.5000  -999.2500  -999.2500     0.2290    57.2823
  312.0000  -999.2500  -999.2500     0.2359    57.1449
  312.5000  -999.2500  -999.2500     0.2302    57.0017
  313.0000  -999.2500  -999.2500     0.2234    56.9679
  313.5000  -999.2500  -999.2500     0.2270    56.9681
  314.0000  -999.2500  -999.2500     0.2283    56.9747
  314.5000  -999.2500  -999.2500     0.2286    57.0716
  315.0000  -999.2500  -999.2500     0.2221    53.7567
  315.5000  -999.2500  -999.2500     0.2152    51.5667
  316.0000  -999.2500  -999.2500     0.2163    51.2015
  316.5000  -999.2500  -999.2500     0.2174    51.7471
  317.0000  -999.2500  -999.2500     0.2167    52.3492
  317.5000  -999.2500  -999.2500     0.2144    52.5209
  318.0000  -999.2500  -999.2500     0.2122    52.3191
  318.5000  -999.2500  -999.2500     0.2213    50.5793
  319.0000  -999.2500  -999.2500     0.2362    49.3349
  319.5000  -999.2500  -999.2500     0.2250    50.5530
  320.0000  -999.2500  -999.2500     0.2135    53.2831
  320.5000  -999.2500  -999.2500     0.2314    55.1716
  321.0000  -999.2500  -999.2500     0.2319    55.0934
  321.5000  -999.2500  -999.2500     0.2351    55.0525
  322.0000  -999.2500  -999.2500     0.2391    55.0027
  322.5000  -999.2500  -999.2500     0.2259    54.9553
  323.0000  -999.2500  -999.2500     0.2167    54.9078
  323.5000  -999.2500  -999.2500     0.2142    54.8602
  324.0000  -999.2500  -999.2500     0.2218    54.8112
  324.5000  -999.2500  -999.2500     0.2278    54.7509
  325.0000  -999.2500  -999.2500     0.2154    55.2360
  325.5000  -999.2500  -999.2500     0.2229    55.7875
  326.0000  -999.2500  -999.2500     0.2141    56.3520
  326.5000  -999.2500  -999.2500     0.2121    55.9801
  327.0000  -999.2500  -999.2500     0.2157    55.0109
  327.5000  -999.2500  -999.2500     0.2214    54.0142
  328.0000  -999.2500  -999.2500     0.2297    53.5225
  328.5000  -999.2500  -999.2500     0.2379    53.6416
  329.0000  -999.2500  -999.2500     0.2447    54.6560
