~VERSION INFORMATION
 VERS.                2.0:   CWLS LOG ASCII STANDARD - VERSION 2.0
 WRAP.                 NO:   ONE LINE PER DEPTH STEP
~WELL INFORMATION
#MNEM.UNIT      DATA TYPE    INFORMATION
#----------   ------------   ------------------------------
 STRT.F           90.0000:   START DEPTH
 STOP.F          712.0000:   STOP DEPTH
 STEP.F            0.5000:   STEP LENGTH
 NULL.          -999.2500:   NO VALUE
 COMP. U S NAVY-INTEX OIL:   COMPANY
 WELL. RES 3 TEAPOT DOM #76S-34:   WELL
 FLD .             TEAPOT:   FIELD
 LOC .      S34 T39N R78W:   LOCATION
 CNTY.            NATRONA:   COUNTY
 STAT.            WYOMING:   STATE
 CTRY. UNITED STATES OF AMERICA:   COUNTRY
 SRVC.       Schlumberger:   SERVICE COMPANY
 DATE.        08-AUG-1961:   LOGDATE
 API .       490250651700:   API NUMBER
~CURVE INFORMATION
#MNEM.UNIT       API CODE    CURVE DESCRIPTION
#----------   ------------   ------------------------------
 DEPT.F                  :   
 SPR .MV     05 010 01 00:   SPONTANEOUS POTENTIAL FROM RES.
 ASN .OHMM   05 041 16 00:   AMPLIFIED SHORT NORMAL 16"
 CILD.MMHO   05 110 46 00:   CONDUCTIVITY INDUCTION LOG DEEP
 ILD .OHMM   05 120 46 00:   INDUCTION LOG DEEP
~PARAMETER INFORMATION
#MNEM.UNIT          VALUE    DESCRIPTION
#----------   ------------   ------------------------------
 LMF .                 KB:   LOG MEASURED FROM
 DMF .                 KB:   DRILLING MEASURED FROM
 EKB .F              5092:   KELLING BUSHING
 EGL .F              5087:   GROUND LEVEL
 DATE.        08-AUG-1961:   RUN DATE
 RUN .                  1:   RUN NUMBER
 DD  .F               710:   DEPTH DRILLER
 DL  .F               713:   DEPTH LOGGER
 BLI .F               712:   BOTTOM LOG INTERVAL
 TLI .F               100:   TOP LOG INTERVAL
 BS  .IN             6.75:   BIT SIZE
 BSD .F               710:   BIT SIZE AT DEPTH
 DFT .       OIL EMULSION:   DRILLING FLUID TYPE
 DFD .               10.4:   DRILLING FLUID DENSITY
 DFV .                 45:   DRILLING FLUID VISCOSITY
 RMS .OHMM           1.21:   RESISTIVITY MUD SAMPLE
 MST .F                78:   MUD SAMPLE TEMPERATURE
 TCS .HRS               1:   TIME CURCULATED STOPPED
 LUN .               2544:   LOGGING UNIT NUMBER
 LUL .                 NC:   LOGGING UNIT LOCATION
 ENGI.             QUINBY:   RECORDING ENGINEER
 WITN.          JORGENSON:   WITNESSED BY
 CLNT.            A2DTECH:   CLIENT CODE
 ORIG.      2" , 5" PRINT:   ORIGIN OF DATA
 UWI .       490250651700:   UNIQUE WELL ID
 DICO. A2D Technologies, Inc.:   DIGITIZING COMPANY
~OTHER INFORMATION
~A   DEPT      SPR        ASN       CILD        ILD   
# ...
  528.0000   -34.7066     8.1838   145.3125     6.8858
  528.5000   -34.7097     8.1057   143.7500     7.0423
  529.0000   -34.5562     8.0746   140.6250     7.0423
  529.5000   -34.5596     8.0435   139.0625     6.9640
  530.0000   -34.4057     8.0282   139.0625     6.4163
  530.5000   -34.4096     7.9816   145.3125     5.9468
  531.0000   -34.4127     7.8095   157.8125     5.6338
  531.5000   -34.4158     7.5590   168.7500     5.5556
  532.0000   -34.4190     7.2145   176.5625     5.4773
  532.5000   -34.2658     6.5721   176.5625     5.4773
  533.0000   -34.1119     6.4940   178.1250     5.4773
  533.5000   -34.1158     6.5570   178.1250     5.4773
  534.0000   -33.9619     6.0715   179.6875     5.4773
  534.5000   -33.9658     6.1659   181.2500     5.4773
  535.0000   -34.1251     6.5424   182.8125     5.3208
  535.5000   -34.7532     6.7621   186.0055     5.0861
  536.0000   -34.7771     6.8094   193.8334     4.6948
  536.5000   -34.4470     6.7471   208.0112     4.3818
  537.0000   -34.1375     6.4182   220.4272     4.3036
  537.5000   -33.8281     5.8543   226.5625     4.3818
  538.0000   -33.5187     5.3687   229.6875     4.3818
  538.5000   -33.2094     5.2905   226.4011     4.3818
  539.0000   -32.9000     5.5104   220.3125     4.3818
  539.5000   -32.7469     5.4166   220.3125     4.4601
  540.0000   -32.4375     5.3072   220.3125     4.6166
  540.5000   -33.0682     6.0286   218.5259     5.0078
  541.0000   -33.2250     6.5775   200.3623     5.5556
  541.5000   -32.9156     6.9853   173.9782     6.1033
  542.0000   -32.9188     7.1267   155.4378     6.4163
  542.5000   -33.0911     7.2053   146.8750     6.6510
  543.0000   -33.5812     7.2370   148.4375     6.5728
  543.5000   -34.1781     7.2373   153.1250     6.1033
  544.0000   -34.1812     7.2063   162.5000     5.6338
  544.5000   -34.1844     7.1752   178.1250     5.2426
  545.0000   -34.0311     7.1912   195.3125     4.8513
  545.5000   -33.6932     7.1759   203.1250     4.5383
  546.0000   -33.2561     6.6276   204.6875     4.3818
  546.5000   -33.1030     5.9853   206.2500     4.4601
  547.0000   -32.9498     5.7505   204.6875     4.5383
  547.5000   -32.9537     5.7194   203.1250     4.6166
  548.0000   -32.7792     5.6884   201.5625     4.7731
  548.5000   -32.6467     5.9552   190.6250     5.1643
  549.0000   -32.3380     6.4672   175.0000     5.7903
  549.5000   -32.1841     6.9858   157.8125     6.4163
  550.0000   -32.0310     7.5235   146.7500     6.9640
  550.5000   -31.7224     7.9318   136.9761     7.3552
  551.0000   -31.7255     8.1364   129.6562     7.5117
  551.5000   -31.7730     8.4506   126.5625     7.5938
  552.0000   -32.2460     8.5611   126.5625     7.6161
  552.5000   -32.7191     8.6089   126.5625     7.6384
  553.0000   -33.1442     8.6254   126.5625     7.6607
  553.5000   -33.1473     8.6418   126.5625     7.6738
  554.0000   -33.1504     8.6583   126.5625     7.7528
  554.5000   -32.9965     8.7061   126.5625     7.7536
  555.0000   -32.9757     8.7696   128.2810     7.9108
  555.5000   -32.8469     8.8801   131.2500     7.9899
  556.0000   -32.5379     8.9436   132.8125     7.9122
  556.5000   -32.3448     8.9130   132.8125     7.7565
  557.0000   -32.2308     8.8668   134.3750     7.5227
  557.5000   -32.2347     8.7892   134.3750     7.5091
  558.0000   -32.0808     8.7273   132.8125     7.6025
  558.5000   -31.9277     8.6810   132.5471     7.7598
  559.0000   -31.7746     8.6348   130.9687     7.9953
  559.5000   -31.7784     8.6042   127.8283     8.2309
  560.0000   -32.2503     8.6520   123.4375     8.3881
  560.5000   -32.5659     8.9036   120.3125     8.3106
  561.0000   -32.7253     9.1395   120.3125     7.6855
  561.5000   -32.8847     9.2657   134.3750     6.6690
  562.0000   -32.7307     9.3292   151.5625     5.6526
  562.5000   -32.5784     8.9851   168.7500     5.2621
  563.0000   -32.4245     8.3433   187.5000     5.1064
  563.5000   -32.2713     6.9922   198.4375     5.1072
  564.0000   -31.8065     6.2759   192.1875     5.1862
  564.5000   -31.6533     6.4335   182.8125     5.3435
  565.0000   -31.1877     6.5594   182.8125     5.5008
  565.5000   -30.7221     6.4348   182.8125     5.8146
  566.0000   -31.8189     7.9562   165.6250     6.8326
  566.5000   -32.4471     9.2266   139.0625     8.1635
  567.0000   -32.4502     9.8490   117.1875     9.1821
  567.5000   -32.1408    10.1246   100.0000     9.7327
  568.0000   -31.6751    10.3651    93.7500    10.0438
  568.5000   -31.2094    10.6056    93.7500     9.8824
  569.0000   -30.9000    10.8862   100.0000     9.5759
  569.5000   -31.3720    10.8902   103.1250     9.5811
  570.0000   -32.0001    10.9724   104.6875     9.8957
  570.5000   -32.4720    11.2115   100.0000    10.3727
  571.0000   -32.6313    11.6072    93.7500    10.8378
  571.5000   -32.7907    12.3949    87.5000    11.4729
  572.0000   -32.9501    13.4960    78.1250    12.1795
  572.5000   -32.9532    14.8322    70.3125    13.0609
  573.0000   -32.8000    15.8294    65.6250    14.4048
  573.5000   -32.9594    17.4172    62.5000    15.5725
  574.0000   -33.1188    19.0051    57.8125    16.9964
  574.5000   -33.4344    20.5929    51.5625    18.2162
  575.0000   -33.7500    22.1808    46.8750    18.9880
  575.5000   -34.3802    23.9466    43.7500    19.3026
  576.0000   -35.0147    25.4395    43.7500    19.7100
  576.5000   -35.6406    25.9920    43.7500    20.3383
  577.0000   -35.7938    25.7608    43.7500    21.0127
  577.5000   -35.6302    25.2162    45.3125    21.1699
  578.0000   -35.0063    24.9850    45.3125    21.1707
  578.5000   -34.5531    25.2240    44.4948    21.1715
  579.0000   -34.5729    26.3251    43.7500    21.2505
  579.5000   -35.0281    27.0343    43.7500    21.3296
  580.0000   -35.3438    27.5869    42.1875    21.4868
  580.5000   -35.5031    27.7475    41.5586    21.5659
  581.0000   -35.5063    27.5163    40.6250    21.7231
  581.5000   -35.4823    27.0500    39.5977    21.8022
  582.0000   -35.0146    26.4270    39.0625    21.8812
  582.5000   -34.2662    26.1164    39.0625    22.0385
  583.0000   -33.8006    26.2781    37.5000    22.2740
  583.5000   -33.4912    26.8306    36.9767    22.5878
  584.0000   -33.4943    27.6182    35.9375    23.2145
  584.5000   -33.6537    28.6409    34.3750    23.7630
  585.0000   -33.9693    29.8988    34.3750    24.5463
  585.5000   -34.9099    30.8431    34.3750    25.3295
  586.0000   -35.3818    31.4740    34.3750    25.7216
  586.5000   -35.0716    31.6337    34.3750    25.5658
  587.0000   -34.6068    30.6981    34.3750    24.9406
  587.5000   -34.4529    29.6049    34.3750    24.1590
  588.0000   -34.1443    28.3549    36.5310    23.0643
  588.5000   -34.1474    27.4967    39.0625    22.6738
  589.0000   -34.3067    26.9521    42.1875    22.3616
  589.5000   -34.4661    26.6425    43.7500    22.4406
  590.0000   -34.6255    26.6464    43.7500    22.6291
  590.5000   -34.7848    26.8854    42.1875    22.9352
  591.0000   -34.9442    27.1245    42.1875    23.2413
  591.5000   -35.2598    27.3635    40.6250    23.4737
  592.0000   -35.4192    27.5242    39.0625    23.7100
  592.5000   -35.4223    27.2930    37.5000    23.7754
  593.0000   -35.4254    26.8267    39.0625    23.4178
  593.5000   -35.2715    26.8306    42.8670    21.8210
  594.0000   -34.9629    26.9129    45.3125    20.1786
  594.5000   -34.4972    25.5845    48.4375    19.0056
  595.0000   -34.3433    23.0806    51.5625    17.9892
  595.5000   -34.1902    21.1253    56.2500    16.9728
  596.0000   -34.0371    19.9536    59.3750    15.9563
  596.5000   -34.1972    19.0955    60.9375    15.1746
  597.0000   -34.5128    18.3941    64.0625    14.5494
  597.5000   -35.1409    17.8494    65.6250    14.1590
  598.0000   -35.4566    17.5398    67.1875    14.0033
  598.5000   -35.4597    16.9952    68.7500    13.8474
  599.0000   -35.3058    16.6072    68.7500    13.7699
  599.5000   -35.3096    16.5318    68.7500    13.7709
  600.0000   -35.1557    16.5367    68.2520    13.7716
  600.5000   -35.0412    16.5406    67.2536    13.7724
