~VERSION INFORMATION
 VERS.                2.0:   CWLS LOG ASCII STANDARD - VERSION 2.0
 WRAP.                 NO:   ONE LINE PER DEPTH STEP
~WELL INFORMATION
#MNEM.UNIT      DATA TYPE    INFORMATION
#----------   ------------   ------------------------------
 STRT.F           30.0000:   START DEPTH
 STOP.F         3375.5000:   STOP DEPTH
 STEP.F            0.5000:   STEP LENGTH
 NULL.          -999.2500:   NO VALUE
 COMP.       INTEX OIL CO:   COMPANY
 WELL.   NPR ##3 57-SX-34:   WELL
 FLD .             TEAPOT:   FIELD
 LOC .      S34 T39N R78W:   LOCATION
 CNTY.            NATRONA:   COUNTY
 STAT.            WYOMING:   STATE
 CTRY. UNITED STATES OF AMERICA:   COUNTRY
 SRVC.       Schlumberger:   SERVICE COMPANY
 DATE.        12-AUG-1967:   LOGDATE
 API .       490251023200:   API NUMBER
~CURVE INFORMATION
#MNEM.UNIT       API CODE    CURVE DESCRIPTION
#----------   ------------   ------------------------------
 DEPT.F                  :   
 SPR .MV     07 010 01 00:   SPONTANEOUS POTENTIAL
 ILD .OHMM   07 120 46 00:   INDUCTION LOG DEEP
 ASN .OHMM   05 041 16 00:   AMPLIFIED SHORT NORMAL 16"
 CILD.MMHO   07 110 46 00:   CONDUCTIVITY INDUCTION LOG DEEP
 LL8 .OHMM   07 220 08 00:   LATEROLOG-8 RES.
 ILM .OHMM   07 120 44 00:   INDUCTION LOG MEDIUM
 CALD.IN     45 280 60 00:   CALIPER
 GRD .GAPI   45 310 01 00:   GAMMA RAY FROM DENSITY LOG
 RHOB.G/C3   45 350 01 00:   BULK DENSITY
 DPHI.DEC    45 890 12 00:   DENSITY POROSITY SANDSTONE
 CORR.G/C3   45 356 01 00:   DENSITY CORRECTION
~PARAMETER INFORMATION
#MNEM.UNIT          VALUE    DESCRIPTION
#----------   ------------   ------------------------------
 PD  .                 GL:   PERMANENT DATUM
 EPD .F              5084:   ELEVATION PERMANENT DATUM
 LMF .                 KB:   LOG MEASURED FROM
 DAPD.F                12:   FEET ABOVE PERMANENT DATUM
 DMF .                 KB:   DRILLING MEASURED FROM
 EKB .F              5096:   KELLING BUSHING
 EGL .F              5084:   GROUND LEVEL
 DATE.            8-12-67:   RUN DATE
 RUN .                  2:   RUN NUMBER
 DD  .F              3380:   DEPTH DRILLER
 DL  .F              3371:   DEPTH LOGGER
 BLI .F              3368:   BOTTOM LOG INTERVAL
 TLI .F               630:   TOP LOG INTERVAL
 CS  .IN            10.75:   CASING SIZE
 CBD .F               643:   CASING BOTTOM DRILLER
 BS  .IN            9.875:   BIT SIZE
 BSD .F              3380:   BIT SIZE AT DEPTH
 DFT .               CHEM:   DRILLING FLUID TYPE
 DFD .                9.4:   DRILLING FLUID DENSITY
 DFV .                 48:   DRILLING FLUID VISCOSITY
 DFPH.                8.5:   DRILLING FLUID PH
 DFL .                3.6:   DRILLING FLUID LOSS
 MSS .          FLOW LINE:   MUD SAMPLE SOURCE
 RMS .OHMM           2.81:   RESISTIVITY MUD SAMPLE
 MST .F                88:   MUD SAMPLE TEMPERATURE
 RMF .OHMM            1.7:   RESISTIVITY MUD FILTRATE SAMPLE
 MFST.F                86:   MUD FILTRATE SAMPLE TEMPERATURE
 MFSS.                  M:   MUD FILTRATE SAMPLE SOURCE
 RMB .OHMM           2.03:   RESISTIVITY MUD AT BHT
 BHT .F               122:   BOTTOM HOLE TEMPERATURE
 TCS .HRS             2.5:   TIME CURCULATED STOPPED
 MRT .F               122:   MAXIMUM RECORDED TEMPERATURE
 LUN .               7030:   LOGGING UNIT NUMBER
 LUL .               CSPR:   LOGGING UNIT LOCATION
 ENGI.             SCHODE:   RECORDING ENGINEER
 WITN.                MAY:   WITNESSED BY
 CLNT.            A2DTECH:   CLIENT CODE
 ORIG.   1" 2.5" 5" PRINT:   ORIGIN OF DATA
 UWI .       490251023200:   UNIQUE WELL ID
 DICO. A2D Technologies, Inc.:   DIGITIZING COMPANY
~OTHER INFORMATION
~A   DEPT      SPR        ILD        ASN       CILD        LL8        ILM       CALD         GRD      RHOB       DPHI       CORR   
   30.0000  -999.2500  -999.2500  -999.2500  -999.2500  -999.2500  -999.2500  -999.2500    53.1621  -999.2500  -999.2500  -999.2500
   30.5000  -999.2500  -999.2500  -999.2500  -999.2500  -999.2500  -999.2500  -999.2500    53.1621  -999.2500  -999.2500  -999.2500
   31.0000  -999.2500  -999.2500  -999.2500  -999.2500  -999.2500  -999.2500  -999.2500    52.6606  -999.2500  -999.2500  -999.2500
   31.5000  -999.2500  -999.2500  -999.2500  -999.2500  -999.2500  -999.2500  -999.2500    51.9620  -999.2500  -999.2500  -999.2500
   32.0000  -999.2500  -999.2500  -999.2500  -999.2500  -999.2500  -999.2500  -999.2500    51.2633  -999.2500  -999.2500  -999.2500
   32.5000  -999.2500  -999.2500  -999.2500  -999.2500  -999.2500  -999.2500  -999.2500    50.5647  -999.2500  -999.2500  -999.2500
   33.0000  -999.2500  -999.2500  -999.2500  -999.2500  -999.2500  -999.2500  -999.2500    52.2851  -999.2500  -999.2500  -999.2500
   33.5000  -999.2500  -999.2500  -999.2500  -999.2500  -999.2500  -999.2500  -999.2500    53.6647  -999.2500  -999.2500  -999.2500
   34.0000  -999.2500  -999.2500  -999.2500  -999.2500  -999.2500  -999.2500  -999.2500    54.3394  -999.2500  -999.2500  -999.2500
   34.5000  -999.2500  -999.2500  -999.2500  -999.2500  -999.2500  -999.2500  -999.2500    53.9497  -999.2500  -999.2500  -999.2500
   35.0000  -999.2500  -999.2500  -999.2500  -999.2500  -999.2500  -999.2500  -999.2500    54.6650  -999.2500  -999.2500  -999.2500
   35.5000  -999.2500  -999.2500  -999.2500  -999.2500  -999.2500  -999.2500  -999.2500    55.9613  -999.2500  -999.2500  -999.2500
   36.0000  -999.2500  -999.2500  -999.2500  -999.2500  -999.2500  -999.2500  -999.2500    57.1273  -999.2500  -999.2500  -999.2500
   36.5000  -999.2500  -999.2500  -999.2500  -999.2500  -999.2500  -999.2500  -999.2500    58.2692  -999.2500  -999.2500  -999.2500
   37.0000  -999.2500  -999.2500  -999.2500  -999.2500  -999.2500  -999.2500  -999.2500    59.5131  -999.2500  -999.2500  -999.2500
   37.5000  -999.2500  -999.2500  -999.2500  -999.2500  -999.2500  -999.2500  -999.2500    60.5951  -999.2500  -999.2500  -999.2500
   38.0000  -999.2500  -999.2500  -999.2500  -999.2500  -999.2500  -999.2500  -999.2500    61.6784  -999.2500  -999.2500  -999.2500
   38.5000  -999.2500  -999.2500  -999.2500  -999.2500  -999.2500  -999.2500  -999.2500    59.4987  -999.2500  -999.2500  -999.2500
   39.0000  -999.2500  -999.2500  -999.2500  -999.2500  -999.2500  -999.2500  -999.2500    57.1854  -999.2500  -999.2500  -999.2500
   39.5000  -999.2500  -999.2500  -999.2500  -999.2500  -999.2500  -999.2500  -999.2500    54.6836  -999.2500  -999.2500  -999.2500
   40.0000  -999.2500     1.2795     0.1378  -999.2500  -999.2500  -999.2500  -999.2500    52.2373     2.0029     0.2980  -999.2500
   40.5000   -53.6508     1.2795     0.0939  -999.2500  -999.2500  -999.2500    13.1151    51.1253     2.0362     0.2866  -999.2500
   41.0000   -45.6349     1.4764     0.0591  -999.2500  -999.2500  -999.2500    12.2169    54.7575     2.1753     0.2784  -999.2500
   41.5000   -43.2680     7.5480     0.5052  -999.2500  -999.2500  -999.2500    10.9011    59.1334     2.4509     0.1204     0.0797
   42.0000   -45.1050    15.8913     1.1182  -999.2500  -999.2500  -999.2500     9.6564    63.9114     2.4440     0.1227     0.1056
   42.5000   -47.0238    24.2346     1.5551  -999.2500  -999.2500  -999.2500     9.7687    64.9527     2.4155     0.1287     0.1351
   43.0000   -47.7897    32.5779     1.6663  -999.2500  -999.2500  -999.2500     9.9932    63.7547     2.4203     0.1346     0.1351
   43.5000   -48.6111    36.4824     1.8001  -999.2500  -999.2500  -999.2500    10.2178    62.7206     2.4317     0.1420     0.1026
   44.0000   -48.7138    47.8264     1.8655  -999.2500  -999.2500  -999.2500    10.3231    62.7393     2.4230     0.1545     0.0637
   44.5000   -48.6057    41.6436     2.3520  -999.2500  -999.2500  -999.2500    10.3504    63.4113     2.3881     0.1675     0.0438
   45.0000   -48.6233    20.1252     3.6821   180.1181  -999.2500  -999.2500    10.3199    64.6152     2.3542     0.1832     0.0155
   45.5000   -48.4046     3.2698     4.5535   286.4173  -999.2500  -999.2500    10.2886    66.3051     2.3207     0.2031     0.0167
   46.0000   -47.7383     2.6294     4.1602   284.4488  -999.2500  -999.2500    10.2774    67.9403     2.2874     0.2230     0.0240
   46.5000   -47.0832     3.6787     4.1724   250.6616  -999.2500  -999.2500    10.3700    69.5813     2.2541     0.2429     0.0312
   47.0000   -46.3008     4.5164     4.2329   209.7933  -999.2500  -999.2500    10.4605    71.2143     2.2200     0.2628     0.0707
   47.5000   -46.1197     5.8907     4.3152   168.9250  -999.2500  -999.2500    10.4906    72.9149     2.1824     0.2842     0.1018
   48.0000   -47.2052     7.1911     4.5864   138.7795  -999.2500  -999.2500    10.4058    74.4362     2.2326     0.2420     0.1282
   48.5000   -48.1700     6.1627     4.9598   135.9619  -999.2500  -999.2500    10.3348    74.7248     2.3345     0.1951     0.0769
   49.0000   -49.2370     5.2958     6.1932   162.3973  -999.2500  -999.2500    10.2770    70.7297     2.4214     0.1483     0.0343
   49.5000   -49.9457     5.0556     8.0702   191.7673  -999.2500  -999.2500    10.4090    66.2403     2.4144     0.1382     0.0317
   50.0000   -50.1169     5.7614     9.5867   177.3433  -999.2500  -999.2500    10.5455    65.2606     2.3998     0.1440     0.0424
   50.5000   -50.3701     6.4651     4.5445   162.7750  -999.2500  -999.2500    10.5110    66.0697     2.4209     0.1424     0.0544
   51.0000   -50.6125     7.1596     2.4715   148.1852  -999.2500  -999.2500    10.5786    65.2025     2.4137     0.1478     0.0656
   51.5000   -50.8438     7.7162     1.9805   132.8569  -999.2500  -999.2500    10.7127    66.4790     2.4098     0.1458     0.0774
   52.0000   -51.0854     7.9445     1.7182   123.6471  -999.2500  -999.2500    10.8405    68.5779     2.4270     0.1400     0.0884
   52.5000   -51.3221     8.2302     1.7057   115.2700  -999.2500  -999.2500    10.9698    70.4102     2.4317     0.1314     0.1010
   53.0000   -51.5596     8.5120     1.7547   109.6070  -999.2500  -999.2500    11.0212    72.0650     2.3876     0.1346     0.1014
   53.5000   -51.7980     8.7840     1.8105   103.3251  -999.2500  -999.2500    10.9207    70.7285     2.3582     0.1551     0.1012
   54.0000   -52.0365     9.0535     1.8642   102.2264  -999.2500  -999.2500    10.8372    69.1444     2.3569     0.1786     0.0825
   54.5000   -52.2732     9.2795     1.9224   100.9745  -999.2500  -999.2500    10.7462    66.0454     2.3657     0.1763     0.0585
   55.0000   -52.5145     9.4888     1.9776    99.7132  -999.2500  -999.2500    10.7056    67.3749     2.3602     0.1731     0.0575
   55.5000   -52.7493     9.6883     2.0323    98.4488  -999.2500  -999.2500    10.6989    65.3817     2.3673     0.1699     0.0649
   56.0000   -52.9848     9.8878     2.0863    97.1908  -999.2500  -999.2500    10.8037    64.7259     2.3583     0.1775     0.0720
   56.5000   -53.2481    10.0892     2.1403    95.9107  -999.2500  -999.2500    10.9481    66.2433     2.3548     0.1808     0.0745
   57.0000   -53.3074    10.2888     2.1943    94.6474  -999.2500  -999.2500    10.9214    67.2765     2.3744     0.1674     0.0715
   57.5000   -53.0660    10.4897     2.2483    93.3841  -999.2500  -999.2500    10.9753    66.5631     2.3930     0.1541     0.0655
   58.0000   -52.8606    10.6904     2.3024    92.1208  -999.2500  -999.2500    11.1932    65.7089     2.4180     0.1401     0.0701
   58.5000   -52.6411    10.8884     2.3564    87.5984  -999.2500  -999.2500    11.4127    64.3363     2.4118     0.1542     0.0829
   59.0000   -52.6843    11.0942     2.4104    85.7743  -999.2500  -999.2500    11.3177    64.5590     2.3948     0.1424     0.0931
   59.5000   -52.8489    11.2877     2.4644    84.1601  -999.2500  -999.2500    11.1491    66.4880     2.4294     0.1526     0.1040
   60.0000   -53.0054    11.4949     2.5184    83.0179  -999.2500  -999.2500    11.0580    68.4095     2.3880     0.1630     0.1187
