~VERSION INFORMATION
 VERS.                2.0:   CWLS LOG ASCII STANDARD - VERSION 2.0
 WRAP.                 NO:   ONE LINE PER DEPTH STEP
~WELL INFORMATION
#MNEM.UNIT      DATA TYPE    INFORMATION
#----------   ------------   ------------------------------
 STRT.F            6.0000:   START DEPTH
 STOP.F         2600.0000:   STOP DEPTH
 STEP.F            0.5000:   STEP LENGTH
 NULL.          -999.2500:   NO VALUE
 COMP. FENIX & SCISSON INC:   COMPANY
 WELL.   NPR 3 SH #17 -34:   WELL
 FLD .             TEAPOT:   FIELD
 LOC .      S34 T39N R78W:   LOCATION
 CNTY.            NATRONA:   COUNTY
 STAT.            WYOMING:   STATE
 CTRY. UNITED STATES OF AMERICA:   COUNTRY
 SRVC.            Unknown:   SERVICE COMPANY
 DATE.        21-MAR-1978:   LOGDATE
 API .       490251060600:   API NUMBER
~CURVE INFORMATION
#MNEM.UNIT       API CODE    CURVE DESCRIPTION
#----------   ------------   ------------------------------
 DEPT.F                  :   
 NPHI.DEC    42 890 03 00:   NEUTRON POROSITY SANDSTONE
 CALD.IN     45 280 60 00:   CALIPER FROM DENSITY LOG
 GRD .GAPI   45 310 01 00:   GAMMA RAY FROM DENSITY LOG
 CORR.G/C3   45 356 01 00:   DENSITY CORRECTION
 RHOB.G/C3   45 350 01 00:   BULK DENSITY
 DPHI.DEC    45 890 12 00:   DENSITY POROSITY SANDSTONE
~PARAMETER INFORMATION
#MNEM.UNIT          VALUE    DESCRIPTION
#----------   ------------   ------------------------------
 PD  .                 GL:   PERMANENT DATUM
 EPD .F              5150:   ELEVATION PERMANENT DATUM
 LMF .                 KB:   LOG MEASURED FROM
 DMF .                 KB:   DRILLING MEASURED FROM
 EKB .F              5160:   KELLING BUSHING
 EGL .F              5150:   GROUND LEVEL
 DATE.          3-21-1978:   RUN DATE
 RUN .                  1:   RUN NUMBER
 DD  .F              2612:   DEPTH DRILLER
 DL  .F              2592:   DEPTH LOGGER
 BLI .F              2590:   BOTTOM LOG INTERVAL
 TLI .F                20:   TOP LOG INTERVAL
 CS  .IN            9.625:   CASING SIZE
 CBD .F               710:   CASING BOTTOM DRILLER
 CBL .F               710:   CASING BOTTOM LOGGER
 BS  .IN            8.625:   BIT SIZE
 BSD .F              2612:   BIT SIZE AT DEPTH
 DFT .           AIR MIST:   DRILLING FLUID TYPE
 BHT .F               110:   BOTTOM HOLE TEMPERATURE
 TCS .HRS               2:   TIME CURCULATED STOPPED
 MRT .F               110:   MAXIMUM RECORDED TEMPERATURE
 LUN .               2958:   LOGGING UNIT NUMBER
 LUL .               CASP:   LOGGING UNIT LOCATION
 ENGI.            POINTER:   RECORDING ENGINEER
 WITN.           MCGINLEY:   WITNESSED BY
 CLNT.            A2DTECH:   CLIENT CODE
 ORIG.      2" , 5" PRINT:   ORIGIN OF DATA
 UWI .       490251060600:   UNIQUE WELL ID
 DICO. A2D Technologies, Inc.:   DIGITIZING COMPANY
~OTHER INFORMATION
~A    DEPT      NPHI     CALD        GRD       CORR       RHOB       DPHI   
# ...
 2450.0000  -999.2500     9.1911   112.8532     0.2044     2.3637     0.1739
 2450.5000  -999.2500     9.2046   114.8049     0.2446     2.3629     0.1827
 2451.0000  -999.2500     9.3722   118.3129     0.2638     2.3688     0.1491
 2451.5000  -999.2500     9.3935   124.9282     0.2858     2.3399     0.1517
 2452.0000  -999.2500     9.0915   132.3775     0.1863     2.3988     0.1824
 2452.5000  -999.2500     9.0456   131.3703     0.1971     2.3449     0.2010
 2453.0000  -999.2500     9.0478   129.1861     0.2171     2.3104     0.2151
 2453.5000  -999.2500     9.1234   126.5889     0.2616     2.2863     0.1966
 2454.0000  -999.2500     9.4246   128.1438     0.3423     2.2981     0.1740
 2454.5000  -999.2500     9.2613   132.0359     0.3223     2.3504     0.1511
 2455.0000  -999.2500     8.9607   135.8249     0.2612     2.4026     0.1283
 2455.5000  -999.2500     8.9712   135.9394     0.2698     2.4248     0.1124
 2456.0000  -999.2500     8.9789   129.2599     0.2852     2.4581     0.1073
 2456.5000  -999.2500     8.9857   124.0042     0.2042     2.4991     0.1023
 2457.0000  -999.2500     8.9928   122.0102     0.1388     2.4570     0.0960
 2457.5000  -999.2500     8.9995   122.7732     0.1371     2.4725     0.1020
 2458.0000  -999.2500     9.0053   125.7399     0.1095     2.4899     0.1099
 2458.5000  -999.2500     8.9559   122.7731     0.0790     2.4650     0.1178
 2459.0000  -999.2500     8.8677   119.4208     0.0723     2.4548     0.1274
 2459.5000  -999.2500     8.8663   116.8686     0.0730     2.4464     0.1376
 2460.0000  -999.2500     8.8659   107.3287     0.0845     2.4286     0.1478
 2460.5000  -999.2500     8.9696    96.5983     0.1062     2.4081     0.1580
 2461.0000  -999.2500     8.9663    92.6834     0.1237     2.3982     0.1735
 2461.5000  -999.2500     8.9661    97.2172     0.1376     2.3675     0.1618
 2462.0000  -999.2500     9.0283   108.4474     0.1831     2.3589     0.1362
 2462.5000  -999.2500     9.0777   120.0071     0.2013     2.3968     0.1083
 2463.0000  -999.2500     8.9593   121.7635     0.1101     2.4965     0.0924
 2463.5000  -999.2500     8.8860   122.4794     0.0479     2.4899     0.0915
 2464.0000  -999.2500     8.8964   119.1301     0.0454     2.4818     0.0922
 2464.5000  -999.2500     8.9082   113.3750     0.0570     2.4980     0.0893
 2465.0000  -999.2500     8.9742   109.2611     0.0693     2.4927     0.0870
 2465.5000  -999.2500     8.9332   109.3883     0.0671     2.5141     0.0879
 2466.0000  -999.2500     8.7684   108.9167     0.0505     2.5090     0.0893
 2466.5000  -999.2500     8.7824   107.0946     0.0377     2.5027     0.0907
 2467.0000  -999.2500     8.7986   107.5153     0.0337     2.4968     0.0911
 2467.5000  -999.2500     8.8150   108.0769     0.0383     2.4989     0.0907
 2468.0000  -999.2500     8.8315   112.1381     0.0458     2.4981     0.0847
 2468.5000  -999.2500     8.8466   117.7535     0.0598     2.5027     0.0711
 2469.0000  -999.2500     8.8497   119.2667     0.0680     2.5333     0.0758
 2469.5000  -999.2500     8.8537   119.0984     0.0227     2.5179     0.0805
 2470.0000  -999.2500     8.8578   118.8720    -0.0053     2.4961     0.0828
 2470.5000  -999.2500     8.8619   119.1219    -0.0058     2.5120     0.0791
 2471.0000  -999.2500     8.8654   116.0399    -0.0041     2.5150     0.0794
 2471.5000  -999.2500     8.8878   112.4032    -0.0027     2.5169     0.0816
 2472.0000  -999.2500     8.9144   109.8358    -0.0071     2.5165     0.0844
 2472.5000  -999.2500     8.8754   110.0261    -0.0124     2.5158     0.0860
 2473.0000  -999.2500     8.7877   110.4291    -0.0162     2.5097     0.0860
 2473.5000  -999.2500     8.7480   113.3922    -0.0140     2.5038     0.0815
 2474.0000  -999.2500     8.7477   115.8833    -0.0120     2.5123     0.0772
 2474.5000  -999.2500     8.7474   114.5707    -0.0085     2.5150     0.0729
 2475.0000  -999.2500     8.7475   113.0926     0.0016     2.5225     0.0732
 2475.5000  -999.2500     8.7475   110.5628     0.0071     2.5300     0.0746
 2476.0000  -999.2500     8.7475   109.0989     0.0098     2.5285     0.0752
 2476.5000  -999.2500     8.7475   109.2029     0.0125     2.5269     0.0733
 2477.0000  -999.2500     8.7475   109.2983     0.0187     2.5276     0.0713
 2477.5000  -999.2500     8.7475   108.8249     0.0220     2.5325     0.0726
 2478.0000  -999.2500     8.7475   108.2948     0.0230     2.5285     0.0780
 2478.5000  -999.2500     8.7475   107.7596     0.0278     2.5213     0.0775
 2479.0000  -999.2500     8.7474   107.2241     0.0357     2.5209     0.0767
 2479.5000  -999.2500     8.7473   106.8581     0.0460     2.5209     0.0764
 2480.0000  -999.2500     8.7475   108.2576     0.0587     2.5214     0.0710
 2480.5000  -999.2500     8.7683   109.7353     0.0719     2.5324     0.0668
 2481.0000  -999.2500     8.8978   109.6649     0.0747     2.5378     0.0683
 2481.5000  -999.2500     8.9177   108.5577     0.0740     2.5376     0.0757
 2482.0000  -999.2500     8.9077   106.2779     0.0781     2.5195     0.0820
 2482.5000  -999.2500     8.8966   104.1930     0.0879     2.5148     0.0882
 2483.0000  -999.2500     8.8821   107.6738     0.0959     2.5072     0.0944
 2483.5000  -999.2500     8.8414   109.6622     0.0969     2.4950     0.0991
 2484.0000  -999.2500     8.7989   110.2774     0.1124     2.4845     0.0882
 2484.5000  -999.2500     8.7893   114.0682     0.1280     2.5359     0.0696
 2485.0000  -999.2500     8.7915   118.1497     0.1106     2.5157     0.0440
 2485.5000  -999.2500     8.7942   122.4015     0.1349     2.4998     0.0294
 2486.0000  -999.2500     8.7968   120.8485     0.0918     2.5981     0.0386
 2486.5000  -999.2500     8.7994   115.8422     0.0338     2.5381     0.0459
 2487.0000  -999.2500     8.8020   111.2164     0.0271     2.5461     0.0520
 2487.5000  -999.2500     8.8045   101.0075     0.0301     2.5606     0.0489
 2488.0000  -999.2500     8.8071    89.7389     0.0262     2.5743     0.0497
 2488.5000  -999.2500     8.8097    78.5545     0.0294     2.5677     0.0481
 2489.0000  -999.2500     8.8123    66.9500     0.0347     2.5727     0.0554
 2489.5000  -999.2500     8.8149    61.0367     0.0272     2.5638     0.0633
 2490.0000  -999.2500     8.8175    72.4933     0.0121     2.5449     0.0692
 2490.5000  -999.2500     8.8201    89.1971     0.0087     2.5352     0.0733
 2491.0000  -999.2500     8.8226    91.3341     0.0049     2.5295     0.0750
 2491.5000  -999.2500     8.8252    91.5001     0.0016     2.5271     0.0776
 2492.0000  -999.2500     8.8278    88.3022     0.0019     2.5201     0.0796
 2492.5000  -999.2500     8.8304    86.4431     0.0022     2.5196     0.0794
 2493.0000  -999.2500     8.8330    88.2632     0.0026     2.5187     0.0791
 2493.5000  -999.2500     8.8356    90.0549     0.0029     2.5181     0.0788
 2494.0000  -999.2500     8.8381    90.5497     0.0033     2.5203     0.0765
 2494.5000  -999.2500     8.8407    89.4589     0.0050     2.5227     0.0742
 2495.0000  -999.2500     8.8433    88.4371     0.0088     2.5251     0.0718
 2495.5000  -999.2500     8.8459    88.3207     0.0124     2.5314     0.0708
 2496.0000  -999.2500     8.8517    88.2243     0.0154     2.5299     0.0726
 2496.5000  -999.2500     8.8595    87.9848     0.0144     2.5264     0.0744
 2497.0000  -999.2500     8.8674    87.6697     0.0134     2.5241     0.0752
 2497.5000  -999.2500     8.8752    88.5947     0.0125     2.5233     0.0752
 2498.0000  -999.2500     8.8830    89.9553     0.0115     2.5243     0.0763
 2498.5000  -999.2500     8.8821    89.9942     0.0126     2.5239     0.0784
 2499.0000  -999.2500     8.8740    89.9582     0.0141     2.5220     0.0732
 2499.5000  -999.2500     8.8663    89.9283     0.0157     2.5257     0.0720
 2500.0000  -999.2500     8.8620    89.8998     0.0172     2.5293     0.0709
 2500.5000  -999.2500     8.8577    89.8710     0.0187     2.5330     0.0697
 2501.0000  -999.2500     8.8534    89.8465     0.0196     2.5339     0.0688
 2501.5000  -999.2500     8.8492    89.8227     0.0199     2.5340     0.0686
