~VERSION INFORMATION
 VERS.                2.0:   CWLS LOG ASCII STANDARD - VERSION 2.0
 WRAP.                 NO:   ONE LINE PER DEPTH STEP
~WELL INFORMATION
#MNEM.UNIT      DATA TYPE    INFORMATION
#----------   ------------   ------------------------------
 STRT.F           70.0000:   START DEPTH
 STOP.F          853.0000:   STOP DEPTH
 STEP.F            0.5000:   STEP LENGTH
 NULL.          -999.2500:   NO VALUE
 COMP. U S NAVY/INTEX OIL CO:   COMPANY
 WELL.     31S-2 NPR #3-2:   WELL
 FLD .             TEAPOT:   FIELD
 LOC .       S2 T38N R78W:   LOCATION
 CNTY.            NATRONA:   COUNTY
 STAT.            WYOMING:   STATE
 CTRY. UNITED STATES OF AMERICA:   COUNTRY
 SRVC.         Lane Wells:   SERVICE COMPANY
 DATE.        17-MAR-1960:   LOGDATE
 API .       490250648000:   API NUMBER
~CURVE INFORMATION
#MNEM.UNIT       API CODE    CURVE DESCRIPTION
#----------   ------------   ------------------------------
 DEPT.F                  :   
 ASN .OHMM   05 041 16 00:   AMPLIFIED SHORT NORMAL 16"
 CILD.MMHO   05 110 46 00:   CONDUCTIVITY INDUCTION LOG DEEP
 ILD .OHMM   05 120 46 00:   INDUCTION LOG DEEP
 SPR .MV     05 010 01 00:   SPONTANEOUS POTENTIAL FROM RES.
~PARAMETER INFORMATION
#MNEM.UNIT          VALUE    DESCRIPTION
#----------   ------------   ------------------------------
 PD  .                 GL:   PERMANENT DATUM
 EPD .F              5118:   ELEVATION PERMANENT DATUM
 LMF .                 KB:   LOG MEASURED FROM
 DAPD.F                 5:   FEET ABOVE PERMANENT DATUM
 DMF .                 KB:   DRILLING MEASURED FROM
 EKB .F              5123:   KELLING BUSHING
 EGL .F              5118:   GROUND LEVEL
 DATE.        17-MAR-1960:   RUN DATE
 RUN .                  1:   RUN NUMBER
 DD  .F               860:   DEPTH DRILLER
 DL  .F               855:   DEPTH LOGGER
 BLI .F               853:   BOTTOM LOG INTERVAL
 TLI .F                70:   TOP LOG INTERVAL
 CS  .IN            8.625:   CASING SIZE
 CBD .F                12:   CASING BOTTOM DRILLER
 BS  .IN            7.875:   BIT SIZE
 BSD .F               860:   BIT SIZE AT DEPTH
 DFT .  GEL- OIL EMULSION:   DRILLING FLUID TYPE
 DFD .                9.7:   DRILLING FLUID DENSITY
 DFV .                 40:   DRILLING FLUID VISCOSITY
 MSS .    CIRC.- FLOWLINE:   MUD SAMPLE SOURCE
 RMS .OHMM           1.75:   RESISTIVITY MUD SAMPLE
 MST .F                60:   MUD SAMPLE TEMPERATURE
 RMF .OHMM            1.2:   RESISTIVITY MUD FILTRATE SAMPLE
 MFST.F                60:   MUD FILTRATE SAMPLE TEMPERATURE
 RMC .OHMM            2.4:   RESISTIVITY MUD CAKE
 MCST.F                60:   MUD CAKE SAMPLE TEMPERATURE
 MFSS.                MUD:   MUD FILTRATE SAMPLE SOURCE
 MCSS.              PRESS:   MUD CAKE SAMPLE SOURCE
 RMB .OHMM            1.5:   RESISTIVITY MUD AT BHT
 BHT .F                70:   BOTTOM HOLE TEMPERATURE
 MRT .F                70:   MAXIMUM RECORDED TEMPERATURE
 LUN .            HL 4474:   LOGGING UNIT NUMBER
 LUL .             CASPER:   LOGGING UNIT LOCATION
 ENGI.             NELSON:   RECORDING ENGINEER
 WITN.   JORGENSEN-HUDSON:   WITNESSED BY
 CLNT.            A2DTECH:   CLIENT CODE
 ORIG.        2" 5" PRINT:   ORIGIN OF DATA
 UWI .       490250648000:   UNIQUE WELL ID
 DICO. A2D Technologies, Inc.:   DIGITIZING COMPANY
~OTHER INFORMATION
~A   DEPT        ASN      CILD         ILD      SPR   
   70.0000     4.9602   224.4478     5.1834   -24.3096
   70.5000     4.9836   223.0998     5.1830   -24.3096
   71.0000     5.0167   221.7519     5.2126   -24.3096
   71.5000     5.0391   220.4012     5.2504   -24.3419
   72.0000     5.0648   219.0560     5.2499   -24.4461
   72.5000     5.0702   219.0723     5.2225   -24.5827
   73.0000     5.0919   218.6293     5.1814   -24.7193
   73.5000     5.1189   217.7352     5.1810   -24.8558
   74.0000     5.1373   216.3873     5.1807   -24.8558
   74.5000     5.1461   215.9471     5.1804   -24.9924
   75.0000     5.1594   215.0529     5.1800   -25.1290
   75.5000     5.1458   215.0693     5.1797   -25.1290
   76.0000     5.1186   215.0802     5.1793   -25.2656
   76.5000     5.0914   213.7322     5.1790   -25.4021
   77.0000     5.0642   213.7486     5.1787   -25.4649
   77.5000     5.0912   213.7595     5.1783   -25.6753
   78.0000     5.1558   213.7731     5.1780   -25.6753
   78.5000     5.1893   213.7894     5.1776   -25.6753
   79.0000     5.2267   213.8003     5.1773   -25.5269
   79.5000     5.2538   213.8139     5.1770   -25.4021
   80.0000     5.2510   213.8303     5.1902   -25.2109
   80.5000     5.1858   213.8412     5.2442   -24.9924
   81.0000     5.0767   212.4932     5.3118   -24.9924
   81.5000     5.0229   212.5095     5.3115   -25.1290
   82.0000     5.1529   211.1561     5.3790   -25.4021
   82.5000     5.2534   209.8109     5.4104   -25.5387
   83.0000     5.2928   208.4657     5.4545   -25.6753
   83.5000     5.3240   206.6611     5.5139   -25.8118
   84.0000     5.3617   204.4054     5.5136   -25.9011
   84.5000     5.3729   203.0575     5.5078   -25.9907
   85.0000     5.4032   203.0711     5.4449   -26.0850
   85.5000     5.4294   201.7231     5.4446   -26.3067
   86.0000     5.4479   200.3779     5.4443   -26.3964
   86.5000     5.4699   200.3888     5.4439   -26.4947
   87.0000     5.4699   200.4024     5.4436   -26.4947
   87.5000     5.4698   201.7803     5.4433   -26.6313
   88.0000     5.4697   202.2451     5.4429   -26.7678
   88.5000     5.4697   203.1664     5.4426   -26.7678
   89.0000     5.4696   203.1828     5.4422   -26.7979
   89.5000     5.4560   203.6475     5.4002   -26.9044
   90.0000     5.4423   204.5688     5.3736   -26.9044
   90.5000     5.4253   205.9467     5.3733   -27.0410
   91.0000     5.4028   205.9576     5.3730   -27.0410
   91.5000     5.3727   205.9713     5.3726   -27.0410
   92.0000     5.3549   207.3492     5.3723   -27.0410
   92.5000     5.3199   207.8139     5.3719   -27.1775
   93.0000     5.2921   208.7353     5.3716   -27.3141
   93.5000     5.2472   211.4747     5.3712   -27.4507
   94.0000     5.1976   213.3011     5.3709   -27.5873
   94.5000     5.1709   214.2224     5.3606   -27.5873
   95.0000     5.1377   216.9619     5.3023   -27.6009
   95.5000     5.0888   220.1498     5.3020   -27.7238
   96.0000     5.0285   222.4327     5.2944   -27.9168
   96.5000     4.9763   225.1722     5.2333   -28.1335
   97.0000     4.8986   226.5419     5.1651   -28.1335
   97.5000     4.8009   225.1967     5.1647   -28.3225
   98.0000     4.7628   225.2130     5.0964   -28.5432
   98.5000     4.7627   225.6778     5.0282   -28.6798
   99.0000     4.7627   229.3222     4.9581   -28.6798
   99.5000     4.7626   232.0617     4.8916   -28.6798
  100.0000     4.7626   235.2496     4.8007   -28.5888
  100.5000     4.6100   238.8941     4.6872   -28.1818
  101.0000     4.4910   241.6336     4.6189   -27.9970
  101.5000     4.4027   243.4599     4.5986   -28.1335
  102.0000     4.3227   245.7428     4.4823   -28.4067
  102.5000     4.1923   249.8439     4.3733   -28.6798
  103.0000     4.1333   251.6702     4.3458   -28.8455
  103.5000     4.0565   252.5915     4.4134   -28.9889
  104.0000     4.0836   252.6079     4.5190   -29.2261
  104.5000     4.1539   252.1649     4.6166   -29.2261
  105.0000     4.2300   249.9092     4.6161   -29.3627
  105.5000     4.3005   245.8408     4.7191   -29.3627
  106.0000     4.3617   243.5824     4.7631   -29.2880
  106.5000     4.4018   241.7806     4.8190   -29.2261
  107.0000     4.4902   237.7122     4.8865   -29.2261
  107.5000     4.5164   235.9077     4.8862   -29.0895
  108.0000     4.5444   235.0136     4.8858   -29.1132
  108.5000     4.5172   233.6684     4.8855   -29.2261
  109.0000     4.5171   233.6793     4.8852   -29.3590
  109.5000     4.5192   232.3313     4.8169   -29.6554
  110.0000     4.5712   233.7092     4.8166   -29.7724
  110.5000     4.6329   233.7201     4.8162   -29.9050
  111.0000     4.7068   235.0953     4.8158   -30.0533
  111.5000     4.7067   236.4732     4.8156   -30.1821
  112.0000     4.6059   236.4841     4.8152   -30.2404
  112.5000     4.4895   237.8593     4.8149   -30.3926
  113.0000     4.3997   237.8756     4.8145   -30.5918
  113.5000     4.3453   237.8865     4.8142   -30.7825
  114.0000     4.3129   237.9001     4.8818   -30.9369
  114.5000     4.3868   237.9165     4.8815   -31.1381
  115.0000     4.4692   237.9274     4.8811   -31.3247
  115.5000     4.5433   237.9410     4.8808   -31.4176
  116.0000     4.6287   237.9573     4.8804   -31.8209
  116.5000     4.7060   238.4221     4.8801   -32.0035
  117.0000     4.6788   239.3434     4.7747   -32.2307
  117.5000     4.6444   237.9955     4.7300   -32.5038
  118.0000     4.6083   238.0091     4.6752   -32.5457
  118.5000     4.5701   238.0227     4.6749   -32.7769
  119.0000     4.5633   236.6747     4.6746   -32.8616
  119.5000     4.5544   236.6884     4.6742   -32.9135
  120.0000     4.5427   235.3404     4.7056   -32.9135
  120.5000     4.5427   233.9951     4.7415   -32.9135
  121.0000     4.5426   232.1906     4.8091   -32.7769
  121.5000     4.5697   231.2965     4.8377   -33.0501
  122.0000     4.5888   228.5897     4.8764   -33.2030
  122.5000     4.6252   228.1468     4.9439   -33.3528
  123.0000     4.6644   225.8911     5.0115   -33.5964
  123.5000     4.7017   224.5458     5.0819   -33.7008
  124.0000     4.7395   224.1029     5.1467   -33.8950
  124.5000     4.7864   221.8472     5.1464   -34.1426
  125.0000     4.8270   220.4993     5.1461   -34.3816
  125.5000     4.8812   220.5129     5.1457   -34.6889
  126.0000     4.9170   220.5265     5.1245   -34.8255
  126.5000     4.9489   220.5428     5.0771   -35.1266
  127.0000     4.8674   220.5537     4.9672   -35.3891
  127.5000     4.8619   220.5673     4.9224   -35.7815
  128.0000     4.8742   220.5809     4.8723   -35.9781
  128.5000     4.8944   221.9561     4.8719   -36.3410
  129.0000     4.9214   221.9697     4.8716   -36.6009
  129.5000     4.9378   221.9834     4.8712   -36.8741
  130.0000     4.9620   221.5431     4.8709   -37.1654
  130.5000     4.9826   220.6490     4.9386   -37.4203
  131.0000     5.0185   220.6626     4.9381   -37.6088
  131.5000     5.0296   219.3147     5.0058   -37.8300
  132.0000     5.0497   217.9667     5.0154   -37.6935
  132.5000     5.0856   215.7111     5.0730   -37.5091
  133.0000     5.1380   214.3630     5.1406   -37.4185
  133.5000     5.1694   212.5613     5.1403   -37.0566
  134.0000     5.2502   210.3056     5.1399   -37.0106
  134.5000     5.3277   208.9576     5.2356   -37.2838
  135.0000     5.4037   205.7943     5.2751   -37.4203
  135.5000     5.4647   204.4463     5.3427   -37.7331
  136.0000     5.5175   206.2754     5.3424   -37.9666
  136.5000     5.5310   209.9198     5.3402   -38.0490
  137.0000     5.5161   214.4720     5.2058   -38.1387
  137.5000     5.3771   218.5704     5.1376   -38.2398
  138.0000     5.2562   220.8533     5.1372   -38.3763
  138.5000     5.0965   225.4054     5.1369   -38.3920
  139.0000     4.9335   230.8654     5.0686   -38.5129
  139.5000     4.7849   233.1483     5.0003   -38.5129
  140.0000     4.6214   236.3388     5.0000   -38.5129
  140.5000     4.5783   239.0757     4.9997   -38.5714
  141.0000     4.5535   241.3586     4.9993   -38.7196
  141.5000     4.5670   241.3722     4.9310   -38.7860
  142.0000     4.5940   240.0242     4.9452   -38.9226
  142.5000     4.6374   240.0378     4.9983   -38.9886
