~VERSION INFORMATION
 VERS.                2.0:   CWLS LOG ASCII STANDARD - VERSION 2.0
 WRAP.                 NO:   ONE LINE PER DEPTH STEP
~WELL INFORMATION
#MNEM.UNIT      DATA TYPE    INFORMATION
#----------   ------------   ------------------------------
 STRT.F           42.0000:   START DEPTH
 STOP.F          533.0000:   STOP DEPTH
 STEP.F            0.5000:   STEP LENGTH
 NULL.          -999.2500:   NO VALUE
 COMP.    FENIX & SCISSON:   COMPANY
 WELL.      NPR-3 #38S3-3:   WELL
 FLD .             TEAPOT:   FIELD
 LOC .       S3 T38N R78W:   LOCATION
 CNTY.            NATRONA:   COUNTY
 STAT.            WYOMING:   STATE
 CTRY. UNITED STATES OF AMERICA:   COUNTRY
 SRVC.           BIRDWELL:   SERVICE COMPANY
 DATE.        29-JUN-1978:   LOGDATE
 API .       490251066300:   API NUMBER
~CURVE INFORMATION
#MNEM.UNIT       API CODE    CURVE DESCRIPTION
#----------   ------------   ------------------------------
 DEPT.F                  :   
 ILD .OHMM   05 120 46 00:   INDUCTION LOG DEEP
 SN  .OHMM   05 040 16 00:   SHORT NORMAL 16"
 SPR .MV     05 010 01 00:   SPONTANEOUS POTENTIAL FROM RES.
 CALD.IN     45 280 60 00:   CALIPER FROM DENSITY LOG
 CORR.G/C3   45 356 01 00:   DENSITY CORRECTION
 DPHI.DEC    45 890 12 00:   DENSITY POROSITY SANDSTONE
 GRD .GAPI   45 310 01 00:   GAMMA RAY FROM DENSITY LOG
 RHOB.G/C3   45 350 01 00:   BULK DENSITY
~PARAMETER INFORMATION
#MNEM.UNIT          VALUE    DESCRIPTION
#----------   ------------   ------------------------------
 PD  .                 GL:   PERMANENT DATUM
 EPD .F              5238:   ELEVATION PERMANENT DATUM
 LMF .                 KB:   LOG MEASURED FROM
 DAPD.F                 4:   FEET ABOVE PERMANENT DATUM
 DMF .                 KB:   DRILLING MEASURED FROM
 EKB .F              5242:   KELLING BUSHING
 EGL .F              5238:   GROUND LEVEL
 DATE.        29-JUN-1978:   RUN DATE
 RUN .                  1:   RUN NUMBER
 DD  .F               530:   DEPTH DRILLER
 DL  .F               540:   DEPTH LOGGER
 BLI .F               533:   BOTTOM LOG INTERVAL
 TLI .F                40:   TOP LOG INTERVAL
 CS  .IN            8.625:   CASING SIZE
 CBD .F                40:   CASING BOTTOM DRILLER
 BS  .IN            7.875:   BIT SIZE
 BSD .F               530:   BIT SIZE AT DEPTH
 DFT .                KCL:   DRILLING FLUID TYPE
 DFD .                8.7:   DRILLING FLUID DENSITY
 DFV .                 34:   DRILLING FLUID VISCOSITY
 DFPH.                9.5:   DRILLING FLUID PH
 MSS .           FLOWLINE:   MUD SAMPLE SOURCE
 RMS .OHMM            0.2:   RESISTIVITY MUD SAMPLE
 MST .F                82:   MUD SAMPLE TEMPERATURE
 RMF .OHMM           0.18:   RESISTIVITY MUD FILTRATE SAMPLE
 MFST.F                82:   MUD FILTRATE SAMPLE TEMPERATURE
 RMC .OHMM           0.14:   RESISTIVITY MUD CAKE
 MCST.F                82:   MUD CAKE SAMPLE TEMPERATURE
 MFSS.               MEAS:   MUD FILTRATE SAMPLE SOURCE
 TCS .HRS               1:   TIME CURCULATED STOPPED
 LUN .               2958:   LOGGING UNIT NUMBER
 LUL .             CASPER:   LOGGING UNIT LOCATION
 ENGI.             MILLER:   RECORDING ENGINEER
 WITN.         ZARGARNIAN:   WITNESSED BY
 CLNT.            A2DTECH:   CLIENT CODE
 ORIG.           5" PRINT:   ORIGIN OF DATA
 UWI .       490251066300:   UNIQUE WELL ID
 DICO. A2D Technologies, Inc.:   DIGITIZING COMPANY
~OTHER INFORMATION
~A   DEPT      ILD         SN        SPR       CALD       CORR       DPHI         GRD      RHOB   
# ...
  123.0000     7.4793     8.0095   -14.9699     7.5089     0.0173     0.1340    83.6594     2.4780
  123.5000     7.4274     7.9550   -14.9712     7.4933     0.0173     0.1361    83.6488     2.4749
  124.0000     7.4303     7.9555   -14.9724     7.4928     0.0158     0.1388    83.4907     2.4667
  124.5000     7.5296     7.9561   -14.9738     7.4969     0.0142     0.1382    83.1707     2.4652
  125.0000     7.6337     7.9567   -14.9749     7.5068     0.0112     0.1346    82.1243     2.4727
  125.5000     7.6332     7.9572   -14.9762     7.5062     0.0097     0.1376    81.8186     2.4718
  126.0000     7.6856     7.9577   -15.1278     7.5207     0.0081     0.1388    83.3050     2.4659
  126.5000     7.6322     7.9584   -15.1291     7.5200     0.0081     0.1391    84.0451     2.4651
  127.0000     7.5269     7.9041   -15.1304     7.5196     0.0065     0.1376    82.9866     2.4680
  127.5000     7.5265     7.9047   -14.9812     7.5191     0.0065     0.1340    82.2297     2.4718
  128.0000     7.4742     7.9052   -14.8321     7.5186     0.0094     0.1394    82.2212     2.4710
  128.5000     7.4222     7.9058   -14.9839     7.5031     0.0124     0.1424    82.6776     2.4642
  129.0000     7.3199     7.9063   -14.9851     7.5175     0.0154     0.1358    83.3998     2.4627
  129.5000     7.2690     7.9616   -15.1367     7.5170     0.0197     0.1277    83.0920     2.4735
  130.0000     7.2685     7.9622   -15.1379     7.5165     0.0197     0.1355    81.5865     2.4851
  130.5000     7.2181     7.9627   -15.2895     7.5159     0.0197     0.1388    78.6438     2.4693
  131.0000     7.2176     7.9084   -15.2907     7.5153     0.0181     0.1364    78.4252     2.4678
  131.5000     7.1180     7.9091   -15.4986     7.5149     0.0151     0.1255    80.5105     2.4754
  132.0000     7.1669     7.9096   -15.5941     7.5144     0.0135     0.1313    82.7476     2.4850
  132.5000     7.2162     7.9101   -15.5953     7.5138     0.0150     0.1376    84.3858     2.4704
  133.0000     7.2156     7.9106   -15.5965     7.5132     0.0164     0.1385    85.2756     2.4722
  133.5000     7.2150     7.9113   -15.5980     7.5128     0.0172     0.1394    86.0135     2.4669
  134.0000     7.1649     7.9118   -15.5991     7.5272     0.0182     0.1415    87.3524     2.4661
  134.5000     7.1151     7.9123   -15.6003     7.5267     0.0193     0.1391    89.4397     2.4676
  135.0000     7.1146     7.9128   -15.6015     7.5301     0.0193     0.1301    90.6289     2.4706
  135.5000     7.1142     7.9134   -15.6028     7.5406     0.0192     0.1316    87.1752     2.4743
  136.0000     7.1136     7.9140   -15.6042     7.5400     0.0192     0.1250    86.7198     2.4787
  136.5000     7.1131     7.8599   -15.6054     7.5395     0.0191     0.1301    87.4577     2.4832
  137.0000     7.1621     7.8606   -15.3055     7.5327     0.0191     0.1349    87.4491     2.4817
  137.5000     7.1615     7.8611   -15.1567     7.5180     0.0160     0.1280    86.8399     2.4764
  138.0000     7.1610     7.9162   -15.0075     7.4930     0.0130     0.1250    85.7836     2.4801
  138.5000     7.2101     7.9716   -14.7079     7.4925     0.0111     0.1247    85.1763     2.4943
  139.0000     7.1599     8.0829   -14.7094     7.5070     0.0099     0.1280    88.2315     2.4980
  139.5000     7.2092     8.0835   -14.7106     7.5065     0.0114     0.1303    92.6423     2.4935
  140.0000     7.2586     8.1438   -14.5614     7.5060     0.0158     0.1139    87.0950     2.4845
  140.5000     7.4100     8.2539   -14.2912     7.5204     0.0188     0.1115    78.5536     2.4964
  141.0000     7.5124     8.3116   -14.0554     7.5349     0.0202     0.1120    77.4811     2.5069
  141.5000     7.6165     8.3697   -13.9635     7.5343     0.0187     0.1114    78.9837     2.5091
  142.0000     7.7218     8.3703   -13.9650     7.5338     0.0112     0.1129    83.4662     2.5166
  142.5000     7.8874     8.3132   -13.9662     7.5273     0.0022     0.1204    84.8852     2.5248
  143.0000     7.9919     8.3139   -13.9677     7.5178    -0.0083     0.1363    82.6467     2.5278
  143.5000     8.0468     8.3145   -13.9689     7.5172    -0.0039     0.1312    80.2951     2.5000
  144.0000     8.0461     8.2577   -14.1204     7.5167     0.0065     0.1294    79.0890     2.4693
  144.5000     8.0456     8.2015   -14.4224     7.5312     0.0139     0.1306    80.7273     2.4797
  145.0000     8.0449     8.2021   -14.7243     7.5606     0.0169     0.1306    83.2834     2.4827
  145.5000     7.9890     8.2027   -15.0266     7.5901     0.0198     0.1306    82.6544     2.4819
  146.0000     7.9336     8.2033   -15.3285     7.6046     0.0213     0.1303    80.9992     2.4811
  146.5000     7.8785     8.1472   -15.3297     7.6040     0.0212     0.1294    82.0387     2.4834
  147.0000     7.7164     8.0332   -15.3309     7.6033     0.0271     0.1279    84.5789     2.4856
  147.5000     7.6100     7.8720   -15.3321     7.5879     0.0331     0.1237    89.5047     2.4863
  148.0000     7.3007     7.7646   -15.3336     7.5575     0.0345     0.1213    93.2388     2.4900
  148.5000     7.1014     7.7117   -15.3051     7.5420     0.0330     0.1237    84.8471     2.4967
  149.0000     7.0035     7.7122   -15.1853     7.4965     0.0284     0.1282    83.0423     2.4952
  149.5000     7.0031     7.7127   -15.0361     7.4810     0.0239     0.1327    87.5227     2.4779
  150.0000     7.0001     7.7668   -15.0376     7.4356     0.0194     0.1402    89.4614     2.4674
  150.5000     6.9683     7.7668   -15.0404     7.3602     0.0239     0.1435    88.8668     2.4636
  151.0000     6.9074     7.7667   -14.7428     7.3298     0.0224     0.1318    87.6734     2.4591
  151.5000     6.8604     7.8239   -14.4449     7.3143     0.0224     0.1320    87.3782     2.4643
  152.0000     6.8609     7.9292   -14.2973     7.2987     0.0209     0.1338    88.5811     2.4741
  152.5000     6.8615     7.9842   -14.4513     7.2982     0.0209     0.1359    89.1891     2.4785
  153.0000     6.9095     8.0952   -14.4541     7.2977     0.0209     0.1368    89.0396     2.4793
  153.5000     7.0060     8.0952   -14.4710     7.3122     0.0209     0.1425    85.4510     2.4732
  154.0000     7.1531     8.1513   -14.6109     7.3416     0.0194     0.1449    79.7659     2.4672
  154.5000     7.3034     8.2077   -14.7641     7.3711     0.0194     0.1389    81.4179     2.4597
  155.0000     7.4567     8.1513   -14.7669     7.4006     0.0179     0.1290    81.4221     2.4582
  155.5000     7.5609     8.1513   -14.7705     7.4316     0.0149     0.1317    81.7267     2.4702
  156.0000     7.6138     8.1513   -14.7733     7.4771     0.0119     0.1304    83.0782     2.4799
  156.5000     7.6734     8.0952   -14.7762     7.5036     0.0090     0.1262    84.7292     2.4858
  157.0000     7.7208     8.0952   -15.0798     7.5331     0.0045     0.1331    87.2793     2.4851
  157.5000     7.8286     8.0952   -15.0827     7.5476    -0.0001     0.1316    87.7326     2.4813
  158.0000     7.8292     8.0952   -15.0862     7.5469    -0.0090     0.1457    87.7368     2.4708
  158.5000     7.8297     8.0952   -15.2394     7.5669    -0.0149     0.1460    88.4895     2.4543
  159.0000     7.8303     8.0952   -15.2422     7.5759    -0.0119     0.1406    90.1415     2.4490
  159.5000     7.8308     8.0952   -15.2451     7.5904    -0.0043     0.1304    89.3972     2.4632
  160.0000     7.7238     8.0952   -15.0976     7.5898     0.0030     0.1375    87.0062     2.4857
  160.5000     7.7244     8.0952   -14.8004     7.6043     0.0075     0.1396    83.8009     2.4789
  161.0000     7.7786     8.0717   -14.6528     7.6037     0.0090     0.1387    79.6803     2.4737
  161.5000     7.8330     8.0395   -14.5053     7.5882     0.0075     0.1378    78.7853     2.4698
  162.0000     7.8878     7.9842   -14.5088     7.5877     0.0075     0.1375    80.7366     2.4669
  162.5000     7.9429     8.0395   -14.5117     7.5872     0.0060     0.1375    86.8796     2.4654
  163.0000     7.9436     8.0579   -14.5145     7.5717     0.0075     0.1375    85.0874     2.4646
