~VERSION INFORMATION
 VERS.                2.0:   CWLS LOG ASCII STANDARD - VERSION 2.0
 WRAP.                 NO:   ONE LINE PER DEPTH STEP
~WELL INFORMATION
#MNEM.UNIT      DATA TYPE    INFORMATION
#----------   ------------   ------------------------------
 STRT.F           84.0000:   START DEPTH
 STOP.F         1141.0000:   STOP DEPTH
 STEP.F            0.5000:   STEP LENGTH
 NULL.          -999.2500:   NO VALUE
 COMP.           U S NAVY:   COMPANY
 WELL.     NPR#3 #78-S-11:   WELL
 FLD .             TEAPOT:   FIELD
 LOC .      S11 T38N R78W:   LOCATION
 CNTY.            NATRONA:   COUNTY
 STAT.            WYOMING:   STATE
 CTRY. UNITED STATES OF AMERICA:   COUNTRY
 SRVC.       Schlumberger:   SERVICE COMPANY
 DATE.        28-AUG-1966:   LOGDATE
 API .       490250970700:   API NUMBER
~CURVE INFORMATION
#MNEM.UNIT       API CODE    CURVE DESCRIPTION
#----------   ------------   ------------------------------
 DEPT.F                  :   
 SPR .MV     05 010 01 00:   SPONTANEOUS POTENTIAL FROM RES.
 ASN .OHMM   05 041 16 00:   AMPLIFIED SHORT NORMAL 16"
 ILD .OHMM   05 120 46 00:   INDUCTION LOG DEEP
 CILD.MMHO   05 110 46 00:   CONDUCTIVITY INDUCTION LOG DEEP
 GRD .GAPI   45 310 01 00:   GAMMA RAY FROM DENSITY LOG
 CALD.IN     45 280 60 00:   CALIPER FROM DENSITY LOG
 DPHI.DEC    45 890 12 00:   DENSITY POROSITY SANDSTONE
 RHOB.G/C3   45 350 01 00:   BULK DENSITY
~PARAMETER INFORMATION
#MNEM.UNIT          VALUE    DESCRIPTION
#----------   ------------   ------------------------------
 PD  .                 GL:   PERMANENT DATUM
 EPD .F              5245:   ELEVATION PERMANENT DATUM
 LMF .                 KB:   LOG MEASURED FROM
 DAPD.F                 5:   FEET ABOVE PERMANENT DATUM
 DMF .                 KB:   DRILLING MEASURED FROM
 EKB .F              5250:   KELLING BUSHING
 EGL .F              5245:   GROUND LEVEL
 DATE.            8-28-66:   RUN DATE
 RUN .                  1:   RUN NUMBER
 DD  .F              1142:   DEPTH DRILLER
 DL  .F              1142:   DEPTH LOGGER
 BLI .F              1141:   BOTTOM LOG INTERVAL
 TLI .F                85:   TOP LOG INTERVAL
 CS  .IN            8.625:   CASING SIZE
 CBD .F                10:   CASING BOTTOM DRILLER
 BS  .IN             6.75:   BIT SIZE
 BSD .F              1142:   BIT SIZE AT DEPTH
 DFT .           CHEM GEL:   DRILLING FLUID TYPE
 DFD .               10.7:   DRILLING FLUID DENSITY
 DFV .                 40:   DRILLING FLUID VISCOSITY
 MSS .          FLOW LINE:   MUD SAMPLE SOURCE
 RMS .OHMM           1.58:   RESISTIVITY MUD SAMPLE
 MST .F                70:   MUD SAMPLE TEMPERATURE
 RMF .OHMM            .93:   RESISTIVITY MUD FILTRATE SAMPLE
 MFST.F                70:   MUD FILTRATE SAMPLE TEMPERATURE
 MFSS.                  M:   MUD FILTRATE SAMPLE SOURCE
 RMB .OHMM           1.19:   RESISTIVITY MUD AT BHT
 BHT .F                94:   BOTTOM HOLE TEMPERATURE
 TCS .HRS               1:   TIME CURCULATED STOPPED
 MRT .F                94:   MAXIMUM RECORDED TEMPERATURE
 LUN .               4507:   LOGGING UNIT NUMBER
 LUL .               CSPR:   LOGGING UNIT LOCATION
 ENGI.             KNOBEL:   RECORDING ENGINEER
 WITN.         MAY/TUTTLE:   WITNESSED BY
 CLNT.            A2DTECH:   CLIENT CODE
 ORIG.           5" PRINT:   ORIGIN OF DATA
 UWI .       490250970700:   UNIQUE WELL ID
 DICO. A2D Technologies, Inc.:   DIGITIZING COMPANY
~OTHER INFORMATION
~A   DEPT      SPR          ASN        ILD      CILD       GRD       CALD       DPHI       RHOB   
# ...
  367.5000   -43.2434     6.6066     6.4565   168.6852  -999.2500  -999.2500  -999.2500  -999.2500
  368.0000   -43.8497     6.5015     6.4565   168.6927  -999.2500  -999.2500  -999.2500  -999.2500
  368.5000   -43.7019     6.5465     6.4565   168.7002  -999.2500  -999.2500  -999.2500  -999.2500
  369.0000   -43.5541     6.6517     6.4565   168.7077  -999.2500  -999.2500  -999.2500  -999.2500
  369.5000   -43.5571     6.6366     6.4565   170.2189  -999.2500  -999.2500  -999.2500  -999.2500
  370.0000   -43.5601     6.6066     6.3814   171.7302  -999.2500  -999.2500  -999.2500  -999.2500
  370.5000   -43.4116     6.5616     6.1562   173.9933  -999.2500  -999.2500  -999.2500  -999.2500
  371.0000   -43.2637     6.4715     6.0060   177.0083  -999.2500  -999.2500  -999.2500  -999.2500
  371.5000   -43.2675     6.3964     5.6306   178.5196  -999.2500  -999.2500  -999.2500  -999.2500
  372.0000   -43.2705     6.3213     5.4054   181.5346  -999.2500  -999.2500  -999.2500  -999.2500
  372.5000   -43.1219     6.2312     5.1802   183.7977  -999.2500  -999.2500  -999.2500  -999.2500
  373.0000   -42.8233     6.1562     5.1802   186.0609  -999.2500  -999.2500  -999.2500  -999.2500
  373.5000   -42.6755     6.0661     5.1802   186.0684  -999.2500  -999.2500  -999.2500  -999.2500
  374.0000   -42.6792     5.9760     5.1802   186.0759  -999.2500  -999.2500  -999.2500  -999.2500
  374.5000   -42.5307     6.0360     5.1802   185.3315  -999.2500  -999.2500  -999.2500  -999.2500
  375.0000   -42.3829     6.2012     5.2553   184.5852  -999.2500  -999.2500  -999.2500  -999.2500
  375.5000   -42.3866     6.2613     5.2553   183.8408  -999.2500  -999.2500  -999.2500  -999.2500
  376.0000   -42.3896     6.2913     5.3303   183.8502  -999.2500  -999.2500  -999.2500  -999.2500
  376.5000   -42.3926     6.3363     5.4805   183.1039  -999.2500  -999.2500  -999.2500  -999.2500
  377.0000   -42.3957     6.3514     5.5556   183.8652  -999.2500  -999.2500  -999.2500  -999.2500
  377.5000   -42.3987     6.3814     5.5556   184.6246  -999.2500  -999.2500  -999.2500  -999.2500
  378.0000   -42.4017     6.4114     5.6306   186.1358  -999.2500  -999.2500  -999.2500  -999.2500
  378.5000   -42.4047     6.4414     5.7808   181.6320  -999.2500  -999.2500  -999.2500  -999.2500
  379.0000   -42.2569     6.4565     5.8559   177.8801  -999.2500  -999.2500  -999.2500  -999.2500
  379.5000   -42.2599     6.4114     6.0093   174.1282  -999.2500  -999.2500  -999.2500  -999.2500
  380.0000   -41.9612     6.4715     6.1612   168.8726  -999.2500  -999.2500  -999.2500  -999.2500
  380.5000   -41.9642     6.6366     6.4633   165.1207  -999.2500  -999.2500  -999.2500  -999.2500
  381.0000   -42.2689     6.8018     6.6066   159.8650  -999.2500  -999.2500  -999.2500  -999.2500
  381.5000   -42.7244     7.3273     7.2072   156.1131  -999.2500  -999.2500  -999.2500  -999.2500
  382.0000   -42.8783     7.4775     7.6577   151.6093  -999.2500  -999.2500  -999.2500  -999.2500
  382.5000   -42.8813     7.6126     8.0330   146.3536  -999.2500  -999.2500  -999.2500  -999.2500
  383.0000   -42.7335     7.8228     8.3333   141.8498  -999.2500  -999.2500  -999.2500  -999.2500
  383.5000   -42.5856     8.3183     8.5586   139.6015  -999.2500  -999.2500  -999.2500  -999.2500
  384.0000   -42.1362     8.0157     8.4835   141.8648  -999.2500  -999.2500  -999.2500  -999.2500
  384.5000   -41.9876     7.6874     8.1081   150.1430  -999.2500  -999.2500  -999.2500  -999.2500
  385.0000   -41.9914     7.5956     7.3574   155.4137  -999.2500  -999.2500  -999.2500  -999.2500
  385.5000   -42.1452     7.2954     6.8318   161.4362  -999.2500  -999.2500  -999.2500  -999.2500
  386.0000   -42.1482     7.1122     6.6817   165.2031  -999.2500  -999.2500  -999.2500  -999.2500
  386.5000   -41.9996     7.0120     6.4565   168.9700  -999.2500  -999.2500  -999.2500  -999.2500
  387.0000   -42.0034     6.9970     6.4565   170.4812  -999.2500  -999.2500  -999.2500  -999.2500
  387.5000   -42.1572     6.9807     6.5315   169.7368  -999.2500  -999.2500  -999.2500  -999.2500
  388.0000   -42.6127     6.9670     6.5315   168.9924  -999.2500  -999.2500  -999.2500  -999.2500
  388.5000   -42.9174     6.9986     6.6066   166.7443  -999.2500  -999.2500  -999.2500  -999.2500
  389.0000   -43.3729     7.0823     6.6817   165.9698  -999.2500  -999.2500  -999.2500  -999.2500
  389.5000   -43.8284     7.2710     6.6817   162.9191  -999.2500  -999.2500  -999.2500  -999.2500
  390.0000   -43.9823     7.3594     6.7568   158.3960  -999.2500  -999.2500  -999.2500  -999.2500
  390.5000   -43.9853     7.4517     6.9069   151.6160  -999.2500  -999.2500  -999.2500  -999.2500
  391.0000   -43.9883     7.5248     7.0571   147.9848  -999.2500  -999.2500  -999.2500  -999.2500
  391.5000   -44.1421     7.6175     7.1321   144.9047  -999.2500  -999.2500  -999.2500  -999.2500
  392.0000   -44.1451     7.7685     7.3574   140.9612  -999.2500  -999.2500  -999.2500  -999.2500
  392.5000   -44.1481     8.1314     7.6577   134.2733  -999.2500  -999.2500  -999.2500  -999.2500
  393.0000   -44.1511     8.3570     8.1837   129.7490  -999.2500  -999.2500  -999.2500  -999.2500
  393.5000   -44.1542     8.6787     8.7132   126.0979  -999.2500  -999.2500  -999.2500  -999.2500
  394.0000   -44.1572     8.8589     9.1632   124.7215  -999.2500  -999.2500  -999.2500  -999.2500
  394.5000   -44.3110     8.8889     9.3093   124.8699  -999.2500  -999.2500  -999.2500  -999.2500
  395.0000   -44.3140     8.7988     9.2267   126.9940  -999.2500  -999.2500  -999.2500  -999.2500
  395.5000   -44.1655     8.5886     8.9247   133.0165  -999.2500  -999.2500  -999.2500  -999.2500
  396.0000   -44.3200     8.4384     8.5476   139.0390  -999.2500  -999.2500  -999.2500  -999.2500
  396.5000   -44.1715     8.3033     8.1577   145.0616  -999.2500  -999.2500  -999.2500  -999.2500
  397.0000   -44.1752     8.1381     7.6577   151.0841  -999.2500  -999.2500  -999.2500  -999.2500
  397.5000   -44.1783     7.8979     7.1321   156.3548  -999.2500  -999.2500  -999.2500  -999.2500
  398.0000   -44.0297     7.7027     6.7568   159.3698  -999.2500  -999.2500  -999.2500  -999.2500
  398.5000   -44.0335     7.4174     6.7568   159.3773  -999.2500  -999.2500  -999.2500  -999.2500
  399.0000   -43.8849     7.1321     6.7568   157.8810  -999.2500  -999.2500  -999.2500  -999.2500
  399.5000   -43.2853     6.9970     6.8493   157.1366  -999.2500  -999.2500  -999.2500  -999.2500
  400.0000   -42.8351     7.1559     6.9844   157.1043  -999.2500  -999.2500  -999.2500  -999.2500
  400.5000   -43.1116     7.5397     7.0131   156.6474  -999.2500  -999.2500  -999.2500  -999.2500
  401.0000   -43.3486     7.6129     7.0417   155.6391  -999.2500  -999.2500  -999.2500  -999.2500
  401.5000   -43.8914     7.4270     7.0548   154.1353  -999.2500  -999.2500  -999.2500  -999.2500
  402.0000   -43.8914     7.2502     7.0539   153.3835  -999.2500  -999.2500  -999.2500  -999.2500
  402.5000   -43.4389     7.4482     7.0532   151.8797  -999.2500  -999.2500  -999.2500  -999.2500
  403.0000   -43.2881     7.5235     7.0524   152.6364  -999.2500  -999.2500  -999.2500  -999.2500
  403.5000   -43.1373     7.3885     7.0517   155.0302  -999.2500  -999.2500  -999.2500  -999.2500
  404.0000   -42.9864     7.1934     6.9759   162.4963  -999.2500  -999.2500  -999.2500  -999.2500
  404.5000   -42.8356     7.0284     6.6748   167.9350  -999.2500  -999.2500  -999.2500  -999.2500
  405.0000   -42.8356     6.8634     6.1486   178.1955  -999.2500  -999.2500  -999.2500  -999.2500
  405.5000   -42.6848     6.6533     5.8475   181.2030  -999.2500  -999.2500  -999.2500  -999.2500
  406.0000   -42.5258     6.5484     5.7717   183.4586  -999.2500  -999.2500  -999.2500  -999.2500
  406.5000   -42.3661     6.3984     5.7710   184.2105  -999.2500  -999.2500  -999.2500  -999.2500
  407.0000   -42.2062     6.3534     5.7702   181.9549  -999.2500  -999.2500  -999.2500  -999.2500
  407.5000   -41.9306     6.3686     5.8447   178.9474  -999.2500  -999.2500  -999.2500  -999.2500
