~VERSION INFORMATION
 VERS.                2.0:   CWLS LOG ASCII STANDARD - VERSION 2.0
 WRAP.                 NO:   ONE LINE PER DEPTH STEP
~WELL INFORMATION
#MNEM.UNIT      DATA TYPE    INFORMATION
#----------   ------------   ------------------------------
 STRT.F            0.0000:   START DEPTH
 STOP.F          789.0000:   STOP DEPTH
 STEP.F            0.5000:   STEP LENGTH
 NULL.          -999.2500:   NO VALUE
 COMP. U S NAVY-INTEX OIL:   COMPANY
 WELL.        NPR #35-S-2:   WELL
 FLD .             TEAPOT:   FIELD
 LOC .       S2 T38N R78W:   LOCATION
 CNTY.            NATRONA:   COUNTY
 STAT.            WYOMING:   STATE
 CTRY. UNITED STATES OF AMERICA:   COUNTRY
 SRVC.      NL McCullough:   SERVICE COMPANY
 DATE.        14-AUG-1961:   LOGDATE
 API .       490250644100:   API NUMBER
~CURVE INFORMATION
#MNEM.UNIT       API CODE    CURVE DESCRIPTION
#----------   ------------   ------------------------------
 DEPT.F                  :   
 GR  .GAPI   42 310 01 00:   GAMMA RAY
 NPHI.DEC    42 890 00 00:   NEUTRON POROSITY
~PARAMETER INFORMATION
#MNEM.UNIT          VALUE    DESCRIPTION
#----------   ------------   ------------------------------
 PD  .                 GL:   PERMANENT DATUM
 EPD .F              5133:   ELEVATION PERMANENT DATUM
 LMF .                 KB:   LOG MEASURED FROM
 DAPD.F                 6:   FEET ABOVE PERMANENT DATUM
 DMF .                 KB:   DRILLING MEASURED FROM
 EKB .F              5139:   KELLING BUSHING
 EGL .F              5133:   GROUND LEVEL
 DATE.        14-AUG-1961:   RUN DATE
 RUN .                  1:   RUN NUMBER
 DD  .F               790:   DEPTH DRILLER
 DL  .F               791:   DEPTH LOGGER
 BLI .F             789.5:   BOTTOM LOG INTERVAL
 BS  .IN            7.875:   BIT SIZE
 BSD .F               790:   BIT SIZE AT DEPTH
 DFT .        OIL EMULSON:   DRILLING FLUID TYPE
 DFD .                9.5:   DRILLING FLUID DENSITY
 TCS .HRS             1.5:   TIME CURCULATED STOPPED
 LUN .               1206:   LOGGING UNIT NUMBER
 ENGI.            JACKSON:   RECORDING ENGINEER
 WITN.          JORGENDEN:   WITNESSED BY
 CLNT.            A2DTECH:   CLIENT CODE
 ORIG.           2" PRINT:   ORIGIN OF DATA
 UWI .       490250644100:   UNIQUE WELL ID
 DICO. A2D Technologies, Inc.:   DIGITIZING COMPANY
~OTHER INFORMATION
~A    DEPT        GR     NPHI   
# ...
  486.0000     5.1352     0.1376
  486.5000     5.2319     0.1403
  487.0000     5.3402     0.1430
  487.5000     5.4735     0.1449
  488.0000     5.5882     0.1388
  488.5000     5.6402     0.1361
  489.0000     5.6492     0.1334
  489.5000     5.6496     0.1309
  490.0000     5.5681     0.1294
  490.5000     5.1856     0.1315
  491.0000     4.9244     0.1361
  491.5000     4.8033     0.1374
  492.0000     4.8490     0.1418
  492.5000     4.7562     0.1434
  493.0000     4.6393     0.1429
  493.5000     4.5699     0.1430
  494.0000     4.6029     0.1535
  494.5000     4.7082     0.1600
  495.0000     4.7383     0.1635
  495.5000     4.7110     0.1623
  496.0000     4.6923     0.1604
  496.5000     4.8590     0.1710
  497.0000     4.9357     0.1739
  497.5000     4.9902     0.1744
  498.0000     5.0262     0.1740
  498.5000     5.0550     0.1714
  499.0000     5.0875     0.1626
  499.5000     5.1178     0.1523
  500.0000     5.1230     0.1531
  500.5000     4.9897     0.1610
  501.0000     4.9457     0.1678
  501.5000     4.9902     0.1698
  502.0000     4.9678     0.1664
  502.5000     4.9486     0.1634
  503.0000     4.9633     0.1619
  503.5000     5.1123     0.1673
  504.0000     5.2702     0.1732
  504.5000     5.3700     0.1776
  505.0000     5.1682     0.1743
  505.5000     5.0825     0.1640
  506.0000     5.0527     0.1559
  506.5000     5.1240     0.1543
  507.0000     5.3269     0.1586
  507.5000     5.2500     0.1610
  508.0000     5.1262     0.1618
  508.5000     5.0508     0.1718
  509.0000     4.9557     0.1755
  509.5000     5.0187     0.1830
  510.0000     5.1679     0.1901
  510.5000     5.1110     0.1989
  511.0000     5.0549     0.2073
  511.5000     5.2064     0.2122
  512.0000     5.2838     0.2123
  512.5000     5.3127     0.2103
  513.0000     5.1466     0.2043
  513.5000     5.1937     0.1893
  514.0000     5.2681     0.1770
  514.5000     5.0111     0.1704
  515.0000     5.1324     0.1649
  515.5000     5.2884     0.1610
  516.0000     5.2690     0.1647
  516.5000     5.0695     0.1673
  517.0000     4.9139     0.1698
  517.5000     4.8234     0.1622
  518.0000     4.8191     0.1604
  518.5000     4.8980     0.1619
  519.0000     5.1115     0.1639
  519.5000     5.2819     0.1655
  520.0000     5.3086     0.1595
  520.5000     5.2139     0.1591
  521.0000     5.1706     0.1608
  521.5000     5.1656     0.1628
  522.0000     5.1613     0.1644
  522.5000     5.1358     0.1658
  523.0000     5.0755     0.1564
  523.5000     5.0787     0.1581
  524.0000     5.1985     0.1570
  524.5000     5.2729     0.1497
  525.0000     5.2088     0.1486
  525.5000     5.1598     0.1509
  526.0000     5.4778     0.1536
  526.5000     5.5967     0.1562
  527.0000     5.4668     0.1590
  527.5000     5.2364     0.1607
  528.0000     5.2533     0.1611
  528.5000     5.3840     0.1584
  529.0000     5.4792     0.1572
  529.5000     5.4945     0.1582
  530.0000     5.4115     0.1695
  530.5000     5.3815     0.1721
  531.0000     5.3590     0.1772
  531.5000     5.2760     0.1830
  532.0000     5.1885     0.1856
  532.5000     5.1687     0.1879
  533.0000     5.0120     0.1910
  533.5000     4.8477     0.1996
  534.0000     4.8762     0.2045
  534.5000     4.9294     0.2059
  535.0000     4.9448     0.2135
  535.5000     4.8917     0.2217
  536.0000     4.7562     0.2217
  536.5000     4.6524     0.2221
  537.0000     4.5372     0.2250
  537.5000     4.6056     0.2248
  538.0000     4.8569     0.2193
  538.5000     5.0855     0.2146
  539.0000     5.2643     0.2105
  539.5000     5.4574     0.2126
  540.0000     5.6884     0.2139
  540.5000     5.8013     0.2078
  541.0000     5.8469     0.2026
  541.5000     5.8706     0.1985
  542.0000     5.8753     0.1939
  542.5000     5.9032     0.1911
  543.0000     6.1209     0.1890
  543.5000     6.3011     0.1899
  544.0000     6.4284     0.1936
  544.5000     6.5830     0.1990
  545.0000     6.4886     0.2014
  545.5000     6.4461     0.1922
  546.0000     6.4627     0.1897
  546.5000     6.5726     0.1922
  547.0000     6.7278     0.1997
  547.5000     6.6827     0.2104
  548.0000     6.5180     0.2107
  548.5000     6.4082     0.2105
  549.0000     6.3430     0.2103
  549.5000     6.3829     0.2094
  550.0000     6.5855     0.2143
  550.5000     5.5648     0.2086
  551.0000     5.4855     0.2004
  551.5000     5.7796     0.2040
  552.0000     5.5765     0.1951
  552.5000     5.7500     0.1899
  553.0000     5.8105     0.1824
  553.5000     5.3515     0.1838
  554.0000     5.0581     0.1754
  554.5000     4.9672     0.1847
  555.0000     5.5045     0.1889
  555.5000     5.6088     0.1924
  556.0000     5.7596     0.1988
  556.5000     5.7826     0.1938
  557.0000     5.8054     0.1832
  557.5000     5.7078     0.1892
  558.0000     5.7683     0.1862
  558.5000     5.7497     0.1898
  559.0000     5.7690     0.1883
  559.5000     5.5126     0.1889
  560.0000     5.8675     0.1774
  560.5000     6.1163     0.1840
  561.0000     6.2220     0.1918
  561.5000     6.1771     0.1891
  562.0000     6.1021     0.1954
  562.5000     6.4036     0.2010
  563.0000     6.3437     0.2047
  563.5000     6.0190     0.2035
  564.0000     5.9503     0.1990
  564.5000     5.7648     0.1918
  565.0000     5.6521     0.1791
  565.5000     6.0139     0.1707
  566.0000     6.3606     0.1786
  566.5000     6.4662     0.1635
  567.0000     6.7000     0.1735
  567.5000     6.3163     0.1839
  568.0000     6.2563     0.1785
  568.5000     6.4525     0.1697
  569.0000     6.3323     0.1851
  569.5000     6.1142     0.1721
  570.0000     6.2425     0.1643
  570.5000     6.2392     0.1844
  571.0000     6.5970     0.1850
  571.5000     6.4254     0.1835
  572.0000     6.1081     0.1851
  572.5000     6.5754     0.1928
  573.0000     6.5079     0.1916
  573.5000     6.7717     0.2081
  574.0000     7.0204     0.2039
  574.5000     5.9591     0.2033
  575.0000     5.8539     0.2000
  575.5000     5.7864     0.2015
  576.0000     5.7717     0.2129
  576.5000     6.1178     0.2002
  577.0000     6.2768     0.1900
  577.5000     6.3449     0.1858
  578.0000     6.0741     0.1840
  578.5000     6.5488     0.1876
  579.0000     6.7600     0.1927
  579.5000     6.7753     0.1870
  580.0000     6.7605     0.1924
  580.5000     6.4217     0.1930
  581.0000     6.7009     0.2107
  581.5000     6.2570     0.2161
  582.0000     6.0689     0.2065
  582.5000     6.3479     0.2005
  583.0000     5.9416     0.1857
  583.5000     6.1226     0.1851
  584.0000     6.3262     0.1926
  584.5000     6.2286     0.1920
  585.0000     6.4096     0.2034
  585.5000     6.3949     0.2007
  586.0000     6.5081     0.2112
  586.5000     5.9964     0.2172
  587.0000     5.7784     0.2124
  587.5000     5.8916     0.2139
  588.0000     5.9672     0.1892
  588.5000     6.0880     0.1913
  589.0000     6.1259     0.1923
  589.5000     6.0124     0.1859
  590.0000     5.9147     0.1787
  590.5000     5.8934     0.1835
  591.0000     5.6829     0.1931
  591.5000     5.6530     0.1961
  592.0000     5.7889     0.1829
  592.5000     6.1130     0.1846
  593.0000     6.3316     0.1861
  593.5000     6.0759     0.1994
  594.0000     6.1822     0.2072
  594.5000     6.1547     0.2035
  595.0000     6.2048     0.1897
  595.5000     5.9341     0.1885
  596.0000     6.2205     0.1768
  596.5000     6.0175     0.1641
  597.0000     6.1835     0.1650
  597.5000     5.8449     0.1623
  598.0000     5.9657     0.1674
  598.5000     5.8304     0.1644
  599.0000     5.9211     0.1689
  599.5000     5.8236     0.1596
  600.0000     5.8991     0.1713
  600.5000     5.8843     0.1713
  601.0000     6.1256     0.1713
  601.5000     5.8925     0.1691
  602.0000     5.5617     0.1454
  602.5000     5.6977     0.1486
  603.0000     5.4872     0.1574
  603.5000     5.5855     0.1492
  604.0000     5.6700     0.1513
  604.5000     5.8347     0.1585
  605.0000     5.7975     0.1618
  605.5000     5.7527     0.1621
  606.0000     5.5271     0.1573
  606.5000     5.7384     0.1527
  607.0000     5.6785     0.1482
