~VERSION INFORMATION
 VERS.                2.0:   CWLS LOG ASCII STANDARD - VERSION 2.0
 WRAP.                 NO:   ONE LINE PER DEPTH STEP
~WELL INFORMATION
#MNEM.UNIT      DATA TYPE    INFORMATION
#----------   ------------   ------------------------------
 STRT.F          660.0000:   START DEPTH
 STOP.F         2899.5000:   STOP DEPTH
 STEP.F            0.5000:   STEP LENGTH
 NULL.          -999.2500:   NO VALUE
 COMP. LAWRENCE/ALLISON INC:   COMPANY
 WELL. NPR #3 22 X 10 #22-10:   WELL
 FLD .             TEAPOT:   FIELD
 LOC .      S10 T38N R78W:   LOCATION
 CNTY.            NATRONA:   COUNTY
 STAT.            WYOMING:   STATE
 CTRY. UNITED STATES OF AMERICA:   COUNTRY
 SRVC.            Unknown:   SERVICE COMPANY
 DATE.        11-SEP-1986:   LOGDATE
 API .       490251106200:   API NUMBER
~CURVE INFORMATION
#MNEM.UNIT       API CODE    CURVE DESCRIPTION
#----------   ------------   ------------------------------
 DEPT.F                  :   
 ROP .MIN/FT 91 810 01 00:   RATE OF DRILLING PENETRATION
 TGAS.UNITS  91 830 01 00:   TOTAL GAS FROM HOTWIRE
~PARAMETER INFORMATION
#MNEM.UNIT          VALUE    DESCRIPTION
#----------   ------------   ------------------------------
 DATE.          9-11-1986:   RUN DATE
 DD  .F              2900:   DEPTH DRILLER
 TLI .F              1380:   TOP LOG INTERVAL
 WITN. R. HUSK/K. FREDERICK:   WITNESSED BY
 CLNT.            A2DTECH:   CLIENT CODE
 ORIG.           5" PRINT:   ORIGIN OF DATA
 UWI .       490251106200:   UNIQUE WELL ID
 DICO. A2D Technologies, Inc.:   DIGITIZING COMPANY
~OTHER INFORMATION
~A   DEPT      ROP         TGAS 
# ...
 2118.0000     1.5242   165.8478
 2118.5000     1.5256   165.9007
 2119.0000     1.5271   165.9535
 2119.5000     1.5296   166.0063
 2120.0000     1.5430   166.0634
 2120.5000     1.5995   166.0161
 2121.0000     1.6560   165.9648
 2121.5000     1.7125   165.9134
 2122.0000     1.7690   165.8621
 2122.5000     1.8256   165.8107
 2123.0000     1.8821   165.7594
 2123.5000     1.9386   165.7080
 2124.0000     2.0666   165.6566
 2124.5000     2.3584   165.6053
 2125.0000     2.6710   165.5539
 2125.5000     2.9203   165.5026
 2126.0000     2.9137   165.4512
 2126.5000     2.6719   165.3999
 2127.0000     2.4290   165.3485
 2127.5000     2.2390   165.2972
 2128.0000     2.0545   165.2458
 2128.5000     1.8429   165.1945
 2129.0000     1.6127   165.1431
 2129.5000     1.3838   165.0918
 2130.0000     1.2400   165.0404
 2130.5000     1.3202   164.9890
 2131.0000     1.4657   164.9377
 2131.5000     1.5385   164.8863
 2132.0000     1.5385   164.8350
 2132.5000     1.5385   164.7836
 2133.0000     1.5489   164.7323
 2133.5000     1.5489   164.6809
 2134.0000     1.5489   164.6296
 2134.5000     1.5489   164.5782
 2135.0000     1.5473   164.5268
 2135.5000     1.5385   164.4755
 2136.0000     1.5227   164.4241
 2136.5000     1.4500   164.3728
 2137.0000     1.3854   164.3214
 2137.5000     1.3376   164.2701
 2138.0000     1.3566   164.2187
 2138.5000     1.4319   164.1674
 2139.0000     1.4984   164.1160
 2139.5000     1.5281   164.0647
 2140.0000     1.5281   164.0091
 2140.5000     1.5287   163.9619
 2141.0000     1.5293   163.9106
 2141.5000     1.5299   163.8592
 2142.0000     1.5305   163.8079
 2142.5000     1.5311   163.7565
 2143.0000     1.5317   163.7052
 2143.5000     1.5323   163.6538
 2144.0000     1.5329   163.6024
 2144.5000     1.5335   163.5511
 2145.0000     1.5341   163.4997
 2145.5000     1.5347   163.4484
 2146.0000     1.5354   163.3970
 2146.5000     1.5360   163.3457
 2147.0000     1.5366   163.2943
 2147.5000     1.5372   163.2429
 2148.0000     1.5378   163.1916
 2148.5000     1.5384   163.1402
 2149.0000     1.5390   163.0889
 2149.5000     1.5571   163.0375
 2150.0000     1.6021   162.9861
 2150.5000     1.6559   162.9348
 2151.0000     1.7096   162.8834
 2151.5000     1.7555   162.8321
 2152.0000     1.8169   162.7807
 2152.5000     1.8684   162.7294
 2153.0000     1.9303   162.6780
 2153.5000     1.9818   162.6266
 2154.0000     1.9189   162.5753
 2154.5000     1.6746   162.5239
 2155.0000     1.4190   162.4726
 2155.5000     1.2625   162.4212
 2156.0000     1.2620   162.3699
 2156.5000     1.2614   162.3185
 2157.0000     1.2609   162.2672
 2157.5000     1.2604   162.2158
 2158.0000     1.2599   162.1644
 2158.5000     1.2594   162.1131
 2159.0000     1.2588   162.0617
 2159.5000     1.2631   162.0104
 2160.0000     1.2682   161.9590
 2160.5000     1.2769   161.9084
 2161.0000     1.2865   161.8577
 2161.5000     1.2960   161.8071
 2162.0000     1.3135   161.7565
 2162.5000     1.3714   161.7059
 2163.0000     1.4401   161.6552
 2163.5000     1.4930   161.6046
 2164.0000     1.5220   161.5540
 2164.5000     1.4827   161.5034
 2165.0000     1.4098   161.4527
 2165.5000     1.3374   161.4021
 2166.0000     1.2895   161.3515
 2166.5000     1.2726   161.3009
 2167.0000     1.2683   161.2502
 2167.5000     1.2685   161.1996
 2168.0000     1.2687   161.1490
 2168.5000     1.2689   161.0984
 2169.0000     1.2691   161.0477
 2169.5000     1.2693   160.9971
 2170.0000     1.2695   160.9465
 2170.5000     1.2697   160.8959
 2171.0000     1.2699   160.8452
 2171.5000     1.2701   160.7946
 2172.0000     1.2704   160.7440
 2172.5000     1.2706   160.6934
 2173.0000     1.2708   160.6427
 2173.5000     1.2710   160.5921
 2174.0000     1.2712   160.5415
 2174.5000     1.2714   160.4909
 2175.0000     1.2716   160.4402
 2175.5000     1.2718   160.3896
 2176.0000     1.2720   160.3390
 2176.5000     1.2722   160.2884
 2177.0000     1.2724   160.2377
 2177.5000     1.2726   160.1871
 2178.0000     1.2728   160.1365
 2178.5000     1.2730   160.0859
 2179.0000     1.2733   160.0352
 2179.5000     1.2735   159.9846
 2180.0000     1.2737   159.9461
 2180.5000     1.2739   159.9452
 2181.0000     1.2741   159.9442
 2181.5000     1.2717   159.9433
 2182.0000     1.2942   159.9424
 2182.5000     1.3630   159.9414
 2183.0000     1.4208   159.9405
 2183.5000     1.4630   159.9396
 2184.0000     1.5052   159.9386
 2184.5000     1.5210   159.9377
 2185.0000     1.5203   159.9368
 2185.5000     1.5268   159.9359
 2186.0000     1.5291   159.9349
 2186.5000     1.5283   159.9340
 2187.0000     1.5274   159.9331
 2187.5000     1.5370   159.9321
 2188.0000     1.5155   159.9312
 2188.5000     1.4524   159.9303
 2189.0000     1.3892   159.9293
 2189.5000     1.3261   159.9284
 2190.0000     1.2942   159.9275
 2190.5000     1.3582   159.9265
 2191.0000     1.4312   159.9256
 2191.5000     1.4831   159.9247
 2192.0000     1.5199   159.9238
 2192.5000     1.5190   159.9228
 2193.0000     1.5203   159.9219
 2193.5000     1.5278   159.9210
 2194.0000     1.5132   159.9200
 2194.5000     1.4587   159.9191
 2195.0000     1.4007   159.9182
 2195.5000     1.3393   159.9172
 2196.0000     1.2973   159.9163
 2196.5000     1.2840   159.9154
 2197.0000     1.2784   159.9144
 2197.5000     1.2773   159.9135
 2198.0000     1.3094   159.9126
 2198.5000     1.3682   159.9117
 2199.0000     1.4319   159.9107
 2199.5000     1.4890   159.9098
 2200.0000     1.5315   159.9089
 2200.5000     1.5377   159.9594
 2201.0000     1.5369   160.0099
 2201.5000     1.5376   160.0605
 2202.0000     1.5152   160.1110
 2202.5000     1.4412   160.1616
 2203.0000     1.3711   160.2121
 2203.5000     1.3118   160.2626
 2204.0000     1.2720   160.3132
 2204.5000     1.2601   160.3637
 2205.0000     1.2604   160.4143
 2205.5000     1.2607   160.4648
 2206.0000     1.2557   160.5154
 2206.5000     1.2508   160.5659
 2207.0000     1.2510   160.6164
 2207.5000     1.2513   160.6670
 2208.0000     1.2576   160.7175
 2208.5000     1.2622   160.7681
 2209.0000     1.2560   160.8186
 2209.5000     1.2591   160.8691
 2210.0000     1.2630   160.9197
 2210.5000     1.2633   160.9702
 2211.0000     1.2635   161.0208
 2211.5000     1.2638   161.0713
 2212.0000     1.2640   161.1218
 2212.5000     1.2643   161.1724
 2213.0000     1.2728   161.2229
 2213.5000     1.2753   161.2735
 2214.0000     1.3067   161.3240
 2214.5000     1.3693   161.3745
 2215.0000     1.4215   161.4251
 2215.5000     1.4738   161.4756
 2216.0000     1.4740   161.5262
 2216.5000     1.4223   161.5767
 2217.0000     1.3810   161.6272
 2217.5000     1.3189   161.6778
 2218.0000     1.3087   161.7283
 2218.5000     1.3090   161.7789
 2219.0000     1.3093   161.8294
 2219.5000     1.3089   161.8799
 2220.0000     1.2993   161.9305
 2220.5000     1.2991   161.9590
 2221.0000     1.2988   161.9590
 2221.5000     1.2986   161.9590
 2222.0000     1.2983   161.9590
 2222.5000     1.2981   161.9590
 2223.0000     1.2978   161.9590
 2223.5000     1.2976   161.9590
 2224.0000     1.3333   161.9590
 2224.5000     1.4055   161.9590
 2225.0000     1.4601   161.9590
 2225.5000     1.5022   161.9590
 2226.0000     1.5165   161.9590
 2226.5000     1.5193   161.9590
 2227.0000     1.5222   161.9590
 2227.5000     1.5250   161.9590
 2228.0000     1.5279   161.9590
 2228.5000     1.5308   161.9590
 2229.0000     1.5336   161.9590
 2229.5000     1.5365   161.9590
 2230.0000     1.5393   161.9590
 2230.5000     1.5422   161.9590
 2231.0000     1.5450   161.9590
 2231.5000     1.5479   161.9590
 2232.0000     1.5507   161.9590
 2232.5000     1.5536   161.9590
 2233.0000     1.5565   161.9590
 2233.5000     1.5593   161.9590
 2234.0000     1.5624   161.9590
 2234.5000     1.4582   161.9590
 2235.0000     1.3834   161.9590
 2235.5000     1.3393   161.9590
 2236.0000     1.3015   161.9590
 2236.5000     1.2991   161.9590
 2237.0000     1.2905   161.9590
 2237.5000     1.2903   161.9590
 2238.0000     1.2900   161.9590
 2238.5000     1.2898   161.9590
 2239.0000     1.2895   161.9590
