~VERSION INFORMATION
 VERS.                2.0:   CWLS LOG ASCII STANDARD - VERSION 2.0
 WRAP.                 NO:   ONE LINE PER DEPTH STEP
~WELL INFORMATION
#MNEM.UNIT      DATA TYPE    INFORMATION
#----------   ------------   ------------------------------
 STRT.F            7.5000:   START DEPTH
 STOP.F         2886.0000:   STOP DEPTH
 STEP.F            0.5000:   STEP LENGTH
 NULL.          -999.2500:   NO VALUE
 COMP. LAWRENCE/ALLISON INC:   COMPANY
 WELL.     16-1 AX #21-21:   WELL
 FLD .             TEAPOT:   FIELD
 LOC .      S21 T39N R78W:   LOCATION
 CNTY.            NATRONA:   COUNTY
 STAT.            WYOMING:   STATE
 CTRY. UNITED STATES OF AMERICA:   COUNTRY
 SRVC.      Dresser Atlas:   SERVICE COMPANY
 DATE.        05-DEC-1986:   LOGDATE
 API .       490251111900:   API NUMBER
~CURVE INFORMATION
#MNEM.UNIT       API CODE    CURVE DESCRIPTION
#----------   ------------   ------------------------------
 DEPT.F                  :   
 GRR .GAPI   07 310 01 00:   GAMMA RAY FROM RES. LOG.
 SPR .MV     07 010 01 00:   SPONTANEOUS POTENTIAL
 RFOC.OHMM   07 220 04 00:   RESISTIVITY FOCUSED LOG
 RILM.OHMM   07 120 44 00:   INDUCTION LOG MEDIUM RESISTIVITY
 RILD.OHMM   07 120 46 00:   INDUCTION LOG DEEP RESISTIVITY
 CALD.IN     45 280 60 00:   CALIPER
 DEN .G/C3   45 350 01 00:   BULK DENSITY
 CORR.G/C3   45 356 01 00:   DENSITY CORRECTION
 CNC .DEC    42 890 03 00:   NEUTRON POROSITY SANDSTONE
 PORD.DEC    45 890 12 00:   DENSITY POROSITY SANDSTONE
~PARAMETER INFORMATION
#MNEM.UNIT          VALUE    DESCRIPTION
#----------   ------------   ------------------------------
 PD  .                 GL:   PERMANENT DATUM
 EPD .F              4992:   ELEVATION PERMANENT DATUM
 LMF .                 KB:   LOG MEASURED FROM
 DAPD.F                12:   FEET ABOVE PERMANENT DATUM
 DMF .                 KB:   DRILLING MEASURED FROM
 EKB .F              5004:   KELLING BUSHING
 EGL .F              4992:   GROUND LEVEL
 DATE.            12-5-86:   RUN DATE
 RUN .                  1:   RUN NUMBER
 DD  .F              2905:   DEPTH DRILLER
 DL  .F              2890:   DEPTH LOGGER
 BLI .F              2884:   BOTTOM LOG INTERVAL
 TLI .F              2200:   TOP LOG INTERVAL
 CS  .IN            8.625:   CASING SIZE
 CBD .F               300:   CASING BOTTOM DRILLER
 CBL .F               300:   CASING BOTTOM LOGGER
 BS  .IN            7.875:   BIT SIZE
 BSD .F              2905:   BIT SIZE AT DEPTH
 DFT .        KCL POLYMER:   DRILLING FLUID TYPE
 DFD .                  9:   DRILLING FLUID DENSITY
 DFV .                 36:   DRILLING FLUID VISCOSITY
 DFPH.                9.5:   DRILLING FLUID PH
 DFL .               11.8:   DRILLING FLUID LOSS
 MSS .            MUDTANK:   MUD SAMPLE SOURCE
 RMS .OHMM            .43:   RESISTIVITY MUD SAMPLE
 MST .F                63:   MUD SAMPLE TEMPERATURE
 RMF .OHMM           .348:   RESISTIVITY MUD FILTRATE SAMPLE
 MFST.F                63:   MUD FILTRATE SAMPLE TEMPERATURE
 RMC .OHMM           .538:   RESISTIVITY MUD CAKE
 MCST.F                63:   MUD CAKE SAMPLE TEMPERATURE
 MFSS.               MEAS:   MUD FILTRATE SAMPLE SOURCE
 MCSS.               CALC:   MUD CAKE SAMPLE SOURCE
 RMB .OHMM           .233:   RESISTIVITY MUD AT BHT
 BHT .F               116:   BOTTOM HOLE TEMPERATURE
 TCS .HRS             3.5:   TIME CURCULATED STOPPED
 MRT .F               116:   MAXIMUM RECORDED TEMPERATURE
 LUN .            HL-6274:   LOGGING UNIT NUMBER
 LUL .           GILLETTE:   LOGGING UNIT LOCATION
 ENGI.             RAUTIO:   RECORDING ENGINEER
 WITN.             STRONG:   WITNESSED BY
 CLNT.            A2DTECH:   CLIENT CODE
 ORIG.       2", 5" PRINT:   ORIGIN OF DATA
 UWI .       490251111900:   UNIQUE WELL ID
 DICO. A2D Technologies, Inc.:   DIGITIZING COMPANY
~OTHER INFORMATION
~A    DEPT     GRR        SPR       RFOC       RILM       RILD       CALD        DEN       CORR        CNC       PORD   
# ...
 2687.5000   120.7125   -36.2483     5.8808     4.4037     3.5819     8.5152     2.5444     0.0645     0.2453     0.0651
 2688.0000   113.3438   -36.4622     5.7849     4.8008     4.1703     8.5152     2.5433     0.0501     0.2440     0.0659
 2688.5000   109.6992   -36.9571     5.7177     5.1105     4.6719     8.5152     2.5394     0.0371     0.2427     0.0666
 2689.0000   110.2352   -37.5352     5.8555     5.3506     4.8666     8.5152     2.5427     0.0266     0.2408     0.0657
 2689.5000   110.4041   -38.1329     6.0095     5.4827     5.0607     8.5152     2.5424     0.0257     0.2375     0.0655
 2690.0000   108.1386   -38.9032     6.1677     5.6181     5.2618     8.5152     2.5378     0.0257     0.2339     0.0694
 2690.5000   105.6606   -38.8294     6.2734     5.7568     5.4343     8.5151     2.5290     0.0269     0.2336     0.0744
 2691.0000   106.3171   -38.7122     6.1013     5.8989     5.5734     8.5150     2.5302     0.0304     0.2398     0.0738
 2691.5000   107.7445   -38.5984     6.1698     5.9979     5.7175     8.5158     2.5319     0.0312     0.2458     0.0722
 2692.0000   108.7260   -38.4862     6.2995     6.0835     5.8647     8.5343     2.5325     0.0155     0.2454     0.0729
 2692.5000   104.0580   -38.3722     6.5327     6.1703     6.0010     8.5533     2.5291    -0.0006     0.2442     0.0744
 2693.0000   103.2405   -38.3710     6.7746     6.2583     6.0682     8.5493     2.5293    -0.0112     0.2428     0.0734
 2693.5000   104.5391   -38.4350     7.0782     6.3476     6.1361     8.5419     2.5338    -0.0115     0.2415     0.0693
 2694.0000   107.7894   -38.5004     6.8829     6.4381     6.2048     8.5352     2.5445     0.0253     0.2391     0.0649
 2694.5000   110.7936   -38.5659     6.5679     6.5394     6.2734     8.5353     2.5493     0.0615     0.2342     0.0615
 2695.0000   110.6220   -38.6312     6.3306     6.6785     6.4127     8.5353     2.5439     0.0512     0.2288     0.0659
 2695.5000   110.0095   -38.6963     6.4176     6.8203     6.5534     8.5353     2.5377     0.0313     0.2200     0.0692
 2696.0000   109.6703   -38.7326     6.5575     6.9664     6.6972     8.5353     2.5334     0.0197     0.2175     0.0728
 2696.5000   108.8453   -38.7324     6.6943     7.1334     6.8442     8.5353     2.5299     0.0232     0.2236     0.0736
 2697.0000   103.8178   -38.7324     7.2174     7.4133     6.9943     8.5353     2.5289     0.0364     0.2245     0.0744
 2697.5000    99.0494   -38.7324     7.7599     7.1883     7.0774     8.5353     2.5290     0.0228     0.2230     0.0740
 2698.0000    95.4611   -38.7322     8.1398     6.9333     6.7087     8.5353     2.5317     0.0066     0.2248     0.0689
 2698.5000    96.4684   -38.7308     8.0290     6.6873     6.4658     8.5353     2.5434    -0.0027     0.2343     0.0638
 2699.0000    99.1722   -38.7849     7.4352     6.4501     6.2472     8.5353     2.5500     0.0106     0.2393     0.0607
 2699.5000   101.8694   -38.8447     6.6827     6.2601     6.0037     8.5353     2.5508     0.0423     0.2359     0.0607
 2700.0000   104.5777   -38.9046     6.1266     6.0106     5.6641     8.5353     2.5436     0.0623     0.2307     0.0655
 2700.5000   107.3897   -38.9644     5.7329     5.5402     5.3468     8.5353     2.5336     0.0704     0.2292     0.0711
 2701.0000   108.1279   -39.0244     5.4082     5.1066     4.8363     8.5353     2.5275     0.0671     0.2409     0.0772
 2701.5000   108.2523   -39.0841     5.2598     4.7091     4.3009     8.5353     2.5222     0.0525     0.2465     0.0791
 2702.0000   108.3709   -39.1280     5.2903     4.2009     3.8247     8.5353     2.5179     0.0310     0.2498     0.0812
 2702.5000   109.7424   -39.0668     5.3319     3.6499     3.4013     8.5353     2.5177     0.0115     0.2657     0.0813
 2703.0000   116.1204   -39.0082     5.3583     3.1704     3.0247     8.5353     2.5175     0.0231     0.2901     0.0808
 2703.5000   134.9041   -38.9629     4.2976     2.7540     2.6899     8.5353     2.5130     0.0427     0.3273     0.0865
 2704.0000   159.7530   -38.2218     3.3887     2.6233     2.5387     8.5353     2.4936     0.0569     0.3775     0.1051
 2704.5000   184.6785   -37.3164     2.6721     2.6857     2.4357     8.5353     2.4198     0.0500     0.3565     0.1312
 2705.0000   195.7260   -36.4118     2.3254     2.8944     2.4523     8.5353     2.3812     0.0522     0.3068     0.1704
 2705.5000   189.2587   -35.6999     2.8610     3.2352     2.5992     8.5353     2.3681     0.0552     0.2569     0.1708
 2706.0000   158.1117   -35.8673     4.3491     3.6692     2.8416     8.5353     2.4062     0.0491     0.2347     0.1489
 2706.5000   126.9265   -36.2272     6.6209     4.3281     3.2002     8.5353     2.4744     0.0284     0.2162     0.1005
 2707.0000   105.4394   -36.5830     8.3486     5.0066     3.6295     8.5354     2.5349     0.0274     0.2087     0.0704
 2707.5000    93.9032   -36.9413     8.4434     5.4903     4.5344     8.5356     2.5408     0.0298     0.2062     0.0662
 2708.0000    88.3521   -37.2220     7.3867     5.9954     5.4352     8.5284     2.5324     0.0193     0.2105     0.0730
 2708.5000    88.5944   -37.4261     6.7356     6.2734     6.1103     8.5207     2.5213     0.0053     0.2150     0.0788
 2709.0000    90.4975   -37.6286     6.2924     6.1812     5.9922     8.5191     2.5178     0.0015     0.2165     0.0810
 2709.5000    93.6874   -37.8336     6.1525     6.0047     5.8719     8.5312     2.5161     0.0161     0.2166     0.0820
 2710.0000    96.8640   -37.8269     6.0192     5.8325     5.7390     8.5562     2.5144     0.0239     0.2167     0.0830
 2710.5000   100.1161   -37.6439     5.9124     5.6652     5.5127     8.5503     2.5124     0.0161     0.2238     0.0843
 2711.0000   101.3797   -37.4584     5.8510     5.4684     5.2957     8.5461     2.5089     0.0069     0.2346     0.0862
 2711.5000   102.1533   -37.2731     5.7405     5.2173     5.0875     8.5416     2.5066     0.0107     0.2395     0.0881
 2712.0000   102.8979   -37.1182     5.5954     4.9795     4.8837     8.5372     2.5064     0.0222     0.2379     0.0877
 2712.5000   104.5556   -37.1180     5.4319     4.6421     4.4510     8.5289     2.5133     0.0388     0.2422     0.0830
 2713.0000   106.7367   -37.2859     5.2404     4.1810     4.0568     8.5182     2.5180     0.0479     0.2533     0.0805
 2713.5000   110.8920   -37.4893     5.0556     3.7685     3.4472     8.5074     2.5154     0.0320     0.2688     0.0815
 2714.0000   117.7126   -37.6946     4.8836     3.1999     2.9348     8.4963     2.5005     0.0159     0.3010     0.0914
 2714.5000   131.1372   -37.9037     4.3601     2.6864     2.5442     8.5063     2.4768     0.0031     0.3140     0.1038
 2715.0000   148.9105   -37.7693     3.5932     2.4021     2.3318     8.5200     2.4513     0.0081     0.3266     0.1209
 2715.5000   168.6002   -37.5965     2.9177     2.3039     2.2615     8.5337     2.4140     0.0235     0.3280     0.1398
 2716.0000   185.4142   -36.7466     2.2200     2.4894     2.3299     8.5354     2.3708     0.0388     0.3060     0.1664
 2716.5000   188.4880   -35.6498     2.2407     2.7357     2.4437     8.5354     2.3564     0.0678     0.2855     0.1812
 2717.0000   163.8153   -34.7488     2.8517     3.0519     2.5913     8.5354     2.3803     0.0625     0.2661     0.1597
 2717.5000   139.6459   -35.0241     3.9834     3.4804     2.7479     8.5353     2.4330     0.0226     0.2492     0.1241
 2718.0000   114.3890   -35.6578     5.7534     3.9999     3.1244     8.5353     2.4882    -0.0011     0.2328     0.0972
 2718.5000   104.0937   -36.2974     6.8196     4.6700     3.7861     8.5353     2.5166    -0.0041     0.2363     0.0807
 2719.0000   103.7928   -36.7256     6.4941     5.2491     4.6129     8.5353     2.5261    -0.0007     0.2421     0.0751
 2719.5000   104.5695   -37.1523     6.3474     5.4826     4.9664     8.5353     2.5335     0.0022     0.2406     0.0706
 2720.0000   106.4662   -37.5804     6.2706     5.6923     5.4474     8.5353     2.5365     0.0017     0.2419     0.0684
 2720.5000   111.3394   -37.9805     6.1948     5.8602     5.6649     8.5353     2.5349     0.0001     0.2493     0.0705
