~VERSION INFORMATION
 VERS.                2.0:   CWLS LOG ASCII STANDARD - VERSION 2.0
 WRAP.                 NO:   ONE LINE PER DEPTH STEP
~WELL INFORMATION
#MNEM.UNIT      DATA TYPE    INFORMATION
#----------   ------------   ------------------------------
 STRT.M         1049.9000:   START DEPTH
 STOP.M         2123.5000:   STOP DEPTH
 STEP.M            0.1000:   STEP LENGTH
 NULL.          -999.2500:   NO VALUE
 COMP. BROWN JOHN E&C INC:   COMPANY
 WELL. NAVAL PETROLEUM RESERVE 3 STX- #34-3:   WELL
 FLD .            WILDCAT:   FIELD
 LOC .       S3 T38N R78W:   LOCATION
 CNTY.            NATRONA:   COUNTY
 STAT.            WYOMING:   STATE
 CTRY. UNITED STATES OF AMERICA:   COUNTRY
 SRVC.            Unknown:   SERVICE COMPANY
 DATE.        04-SEP-1991:   LOGDATE
 API .       490251090400:   API NUMBER
~CURVE INFORMATION
#MNEM.UNIT       API CODE    CURVE DESCRIPTION
#----------   ------------   ------------------------------
 DEPT.M                  :   
 ROP .MIN/FT 91 810 01 00:   RAT OF DRILLING PENETRATION
 TGAS.UNITS  91 830 01 00:   TOTAL GAS FROM HOTWIRE
~PARAMETER INFORMATION
#MNEM.UNIT          VALUE    DESCRIPTION
#----------   ------------   ------------------------------
 EKB .F              5189:   KELLING BUSHING
 EGL .F              5179:   GROUND LEVEL
 DATE.             9-4-91:   RUN DATE
 DD  .F              2123:   DEPTH DRILLER
 CS  .IN            9.625:   CASING SIZE
 BS  .IN             8.75:   BIT SIZE
 BSD .F              2123:   BIT SIZE AT DEPTH
 ENGI.              TOWER:   RECORDING ENGINEER
 WITN.               HUSK:   WITNESSED BY
 CLNT.            A2DTECH:   CLIENT CODE
 ORIG.           5" PRINT:   ORIGIN OF DATA
 UWI .       490251090400:   UNIQUE WELL ID
 DICO. A2D Technologies, Inc.:   DIGITIZING COMPANY
~OTHER INFORMATION
~A  DEPT       ROP         TGAS 
# ...
 1535.9000     0.5035     0.4437
 1536.0000     0.4920     0.4470
 1536.1000     0.4805     0.4498
 1536.2000     0.4689     0.4528
 1536.3000     0.4630     0.4559
 1536.4000     0.4606     0.4590
 1536.5000     0.4582     0.4620
 1536.6000     0.4558     0.4657
 1536.7000     0.4532     0.4682
 1536.8000     0.4636     0.5799
 1536.9000     0.4749     0.6933
 1537.0000     0.4862     0.6964
 1537.1000     0.4975     0.6994
 1537.2000     0.5093     0.7025
 1537.3000     0.5229     0.7055
 1537.4000     0.5365     0.7086
 1537.5000     0.5501     0.7120
 1537.6000     0.5636     0.5530
 1537.7000     0.5784     0.4988
 1537.8000     0.5943     0.5019
 1537.9000     0.6102     0.5050
 1538.0000     0.6261     0.5080
 1538.1000     0.6444     0.5111
 1538.2000     0.6597     0.5142
 1538.3000     0.6779     0.5172
 1538.4000     0.6960     0.5203
 1538.5000     0.7068     0.5234
 1538.6000     0.7021     0.5264
 1538.7000     0.6974     0.5295
 1538.8000     0.6927     0.5328
 1538.9000     0.6881     0.5356
 1539.0000     0.6805     0.5387
 1539.1000     0.6713     0.5418
 1539.2000     0.6620     0.5448
 1539.3000     0.6528     0.5479
 1539.4000     0.6430     0.5514
 1539.5000     0.6343     0.5540
 1539.6000     0.6251     0.5571
 1539.7000     0.6159     0.6151
 1539.8000     0.6066     0.7531
 1539.9000     0.5974     0.7853
 1540.0000     0.5881     0.7883
 1540.1000     0.5789     0.7914
 1540.2000     0.5697     0.7945
 1540.3000     0.5604     0.7978
 1540.4000     0.5512     0.8006
 1540.5000     0.5420     0.8037
 1540.6000     0.5327     0.8067
 1540.7000     0.5235     0.8098
 1540.8000     0.5130     0.8128
 1540.9000     0.5130     0.8159
 1541.0000     0.5128     0.8190
 1541.1000     0.5127     0.8226
 1541.2000     0.5126     0.8251
 1541.3000     0.5125     0.8282
 1541.4000     0.5142     0.8313
 1541.5000     0.5187     0.8343
 1541.6000     0.5231     0.8374
 1541.7000     0.5276     0.8404
 1541.8000     0.5321     0.7860
 1541.9000     0.5349     0.6273
 1542.0000     0.5371     0.6307
 1542.1000     0.5393     0.6337
 1542.2000     0.5414     0.6368
 1542.3000     0.5436     0.6399
 1542.4000     0.5458     0.6434
 1542.5000     0.5480     0.6460
 1542.6000     0.5501     0.6491
 1542.7000     0.5523     0.6521
 1542.8000     0.5537     0.6552
 1542.9000     0.5536     0.6584
 1543.0000     0.5535     0.6613
 1543.1000     0.5534     0.6644
 1543.2000     0.5486     0.6674
 1543.3000     0.5371     0.6705
 1543.4000     0.5256     0.6736
 1543.5000     0.5140     0.6770
 1543.6000     0.5025     0.6797
 1543.7000     0.4927     0.6828
 1543.8000     0.4834     0.6858
 1543.9000     0.4742     0.6889
 1544.0000     0.4650     0.6920
 1544.1000     0.4558     0.6950
 1544.2000     0.4488     0.6981
 1544.3000     0.4419     0.7012
 1544.4000     0.4349     0.7042
 1544.5000     0.4280     0.7073
 1544.6000     0.4233     0.7104
 1544.7000     0.4232     0.7134
 1544.8000     0.4231     0.7168
 1544.9000     0.4230     0.7196
 1545.0000     0.4229     0.7230
 1545.1000     0.4228     0.7257
 1545.2000     0.4227     0.7288
 1545.3000     0.4226     0.7318
 1545.4000     0.4225     0.7349
 1545.5000     0.4224     0.7380
 1545.6000     0.4223     0.7410
 1545.7000     0.4222     0.8142
 1545.8000     0.4221     0.9661
 1545.9000     0.4219     0.9692
 1546.0000     0.4218     0.9723
 1546.1000     0.4217     0.9755
 1546.2000     0.4216     0.9784
 1546.3000     0.4215     0.9815
 1546.4000     0.4214     0.9845
 1546.5000     0.4213     0.9876
 1546.6000     0.4212     0.9907
 1546.7000     0.4211     0.9942
 1546.8000     0.4210     0.9968
 1546.9000     0.4209     0.9999
 1547.0000     0.4329     1.0029
 1547.1000     0.4465     1.0060
 1547.2000     0.4600     1.0091
 1547.3000     0.4736     1.0121
 1547.4000     0.4863     1.0152
 1547.5000     0.4954     1.0182
 1547.6000     0.5044     1.0809
 1547.7000     0.5134     1.2434
 1547.8000     0.5224     1.2467
 1547.9000     0.5280     1.2495
 1548.0000     0.5302     1.2526
 1548.1000     0.5324     1.2556
 1548.2000     0.5345     1.2587
 1548.3000     0.5371     1.2618
 1548.4000     0.5370     1.2654
 1548.5000     0.5369     1.2679
 1548.6000     0.5368     1.2709
 1548.7000     0.5367     1.2740
 1548.8000     0.5366     1.2771
 1548.9000     0.5365     1.2803
 1549.0000     0.5364     1.2832
 1549.1000     0.5363     1.2863
 1549.2000     0.5362     1.2893
 1549.3000     0.5361     1.2924
 1549.4000     0.5360     1.2955
 1549.5000     0.5359     1.2990
 1549.6000     0.5358     1.3016
 1549.7000     0.5357     1.3047
 1549.8000     0.5356     1.3077
 1549.9000     0.5355     1.3108
 1550.0000     0.5355     1.3139
 1550.1000     0.5354     1.3325
 1550.2000     0.5354     1.3511
 1550.3000     0.5353     1.3697
 1550.4000     0.5353     1.3884
 1550.5000     0.5352     1.4070
 1550.6000     0.5352     1.4256
 1550.7000     0.5351     1.4443
 1550.8000     0.5351     1.4629
 1550.9000     0.5350     1.4815
 1551.0000     0.5350     1.5001
 1551.1000     0.5349     1.5188
 1551.2000     0.5349     1.5374
 1551.3000     0.5348     1.5560
 1551.4000     0.5348     1.5746
 1551.5000     0.5347     1.5933
 1551.6000     0.5347     1.6119
 1551.7000     0.5346     1.6305
 1551.8000     0.5346     1.6491
 1551.9000     0.5354     1.6678
 1552.0000     0.5464     1.6864
 1552.1000     0.5575     1.7050
 1552.2000     0.5685     1.7237
 1552.3000     0.5795     1.7423
 1552.4000     0.5906     1.7609
 1552.5000     0.6016     1.7795
 1552.6000     0.6127     1.7982
 1552.7000     0.6237     1.8168
 1552.8000     0.6347     1.8354
 1552.9000     0.6449     1.8540
 1553.0000     0.6537     1.8727
 1553.1000     0.6625     1.8913
 1553.2000     0.6713     1.9099
 1553.3000     0.6801     1.9285
 1553.4000     0.6825     1.9472
 1553.5000     0.6802     1.9658
 1553.6000     0.6780     1.9844
 1553.7000     0.6757     2.0030
 1553.8000     0.6734     2.0217
 1553.9000     0.6595     2.0403
 1554.0000     0.6417     2.0589
 1554.1000     0.6239     2.0776
 1554.2000     0.6061     2.0962
 1554.3000     0.5870     2.1148
 1554.4000     0.5767     2.1334
 1554.5000     0.5656     2.1521
 1554.6000     0.5545     2.1707
 1554.7000     0.5434     2.1893
 1554.8000     0.5325     2.2079
 1554.9000     0.5235     2.2266
 1555.0000     0.5146     2.2452
 1555.1000     0.5057     2.2638
 1555.2000     0.4968     2.2824
 1555.3000     0.4885     2.3011
 1555.4000     0.4818     2.3197
 1555.5000     0.4751     2.3383
 1555.6000     0.4684     2.3570
 1555.7000     0.4617     2.3756
 1555.8000     0.4569     2.3942
 1555.9000     0.4547     2.4128
 1556.0000     0.4524     2.4315
 1556.1000     0.4502     2.4501
 1556.2000     0.4479     2.4687
 1556.3000     0.4470     2.4873
 1556.4000     0.4469     2.5060
 1556.5000     0.4469     2.5246
 1556.6000     0.4469     2.5432
 1556.7000     0.4468     2.4858
 1556.8000     0.4451     2.3383
 1556.9000     0.4428     2.3410
 1557.0000     0.4405     2.3431
 1557.1000     0.4383     2.3453
 1557.2000     0.4359     2.3474
 1557.3000     0.4379     2.3496
 1557.4000     0.4401     2.3380
 1557.5000     0.4423     2.1353
 1557.6000     0.4444     2.1372
 1557.7000     0.4464     2.1394
 1557.8000     0.4463     2.1416
 1557.9000     0.4463     2.1438
 1558.0000     0.4463     2.1460
 1558.1000     0.4462     2.1482
 1558.2000     0.4468     2.0536
 1558.3000     0.4490     1.9336
 1558.4000     0.4511     1.9358
 1558.5000     0.4533     1.9380
 1558.6000     0.4555     1.9404
 1558.7000     0.4606     1.9423
 1558.8000     0.4694     1.9445
 1558.9000     0.4783     1.9467
 1559.0000     0.4871     1.9489
 1559.1000     0.4959     1.9511
 1559.2000     0.5061     1.9533
 1559.3000     0.5171     1.9555
 1559.4000     0.5282     1.9577
 1559.5000     0.5392     1.9599
 1559.6000     0.5502     1.9620
 1559.7000     0.5543     1.9644
 1559.8000     0.5565     1.9664
 1559.9000     0.5587     1.9686
 1560.0000     0.5608     1.9708
 1560.1000     0.5631     1.9733
