~VERSION INFORMATION
 VERS.                2.0:   CWLS LOG ASCII STANDARD - VERSION 2.0
 WRAP.                 NO:   ONE LINE PER DEPTH STEP
~WELL INFORMATION
#MNEM.UNIT      DATA TYPE    INFORMATION
#----------   ------------   ------------------------------
 STRT.F           46.0000:   START DEPTH
 STOP.F          670.0000:   STOP DEPTH
 STEP.F            0.5000:   STEP LENGTH
 NULL.          -999.2500:   NO VALUE
 COMP. FENIX & SCISSON INC:   COMPANY
 WELL. TEAPOT #27 62SX 11WI-11:   WELL
 FLD .             TEAPOT:   FIELD
 LOC .      S11 T38N R78W:   LOCATION
 CNTY.            NATRONA:   COUNTY
 STAT.            WYOMING:   STATE
 CTRY. UNITED STATES OF AMERICA:   COUNTRY
 SRVC.      Dresser Atlas:   SERVICE COMPANY
 DATE.        27-JUL-1980:   LOGDATE
 API .       490251084000:   API NUMBER
~CURVE INFORMATION
#MNEM.UNIT       API CODE    CURVE DESCRIPTION
#----------   ------------   ------------------------------
 DEPT.F                  :   
 GRD .GAPI   45 310 01 00:   GAMMA RAY FROM DENSITY LOG
 RHOB.G/C3   45 350 01 00:   BULK DENSITY
 CORR.G/C3   45 356 01 00:   DENSITY CORRECTION
 CALD.IN     45 280 60 00:   CALIPER
 DPOR.DEC    45 890 12 00:   DENSITY POROSITY SANDSTONE
 SPR .MV     07 010 01 00:   SPONTANEOUS POTENTIAL
 SFL .OHMM   07 220 01 00:   SHALLOW FOCUSED LOG RESISTIVITY
 ILD .OHMM   07 120 46 00:   INDUCTION LOG DEEP
 ILM .OHMM   07 120 44 00:   INDUCTION LOG MEDIUM
~PARAMETER INFORMATION
#MNEM.UNIT          VALUE    DESCRIPTION
#----------   ------------   ------------------------------
 PD  .                 GL:   PERMANENT DATUM
 EPD .F              5186:   ELEVATION PERMANENT DATUM
 LMF .                 KB:   LOG MEASURED FROM
 DAPD.F                 5:   FEET ABOVE PERMANENT DATUM
 DMF .                 KB:   DRILLING MEASURED FROM
 EKB .F              5191:   KELLING BUSHING
 EGL .F              5186:   GROUND LEVEL
 DATE.            7-27-80:   RUN DATE
 RUN .                  1:   RUN NUMBER
 DD  .F               660:   DEPTH DRILLER
 DL  .F               663:   DEPTH LOGGER
 BLI .F               661:   BOTTOM LOG INTERVAL
 TLI .F                46:   TOP LOG INTERVAL
 BS  .IN            7.875:   BIT SIZE
 BSD .F               660:   BIT SIZE AT DEPTH
 DFT .           CHEM GEL:   DRILLING FLUID TYPE
 DFD .                9.5:   DRILLING FLUID DENSITY
 DFV .                 50:   DRILLING FLUID VISCOSITY
 DFPH.                 11:   DRILLING FLUID PH
 DFL .                  6:   DRILLING FLUID LOSS
 MSS .           FLOWLINE:   MUD SAMPLE SOURCE
 RMS .OHMM            .08:   RESISTIVITY MUD SAMPLE
 MST .F                70:   MUD SAMPLE TEMPERATURE
 RMC .OHMM            .08:   RESISTIVITY MUD CAKE
 MCST.F                70:   MUD CAKE SAMPLE TEMPERATURE
 MFSS.               MEAS:   MUD FILTRATE SAMPLE SOURCE
 MCSS.               MEAS:   MUD CAKE SAMPLE SOURCE
 RMB .OHMM            .06:   RESISTIVITY MUD AT BHT
 BHT .F                90:   BOTTOM HOLE TEMPERATURE
 TCS .HRS               5:   TIME CURCULATED STOPPED
 MRT .F                90:   MAXIMUM RECORDED TEMPERATURE
 LUN .               6145:   LOGGING UNIT NUMBER
 LUL .              GLTTE:   LOGGING UNIT LOCATION
 ENGI.              HENRY:   RECORDING ENGINEER
 WITN.              AMEND:   WITNESSED BY
 CLNT.            A2DTECH:   CLIENT CODE
 ORIG.       2", 5" PRINT:   ORIGIN OF DATA
 UWI .       490251084000:   UNIQUE WELL ID
 DICO. A2D Technologies, Inc.:   DIGITIZING COMPANY
~OTHER INFORMATION
~A   DEPT      GRD       RHOB       CORR       CALD       DPOR        SPR          SFL        ILD      ILM   
# ...
  520.5000    80.3931     2.3806     0.0053     8.4979     0.1800   -54.5126    20.2961    14.6273    15.5701
  521.0000    80.2966     2.3990     0.0135     8.5013     0.1695   -54.2773    20.1849    14.6272    15.3128
  521.5000    80.2111     2.4180     0.0172     8.5049     0.1576   -54.0420    19.9501    14.6275    14.7626
  522.0000    81.2315     2.4317     0.0165     8.5164     0.1485   -53.8073    19.7365    14.6275    15.0660
  522.5000    82.6135     2.4365     0.0159     8.5292     0.1441   -53.6058    19.6072    14.5382    15.6524
  523.0000    82.2634     2.4220     0.0155     8.5412     0.1541   -53.5413    19.5534    14.4420    16.0634
  523.5000    81.4121     2.4100     0.0156     8.5819     0.1593   -53.4745    19.5000    14.3590    16.3349
  524.0000    81.1963     2.3981     0.0088     8.5496     0.1661   -53.4074    19.4557    14.4633    15.7299
  524.5000    81.3393     2.3891     0.0046     8.5262     0.1734   -53.3403    19.5086    14.5989    15.2289
  525.0000    81.6037     2.3869     0.0105     8.5826     0.1743   -53.2731    19.5542    14.7626    14.7626
  525.5000    82.1749     2.3866     0.0165     8.5878     0.1750   -53.2062    19.5998    14.6242    14.4934
  526.0000    83.0848     2.3910     0.0213     8.5910     0.1723   -53.1395    19.6829    14.3986    14.7319
  526.5000    83.5200     2.3980     0.0272     8.5943     0.1687   -53.0705    19.8959    14.1762    14.9665
  527.0000    82.8544     2.4050     0.0330     8.5977     0.1649   -52.8743    20.1113    13.9576    15.1225
  527.5000    82.2760     2.4089     0.0391     8.6010     0.1622   -52.4293    20.1849    13.7158    15.1757
  528.0000    83.5296     2.4093     0.0450     8.6041     0.1610   -51.9894    19.9690    13.8679    14.7774
  528.5000    84.1910     2.4097     0.0444     8.6153     0.1624   -51.6185    19.8224    14.0455    14.3531
  529.0000    84.1982     2.4052     0.0429     8.6272     0.1638   -51.5530    19.6337    14.0988    14.0892
  529.5000    83.8432     2.3971     0.0410     8.6392     0.1720   -51.4831    19.6361    14.0991    13.9666
  530.0000    82.7348     2.3823     0.0363     8.6326     0.1814   -51.4927    19.6352    14.0989    13.8417
  530.5000    81.9814     2.3754     0.0316     8.6094     0.1814   -51.6081    19.6355    14.0988    13.9433
  531.0000    82.6362     2.3800     0.0269     8.6112     0.1794   -51.5672    19.6353    14.0988    14.0522
  531.5000    84.0177     2.3855     0.0273     8.6196     0.1761   -51.4630    19.5030    14.0988    14.0988
  532.0000    82.7963     2.3907     0.0294     8.6319     0.1735   -51.3551    19.1562    14.0990    13.8742
  532.5000    81.5571     2.3901     0.0316     8.6503     0.1732   -51.2512    18.8156    14.0981    13.5501
  533.0000    81.4893     2.3908     0.0341     8.6660     0.1734   -51.4009    18.7525    14.0997    13.1692
  533.5000    81.4027     2.3965     0.0402     8.6709     0.1693   -51.5701    18.8629    14.0177    12.8594
  534.0000    81.7525     2.4005     0.0428     8.6759     0.1675   -51.7369    19.0990    13.8487    12.9311
  534.5000    81.3361     2.3966     0.0388     8.6810     0.1691   -51.8268    18.9002    13.3726    12.9809
  535.0000    80.7925     2.3973     0.0347     8.6837     0.1694   -51.7905    18.5911    12.9128    12.5683
  535.5000    80.2496     2.4105     0.0366     8.6793     0.1634   -51.7561    18.2908    12.7935    12.2812
  536.0000    80.5836     2.4217     0.0400     8.6750     0.1534   -51.7213    17.9909    12.7191    12.0901
  536.5000    82.0992     2.4260     0.0433     8.6708     0.1515   -51.6863    17.7626    12.6452    11.9178
  537.0000    82.6697     2.4186     0.0454     8.6666     0.1568   -51.6525    17.5552    12.6250    11.8374
  537.5000    82.2362     2.4119     0.0430     8.6589     0.1608   -51.5828    17.3517    12.6250    11.9862
  538.0000    82.9596     2.4075     0.0406     8.6482     0.1626   -51.4993    17.1505    12.6250    12.1470
  538.5000    85.1426     2.4033     0.0412     8.6376     0.1650   -51.3365    17.1040    12.6661    12.3014
  539.0000    85.7042     2.4010     0.0439     8.6266     0.1661   -50.9982    17.7543    12.7199    12.3947
  539.5000    85.6256     2.4083     0.0466     8.6181     0.1622   -50.6044    18.2452    12.8084    12.2522
  540.0000    86.0566     2.3998     0.0437     8.6011     0.1682   -50.1622    18.7503    12.9210    12.1101
  540.5000    88.6052     2.3787     0.0375     8.5842     0.1769   -49.7246    18.3990    13.0345    11.9447
  541.0000    86.3748     2.3727     0.0316     8.5667     0.1839   -49.4576    18.0589    13.0983    12.2054
  541.5000    84.7175     2.3853     0.0349     8.5374     0.1742   -49.4606    17.7452    12.9783    12.6201
  542.0000    84.0689     2.3977     0.0388     8.5055     0.1667   -49.4600    17.6202    12.8051    12.2440
  542.5000    85.6117     2.4084     0.0418     8.5096     0.1618   -49.4604    17.5032    12.6075    12.0375
  543.0000    87.1275     2.4040     0.0384     8.5132     0.1660   -49.4604    17.3774    12.3947    11.8911
  543.5000    85.6701     2.4082     0.0348     8.5168     0.1608   -49.4604    17.2307    12.3078    11.7464
  544.0000    84.1464     2.4135     0.0310     8.5205     0.1594   -49.4604    17.0851    12.2125    11.6162
  544.5000    85.4790     2.4108     0.0266     8.5246     0.1606   -49.4604    16.9408    12.0963    11.5746
  545.0000    87.1594     2.4127     0.0237     8.5067     0.1578   -49.4604    16.7978    11.8866    11.5331
  545.5000    88.6037     2.4218     0.0211     8.4825     0.1534   -49.4606    16.6559    11.6809    11.4794
  546.0000    87.9632     2.4181     0.0186     8.4582     0.1564   -49.4602    16.5152    11.5136    11.4166
  546.5000    87.4118     2.4085     0.0159     8.4339     0.1617   -49.4623    16.4353    11.5139    11.3541
  547.0000    88.4575     2.4012     0.0180     8.4096     0.1658   -49.2715    16.3716    11.5152    11.2016
  547.5000    88.3800     2.4077     0.0209     8.3886     0.1647   -48.9588    16.2429    11.5152    11.3741
  548.0000    87.6586     2.4293     0.0286     8.3684     0.1512   -48.6444    16.0278    11.4873    11.5865
  548.5000    88.0839     2.4490     0.0371     8.3481     0.1377   -48.4309    15.8156    11.4538    11.8806
  549.0000    88.1119     2.4682     0.0406     8.3277     0.1261   -48.3479    15.6062    11.4199    12.1713
  549.5000    87.0330     2.4803     0.0361     8.3344     0.1193   -48.2639    15.4576    11.3647    11.9621
  550.0000    85.9685     2.4617     0.0287     8.3474     0.1323   -48.1803    15.5558    11.3047    11.5625
  550.5000    84.2453     2.4434     0.0217     8.3607     0.1425   -48.0965    15.6469    11.5231    11.0444
  551.0000    82.3202     2.4248     0.0158     8.3740     0.1512   -47.9124    15.7461    11.8374    10.7913
  551.5000    80.5177     2.4176     0.0097     8.3856     0.1567   -47.6767    15.7437    11.6857    10.8923
  552.0000    80.4230     2.4213     0.0076     8.3897     0.1538   -47.1619    15.7447    11.4685    10.9974
  552.5000    81.5861     2.4318     0.0055     8.4025     0.1490   -46.6237    15.7447    11.1834    10.8599
  553.0000    82.9060     2.4350     0.0036     8.4151     0.1461   -46.3123    15.7447    10.9055    10.6841
  553.5000    84.5306     2.4331     0.0060     8.4260     0.1475   -46.3889    15.7448    10.7824    10.5105
  554.0000    85.8122     2.4296     0.0086     8.4293     0.1497   -46.4616    15.7455    10.7584    10.3103
  554.5000    85.4090     2.4357     0.0111     8.4326     0.1455   -46.4152    15.7447    10.7345    10.3116
  555.0000    84.5127     2.4442     0.0154     8.4360     0.1394   -46.3111    15.5128    10.7106    10.3117
  555.5000    84.1256     2.4627     0.0212     8.4394     0.1317   -46.0277    15.2433    10.6829    10.3794
  556.0000    85.5847     2.4804     0.0269     8.4427     0.1183   -45.7272    14.9784    10.6507    10.4065
  556.5000    84.0639     2.4939     0.0276     8.4446     0.1119   -45.6927    14.7610    10.6186    10.3470
