~VERSION INFORMATION
 VERS.                2.0:   CWLS LOG ASCII STANDARD - VERSION 2.0
 WRAP.                 NO:   ONE LINE PER DEPTH STEP
~WELL INFORMATION
#MNEM.UNIT      DATA TYPE    INFORMATION
#----------   ------------   ------------------------------
 STRT.F           15.0000:   START DEPTH
 STOP.F          531.0000:   STOP DEPTH
 STEP.F            0.1000:   STEP LENGTH
 NULL.          -999.2500:   NO VALUE
 COMP. LAWRENCE/ALLISON INC:   COMPANY
 WELL.   NPR 3 #42-61SX10:   WELL
 FLD .          N.P.R. #3:   FIELD
 LOC .      S10 T38N R78W:   LOCATION
 CNTY.            NATRONA:   COUNTY
 STAT.            WYOMING:   STATE
 CTRY. UNITED STATES OF AMERICA:   COUNTRY
 SRVC.           Gearhart:   SERVICE COMPANY
 DATE.        06-JUL-1986:   LOGDATE
 API .       490251109500:   API NUMBER
~CURVE INFORMATION
#MNEM.UNIT       API CODE    CURVE DESCRIPTION
#----------   ------------   ------------------------------
 DEPT.F                  :   
 GRR .GAPI   07 310 01 00:   GAMMA RAY
 RILD.OHMM   07 120 46 00:   INDUCTION LOG DEEP
 RILM.OHMM   07 120 44 00:   INDUCTION LOG MEDIUM
~PARAMETER INFORMATION
#MNEM.UNIT          VALUE    DESCRIPTION
#----------   ------------   ------------------------------
 PD  .                 GL:   PERMANENT DATUM
 EPD .F              5196:   ELEVATION PERMANENT DATUM
 LMF .                 KB:   LOG MEASURED FROM
 DAPD.F                 5:   FEET ABOVE PERMANENT DATUM
 DMF .                 KB:   DRILLING MEASURED FROM
 EKB .F              5201:   KELLING BUSHING
 EGL .F              5196:   GROUND LEVEL
 DATE.        06-JUL-1986:   RUN DATE
 RUN .                  1:   RUN NUMBER
 DD  .F               548:   DEPTH DRILLER
 DL  .F               541:   DEPTH LOGGER
 BLI .F               531:   BOTTOM LOG INTERVAL
 TLI .F                15:   TOP LOG INTERVAL
 CS  .IN            8.625:   CASING SIZE
 CBD .F                47:   CASING BOTTOM DRILLER
 CBL .F                47:   CASING BOTTOM LOGGER
 BS  .IN            7.875:   BIT SIZE
 BSD .F               548:   BIT SIZE AT DEPTH
 DFT .                AIR:   DRILLING FLUID TYPE
 BHT .F                82:   BOTTOM HOLE TEMPERATURE
 TCS .HRS            2000:   TIME CURCULATED STOPPED
 TLAB.HRS            2130:   TIME LOGGER AT BOTTOM
 MRT .F                82:   MAXIMUM RECORDED TEMPERATURE
 LUN .               7609:   LOGGING UNIT NUMBER
 LUL .           GILLETTE:   LOGGING UNIT LOCATION
 ENGI.              BAUER:   RECORDING ENGINEER
 WITN.           JENNINGS:   WITNESSED BY
 CLNT.            A2DTECH:   CLIENT CODE
 ORIG.           5" PRINT:   ORIGIN OF DATA
 UWI .       490251109500:   UNIQUE WELL ID
 DICO. A2D Technologies, Inc.:   DIGITIZING COMPANY
~OTHER INFORMATION
~A   DEPT      GRR       RILD       RILM   
# ...
  470.0000   109.8800     7.9598     7.9287
  470.1000   109.8792     7.9600     7.8828
  470.2000   109.8218     7.9286     7.8516
  470.3000   109.5721     7.9048     7.8466
  470.4000   109.5711     7.8923     7.7971
  470.5000   109.3639     7.8499     7.7560
  470.6000   109.2641     7.8503     7.7111
  470.7000   109.2633     7.8505     7.6890
  470.8000   109.2624     7.8507     7.6758
  470.9000   109.2615     7.8510     7.6313
  471.0000   109.2606     7.8634     7.5825
  471.1000   109.2598     7.9069     7.5432
  471.2000   109.2589     7.9072     7.5298
  471.3000   109.0625     7.9074     7.5301
  471.4000   108.5085     7.9380     7.5303
  471.5000   107.7295     7.9636     7.5305
  471.6000   107.2332     7.9756     7.5307
  471.7000   106.7251     8.0225     7.5698
  471.8000   106.2170     8.0772     7.6143
  471.9000   105.8015     8.1174     7.6591
  472.0000   105.5878     8.1652     7.6918
  472.1000   105.5869     8.1922     7.6952
  472.2000   105.5860     8.2038     7.7465
  472.3000   105.9667     8.2521     7.8256
  472.4000   106.4730     8.3090     7.9178
  472.5000   106.8921     8.3497     8.0109
  472.6000   107.1448     8.3681     8.1051
  472.7000   107.4137     8.4102     8.2004
  472.8000   107.6501     8.4981     8.3112
  472.9000   107.9029     8.5481     8.3529
  473.0000   108.1556     8.6077     8.4341
  473.1000   108.4083     8.6907     8.5334
  473.2000   108.6610     8.7615     8.6337
  473.3000   108.9352     8.8131     8.7353
  473.4000   109.1664     8.8759     8.8548
  473.5000   109.0585     8.9800     8.8985
  473.6000   108.6754     9.0434     8.9508
  473.7000   108.2442     9.1291     9.0263
  473.8000   107.9648     9.2042     9.1202
  473.9000   107.4032     9.2801     9.1752
  474.0000   106.9488     9.3786     9.3024
  474.1000   106.6158     9.4342     9.3474
  474.2000   106.3613     9.5447     9.4367
  474.3000   106.1784     9.6572     9.5478
  474.4000   106.1973     9.7374     9.6478
  474.5000   106.4819     9.8169     9.7052
  474.6000   106.7027     9.9219     9.8414
  474.7000   106.9555     9.9816     9.8883
  474.8000   107.0901    10.0968     9.9464
  474.9000   107.1555    10.1695    10.0049
  475.0000   107.4082    10.2294    10.0637
  475.1000   107.6980    10.2897    10.1230
  475.2000   107.6973    10.3605    10.1825
  475.3000   107.6964    10.4868    10.2424
  475.4000   107.6955    10.5464    10.3384
  475.5000   107.6947    10.6086    10.4362
  475.6000   107.6752    10.6711    10.5091
  475.7000   107.0821    10.7339    10.6347
  475.8000   107.0814    10.7971    10.6962
  475.9000   107.0805    10.8639    10.7592
  476.0000   107.0796    10.8642    10.8225
  476.1000   107.1346    10.9122    10.8861
  476.2000   107.3873    10.9765    10.9501
  476.3000   107.6875    11.0190    11.0165
  476.4000   107.8927    11.0284    11.0793
  476.5000   107.9913    11.0974    11.0947
  476.6000   107.9904    11.0978    11.0950
  476.7000   108.0401    11.0981    11.0953
  476.8000   108.2940    11.0985    11.0956
  476.9000   108.2931    11.0989    11.0960
  477.0000   108.2923    11.1074    11.0963
  477.1000   108.2914    11.1779    11.0966
  477.2000   108.1934    11.1782    11.0969
  477.3000   107.9843    11.1786    11.0972
  477.4000   107.9834    11.1789    11.0975
  477.5000   107.7354    11.1793    11.0978
  477.6000   107.2855    11.1797    11.0981
  477.7000   106.4901    11.1801    11.0984
  477.8000   105.2912    11.1804    11.0987
  477.9000   103.7690    11.1348    11.0777
  478.0000   102.1766    11.1029    11.0217
  478.1000   100.9661    11.1032    11.0221
  478.2000   100.0775    11.1036    11.0223
  478.3000    99.4544    11.1040    11.0227
  478.4000    98.9464    11.1043    11.0230
  478.5000    98.4733    11.1047    11.0030
  478.6000    98.2019    11.1050    10.9464
  478.7000    97.9644    11.1054    10.9468
  478.8000    97.7099    11.1057    10.9471
  478.9000    97.7218    11.1062    10.9474
  479.0000    98.1373    11.1065    10.9477
  479.1000    98.8971    11.0629    10.9480
  479.2000    99.7234    11.0294    10.9483
  479.3000   100.1856    11.0298    10.9486
  479.4000   100.8717    11.0302    10.9489
  479.5000   101.6315    11.0306    10.9492
  479.6000   102.3913    11.0309    10.9495
  479.7000   103.1267    11.0312    10.9498
  479.8000   103.6876    11.0316    10.9447
  479.9000   104.1393    11.0320    10.8739
  480.0000   104.4711    11.0323    10.8742
  480.1000   104.7238    11.0327    10.8745
  480.2000   104.9056    11.0330    10.8748
  480.3000   104.8855    11.0334    10.8751
  480.4000   104.5984    11.0338    10.8754
  480.5000   104.3766    11.0341    10.8757
  480.6000   104.1221    11.0345    10.8760
  480.7000   103.7502    11.0349    10.8763
  480.8000   103.3079    11.0352    10.8766
  480.9000   103.0395    11.0356    10.8769
  481.0000   102.4557    11.0359    10.8772
  481.1000   102.0234    11.0213    10.8776
  481.2000   101.6794    10.9594    10.8778
  481.3000   101.4250    10.9598    10.8781
  481.4000   101.1705    10.9601    10.8784
  481.5000   100.9161    10.9604    10.8787
  481.6000   100.6184    10.9608    10.8790
  481.7000   100.6177    10.9612    10.8794
  481.8000   100.4580    10.9615    10.8797
  481.9000   100.3106    10.9619    10.8800
  482.0000   100.2545    10.9622    10.8803
  482.1000   100.0000    10.9626    10.8806
  482.2000    99.6971    10.9629    10.8809
  482.3000    99.6964    10.9633    10.8812
  482.4000    99.5420    10.9637    10.8815
  482.5000    99.3893    10.9640    10.8425
  482.6000    99.3385    10.9644    10.8060
  482.7000    99.0822    10.9647    10.8063
  482.8000    99.0814    10.9651    10.8066
  482.9000    98.8804    10.9532    10.8069
  483.0000    98.7743    10.8890    10.8072
  483.1000    98.7734    10.8894    10.8075
  483.2000    98.8173    10.8897    10.8078
  483.3000    99.0770    10.8901    10.8081
  483.4000    99.0761    10.8905    10.8084
  483.5000    99.2701    10.8796    10.7460
  483.6000    99.5228    10.8149    10.7334
  483.7000    99.6842    10.8153    10.7337
  483.8000    99.7228    10.8156    10.7340
  483.9000    99.9877    10.7801    10.7343
  484.0000   100.2283    10.7406    10.7346
  484.1000   100.2914    10.7307    10.7349
  484.2000   100.4284    10.6661    10.6865
  484.3000   100.5950    10.6665    10.6604
  484.4000   100.6284    10.6668    10.6607
  484.5000   100.8985    10.6672    10.6610
  484.6000   101.1339    10.6456    10.6613
  484.7000   101.2022    10.5931    10.6616
  484.8000   101.3339    10.5935    10.6619
  484.9000   101.5058    10.5939    10.6272
  485.0000   101.5049    10.5942    10.5879
  485.1000   101.5040    10.5946    10.5882
  485.2000   101.7341    10.5740    10.5885
  485.3000   101.6285    10.5210    10.5300
  485.4000   101.1193    10.5214    10.5150
  485.5000   100.5089    10.5218    10.5153
  485.6000   100.2307    10.4773    10.5156
  485.7000    99.6666    10.4488    10.5071
  485.8000    99.4402    10.4293    10.4427
  485.9000    99.0119    10.3763    10.4429
  486.0000    98.5039    10.3767    10.3984
  486.1000    98.0662    10.3214    10.3382
  486.2000    97.8118    10.3047    10.2783
  486.3000    97.5240    10.2741    10.2112
  486.4000    97.3028    10.2146    10.0842
  486.5000    97.0483    10.1555    10.0301
  486.6000    96.7939    10.0911     9.9720
  486.7000    96.6046    10.0382     9.8844
  486.8000    96.6037     9.9801     9.7879
  486.9000    96.6027     9.8935     9.7312
  487.0000    96.6020     9.7957     9.6699
  487.1000    96.7645     9.7390     9.5679
  487.2000    97.0172     9.6765     9.4572
  487.3000    97.2699     9.5270     9.3752
  487.4000    97.5308     9.4372     9.3209
  487.5000    98.1242     9.3298     9.2615
  487.6000    98.7534     9.1679     9.1433
  487.7000    99.5132     9.0129     9.0958
  487.8000   100.1666     8.8959     9.0067
  487.9000   100.7276     8.7606     8.9279
  488.0000   101.4846     8.6088     8.8614
  488.1000   102.0884     8.4827     8.7587
