~VERSION INFORMATION
 VERS.                2.0:   CWLS LOG ASCII STANDARD - VERSION 2.0
 WRAP.                 NO:   ONE LINE PER DEPTH STEP
~WELL INFORMATION
#MNEM.UNIT      DATA TYPE    INFORMATION
#----------   ------------   ------------------------------
 STRT.F            0.0000:   START DEPTH
 STOP.F         2694.5000:   STOP DEPTH
 STEP.F            0.5000:   STEP LENGTH
 NULL.          -999.2500:   NO VALUE
 COMP. FENIX & SCISSON INC:   COMPANY
 WELL.       102 A #20-20:   WELL
 FLD .        TEAPOT DOME:   FIELD
 LOC .      S20 T39N R78W:   LOCATION
 CNTY.            NATRONA:   COUNTY
 STAT.            WYOMING:   STATE
 CTRY. UNITED STATES OF AMERICA:   COUNTRY
 SRVC.            Unknown:   SERVICE COMPANY
 DATE.        17-AUG-1965:   LOGDATE
 API .       490251022200:   API NUMBER
~CURVE INFORMATION
#MNEM.UNIT       API CODE    CURVE DESCRIPTION
#----------   ------------   ------------------------------
 DEPT.F                  :   
 CALI.IN     30 280 01 00:   CALIPER FROM GAMMA RAY LOG
 GR  .GAPI   30 310 01 00:   GAMMA RAY
~PARAMETER INFORMATION
#MNEM.UNIT          VALUE    DESCRIPTION
#----------   ------------   ------------------------------
 PD  .                 GL:   PERMANENT DATUM
 LMF .                 GL:   LOG MEASURED FROM
 DMF .                 GL:   DRILLING MEASURED FROM
 DATE.            8-17-65:   RUN DATE
 RUN .                  1:   RUN NUMBER
 DD  .F            2696.5:   DEPTH DRILLER
 DL  .F              2697:   DEPTH LOGGER
 BLI .F              2695:   BOTTOM LOG INTERVAL
 TLI .F              2000:   TOP LOG INTERVAL
 CS  .IN                7:   CASING SIZE
 CBD .F              2678:   CASING BOTTOM DRILLER
 DFT .                OIL:   DRILLING FLUID TYPE
 TCS .HRS               1:   TIME CURCULATED STOPPED
 ENGI.            JACKSON:   RECORDING ENGINEER
 WITN.          JORGENSEN:   WITNESSED BY
 CLNT.            A2DTECH:   CLIENT CODE
 ORIG.           5" PRINT:   ORIGIN OF DATA
 UWI .       490251022200:   UNIQUE WELL ID
 DICO. A2D Technologies, Inc.:   DIGITIZING COMPANY
~OTHER INFORMATION
~A    DEPT      CALI       GR   
# ...
 1336.5000     6.5313  -999.2500
 1337.0000     6.5204  -999.2500
 1337.5000     6.5098  -999.2500
 1338.0000     6.5009  -999.2500
 1338.5000     6.4946  -999.2500
 1339.0000     6.4932  -999.2500
 1339.5000     6.4926  -999.2500
 1340.0000     6.5072  -999.2500
 1340.5000     6.5163  -999.2500
 1341.0000     6.5049  -999.2500
 1341.5000     6.4938  -999.2500
 1342.0000     6.4892  -999.2500
 1342.5000     6.4813  -999.2500
 1343.0000     6.4868  -999.2500
 1343.5000     6.5044  -999.2500
 1344.0000     6.5024  -999.2500
 1344.5000     6.4236  -999.2500
 1345.0000     6.4329  -999.2500
 1345.5000     6.4403  -999.2500
 1346.0000     6.4399  -999.2500
 1346.5000     6.4324  -999.2500
 1347.0000     6.4245  -999.2500
 1347.5000     6.4196  -999.2500
 1348.0000     6.4147  -999.2500
 1348.5000     6.4242  -999.2500
 1349.0000     6.4343  -999.2500
 1349.5000     6.4226  -999.2500
 1350.0000     6.4166  -999.2500
 1350.5000     6.4206  -999.2500
 1351.0000     6.4242  -999.2500
 1351.5000     6.4253  -999.2500
 1352.0000     6.4264  -999.2500
 1352.5000     6.4274  -999.2500
 1353.0000     6.4284  -999.2500
 1353.5000     6.4294  -999.2500
 1354.0000     6.4304  -999.2500
 1354.5000     6.4315  -999.2500
 1355.0000     6.4325  -999.2500
 1355.5000     6.4335  -999.2500
 1356.0000     6.4399  -999.2500
 1356.5000     6.4650  -999.2500
 1357.0000     6.4729  -999.2500
 1357.5000     6.4640  -999.2500
 1358.0000     6.4347  -999.2500
 1358.5000     6.4412  -999.2500
 1359.0000     6.4469  -999.2500
 1359.5000     6.4526  -999.2500
 1360.0000     6.4583  -999.2500
 1360.5000     6.4633  -999.2500
 1361.0000     6.4597  -999.2500
 1361.5000     6.4559  -999.2500
 1362.0000     6.4602  -999.2500
 1362.5000     6.4729  -999.2500
 1363.0000     6.4610  -999.2500
 1363.5000     6.4722  -999.2500
 1364.0000     6.5137  -999.2500
 1364.5000     6.5483  -999.2500
 1365.0000     6.4761  -999.2500
 1365.5000     6.4856  -999.2500
 1366.0000     6.4819  -999.2500
 1366.5000     6.4796  -999.2500
 1367.0000     6.4899  -999.2500
 1367.5000     6.4838  -999.2500
 1368.0000     6.4904  -999.2500
 1368.5000     6.4962  -999.2500
 1369.0000     6.5019  -999.2500
 1369.5000     6.5079  -999.2500
 1370.0000     6.5090  -999.2500
 1370.5000     6.4927  -999.2500
 1371.0000     6.4931  -999.2500
 1371.5000     6.4931  -999.2500
 1372.0000     6.4931  -999.2500
 1372.5000     6.4931  -999.2500
 1373.0000     6.4931  -999.2500
 1373.5000     6.4931  -999.2500
 1374.0000     6.4931  -999.2500
 1374.5000     6.4931  -999.2500
 1375.0000     6.4932  -999.2500
 1375.5000     6.4930  -999.2500
 1376.0000     6.4858  -999.2500
 1376.5000     6.5074  -999.2500
 1377.0000     6.5065  -999.2500
 1377.5000     6.4993  -999.2500
 1378.0000     6.4929  -999.2500
 1378.5000     6.4931  -999.2500
 1379.0000     6.4931  -999.2500
 1379.5000     6.4932  -999.2500
 1380.0000     6.4932  -999.2500
 1380.5000     6.5082  -999.2500
 1381.0000     6.5064  -999.2500
 1381.5000     6.4983  -999.2500
 1382.0000     6.4901  -999.2500
 1382.5000     6.4850  -999.2500
 1383.0000     6.4932  -999.2500
 1383.5000     6.4932  -999.2500
 1384.0000     6.5034  -999.2500
 1384.5000     6.5210  -999.2500
 1385.0000     6.5279  -999.2500
 1385.5000     6.4766  -999.2500
 1386.0000     6.4715  -999.2500
 1386.5000     6.4843  -999.2500
 1387.0000     6.4932  -999.2500
 1387.5000     6.4931  -999.2500
 1388.0000     6.4931  -999.2500
 1388.5000     6.4868  -999.2500
 1389.0000     6.4755  -999.2500
 1389.5000     6.4640  -999.2500
 1390.0000     6.4632  -999.2500
 1390.5000     6.4773  -999.2500
 1391.0000     6.4931  -999.2500
 1391.5000     6.4932  -999.2500
 1392.0000     6.4931  -999.2500
 1392.5000     6.4931  -999.2500
 1393.0000     6.4931  -999.2500
 1393.5000     6.4931  -999.2500
 1394.0000     6.4931  -999.2500
 1394.5000     6.4931  -999.2500
 1395.0000     6.4931  -999.2500
 1395.5000     6.4931  -999.2500
 1396.0000     6.4931  -999.2500
 1396.5000     6.4931  -999.2500
 1397.0000     6.4931  -999.2500
 1397.5000     6.4931  -999.2500
 1398.0000     6.4931  -999.2500
 1398.5000     6.4931  -999.2500
 1399.0000     6.4932  -999.2500
 1399.5000     6.4929  -999.2500
 1400.0000     6.4631  -999.2500
 1400.5000     6.4802  -999.2500
 1401.0000     6.5104  -999.2500
 1401.5000     6.4926  -999.2500
 1402.0000     6.4844  -999.2500
 1402.5000     6.4863  -999.2500
 1403.0000     6.4882  -999.2500
 1403.5000     6.4902  -999.2500
 1404.0000     6.4922  -999.2500
 1404.5000     6.4922  -999.2500
 1405.0000     6.5159  -999.2500
 1405.5000     6.4950  -999.2500
 1406.0000     6.5079  -999.2500
 1406.5000     6.5135  -999.2500
 1407.0000     6.5216  -999.2500
 1407.5000     6.5019  -999.2500
 1408.0000     6.4725  -999.2500
 1408.5000     6.4637  -999.2500
 1409.0000     6.4620  -999.2500
 1409.5000     6.4576  -999.2500
 1410.0000     6.4606  -999.2500
 1410.5000     6.4932  -999.2500
 1411.0000     6.4908  -999.2500
 1411.5000     6.4891  -999.2500
 1412.0000     6.4874  -999.2500
 1412.5000     6.4857  -999.2500
 1413.0000     6.4840  -999.2500
 1413.5000     6.4833  -999.2500
 1414.0000     6.4833  -999.2500
 1414.5000     6.4833  -999.2500
 1415.0000     6.4833  -999.2500
 1415.5000     6.4833  -999.2500
 1416.0000     6.4834  -999.2500
 1416.5000     6.4833  -999.2500
 1417.0000     6.5060  -999.2500
 1417.5000     6.5053  -999.2500
 1418.0000     6.4815  -999.2500
 1418.5000     6.4750  -999.2500
 1419.0000     6.4775  -999.2500
 1419.5000     6.4801  -999.2500
 1420.0000     6.4827  -999.2500
 1420.5000     6.4826  -999.2500
 1421.0000     6.4808  -999.2500
 1421.5000     6.4791  -999.2500
 1422.0000     6.4773  -999.2500
 1422.5000     6.4756  -999.2500
 1423.0000     6.4735  -999.2500
 1423.5000     6.4811  -999.2500
 1424.0000     6.4911  -999.2500
 1424.5000     6.5010  -999.2500
 1425.0000     6.5102  -999.2500
 1425.5000     6.5425  -999.2500
 1426.0000     6.5531  -999.2500
 1426.5000     6.4842  -999.2500
 1427.0000     6.4920  -999.2500
 1427.5000     6.4894  -999.2500
 1428.0000     6.4849  -999.2500
 1428.5000     6.4866  -999.2500
 1429.0000     6.4925  -999.2500
 1429.5000     6.4735  -999.2500
 1430.0000     6.4416  -999.2500
 1430.5000     6.4746  -999.2500
 1431.0000     6.4822  -999.2500
 1431.5000     6.4776  -999.2500
 1432.0000     6.4756  -999.2500
 1432.5000     6.4854  -999.2500
 1433.0000     6.4910  -999.2500
 1433.5000     6.4798  -999.2500
 1434.0000     6.4815  -999.2500
 1434.5000     6.5001  -999.2500
 1435.0000     6.5029  -999.2500
 1435.5000     6.5030  -999.2500
 1436.0000     6.5030  -999.2500
 1436.5000     6.5029  -999.2500
 1437.0000     6.5029  -999.2500
 1437.5000     6.5060  -999.2500
 1438.0000     6.5106  -999.2500
 1438.5000     6.5349  -999.2500
 1439.0000     6.5199  -999.2500
 1439.5000     6.5032  -999.2500
 1440.0000     6.4937  -999.2500
 1440.5000     6.5085  -999.2500
 1441.0000     6.5044  -999.2500
 1441.5000     6.4925  -999.2500
 1442.0000     6.4873  -999.2500
 1442.5000     6.5055  -999.2500
 1443.0000     6.5230  -999.2500
 1443.5000     6.5231  -999.2500
 1444.0000     6.5098  -999.2500
 1444.5000     6.5038  -999.2500
 1445.0000     6.5107  -999.2500
 1445.5000     6.5194  -999.2500
 1446.0000     6.5347  -999.2500
 1446.5000     6.5471  -999.2500
 1447.0000     6.5482  -999.2500
 1447.5000     6.5507  -999.2500
 1448.0000     6.4957  -999.2500
 1448.5000     6.4896  -999.2500
 1449.0000     6.4868  -999.2500
 1449.5000     6.4841  -999.2500
 1450.0000     6.4812  -999.2500
 1450.5000     6.4784  -999.2500
 1451.0000     6.4755  -999.2500
 1451.5000     6.4732  -999.2500
 1452.0000     6.4668  -999.2500
 1452.5000     6.4734  -999.2500
 1453.0000     6.4770  -999.2500
 1453.5000     6.4636  -999.2500
 1454.0000     6.4449  -999.2500
 1454.5000     6.4664  -999.2500
 1455.0000     6.4790  -999.2500
 1455.5000     6.4851  -999.2500
 1456.0000     6.4886  -999.2500
 1456.5000     6.4925  -999.2500
 1457.0000     6.4775  -999.2500
 1457.5000     6.4548  -999.2500
