~VERSION INFORMATION
 VERS.                2.0:   CWLS LOG ASCII STANDARD - VERSION 2.0
 WRAP.                 NO:   ONE LINE PER DEPTH STEP
~WELL INFORMATION
#MNEM.UNIT      DATA TYPE    INFORMATION
#----------   ------------   ------------------------------
 STRT.F           33.0000:   START DEPTH
 STOP.F          957.0000:   STOP DEPTH
 STEP.F            0.5000:   STEP LENGTH
 NULL.          -999.2500:   NO VALUE
 COMP. TESORO PETROLEUM CORP:   COMPANY
 WELL.  NPR #3 46-S-14 #3:   WELL
 FLD .             TEAPOT:   FIELD
 LOC .      S14 T38N R78W:   LOCATION
 CNTY.            NATRONA:   COUNTY
 STAT.            WYOMING:   STATE
 CTRY. UNITED STATES OF AMERICA:   COUNTRY
 SRVC.       Schlumberger:   SERVICE COMPANY
 DATE.        25-JUN-1970:   LOGDATE
 API .       490251023100:   API NUMBER
~CURVE INFORMATION
#MNEM.UNIT       API CODE    CURVE DESCRIPTION
#----------   ------------   ------------------------------
 DEPT.F                  :   
 SPR .MV     05 010 01 00:   SPONTANEOUS POTENTIAL FROM RES.
 ILD .OHMM   05 120 46 00:   INDUCTION LOG DEEP
 CILD.MMHO   05 110 46 00:   CONDUCTIVITY INDUCTION LOG DEEP
 ASN .OHMM   05 041 16 00:   AMPLIFIED SHORT NORMAL 16"
 GR  .GAPI   30 310 01 00:   GAMMA RAY
 CALD.IN     45 280 60 00:   CALIPER FROM DENSITY LOG
 CORR.G/C3   45 356 01 00:   DENSITY CORRECTION
 DPHI.DEC    45 890 12 00:   DENSITY POROSITY SANDSTONE
 RHOB.G/C3   45 350 01 00:   BULK DENSITY
~PARAMETER INFORMATION
#MNEM.UNIT          VALUE    DESCRIPTION
#----------   ------------   ------------------------------
 PD  .                 GL:   PERMANENT DATUM
 EPD .F              5271:   ELEVATION PERMANENT DATUM
 LMF .                 KB:   LOG MEASURED FROM
 DAPD.F                10:   FEET ABOVE PERMANENT DATUM
 DMF .                 KB:   DRILLING MEASURED FROM
 EKB .F              5281:   KELLING BUSHING
 EDF .F              5280:   DRILLING FLOOR
 EGL .F              5271:   GROUND LEVEL
 DATE.        25-JUN-1970:   RUN DATE
 RUN .                  1:   RUN NUMBER
 DD  .F               950:   DEPTH DRILLER
 DL  .F               958:   DEPTH LOGGER
 BLI .F               957:   BOTTOM LOG INTERVAL
 TLI .F                33:   TOP LOG INTERVAL
 CS  .IN            10.75:   CASING SIZE
 CBD .F                30:   CASING BOTTOM DRILLER
 CBL .F                33:   CASING BOTTOM LOGGER
 BS  .IN                9:   BIT SIZE
 BSD .F               950:   BIT SIZE AT DEPTH
 DFT .         MO-MAR MUD:   DRILLING FLUID TYPE
 DFD .                9.7:   DRILLING FLUID DENSITY
 DFV .                 62:   DRILLING FLUID VISCOSITY
 DFPH.                7.4:   DRILLING FLUID PH
 DFL .                5.6:   DRILLING FLUID LOSS
 MSS .           FLOWLINE:   MUD SAMPLE SOURCE
 RMS .OHMM           1.40:   RESISTIVITY MUD SAMPLE
 MST .F                85:   MUD SAMPLE TEMPERATURE
 RMF .OHMM           0.85:   RESISTIVITY MUD FILTRATE SAMPLE
 MFST.F                87:   MUD FILTRATE SAMPLE TEMPERATURE
 MFSS.               MEAS:   MUD FILTRATE SAMPLE SOURCE
 RMB .OHMM           1.06:   RESISTIVITY MUD AT BHT
 BHT .F               112:   BOTTOM HOLE TEMPERATURE
 TCS .HRS               1:   TIME CURCULATED STOPPED
 MRT .F               112:   MAXIMUM RECORDED TEMPERATURE
 LUN .               7037:   LOGGING UNIT NUMBER
 LUL .                GLT:   LOGGING UNIT LOCATION
 ENGI.           KNOSTMAN:   RECORDING ENGINEER
 WITN.                MAY:   WITNESSED BY
 CLNT.            A2DTECH:   CLIENT CODE
 ORIG.         2.5" PRINT:   ORIGIN OF DATA
 UWI .       490251023100:   UNIQUE WELL ID
 DICO. A2D Technologies, Inc.:   DIGITIZING COMPANY
~OTHER INFORMATION
~A   DEPT       SPR        ILD       CILD       ASN         GR       CALD       CORR       DPHI       RHOB   
# ...
  726.5000   -27.9453     6.2960   166.2868     6.6105  -999.2500     8.8602    -0.0028     0.1239     2.4538
  727.0000   -27.9392     6.4868   159.8280     6.8258  -999.2500     8.8595     0.0023     0.1231     2.4680
  727.5000   -27.9331     6.6404   154.1920     6.9886  -999.2500     8.8588     0.0040     0.1227     2.4619
  728.0000   -27.9271     6.7941   151.9757     7.1553  -999.2500     8.8580     0.0017     0.1215     2.4525
  728.5000   -27.9200     6.7962   148.9362     7.2770  -999.2500     8.8573     0.0001     0.1203     2.4538
  729.0000   -27.9926     6.6469   145.8967     7.3079  -999.2500     8.8401     0.0016     0.1183     2.4588
  729.5000   -28.2124     6.6492   145.8967     7.3085  -999.2500     8.8254     0.0016     0.1178     2.4618
  730.0000   -28.2067     6.4996   145.8967     7.3091  -999.2500     8.8549     0.0000     0.1184     2.4586
  730.5000   -28.2006     6.5023   146.3398     7.2728  -999.2500     9.1658     0.0015     0.1221     2.4507
  731.0000   -28.1945     6.5045   148.0495     7.1990  -999.2500     9.3144     0.0045     0.1239     2.4450
  731.5000   -28.1884     6.2041   152.7990     7.1015  -999.2500     9.3363     0.0060     0.1157     2.4646
  732.0000   -28.1824     6.2063   156.5350     6.9737  -999.2500     9.3352     0.0075     0.1117     2.4736
  732.5000   -28.1763     5.9054   161.0942     6.8274  -999.2500     9.3345     0.0090     0.1135     2.4663
  733.0000   -28.1702     5.7510   167.1732     6.7067  -999.2500     9.3338     0.0090     0.1160     2.4584
  733.5000   -28.2882     5.4326   173.4427     6.5861  -999.2500     9.3331     0.0090     0.1178     2.4644
  734.0000   -28.5566     5.2253   183.3835     6.4626  -999.2500     9.3323     0.0105     0.1073     2.4856
  734.5000   -28.7600     4.9005   194.7816     6.2995  -999.2500     9.3468     0.0120     0.0996     2.4949
  735.0000   -28.7538     4.7045   208.3340     6.0773  -999.2500     9.3606     0.0264     0.0959     2.4976
  735.5000   -28.7477     4.4042   223.7839     5.8610  -999.2500     9.3585     0.0354     0.0947     2.4975
  736.0000   -28.7416     4.2548   250.7599     5.5709  -999.2500     9.3564     0.0380     0.0950     2.5005
  736.5000   -28.7356     4.1053   264.4377     5.1959  -999.2500     9.3543     0.0410     0.0959     2.5023
  737.0000   -28.7284     3.8045   264.4377     4.8328  -999.2500     9.3522     0.0395     0.0971     2.4970
  737.5000   -28.7227     3.6552   262.8549     4.5909  -999.2500     9.3501     0.0317     0.1012     2.4852
  738.0000   -28.7169     3.6576   257.8525     4.5309  -999.2500     9.3480     0.0548     0.1066     2.4670
  738.5000   -28.5103     3.7078   251.3929     4.5652  -999.2500     9.3460     0.0501     0.1226     2.4436
  739.0000   -28.5684     3.8860   244.9343     4.6300  -999.2500     9.3439     0.0710     0.1383     2.4234
  739.5000   -28.6991     4.0507   230.6234     4.8187  -999.2500     9.3418     0.0839     0.1389     2.4261
  740.0000   -28.6930     4.4246   209.7264     5.5212  -999.2500     9.3397     0.0900     0.1262     2.4442
  740.5000   -28.6869     4.7298   194.5289     6.1401   105.4052     9.3376     0.0993     0.1141     2.4601
  741.0000   -28.7670     5.1865   177.8116     6.4134   102.9041     9.3355     0.0836     0.1080     2.4739
  741.5000   -28.9787     5.6432   167.0155     6.5958   100.4485     9.3334     0.0598     0.0994     2.5000
  742.0000   -29.2766     5.9687   159.3210     6.7782   102.2643     9.3313     0.0704     0.0954     2.5181
  742.5000   -29.2703     6.1212   157.6113     6.9035    96.2509     9.3292     0.0806     0.0946     2.4900
  743.0000   -29.4215     6.3116   155.0152     7.0272    96.4101     9.3271     0.0775     0.1086     2.4628
  743.5000   -29.7371     6.5797   154.1920     7.1526   100.4850     9.3250     0.0741     0.1067     2.4685
  744.0000   -29.8602     6.6621   151.9757     7.2299    98.5379     9.3229     0.0601     0.0989     2.4877
  744.5000   -29.8541     6.7717   151.9757     7.3125    98.6971     9.3208     0.0440     0.0926     2.4922
  745.0000   -29.8480     6.8714   151.9757     7.4183    99.6093     9.3187     0.0681     0.0873     2.4967
  745.5000   -29.8419     6.8735   153.4954     7.4795    97.2082     9.3166     0.0711     0.0873     2.4997
  746.0000   -29.8351     6.8758   153.4954     7.5103    92.2289     9.3145     0.0803     0.0893     2.5057
  746.5000   -29.8298     6.8780   155.0152     7.5715    89.9965     9.3124     0.0866     0.0924     2.5086
  747.0000   -29.8236     6.8803   155.0152     7.5721    96.3326     9.3104     0.0895     0.0946     2.5068
  747.5000   -29.4883     6.8826   155.8383     7.5727    98.4496     9.3083     0.0806     0.0964     2.5068
  748.0000   -29.2036     6.7687   157.3793     7.5429   100.2654     9.3062     0.0463     0.0982     2.5047
  748.5000   -29.1494     6.7356   158.0547     7.5133   100.1094     9.3041     0.0278     0.0998     2.5013
  749.0000   -28.8875     6.7379   158.0547     7.4534    99.3790     9.3020     0.0170     0.1015     2.4979
  749.5000   -28.8257     6.7402   157.2633     7.4237    99.9921     9.2999     0.0106     0.1030     2.4932
  750.0000   -28.5705     6.7424   156.2818     7.4243    99.3983     9.2978     0.0062     0.1024     2.4887
  750.5000   -28.5647     6.6645   155.0152     7.3946    96.5455     9.2957     0.0131     0.0957     2.4962
  751.0000   -28.2550     6.5952   154.3821     7.4255    98.9759     9.2936     0.0215     0.0964     2.5446
  751.5000   -28.0449     6.5977   153.4954     7.4564    99.5768     9.2915     0.0245     0.0920     2.5292
  752.0000   -27.9392     6.6000   151.9757     7.4663   100.1878     9.2894     0.0245     0.0910     2.5008
  752.5000   -27.9331     6.7542   151.9757     7.4879   106.0699     9.2873     0.0275     0.0900     2.5030
  753.0000   -27.9271     6.7564   151.9757     7.4417   102.4641     9.2852     0.0190     0.0928     2.5144
  753.5000   -27.9944     6.9098   152.0392     7.3983   102.6233     9.2831     0.0168     0.1019     2.4865
  754.0000   -28.2188     6.9121   155.5215     7.3382   105.7966     9.2810     0.0258     0.1092     2.4759
  754.5000   -28.5159     6.9144   161.9805     7.2176   110.3233     9.2789     0.0304     0.1086     2.4962
  755.0000   -28.5102     6.9040   170.5931     7.1566   110.6331     9.2769     0.0269     0.1060     2.4972
  755.5000   -28.5044     6.7671   180.2810     7.0288   110.6687     9.2748     0.0180     0.1050     2.4781
  756.0000   -28.4985     6.7394   188.4498     6.8250   103.0764     9.2727     0.0347     0.1048     2.4872
  756.5000   -28.4924     6.5422   189.9696     6.5464   102.6769     9.2706     0.0256     0.1050     2.4902
  757.0000   -28.4863     6.1686   191.4894     6.1915   105.5491     9.2685     0.0179     0.1293     2.4759
  757.5000   -28.4802     5.7162   194.7812     5.9183   101.4915     9.2666     0.0179     0.1341     2.4392
  758.0000   -28.4742     5.4153   208.9660     5.7067    97.4338     9.2357     0.0161     0.1408     2.4262
  758.5000   -28.1631     4.9629   214.7291     5.6467   100.1532     9.1744     0.0128     0.1457     2.3873
  759.0000   -27.8534     4.5105   218.5915     5.7079    96.5495     9.1737     0.0289     0.1259     2.4145
  759.5000   -27.8477     4.3285   224.3540     5.8903    94.9015     9.1427     0.0162     0.1146     2.4584
  760.0000   -27.5380     4.2118   232.5228     5.8909    92.9522     9.1420     0.0023     0.1124     2.4690
  760.5000   -27.2280     4.2144   237.0821     5.8226    95.0693     9.1278    -0.0070     0.1121     2.4705
  761.0000   -27.2219     4.2167   238.6018     5.4017    93.8752     9.1101     0.0209     0.1169     2.4720
  761.5000   -27.2158     4.2193   238.5387     5.1318    95.3898     9.0490     0.0232     0.1439     2.4317
  762.0000   -27.2097     4.0699   237.0821     5.0752    99.3140     9.0181     0.0375     0.1657     2.3838
  762.5000   -27.2024     4.0721   237.5255     5.0455    99.7745     9.0174     0.0467     0.1662     2.3746
