~VERSION INFORMATION
 VERS.                2.0:   CWLS LOG ASCII STANDARD - VERSION 2.0
 WRAP.                 NO:   ONE LINE PER DEPTH STEP
~WELL INFORMATION
#MNEM.UNIT      DATA TYPE    INFORMATION
#----------   ------------   ------------------------------
 STRT.F           38.0000:   START DEPTH
 STOP.F          890.0000:   STOP DEPTH
 STEP.F            0.5000:   STEP LENGTH
 NULL.          -999.2500:   NO VALUE
 COMP. FENIX & SCISSON INC:   COMPANY
 WELL.       43 SX #14-14:   WELL
 FLD .             TEAPOT:   FIELD
 LOC .      S14 T38N R78W:   LOCATION
 CNTY.            NATRONA:   COUNTY
 STAT.            WYOMING:   STATE
 CTRY. UNITED STATES OF AMERICA:   COUNTRY
 SRVC.            Unknown:   SERVICE COMPANY
 DATE.        28-APR-1978:   LOGDATE
 API .       490251063600:   API NUMBER
~CURVE INFORMATION
#MNEM.UNIT       API CODE    CURVE DESCRIPTION
#----------   ------------   ------------------------------
 DEPT.F                  :   
 SPR .MV     05 010 01 00:   SPONTANEOUS POTENTIAL FROM RES.
 SN  .OHMM   05 040 16 00:   SHORT NORMAL 16"
 ILD .OHMM   05 120 46 00:   INDUCTION LOG DEEP
 CILD.MMHO   05 110 46 00:   CONDUCTIVITY INDUCTION LOG DEEP
 CALD.IN     45 280 60 00:   CALIPER FROM DENSITY LOG
 GRD .GAPI   45 310 01 00:   GAMMA RAY FROM DENSITY LOG
 CORR.G/C3   45 356 01 00:   DENSITY CORRECTION
 DPHI.DEC    45 890 12 00:   DENSITY POROSITY SANDSTONE
 DEN .G/C3   45 350 01 00:   COMPENSATED BULK DENSTIY
~PARAMETER INFORMATION
#MNEM.UNIT          VALUE    DESCRIPTION
#----------   ------------   ------------------------------
 PD  .                 GL:   PERMANENT DATUM
 EPD .F              5217:   ELEVATION PERMANENT DATUM
 LMF .                 KB:   LOG MEASURED FROM
 DMF .                 KB:   DRILLING MEASURED FROM
 EKB .F              5221:   KELLING BUSHING
 EGL .F              5217:   GROUND LEVEL
 DATE.        28-APR-1978:   RUN DATE
 RUN .                  1:   RUN NUMBER
 DD  .F               890:   DEPTH DRILLER
 DL  .F               890:   DEPTH LOGGER
 BLI .F               884:   BOTTOM LOG INTERVAL
 TLI .F                40:   TOP LOG INTERVAL
 CS  .IN            8.625:   CASING SIZE
 CBD .F                40:   CASING BOTTOM DRILLER
 CBL .F                40:   CASING BOTTOM LOGGER
 BS  .IN            7.875:   BIT SIZE
 BSD .F               890:   BIT SIZE AT DEPTH
 DFT .                KCL:   DRILLING FLUID TYPE
 DFD .                8.7:   DRILLING FLUID DENSITY
 DFV .                 34:   DRILLING FLUID VISCOSITY
 DFL .                4.8:   DRILLING FLUID LOSS
 MSS .            MUD PIT:   MUD SAMPLE SOURCE
 RMS .OHMM             .4:   RESISTIVITY MUD SAMPLE
 MST .F                56:   MUD SAMPLE TEMPERATURE
 RMF .OHMM            .38:   RESISTIVITY MUD FILTRATE SAMPLE
 MFST.F                64:   MUD FILTRATE SAMPLE TEMPERATURE
 RMC .OHMM              1:   RESISTIVITY MUD CAKE
 MCST.F                66:   MUD CAKE SAMPLE TEMPERATURE
 MFSS.               MEAS:   MUD FILTRATE SAMPLE SOURCE
 RMB .OHMM             .3:   RESISTIVITY MUD AT BHT
 BHT .F                74:   BOTTOM HOLE TEMPERATURE
 TCS .HRS            0100:   TIME CURCULATED STOPPED
 MRT .F                74:   MAXIMUM RECORDED TEMPERATURE
 LUN .               2958:   LOGGING UNIT NUMBER
 LUL .               CASP:   LOGGING UNIT LOCATION
 ENGI.             MILLER:   RECORDING ENGINEER
 WITN.           MCGINLEY:   WITNESSED BY
 CLNT.            A2DTECH:   CLIENT CODE
 ORIG.           5" PRINT:   ORIGIN OF DATA
 UWI .       490251063600:   UNIQUE WELL ID
 DICO. A2D Technologies, Inc.:   DIGITIZING COMPANY
~OTHER INFORMATION
~A   DEPT      SPR         SN        ILD       CILD       CALD        GRD       CORR       DPHI        DEN   
# ...
  147.5000   -43.5218     3.8673     3.1953   278.9786     8.2560    82.3241     0.0375     0.1835     2.2909
  148.0000   -44.4016     3.5375     3.0884   302.8810     8.3916    84.7347     0.0256     0.1871     2.2886
  148.5000   -44.5422     3.2358     3.0058   314.0493     8.3925    87.5952     0.0321     0.1808     2.2947
  149.0000   -43.9359     3.0217     2.9862   323.7195     8.3637    87.6072     0.0394     0.1754     2.3135
  149.5000   -43.1837     2.9207     3.0087   334.8878     8.3344    87.3216     0.0381     0.1565     2.3594
  150.0000   -42.6962     3.0666     3.0520   337.0843     8.3804    83.4323     0.0307     0.1351     2.3937
  150.5000   -42.2787     3.3240     3.1825   324.2834     8.3363    81.6478     0.0263     0.1387     2.3970
  151.0000   -41.8243     3.5724     3.5070   311.4968     8.3223    80.1602     0.0295     0.1390     2.3911
  151.5000   -41.5201     3.8293     3.8644   298.8470     8.3084    79.4223     0.0386     0.1387     2.3904
  152.0000   -41.3643     4.1045     4.1140   272.5994     8.2647    78.9842     0.0387     0.1256     2.3935
  152.5000   -41.3569     4.3996     4.4453   245.4218     8.2058    78.8456     0.0373     0.1209     2.4131
  153.0000   -41.3494     4.6513     4.7008   222.8974     8.1769    78.8576     0.0374     0.1266     2.4296
  153.5000   -41.3420     4.8836     4.9028   193.6314     8.1780    78.8696     0.0376     0.1242     2.4349
  154.0000   -41.3345     5.0574     5.0784   182.3430     8.1640    78.8839     0.0362     0.1218     2.4155
  154.5000   -41.3271     5.2372     5.4075   177.7961     8.1653    78.7427     0.0363     0.1229     2.4208
  155.0000   -41.3197     5.4235     5.6399   174.7474     8.1663    78.7069     0.0364     0.1241     2.4276
  155.5000   -41.3122     5.6165     5.8419   171.6986     8.1673    78.4691     0.0366     0.1244     2.4253
  156.0000   -41.3048     5.8162     6.0095   166.4027     8.1683    78.4808     0.0382     0.1217     2.4281
  156.5000   -41.4457     5.9817     6.1394   158.8596     8.1694    78.6424     0.0383     0.1162     2.4360
  157.0000   -41.5867     6.1520     6.2290   152.8146     8.1704    78.6540     0.0369     0.1165     2.4413
  157.5000   -41.5792     6.2836     6.3199   149.0168     8.1715    78.6657     0.0370     0.1138     2.4399
  158.0000   -41.5718     6.3739     6.3681   148.2153     8.1725    78.6777     0.0372     0.1108     2.4392
  158.5000   -41.5643     6.3770     6.4166   148.1628     8.1737    78.6920     0.0373     0.1096     2.4490
  159.0000   -41.5569     6.3800     6.4210   148.1103     8.1747    78.7037     0.0383     0.1134     2.4513
  159.5000   -41.4011     6.3831     6.3802   148.0578     8.1757    78.8652     0.0390     0.1146     2.4515
  160.0000   -41.3937     6.3416     6.3322   148.0054     8.1615    79.7765     0.0406     0.1128     2.4432
  160.5000   -41.3862     6.3018     6.2151   149.4510     8.1628    80.3878     0.0408     0.1092     2.4410
  161.0000   -41.2304     6.1334     6.0844   150.1607     8.1638    80.5494     0.0393     0.1128     2.4451
  161.5000   -41.2230     6.0100     5.9641   150.8573     8.1648    80.2609     0.0365     0.1199     2.4523
  162.0000   -41.2155     5.8500     5.8867   153.7880     8.1659    80.2729     0.0351     0.1202     2.4456
  162.5000   -41.2081     5.6937     5.8103   158.9789     8.1669    80.4473     0.0307     0.1196     2.4344
  163.0000   -41.4974     5.5408     5.6564   164.1699     8.1681    80.5991     0.0294     0.1250     2.4284
  163.5000   -41.7886     5.3563     5.4686   169.3609     8.1841    80.6107     0.0295     0.1262     2.4285
  164.0000   -42.2244     5.2132     5.2817   176.0500     8.1852    80.6224     0.0296     0.1360     2.4052
  164.5000   -42.3672     5.0389     5.0415   183.4881     8.1862    80.9339     0.0312     0.1414     2.3850
  165.0000   -42.5081     4.9043     4.8741   192.4244     8.1872    82.5948     0.0373     0.1384     2.3813
  165.5000   -42.6490     4.7078     4.7082   206.6041     8.1882    83.0562     0.0435     0.1380     2.3821
  166.0000   -42.6397     4.5814     4.5874   211.0592     8.1892    83.9674     0.0406     0.1288     2.3918
  166.5000   -42.4839     4.4590     4.5002   211.7557     8.1293    83.0796     0.0317     0.1187     2.4220
  167.0000   -42.4765     4.4617     4.4723   212.4523     8.0418    82.3308     0.0273     0.1158     2.4364
  167.5000   -42.3207     4.5258     4.5065   212.3867     8.0126    80.2573     0.0259     0.1209     2.4432
  168.0000   -42.3133     4.6868     4.6388   211.5852     8.0139    77.8701     0.0261     0.1221     2.4290
  168.5000   -42.3058     4.8871     4.8047   210.0346     8.0149    75.6329     0.0262     0.1217     2.4275
  169.0000   -42.2984     5.0609     4.9083   203.2405     8.0160    75.4918     0.0293     0.1163     2.4291
  169.5000   -42.1426     5.0984     5.0464   192.7012     8.0170    75.8062     0.0294     0.1163     2.4329
  170.0000   -41.9868     5.1008     5.1224   185.1685     8.0181    76.2676     0.0296     0.1130     2.4465
  170.5000   -41.9793     5.1033     5.1947   183.6180     8.0340    76.3024     0.0281     0.1148     2.4473
  171.0000   -41.9719     5.1411     5.1983   182.8165     8.0351    76.2909     0.0268     0.1273     2.4300
  171.5000   -41.9645     5.1436     5.2019   182.7641     8.0363    76.7621     0.0269     0.1283     2.4286
  172.0000   -42.1072     5.1461     5.2054   182.7116     8.0373    77.3643     0.0270     0.1306     2.4256
  172.5000   -42.2463     5.1485     5.1721   182.6592     8.0383    76.6288     0.0271     0.1357     2.4152
  173.0000   -42.2389     5.1150     5.1049   182.6067     8.0393    76.1907     0.0243     0.1417     2.3957
  173.5000   -42.2329     5.0480     5.0387   182.5543     8.0404    75.9025     0.0214     0.1471     2.3965
  174.0000   -42.2255     5.0152     4.9391   182.5019     8.0114    72.4659     0.0215     0.1587     2.3935
  174.5000   -42.3740     4.9155     4.8082   182.4494     7.9975    70.8284     0.0201     0.1776     2.3657
  175.0000   -42.5357     4.7512     4.6521   183.6453     8.0135    70.6647     0.0187     0.1935     2.3274
  175.5000   -42.7970     4.4675     4.4682   204.2970     8.0145    72.5009     0.0174     0.2166     2.3177
  176.0000   -42.7893     4.0029     4.2559   227.5657     8.0307    74.4857     0.0182     0.2230     2.2762
  176.5000   -42.9305     3.7124     3.9476   263.4454     8.0318    77.0715     0.0386     0.2214     2.2352
  177.0000   -43.0715     3.3958     3.4412   292.3820     8.0477    77.6363     0.0387     0.2193     2.2277
  177.5000   -43.2124     3.0009     2.9587   323.7639     8.0787    78.0977     0.0388     0.2066     2.2337
  178.0000   -43.1889     2.7640     2.7443   358.1099     8.0947    78.5592     0.0315     0.1778     2.2601
  178.5000   -42.9006     2.7084     2.7081   359.3783     8.0957    77.5214     0.0316     0.1378     2.3639
  179.0000   -42.7448     2.7288     2.7481   353.5106     8.0967    73.9349     0.0317     0.1303     2.4091
  179.5000   -42.4407     2.8258     2.8270   352.7090     8.0978    69.8986     0.0318     0.1297     2.4046
  180.0000   -42.1365     3.0710     3.0101   348.1622     8.0669    70.5099     0.0319     0.1339     2.4084
  180.5000   -41.9807     3.4785     3.3871   333.8775     8.0100    72.7966     0.0306     0.1351     2.4137
  181.0000   -41.8249     3.9672     4.0834   286.6340     7.9813    76.0919     0.0307     0.1341     2.4145
  181.5000   -41.8175     4.4320     4.4084   243.8849     7.9973    79.2435     0.0293     0.1332     2.4154
  182.0000   -41.9585     4.5268     4.5349   210.8736     7.9983    79.5551     0.0294     0.1350     2.4161
  182.5000   -41.9510     4.5290     4.6011   202.5814     7.9993    79.1170     0.0266     0.1362     2.4019
  183.0000   -42.0920     4.5312     4.6043   200.2818     8.0003    76.7298     0.0237     0.1358     2.4080
  183.5000   -42.0846     4.5333     4.6074   200.9783     8.0463    74.9424     0.0238     0.1319     2.4178
