~VERSION INFORMATION
 VERS.                2.0:   CWLS LOG ASCII STANDARD - VERSION 2.0
 WRAP.                 NO:   ONE LINE PER DEPTH STEP
~WELL INFORMATION
#MNEM.UNIT      DATA TYPE    INFORMATION
#----------   ------------   ------------------------------
 STRT.F           87.0000:   START DEPTH
 STOP.F          987.0000:   STOP DEPTH
 STEP.F            0.5000:   STEP LENGTH
 NULL.          -999.2500:   NO VALUE
 COMP.   FLUOR DANIEL INC:   COMPANY
 WELL. NAVAL PETROLEUM RESERVE 3 SH-2 #53-2:   WELL
 FLD .        TEAPOT DOME:   FIELD
 LOC .       S2 T38N R78W:   LOCATION
 CNTY.            NATRONA:   COUNTY
 STAT.            WYOMING:   STATE
 CTRY. UNITED STATES OF AMERICA:   COUNTRY
 SRVC. Schlumberger Well Surveying Corp:   SERVICE COMPANY
 DATE.        17-JUL-1963:   LOGDATE
 API .       490250645200:   API NUMBER
~CURVE INFORMATION
#MNEM.UNIT       API CODE    CURVE DESCRIPTION
#----------   ------------   ------------------------------
 DEPT.F                  :   
 GR  .GAPI   30 310 01 00:   GAMMA RAY
 SPR .MV     05 010 01 00:   SPONTANEOUS POTENTIAL
 CILD.MMHO   05 110 46 00:   CONDUCTIVITY INDUCTION LOG DEEP
 ILD .OHMM   05 120 46 00:   INDUCTION LOG DEEP
 ASN .OHMM   05 041 16 00:   AMPLIFIED SHORT NORMAL 16"
~PARAMETER INFORMATION
#MNEM.UNIT          VALUE    DESCRIPTION
#----------   ------------   ------------------------------
 PD  .                 GL:   PERMANENT DATUM
 EPD .F              5165:   ELEVATION PERMANENT DATUM
 LMF .                 KB:   LOG MEASURED FROM
 DAPD.F                 5:   FEET ABOVE PERMANENT DATUM
 DMF .                 KB:   DRILLING MEASURED FROM
 EKB .F              5170:   KELLING BUSHING
 EGL .F              5165:   GROUND LEVEL
 DATE.          7-17-1963:   RUN DATE
 RUN .                  1:   RUN NUMBER
 DD  .F               986:   DEPTH DRILLER
 DL  .F               987:   DEPTH LOGGER
 BLI .F               986:   BOTTOM LOG INTERVAL
 TLI .F                30:   TOP LOG INTERVAL
 CS  .IN            8.625:   CASING SIZE
 CBD .F                10:   CASING BOTTOM DRILLER
 BS  .IN            7.875:   BIT SIZE
 BSD .F               986:   BIT SIZE AT DEPTH
 DFT .            GEL-OIL:   DRILLING FLUID TYPE
 DFD .                9.4:   DRILLING FLUID DENSITY
 DFV .                 67:   DRILLING FLUID VISCOSITY
 DFPH.                8.5:   DRILLING FLUID PH
 DFL .                4.6:   DRILLING FLUID LOSS
 MSS .           FLOWLINE:   MUD SAMPLE SOURCE
 RMS .OHMM           3.37:   RESISTIVITY MUD SAMPLE
 MST .F                79:   MUD SAMPLE TEMPERATURE
 RMF .OHMM           1.49:   RESISTIVITY MUD FILTRATE SAMPLE
 MFST.F                83:   MUD FILTRATE SAMPLE TEMPERATURE
 MFSS.           MEASURED:   MUD FILTRATE SAMPLE SOURCE
 BHT .F                80:   BOTTOM HOLE TEMPERATURE
 TCS .HRS            0030:   TIME CURCULATED STOPPED
 MRT .F                80:   MAXIMUM RECORDED TEMPERATURE
 LUN .               4507:   LOGGING UNIT NUMBER
 LUL .              CSPR.:   LOGGING UNIT LOCATION
 ENGI.            WINKLER:   RECORDING ENGINEER
 WITN.          JORGENSON:   WITNESSED BY
 CLNT.            A2DTECH:   CLIENT CODE
 ORIG.      2" & 5" PRINT:   ORIGIN OF DATA
 UWI .       490250645200:   UNIQUE WELL ID
 DICO. A2D Technologies, Inc.:   DIGITIZING COMPANY
~OTHER INFORMATION
~A   DEPT       GR        SPR       CILD          ILD        ASN 
# ...
  514.0000    97.5005   -62.6957   158.2915     6.6822     7.8811
  514.5000   103.6321   -62.6632   156.9648     6.7350     7.7445
  515.0000   104.2241   -62.6306   154.3063     6.8067     7.8338
  515.5000   106.4600   -62.5976   151.6478     6.8796     7.9522
  516.0000    96.8030   -62.5649   148.9754     6.9527     8.0712
  516.5000   106.9976   -62.4692   146.2426     7.0255     8.1672
  517.0000   117.4312   -62.3462   146.2179     7.0866     8.1208
  517.5000   112.9154   -62.3490   146.2285     7.0686     8.0762
  518.0000   111.7559   -62.3494   146.2312     7.0507     8.0104
  518.5000   117.4189   -62.3491   146.2322     7.0331     7.8761
  519.0000   107.8646   -62.3480   146.2312     7.0153     7.7228
  519.5000   114.7281   -62.3569   146.2312     6.9981     7.6361
  520.0000   114.7185   -62.5422   145.4306     7.0000     7.6152
  520.5000   110.0420   -62.7282   144.2007     7.0721     7.6569
  521.0000   111.4717   -62.7516   142.9707     7.1418     7.8004
  521.5000    95.7115   -62.7515   141.7408     7.2118     7.9501
  522.0000    94.7834   -62.7507   140.5108     7.2831     8.0102
  522.5000    99.7348   -62.7206   139.1960     7.2870     8.0518
  523.0000   105.0162   -62.6225   139.9415     7.2868     8.0704
  523.5000   109.0563   -62.5256   141.3312     7.2450     8.0668
  524.0000   105.3840   -62.4286   143.1457     7.1703     8.0170
  524.5000   107.6944   -62.3316   145.6935     7.0954     7.8997
  525.0000   109.7122   -62.2346   148.2412     7.0204     7.7939
  525.5000   112.2934   -62.1375   150.7889     6.9454     7.7228
  526.0000   106.1223   -62.0402   153.3367     6.8701     7.6507
  526.5000   110.2050   -61.9496   155.3327     6.7938     7.5792
  527.0000   101.7847   -61.9470   154.9121     6.8228     7.5553
  527.5000    97.0195   -61.9476   153.4515     6.8690     7.5946
  528.0000    95.3514   -61.9497   151.9971     6.9156     7.6322
  528.5000    93.1765   -62.0589   150.5413     6.9620     7.6698
  529.0000   100.6650   -62.2951   149.0854     7.0082     7.7394
  529.5000   102.4555   -62.3488   147.6296     7.0546     7.8489
  530.0000   107.2110   -62.3501   146.1737     7.1184     7.9864
  530.5000   106.3667   -62.3496   144.3960     7.2190     8.1250
  531.0000   101.2392   -62.3500   142.0181     7.3191     8.1201
  531.5000   105.8964   -62.3471   139.6402     7.4193     8.0477
  532.0000   109.6238   -62.2569   138.1909     7.5194     8.0167
  532.5000   104.2805   -62.1618   136.9221     7.6194     8.1825
  533.0000    97.6077   -62.0670   135.7410     7.7195     8.3452
  533.5000    98.7892   -61.9723   133.6422     7.8196     8.5068
  534.0000    99.7433   -61.8776   131.5708     7.9198     8.5941
  534.5000    96.0048   -61.7828   129.4945     8.0200     8.6481
  535.0000    99.2088   -61.6884   127.4186     8.1198     8.6796
  535.5000    94.8445   -61.5934   125.3426     8.1926     8.7114
  536.0000    93.0594   -61.4963   124.1206     8.1858     8.7560
  536.5000   100.0239   -61.3931   125.1736     8.1375     8.8311
  537.0000    97.4798   -61.3655   126.3317     8.0888     8.8458
  537.5000   102.2125   -61.4009   127.4897     8.0405     8.7622
  538.0000   104.8781   -61.4372   128.6478     7.9896     8.6676
  538.5000    90.7329   -61.4738   130.4165     7.8878     8.5734
  539.0000    91.4760   -61.5107   132.6457     7.7814     8.4793
  539.5000    90.0977   -61.5431   134.8750     7.6750     8.3852
  540.0000   101.9432   -61.4786   136.7085     7.5691     8.2911
  540.5000   100.3106   -61.4105   137.9824     7.4855     8.1970
  541.0000    98.0051   -61.3429   137.9403     7.4872     8.1020
  541.5000   103.1678   -61.2516   137.6406     7.4874     8.0712
  542.0000   107.7306   -61.1615   137.3408     7.4874     8.0988
  542.5000   109.0381   -61.0716   137.0411     7.4874     8.1601
  543.0000   106.7510   -60.9818   136.7413     7.4874     8.2214
  543.5000   101.3935   -60.8921   136.4416     7.4874     8.2591
  544.0000    97.4099   -60.8024   136.2004     7.4874     8.2655
  544.5000   107.2268   -60.6889   136.3503     7.4874     8.2459
  545.0000   110.2191   -60.5274   136.5002     7.4875     8.2268
  545.5000   111.3468   -60.3669   136.6500     7.4875     8.2133
  546.0000   110.2957   -60.2043   136.7999     7.4833     8.2308
  546.5000   110.1266   -60.1938   136.9498     7.4587     8.2471
  547.0000   101.9387   -60.2794   137.0996     7.4343     8.2978
  547.5000   102.8333   -60.3667   137.1859     7.4098     8.3246
  548.0000   104.9940   -60.4542   137.1859     7.3887     8.3045
  548.5000    96.7043   -60.5415   137.1859     7.4226     8.2253
  549.0000    95.8084   -60.6289   136.9920     7.4574     8.1583
  549.5000   101.4477   -60.7177   136.2692     7.4920     8.1503
  550.0000   104.3378   -60.7388   135.5464     7.5265     8.1591
  550.5000    99.2782   -60.6628   134.8236     7.5610     8.1817
  551.0000   106.9224   -60.5883   134.1007     7.5956     8.2840
  551.5000   115.9631   -60.5144   133.3779     7.6302     8.4041
  552.0000   118.8392   -60.4406   132.6576     7.6641     8.5360
  552.5000   113.3992   -60.3669   132.5502     7.6766     8.6732
  553.0000   112.7078   -60.2932   133.8091     7.6338     8.6546
  553.5000   106.3335   -60.2198   135.1759     7.5889     8.5244
  554.0000    99.9309   -60.1408   137.6465     7.4444     8.3454
  554.5000    97.0281   -59.9319   140.4925     7.2870     8.1296
  555.0000    96.3003   -59.7157   143.3384     7.1251     7.9168
  555.5000   101.8493   -59.5851   146.1844     6.9868     7.7506
  556.0000   105.0191   -59.4512   149.2462     6.8488     7.7021
  556.5000   101.7931   -59.3337   150.0674     6.7674     7.6508
  557.0000   102.6571   -59.4078   150.9560     6.7327     7.6680
  557.5000   105.1675   -59.5340   151.8390     6.6991     7.6903
  558.0000   108.3299   -59.5808   152.6885     6.6656     7.7124
  558.5000   110.7353   -59.6243   153.4764     6.6321     7.7344
  559.0000   115.3345   -59.6680   154.2735     6.5985     7.7480
  559.5000   114.2405   -59.7110   155.0685     6.5490     7.6816
  560.0000   111.9331   -59.7145   157.3423     6.4845     7.6095
  560.5000   105.5216   -59.6462   160.3015     6.4451     7.5425
  561.0000    94.9897   -59.5792   160.3015     6.4070     7.5047
  561.5000    94.5281   -59.5119   159.2965     6.4165     7.4361
  562.0000    91.7645   -59.4447   153.5799     6.6696     7.3709
  562.5000    89.3369   -59.3775   147.2362     6.9204     7.4854
  563.0000    95.3014   -59.3103   144.1608     7.1452     7.7455
  563.5000   100.1721   -59.2432   140.9239     7.3119     8.1636
  564.0000    98.0093   -59.1755   137.6133     7.4801     8.5876
  564.5000   106.4030   -59.0867   133.9032     7.6479     8.7321
  565.0000   108.2429   -58.9654   130.1931     7.8158     8.7811
  565.5000   111.4026   -58.8444   126.4829     7.9843     9.0320
  566.0000   109.3950   -58.7234   124.9447     8.1605     8.8726
  566.5000   107.8196   -58.6030   129.4390     8.0160     8.6766
  567.0000   110.5251   -58.5335   132.9932     7.7880     8.5751
  567.5000   108.6943   -58.5331   136.5474     7.5412     8.5254
  568.0000   115.3177   -58.5262   140.2010     7.3956     8.4251
  568.5000   117.2051   -58.8792   141.8679     7.2759     8.2784
  569.0000   106.9441   -58.8689   143.5846     7.1570     8.1112
  569.5000   106.7004   -58.7916   145.6826     7.0378     7.9965
  570.0000   100.5288   -58.7121   147.7806     6.9185     7.9312
  570.5000    97.2802   -58.6334   149.8786     6.7986     7.8726
  571.0000   101.0195   -58.5549   151.9765     6.6782     7.8132
  571.5000    86.1164   -58.4763   154.2714     6.5871     7.7798
  572.0000    87.6634   -58.3978   152.0779     6.8424     7.7874
  572.5000    77.2138   -58.3192   146.4133     7.1094     7.8679
  573.0000    90.7619   -58.2407   140.7487     7.3743     7.9644
  573.5000   104.0119   -58.1622   135.6935     7.6017     8.1934
  574.0000   109.3220   -58.0836   133.1658     7.6484     8.6431
  574.5000   108.6259   -58.0051   129.1538     7.7433     9.4708
