~VERSION INFORMATION
 VERS.                2.0:   CWLS LOG ASCII STANDARD - VERSION 2.0
 WRAP.                 NO:   ONE LINE PER DEPTH STEP
~WELL INFORMATION
#MNEM.UNIT      DATA TYPE    INFORMATION
#----------   ------------   ------------------------------
 STRT.F           15.0000:   START DEPTH
 STOP.F         5640.0000:   STOP DEPTH
 STEP.F            0.5000:   STEP LENGTH
 NULL.          -999.2500:   NO VALUE
 COMP.       F D SERV INC:   COMPANY
 WELL. NAVAL PETROLEUM RESERVE 3 SX-1 #43-10:   WELL
 FLD .         N.P.R. #.3:   FIELD
 LOC .      S10 T38N R78W:   LOCATION
 CNTY.            NATRONA:   COUNTY
 STAT.            WYOMING:   STATE
 CTRY. UNITED STATES OF AMERICA:   COUNTRY
 SRVC.      Dresser Atlas:   SERVICE COMPANY
 DATE.        05-JUL-1986:   LOGDATE
 API .       490251101800:   API NUMBER
~CURVE INFORMATION
#MNEM.UNIT       API CODE    CURVE DESCRIPTION
#----------   ------------   ------------------------------
 DEPT.F                  :   
 GRR .GAPI   07 310 01 00:   GAMMA RAY
 ILD .OHMM   07 120 46 00:   INDUCTION LOG DEEP
 ILM .OHMM   07 120 44 00:   INDUCTION LOG MEDIUM
 CALS.IN     60 280 50 00:   CALIPER FROM SONIC LOG
 GRS .GAPI   60 310 01 00:   GAMMA RAY FROM SONIC LOG
 AC  .US/F   60 520 00 00:   ACCOUSTIC
~PARAMETER INFORMATION
#MNEM.UNIT          VALUE    DESCRIPTION
#----------   ------------   ------------------------------
 PD  .                 GL:   PERMANENT DATUM
 EPD .F              5205:   ELEVATION PERMANENT DATUM
 LMF .                 KB:   LOG MEASURED FROM
 DAPD.F                 5:   FEET ABOVE PERMANENT DATUM
 DMF .                 KB:   DRILLING MEASURED FROM
 EKB .F              5210:   KELLING BUSHING
 EGL .F              5205:   GROUND LEVEL
 DATE.        05-JUL-1986:   RUN DATE
 RUN .                  1:   RUN NUMBER
 DD  .F               560:   DEPTH DRILLER
 DL  .F               560:   DEPTH LOGGER
 BLI .F               550:   BOTTOM LOG INTERVAL
 TLI .F                15:   TOP LOG INTERVAL
 CS  .IN            8.625:   CASING SIZE
 CBD .F                47:   CASING BOTTOM DRILLER
 CBL .F                47:   CASING BOTTOM LOGGER
 BS  .IN            7.875:   BIT SIZE
 BSD .F               560:   BIT SIZE AT DEPTH
 DFT .                AIR:   DRILLING FLUID TYPE
 BHT .F                83:   BOTTOM HOLE TEMPERATURE
 TCS .HRS            2100:   TIME CURCULATED STOPPED
 TLAB.HRS            2230:   TIME LOGGER AT BOTTOM
 MRT .F                83:   MAXIMUM RECORDED TEMPERATURE
 LUN .               7609:   LOGGING UNIT NUMBER
 LUL .           GILLETTE:   LOGGING UNIT LOCATION
 ENGI.              BAURT:   RECORDING ENGINEER
 CLNT.            A2DTECH:   CLIENT CODE
 ORIG. 1" 2" 2.5", 5" PRINT:   ORIGIN OF DATA
 UWI .       490251101800:   UNIQUE WELL ID
 DICO. A2D Technologies, Inc.:   DIGITIZING COMPANY
 R2  . HEADER NOT CLEARLY VISIBLE:   REMARKS 2
~OTHER INFORMATION
~A   DEPT       GRR       ILD        ILM       CALS        GRS         AC   
# ...
 5319.0000  -999.2500  -999.2500  -999.2500    10.1761    72.6121    62.3048
 5319.5000  -999.2500  -999.2500  -999.2500    10.1759    84.4884    61.2505
 5320.0000  -999.2500  -999.2500  -999.2500    10.1606   106.8479    59.2911
 5320.5000  -999.2500  -999.2500  -999.2500    10.1302   117.4510    57.3318
 5321.0000  -999.2500  -999.2500  -999.2500    10.0997    99.8723    55.4884
 5321.5000  -999.2500  -999.2500  -999.2500    10.0692    80.4754    54.0169
 5322.0000  -999.2500  -999.2500  -999.2500     9.9933    52.2907    52.9625
 5322.5000  -999.2500  -999.2500  -999.2500     9.9326    33.1968    51.9836
 5323.0000  -999.2500  -999.2500  -999.2500     9.8870    19.8605    51.1555
 5323.5000  -999.2500  -999.2500  -999.2500     9.8565    18.3400    50.5537
 5324.0000  -999.2500  -999.2500  -999.2500     9.8564    21.7713    49.8010
 5324.5000  -999.2500  -999.2500  -999.2500     9.8562    28.9418    49.0483
 5325.0000  -999.2500  -999.2500  -999.2500     9.8561    33.1813    48.8235
 5325.5000  -999.2500  -999.2500  -999.2500     9.8726    38.9360    48.6742
 5326.0000  -999.2500  -999.2500  -999.2500     9.9315    43.4785    49.0531
 5326.5000  -999.2500  -999.2500  -999.2500     9.9465    44.0823    49.5070
 5327.0000  -999.2500  -999.2500  -999.2500     9.9615    37.7150    49.8784
 5327.5000  -999.2500  -999.2500  -999.2500     9.9613    31.6514    50.3396
 5328.0000  -999.2500  -999.2500  -999.2500     9.9915    25.5733    50.6428
 5328.5000  -999.2500  -999.2500  -999.2500    10.0368    21.2288    50.9459
 5329.0000  -999.2500  -999.2500  -999.2500    10.0670    18.0055    51.1736
 5329.5000  -999.2500  -999.2500  -999.2500    10.0668    17.6995    51.0993
 5330.0000  -999.2500  -999.2500  -999.2500    10.0667    17.6966    51.1011
 5330.5000  -999.2500  -999.2500  -999.2500    10.0665    18.3004    51.1780
 5331.0000  -999.2500  -999.2500  -999.2500    10.0512    18.2967    51.3321
 5331.5000  -999.2500  -999.2500  -999.2500    10.0359    17.6877    51.5581
 5332.0000  -999.2500  -999.2500  -999.2500    10.0054    17.0787    51.6353
 5332.5000  -999.2500  -999.2500  -999.2500     9.9447    17.3788    51.6367
 5333.0000  -999.2500  -999.2500  -999.2500     9.9142    18.3297    51.4874
 5333.5000  -999.2500  -999.2500  -999.2500     9.8535    21.3116    51.1872
 5334.0000  -999.2500  -999.2500  -999.2500     9.8079    24.3389    50.8116
 5334.5000  -999.2500  -999.2500  -999.2500     9.7471    30.0936    50.2851
 5335.0000  -999.2500  -999.2500  -999.2500     9.6864    37.9694    49.9849
 5335.5000  -999.2500  -999.2500  -999.2500     9.6090    48.8755    49.7602
 5336.0000  -999.2500  -999.2500  -999.2500     9.6406    58.9492    49.9126
 5336.5000  -999.2500  -999.2500  -999.2500     9.7162    67.3543    50.1403
 5337.0000  -999.2500  -999.2500  -999.2500     9.7767    70.0786    50.6815
 5337.5000  -999.2500  -999.2500  -999.2500     9.7613    70.1268    51.6890
 5338.0000  -999.2500  -999.2500  -999.2500     9.7157    69.4666    52.7846
 5338.5000  -999.2500  -999.2500  -999.2500     9.6247    71.0153    53.4648
 5339.0000  -999.2500  -999.2500  -999.2500     9.5791    71.8850    53.3154
 5339.5000  -999.2500  -999.2500  -999.2500     9.5486    70.6692    52.7136
 5340.0000  -999.2500  -999.2500  -999.2500     9.5182    68.5450    51.5084
 5340.5000  -999.2500  -999.2500  -999.2500     9.5195    62.7845    50.6049
 5341.0000  -999.2500  -999.2500  -999.2500     9.5482    58.8421    50.3801
 5341.5000  -999.2500  -999.2500  -999.2500     9.5783    54.8998    51.0767
 5342.0000  -999.2500  -999.2500  -999.2500     9.6388    52.7757    51.7409
 5342.5000  -999.2500  -999.2500  -999.2500     9.7598    51.8636    52.2702
 5343.0000  -999.2500  -999.2500  -999.2500     9.7900    50.6241    52.7996
 5343.5000  -999.2500  -999.2500  -999.2500     9.7747    49.7358    53.1027
 5344.0000  -999.2500  -999.2500  -999.2500     9.7594    50.0359    53.2550
 5344.5000  -999.2500  -999.2500  -999.2500     9.6986    50.9420    53.0303
 5345.0000  -999.2500  -999.2500  -999.2500     9.6530    52.1512    52.2776
 5345.5000  -999.2500  -999.2500  -999.2500     9.6377    53.0580    51.6003
 5346.0000  -999.2500  -999.2500  -999.2500     9.6375    52.7513    50.9846
 5346.5000  -999.2500  -999.2500  -999.2500     9.6374    52.4454    50.3970
 5347.0000  -999.2500  -999.2500  -999.2500     9.6524    51.8364    50.0214
 5347.5000  -999.2500  -999.2500  -999.2500     9.6977    49.3485    49.8716
 5348.0000  -999.2500  -999.2500  -999.2500     9.7582    44.5570    50.1751
 5348.5000  -999.2500  -999.2500  -999.2500     9.7580    40.3116    50.7045
 5349.0000  -999.2500  -999.2500  -999.2500     9.7579    31.2178    51.2339
 5349.5000  -999.2500  -999.2500  -999.2500     9.7274    30.9125    51.3107
 5350.0000  -999.2500  -999.2500  -999.2500     9.6818    32.7278    51.2011
 5350.5000  -999.2500  -999.2500  -999.2500     9.6967    31.8073    51.0561
 5351.0000  -999.2500  -999.2500  -999.2500     9.7266    29.3743    50.9351
 5351.5000  -999.2500  -999.2500  -999.2500     9.7718    28.7595    51.1614
 5352.0000  -999.2500  -999.2500  -999.2500     9.8019    29.9629    52.5509
 5352.5000  -999.2500  -999.2500  -999.2500     9.8318    36.0148    55.3846
 5353.0000  -999.2500  -999.2500  -999.2500     9.8327    52.9758    57.7979
 5353.5000  -999.2500  -999.2500  -999.2500     9.8464    73.1083    60.0603
 5354.0000  -999.2500  -999.2500  -999.2500     9.8460    94.4713    60.4374
 5354.5000  -999.2500  -999.2500  -999.2500     9.8457    98.7050    60.0603
 5355.0000  -999.2500  -999.2500  -999.2500     9.8303    99.0015    59.2860
 5355.5000  -999.2500  -999.2500  -999.2500     9.8148    98.3845    58.6275
 5356.0000  -999.2500  -999.2500  -999.2500     9.7819    98.0727    58.0241
 5356.5000  -999.2500  -999.2500  -999.2500     9.7536    96.8497    57.7225
 5357.0000  -999.2500  -999.2500  -999.2500     9.7381    95.3258    57.5716
 5357.5000  -999.2500  -999.2500  -999.2500     9.7227    88.9535    58.1849
 5358.0000  -999.2500  -999.2500  -999.2500     9.7073    84.3993    59.4570
 5358.5000  -999.2500  -999.2500  -999.2500     9.6758    85.9057    60.5882
 5359.0000  -999.2500  -999.2500  -999.2500     9.6460    90.7454    61.4932
 5359.5000  -999.2500  -999.2500  -999.2500     9.6154    96.1404    61.6440
 5360.0000  -999.2500  -999.2500  -999.2500     9.6000   100.4228    61.5686
 5360.5000  -999.2500  -999.2500  -999.2500     9.5997   103.7474    61.4006
 5361.0000  -999.2500  -999.2500  -999.2500     9.5994   105.5568    60.8899
 5361.5000  -999.2500  -999.2500  -999.2500     9.6143   105.8515    60.4374
 5362.0000  -999.2500  -999.2500  -999.2500     9.6290   105.5394    60.1357
 5362.5000  -999.2500  -999.2500  -999.2500     9.6439   103.1042    60.0603
 5363.0000  -999.2500  -999.2500  -999.2500     9.6740   100.9743    60.0615
 5363.5000  -999.2500  -999.2500  -999.2500     9.6888    99.1474    60.3620
 5364.0000  -999.2500  -999.2500  -999.2500     9.7188    98.8378    60.9653
 5364.5000  -999.2500  -999.2500  -999.2500     9.7487   103.9784    61.6440
 5365.0000  -999.2500  -999.2500  -999.2500     9.8090   110.0303    62.2474
 5365.5000  -999.2500  -999.2500  -999.2500     9.8845   114.7687    62.6244
 5366.0000  -999.2500  -999.2500  -999.2500     9.9600   120.3137    62.5332
 5366.5000  -999.2500  -999.2500  -999.2500     9.9900   122.4262    62.2474
 5367.0000  -999.2500  -999.2500  -999.2500    10.0352   123.3287    61.3424
 5367.5000  -999.2500  -999.2500  -999.2500    10.0499   122.7118    60.0603
 5368.0000  -999.2500  -999.2500  -999.2500    10.0497   119.6727    58.6275
 5368.5000  -999.2500  -999.2500  -999.2500    10.0494   113.9566    56.9683
 5369.0000  -999.2500  -999.2500  -999.2500    10.0642   106.3198    54.5551
 5369.5000  -999.2500  -999.2500  -999.2500    10.0639    96.3110    52.8959
 5370.0000  -999.2500  -999.2500  -999.2500    10.0636    87.8175    51.7647
 5370.5000  -999.2500  -999.2500  -999.2500    10.0633    75.3845    50.7089
