~VERSION INFORMATION
 VERS.                2.0:   CWLS LOG ASCII STANDARD - VERSION 2.0
 WRAP.                 NO:   ONE LINE PER DEPTH STEP
~WELL INFORMATION
#MNEM.UNIT      DATA TYPE    INFORMATION
#----------   ------------   ------------------------------
 STRT.F           50.0000:   START DEPTH
 STOP.F          854.0000:   STOP DEPTH
 STEP.F            0.5000:   STEP LENGTH
 NULL.          -999.2500:   NO VALUE
 COMP. FENIX & SCISSON INC:   COMPANY
 WELL.    45 SX 11 #45-11:   WELL
 FLD .             TEAPOT:   FIELD
 LOC .      S11 T38N R78W:   LOCATION
 CNTY.            NATRONA:   COUNTY
 STAT.            WYOMING:   STATE
 CTRY. UNITED STATES OF AMERICA:   COUNTRY
 SRVC.           BIRDWELL:   SERVICE COMPANY
 DATE.        01-MAR-1978:   LOGDATE
 API .       490251058600:   API NUMBER
~CURVE INFORMATION
#MNEM.UNIT       API CODE    CURVE DESCRIPTION
#----------   ------------   ------------------------------
 DEPT.F                  :   
 CALD.IN     45 280 60 00:   CALIPER
 CORR.G/C3   45 356 01 00:   DENSITY CORRECTION
 RHOB.G/C3   45 350 01 00:   BULK DENSITY
 DPOR.DEC    45 890 12 00:   DENSITY POROSITY SANDSTONE
 GRD .GAPI   45 310 01 00:   GAMMA RAY FROM DENSITY LOG
 SPR .MV     05 010 01 00:   SPONTANEOUS POTENTIAL FROM RES.
 SN  .OHMM   05 040 16 00:   SHORT NORMAL 16"
 ILD .OHMM   05 120 46 00:   INDUCTION LOG DEEP
~PARAMETER INFORMATION
#MNEM.UNIT          VALUE    DESCRIPTION
#----------   ------------   ------------------------------
 PD  .                 GL:   PERMANENT DATUM
 EPD .F              5186:   ELEVATION PERMANENT DATUM
 LMF .                 KB:   LOG MEASURED FROM
 DAPD.F                 4:   FEET ABOVE PERMANENT DATUM
 DMF .                 KB:   DRILLING MEASURED FROM
 EKB .F              5190:   KELLING BUSHING
 EGL .F              5186:   GROUND LEVEL
 DATE.           3-1-1978:   RUN DATE
 RUN .                  1:   RUN NUMBER
 DD  .F               848:   DEPTH DRILLER
 DL  .F               856:   DEPTH LOGGER
 BLI .F               851:   BOTTOM LOG INTERVAL
 TLI .F                50:   TOP LOG INTERVAL
 CS  .IN            8.625:   CASING SIZE
 CBD .F                40:   CASING BOTTOM DRILLER
 CBL .F                40:   CASING BOTTOM LOGGER
 BS  .IN            7.875:   BIT SIZE
 BSD .F               848:   BIT SIZE AT DEPTH
 DFT .          LIGNOSULF:   DRILLING FLUID TYPE
 DFD .                8.5:   DRILLING FLUID DENSITY
 DFV .                 30:   DRILLING FLUID VISCOSITY
 DFPH.               11.5:   DRILLING FLUID PH
 MSS .                PIT:   MUD SAMPLE SOURCE
 RMS .OHMM              2:   RESISTIVITY MUD SAMPLE
 MST .F                59:   MUD SAMPLE TEMPERATURE
 RMF .OHMM            1.8:   RESISTIVITY MUD FILTRATE SAMPLE
 MFST.F                60:   MUD FILTRATE SAMPLE TEMPERATURE
 RMC .OHMM            2.2:   RESISTIVITY MUD CAKE
 MCST.F                60:   MUD CAKE SAMPLE TEMPERATURE
 MFSS.               MEAS:   MUD FILTRATE SAMPLE SOURCE
 MCSS.               MEAS:   MUD CAKE SAMPLE SOURCE
 RMB .OHMM           1.69:   RESISTIVITY MUD AT BHT
 BHT .F                70:   BOTTOM HOLE TEMPERATURE
 TCS .HRS               3:   TIME CURCULATED STOPPED
 MRT .F                70:   MAXIMUM RECORDED TEMPERATURE
 LUN .               2959:   LOGGING UNIT NUMBER
 LUL .               CASP:   LOGGING UNIT LOCATION
 ENGI.            POINTER:   RECORDING ENGINEER
 WITN.         HARRINGTON:   WITNESSED BY
 CLNT.            A2DTECH:   CLIENT CODE
 ORIG.       2", 5" PRINT:   ORIGIN OF DATA
 UWI .       490251058600:   UNIQUE WELL ID
 DICO. A2D Technologies, Inc.:   DIGITIZING COMPANY
~OTHER INFORMATION
~A   DEPT       CALD      CORR      RHOB       DPOR        GRD        SPR         SN        ILD   
# ...
  252.5000     7.8289     0.0507     2.4113     0.1467   111.0316   -30.7691     6.1648     5.9850
  253.0000     7.8278     0.0474     2.4048     0.1447   107.2216   -30.8652     6.1648     5.9812
  253.5000     7.8267     0.0453     2.4148     0.1387   102.4087   -30.9345     6.1649     5.9775
  254.0000     7.8256     0.0443     2.4267     0.1409   100.4633   -30.8647     6.1596     5.9737
  254.5000     7.8245     0.0439     2.4219     0.1431   101.4079   -30.7275     6.1525     5.9699
  255.0000     7.8224     0.0436     2.4171     0.1452   102.4443   -30.5905     6.1453     5.9662
  255.5000     7.8187     0.0432     2.4152     0.1447    99.9627   -30.4534     6.1382     5.9624
  256.0000     7.8149     0.0429     2.4083     0.1449    97.4116   -30.3163     6.1310     5.9586
  256.5000     7.8112     0.0426     2.4133     0.1490   101.9431   -30.1790     6.1239     5.9549
  257.0000     7.8074     0.0422     2.4023     0.1496   107.3102   -30.0417     6.1169     5.9511
  257.5000     7.8037     0.0419     2.4028     0.1444   106.9488   -29.9195     6.1095     5.9473
  258.0000     7.8000     0.0415     2.4139     0.1444   107.4172   -29.9182     6.1077     5.9436
  258.5000     7.7962     0.0412     2.4065     0.1441   109.4521   -29.9188     6.2191     5.9396
  259.0000     7.7925     0.0409     2.4141     0.1428   109.4085   -29.9189     6.3044     5.9883
  259.5000     7.7888     0.0405     2.4243     0.1416   109.7436   -29.9189     6.3907     6.0408
  260.0000     7.7850     0.0394     2.4216     0.1403   110.6600   -29.9189     6.4781     6.0939
  260.5000     7.7813     0.0368     2.4199     0.1391   111.5784   -29.9189     6.5187     6.1474
  261.0000     7.7775     0.0312     2.4219     0.1391   112.4983   -29.9189     6.5187     6.2014
  261.5000     7.7738     0.0259     2.4206     0.1456   112.6052   -29.9189     6.5187     6.2555
  262.0000     7.7700     0.0244     2.4111     0.1502   107.9925   -29.9188     6.5187     6.3000
  262.5000     7.7663     0.0314     2.4243     0.1523   102.4152   -29.9185     6.6013     6.3347
  263.0000     7.7629     0.0381     2.3993     0.1531    97.5773   -29.9192     6.6900     6.3700
  263.5000     7.7564     0.0377     2.4021     0.1585    98.2346   -29.9888     6.7796     6.4054
  264.0000     7.7494     0.0369     2.3937     0.1487   100.1532   -30.0669     6.8706     6.4411
  264.5000     7.7423     0.0381     2.4031     0.1432   102.0747   -30.1451     6.8945     6.4769
  265.0000     7.7352     0.0429     2.4140     0.1447   102.2424   -30.2232     6.8991     6.5129
  265.5000     7.7283     0.0477     2.4141     0.1465   101.2005   -30.3022     6.9036     6.5492
  266.0000     7.7222     0.0483     2.4073     0.1484   100.1226   -30.3243     6.9081     6.5791
  266.5000     7.7133     0.0471     2.4001     0.1502   101.6770   -30.3247     6.9127     6.5731
  267.0000     7.7034     0.0464     2.4040     0.1531   103.7221   -30.3247     6.9172     6.5676
  267.5000     7.7327     0.0538     2.4006     0.1565   105.6448   -30.3248     6.9218     6.5620
  268.0000     7.7786     0.0647     2.3975     0.1565   104.7298   -30.3280     6.9263     6.5565
  268.5000     7.8037     0.0691     2.3977     0.1557   102.3913   -30.1464     6.9309     6.5509
  269.0000     7.8036     0.0618     2.3986     0.1541   100.0874   -29.8939     6.9354     6.5454
  269.5000     7.8037     0.0548     2.4003     0.1477    97.8366   -29.6399     6.9399     6.5398
  270.0000     7.8036     0.0485     2.4104     0.1409    98.1900   -29.3853     6.9445     6.5343
  270.5000     7.8036     0.0485     2.4294     0.1335   100.7105   -29.1338     6.9492     6.5287
  271.0000     7.8036     0.0485     2.4315     0.1344   102.4764   -29.1066     6.9535     6.5232
  271.5000     7.8036     0.0486     2.4249     0.1391   102.1972   -29.1069     6.9699     6.5186
  272.0000     7.8036     0.0422     2.4221     0.1351   103.8841   -29.2244     7.0419     6.5187
  272.5000     7.8036     0.0393     2.4286     0.1255   105.6218   -29.4586     7.2187     6.5187
  273.0000     7.8037     0.0454     2.4351     0.1317   105.1603   -29.6927     7.5647     6.5187
  273.5000     7.8038     0.0505     2.4388     0.1339   104.7596   -29.9274     7.9993     6.5187
  274.0000     7.8029     0.0466     2.4291     0.1321   103.6918   -30.1595     7.8075     6.5187
  274.5000     7.7730     0.0525     2.4363     0.1284    99.0812   -30.2666     7.4955     6.5188
  275.0000     7.7414     0.0607     2.4485     0.1262    94.5020   -30.0470     7.1960     6.5191
  275.5000     7.7099     0.0570     2.4472     0.1262    89.8693   -29.8336     7.0224     6.5192
  276.0000     7.6782     0.0489     2.4437     0.1275    88.6546   -29.6197     6.8923     6.4469
  276.5000     7.6454     0.0410     2.4487     0.1328    95.2097   -29.6650     6.8291     6.3755
  277.0000     7.6881     0.0329     2.4281     0.1394   100.9034   -29.9698     6.8291     6.3051
  277.5000     7.7428     0.0250     2.4190     0.1460   100.2340   -30.2741     6.8291     6.2224
  278.0000     7.7848     0.0215     2.4139     0.1518   101.6304   -30.5793     6.8291     6.2909
  278.5000     7.7849     0.0283     2.4057     0.1554   107.1996   -30.6973     6.8293     6.4047
  279.0000     7.7758     0.0348     2.3974     0.1577   108.8700   -30.3828     6.8346     6.5187
  279.5000     7.8021     0.0413     2.3901     0.1554   109.0471   -30.0637     6.8401     6.5369
  280.0000     7.7695     0.0466     2.3947     0.1448   107.4521   -29.7492     6.8457     6.5548
  280.5000     7.7453     0.0469     2.4025     0.1468   105.2950   -29.7162     6.8512     6.5728
  281.0000     7.7197     0.0481     2.4104     0.1462   106.0925   -29.7151     6.8567     6.5846
  281.5000     7.6940     0.0494     2.4115     0.1438   106.1651   -29.6139     6.8622     6.5964
  282.0000     7.6825     0.0507     2.4103     0.1396   105.3284   -29.3743     6.8677     6.6083
  282.5000     7.6925     0.0520     2.4190     0.1353   106.9605   -29.2159     6.8732     6.6201
  283.0000     7.7235     0.0524     2.4284     0.1310   108.4759   -29.0601     6.8789     6.6320
  283.5000     7.7542     0.0520     2.4378     0.1270   106.3223   -28.9079     6.8844     6.6412
  284.0000     7.7846     0.0515     2.4457     0.1291   104.1449   -28.7578     6.8888     6.6411
  284.5000     7.8039     0.0511     2.4456     0.1276   103.9448   -28.6239     6.8929     6.6411
  285.0000     7.8036     0.0507     2.4428     0.1239   106.0614   -28.7880     6.6951     6.5013
  285.5000     7.8037     0.0503     2.4394     0.1210   108.1159   -29.0079     6.5608     6.3693
  286.0000     7.8040     0.0498     2.4450     0.1248   107.8852   -29.1084     6.4292     6.2400
  286.5000     7.8059     0.0494     2.4473     0.1286   106.4406   -29.0196     6.3002     6.1133
  287.0000     7.7182     0.0490     2.4423     0.1323   106.1349   -28.8920     6.2806     5.9951
  287.5000     7.6165     0.0486     2.4372     0.1315   107.5934   -28.7681     6.2806     5.9951
  288.0000     7.5716     0.0466     2.4357     0.1298   108.9700   -28.7143     6.2806     5.9951
  288.5000     7.7261     0.0444     2.4413     0.1283   109.9610   -28.5408     6.2806     5.9988
  289.0000     7.8192     0.0422     2.4376     0.1290   110.5121   -28.8713     6.2786     6.0131
  289.5000     7.8243     0.0399     2.4408     0.1331   110.9039   -29.2083     6.3392     6.0275
  290.0000     7.8241     0.0381     2.4307     0.1365   110.1518   -29.5473     6.3488     6.0419
  290.5000     7.8239     0.0372     2.4244     0.1363   108.6147   -29.5473     6.3577     6.0564
  291.0000     7.8239     0.0363     2.4264     0.1351   107.1074   -29.2087     6.3667     6.0709
  291.5000     7.8239     0.0355     2.4284     0.1356   106.0318   -28.8699     6.3757     6.0854
  292.0000     7.8239     0.0345     2.4267     0.1383   106.5627   -28.5341     6.3846     6.1000
  292.5000     7.8239     0.0347     2.4243     0.1374   107.2394   -28.4732     6.3935     6.1198
