~VERSION INFORMATION
 VERS.                2.0:   CWLS LOG ASCII STANDARD - VERSION 2.0
 WRAP.                 NO:   ONE LINE PER DEPTH STEP
~WELL INFORMATION
#MNEM.UNIT      DATA TYPE    INFORMATION
#----------   ------------   ------------------------------
 STRT.F           28.0000:   START DEPTH
 STOP.F          884.0000:   STOP DEPTH
 STEP.F            0.5000:   STEP LENGTH
 NULL.          -999.2500:   NO VALUE
 COMP. U S NAVY-INTEX OIL:   COMPANY
 WELL. NPR 3 TEAPOT DOM #43-SX-2:   WELL
 FLD .             TEAPOT:   FIELD
 LOC .       S2 T38N R78W:   LOCATION
 CNTY.            NATRONA:   COUNTY
 STAT.            WYOMING:   STATE
 CTRY. UNITED STATES OF AMERICA:   COUNTRY
 SRVC.       Schlumberger:   SERVICE COMPANY
 DATE.        19-JUL-1963:   LOGDATE
 API .       490250967900:   API NUMBER
~CURVE INFORMATION
#MNEM.UNIT       API CODE    CURVE DESCRIPTION
#----------   ------------   ------------------------------
 DEPT.F                  :   
 ASN .OHMM   05 041 16 00:   AMPLIFIED SHORT NORMAL 16"
 CILD.MMHO   05 110 46 00:   CONDUCTIVITY INDUCTION LOG DEEP
 ILD .OHMM   05 120 46 00:   INDUCTION LOG DEEP
 SPR .MV     05 010 01 00:   SPONTANEOUS POTENTIAL FROM RES.
 GR  .GAPI   30 310 01 00:   GAMMA RAY
~PARAMETER INFORMATION
#MNEM.UNIT          VALUE    DESCRIPTION
#----------   ------------   ------------------------------
 LMF .                 KB:   LOG MEASURED FROM
 DMF .                 KB:   DRILLING MEASURED FROM
 EKB .F              5151:   KELLING BUSHING
 EGL .F              5146:   GROUND LEVEL
 DATE.        19-JUL-1963:   RUN DATE
 RUN .                  1:   RUN NUMBER
 DD  .F               881:   DEPTH DRILLER
 DL  .F               885:   DEPTH LOGGER
 BLI .F               884:   BOTTOM LOG INTERVAL
 TLI .F                30:   TOP LOG INTERVAL
 CS  .IN            8.625:   CASING SIZE
 CBD .F                12:   CASING BOTTOM DRILLER
 BS  .IN             6.75:   BIT SIZE
 BSD .F               881:   BIT SIZE AT DEPTH
 DFT .           GEL- OIL:   DRILLING FLUID TYPE
 DFD .                9.6:   DRILLING FLUID DENSITY
 DFV .                 39:   DRILLING FLUID VISCOSITY
 DFPH.                8.5:   DRILLING FLUID PH
 DFL .                4.4:   DRILLING FLUID LOSS
 RMS .OHMM           2.58:   RESISTIVITY MUD SAMPLE
 MST .F                72:   MUD SAMPLE TEMPERATURE
 RMF .OHMM           2.26:   RESISTIVITY MUD FILTRATE SAMPLE
 MFST.F                72:   MUD FILTRATE SAMPLE TEMPERATURE
 TCS .HRS               3:   TIME CURCULATED STOPPED
 LUN .               4507:   LOGGING UNIT NUMBER
 LUL .             CASPER:   LOGGING UNIT LOCATION
 ENGI.            WINKLER:   RECORDING ENGINEER
 WITN.          JORGENSEN:   WITNESSED BY
 CLNT.            A2DTECH:   CLIENT CODE
 ORIG.      2.5" 5" PRINT:   ORIGIN OF DATA
 UWI .       490250967900:   UNIQUE WELL ID
 DICO. A2D Technologies, Inc.:   DIGITIZING COMPANY
~OTHER INFORMATION
~A   DEPT      ASN         CILD       ILD       SPR         GR   
# ...
  211.0000     7.0116   161.1061     6.3303   -38.0182  -999.2500
  211.5000     7.1989   161.1288     6.3285   -38.0212  -999.2500
  212.0000     7.3745   162.0201     6.3270   -37.7229  -999.2500
  212.5000     7.2790   162.6936     6.1740   -37.7259  -999.2500
  213.0000     7.1439   162.7157     6.1725   -37.4277  -999.2500
  213.5000     6.9583   162.7379     6.0195   -37.4307  -999.2500
  214.0000     6.8426   161.2449     6.0181   -37.4337  -999.2500
  214.5000     6.7600   161.2670     6.0166   -37.4367  -999.2500
  215.0000     6.6985   161.2892     6.0151   -37.4398  -999.2500
  215.5000     6.6672   161.3113     6.1651   -37.4428  -999.2500
  216.0000     6.6509   161.3335     6.3152   -37.4458  -999.2500
  216.5000     6.7938   161.3561     6.3136   -37.3524  -999.2500
  217.0000     6.9298   161.3788     6.3121   -37.1501  -999.2500
  217.5000     7.0160   163.1313     6.1402   -37.1536  -999.2500
  218.0000     7.0164   166.2626     5.9808   -37.1566  -999.2500
  218.5000     7.0169   169.0227     5.8530   -37.1596  -999.2500
  219.0000     6.9870   172.5253     5.8136   -37.1626  -999.2500
  219.5000     6.7753   175.6566     5.6985   -37.1657  -999.2500
  220.0000     6.4425   180.9090     5.4949   -37.1693  -999.2500
  220.5000     6.2005   184.9495     5.3924   -37.1722  -999.2500
  221.0000     6.1100   189.5960     5.3278   -37.1752  -999.2500
  221.5000     6.0498   192.7273     5.2379   -37.4793  -999.2500
  222.0000     6.0200   194.9438     5.2364   -37.4823  -999.2500
  222.5000     5.9901   196.4811     5.2348   -37.4852  -999.2500
  223.0000     5.9906   198.0184     5.2333   -37.7894  -999.2500
  223.5000     5.9911   198.0405     5.2315   -37.4911  -999.2500
  224.0000     5.9915   196.5454     5.2301   -37.4941  -999.2500
  224.5000     6.0223   193.5379     5.2286   -37.4970  -999.2500
  225.0000     6.0631   192.0454     5.2271   -37.5000  -999.2500
  225.5000     6.1559   190.5534     5.2256   -37.5030  -999.2500
  226.0000     6.2487   189.0604     5.3756   -37.5060  -999.2500
  226.5000     6.2809   187.5674     5.3741   -37.5090  -999.2500
  227.0000     6.2670   186.0744     5.4422   -37.5120  -999.2500
  227.5000     6.2674   185.8333     5.5227   -37.5151  -999.2500
  228.0000     6.2983   184.6035     5.5212   -37.5181  -999.2500
  228.5000     6.3593   184.2071     5.6712   -37.5211  -999.2500
  229.0000     6.4507   182.6363     5.6697   -37.5241  -999.2500
  229.5000     6.5420   181.0656     5.6682   -37.2254  -999.2500
  230.0000     6.5728   179.4950     5.6919   -37.2289  -999.2500
  230.5000     6.5685   176.4091     5.8168   -37.2319  -999.2500
  231.0000     6.6949   173.3233     5.8152   -37.3795  -999.2500
  231.5000     6.8165   170.2374     5.9654   -37.5392  -999.2500
  232.0000     6.9382   166.6100     6.0141   -37.5422  -999.2500
  232.5000     6.9992   163.6019     6.2654   -37.5458  -999.2500
  233.0000     7.0324   160.5938     6.4152   -37.8499  -999.2500
  233.5000     7.0646   157.5856     6.2621   -37.8529  -999.2500
  234.0000     7.0915   156.0909     6.1848   -37.8558  -999.2500
  234.5000     7.0786   154.5985     5.9561   -37.5576  -999.2500
  235.0000     6.9086   154.6218     5.8030   -37.5605  -999.2500
  235.5000     6.7406   156.1591     5.6497   -37.5635  -999.2500
  236.0000     6.6473   157.7778     5.6482   -37.5664  -999.2500
  236.5000     6.5114   160.9091     5.1922   -37.2681  -999.2500
  237.0000     6.3698   164.2778     5.0392   -37.2711  -999.2500
  237.5000     6.2462   170.8335     4.5832   -37.2741  -999.2500
  238.0000     5.9958   185.9093     4.2787   -37.2771  -999.2500
  238.5000     5.4593   210.5449     3.9741   -37.2801  -999.2500
  239.0000     5.0658   234.9645     3.6696   -37.2470  -999.2500
  239.5000     4.6723   258.9697     3.3651   -36.6835  -999.2500
  240.0000     4.3395   286.1620     2.9091   -36.3852  -999.2500
  240.5000     4.1884   308.7981     2.7561   -36.3886  -999.2500
  241.0000     4.0070   329.5605     2.7545   -36.0899  -999.2500
  241.5000     3.8256   336.7390     2.7530   -36.0934  -999.2500
  242.0000     3.6746   337.2525     2.7768   -36.0964  -999.2500
  242.5000     3.6144   332.2379     2.9017   -36.4006  -999.2500
  243.0000     4.0124   323.1692     3.0894   -36.4036  -999.2500
  243.5000     4.5280   309.5549     3.2457   -36.4066  -999.2500
  244.0000     4.5887   292.9104     3.5535   -36.4096  -999.2500
  244.5000     4.7350   276.2659     3.8614   -36.7139  -999.2500
  245.0000     5.1015   255.0759     4.2323   -36.7175  -999.2500
  245.5000     5.3971   230.1666     4.4770   -36.7204  -999.2500
  246.0000     5.6228   193.5961     4.8606   -36.7234  -999.2500
  246.5000     5.9932   175.5178     5.0927   -36.7263  -999.2500
  247.0000     6.2714   166.7121     5.4005   -37.0305  -999.2500
  247.5000     6.5331   160.5176     5.7649   -37.0334  -999.2500
  248.0000     6.7552   155.8384     6.0664   -37.3376  -999.2500
  248.5000     6.8017   149.6439     6.2167   -37.3405  -999.2500
  249.0000     6.8021   144.9647     6.3667   -37.3435  -999.2500
  249.5000     7.0754   139.4495     6.5167   -37.3464  -999.2500
  250.0000     7.2880   136.3636     6.8182   -37.3494  -999.2500
  250.5000     7.5005   133.2777     6.9681   -37.3524  -999.2500
  251.0000     7.6222   132.6212     7.1181   -37.3313  -999.2500
  251.5000     7.6529   134.1629     6.9651   -37.0570  -999.2500
  252.0000     7.6534   138.7305     6.8121   -37.0120  -999.2500
  252.5000     7.5629   141.7830     6.7980   -36.7618  -999.2500
  253.0000     7.3815   146.3506     6.3545   -36.7651  -999.2500
  253.5000     7.2305   149.4030     6.2015   -36.7681  -999.2500
  254.0000     7.0745   152.4555     6.1874   -36.8675  -999.2500
  254.5000     6.8954   155.5080     6.0154   -37.0753  -999.2500
  255.0000     6.7995   160.1262     5.8561   -37.0783  -999.2500
  255.5000     6.6705   164.8511     5.7409   -37.0813  -999.2500
  256.0000     6.5152   171.0910     5.6889   -37.0843  -999.2500
  256.5000     6.3295   177.8511     5.3780   -36.7861  -999.2500
  257.0000     6.1536   194.6926     5.0672   -36.6205  -999.2500
  257.5000     5.9967   213.3717     4.7563   -36.4910  -999.2500
  258.0000     5.5283   221.3131     4.5212   -36.4945  -999.2500
  258.5000     5.2374   223.8712     4.5197   -36.1958  -999.2500
  259.0000     5.0989   223.8939     4.5182   -36.1992  -999.2500
  259.5000     5.1915   223.9167     4.6679   -36.2022  -999.2500
  260.0000     5.3333   221.6161     4.9694   -36.2051  -999.2500
  260.5000     5.0854   218.5303     5.1195   -36.2081  -999.2500
  261.0000     5.1161   208.8374     5.1180   -36.2110  -999.2500
  261.5000     5.6014   193.7080     5.4195   -36.5152  -999.2500
  262.0000     5.8140   177.0635     5.5697   -36.5181  -999.2500
  262.5000     5.9962   172.5402     5.5681   -36.5211  -999.2500
  263.0000     6.0876   169.5320     5.7182   -36.8253  -999.2500
  263.5000     6.1183   169.5542     5.7166   -37.1295  -999.2500
  264.0000     6.1196   171.0915     5.7152   -37.1325  -999.2500
  264.5000     6.0889   171.1137     5.5621   -37.0874  -999.2500
  265.0000     6.0591   172.6515     5.3965   -36.7771  -999.2500
  265.5000     6.0258   174.1894     5.2371   -36.5388  -999.2500
  266.0000     5.9945   175.9595     5.0778   -36.5422  -999.2500
  266.5000     5.9330   177.5758     4.8869   -36.5452  -999.2500
  267.0000     5.8411   180.7070     4.6076   -36.5482  -999.2500
  267.5000     5.7402   186.2879     4.3409   -36.5512  -999.2500
  268.0000     5.5350   208.1213     3.9859   -36.5542  -999.2500
  268.5000     5.1552   239.2980     3.8265   -36.5572  -999.2500
  269.0000     4.7839   265.8833     3.4525   -36.5602  -999.2500
  269.5000     4.4907   307.8412     3.1227   -36.2620  -999.2500
  270.0000     4.0252   330.6061     3.0455   -35.9644  -999.2500
  270.5000     3.8344   339.5724     2.8167   -36.2686  -999.2500
  271.0000     3.8221   338.0757     2.8152   -36.2716  -999.2500
  271.5000     3.9136   335.0682     3.1164   -36.5757  -999.2500
