~VERSION INFORMATION
 VERS.                2.0:   CWLS LOG ASCII STANDARD - VERSION 2.0
 WRAP.                 NO:   ONE LINE PER DEPTH STEP
~WELL INFORMATION
#MNEM.UNIT      DATA TYPE    INFORMATION
#----------   ------------   ------------------------------
 STRT.F           99.0000:   START DEPTH
 STOP.F          750.0000:   STOP DEPTH
 STEP.F            0.5000:   STEP LENGTH
 NULL.          -999.2500:   NO VALUE
 COMP. U S NAVY/INTEX OIL CO:   COMPANY
 WELL.    NRP #3 #43-S-11:   WELL
 FLD .             TEAPOT:   FIELD
 LOC .      S11 T38N R78W:   LOCATION
 CNTY.            NATRONA:   COUNTY
 STAT.            WYOMING:   STATE
 CTRY. UNITED STATES OF AMERICA:   COUNTRY
 SRVC.       Schlumberger:   SERVICE COMPANY
 DATE.        12-JUL-1962:   LOGDATE
 API .       490250636100:   API NUMBER
~CURVE INFORMATION
#MNEM.UNIT       API CODE    CURVE DESCRIPTION
#----------   ------------   ------------------------------
 DEPT.F                  :   
 SPR .MV     05 010 01 00:   SPONTANEOUS POTENTIAL FROM RES.
 CILD.MMHO   05 110 46 00:   CONDUCTIVITY INDUCTION LOG DEEP
 ILD .OHMM   05 120 46 00:   INDUCTION LOG DEEP
 ASN .OHMM   05 041 16 00:   AMPLIFIED SHORT NORMAL 16"
 GR  .GAPI   30 310 01 00:   GAMMA RAY
~PARAMETER INFORMATION
#MNEM.UNIT          VALUE    DESCRIPTION
#----------   ------------   ------------------------------
 EPD .F              5177:   ELEVATION PERMANENT DATUM
 LMF .                 KB:   LOG MEASURED FROM
 DAPD.F                 5:   FEET ABOVE PERMANENT DATUM
 DMF .                 KB:   DRILLING MEASURED FROM
 EKB .F              5182:   KELLING BUSHING
 EGL .F              5177:   GROUND LEVEL
 DATE.          7-12-1962:   RUN DATE
 RUN .                  1:   RUN NUMBER
 DD  .F               750:   DEPTH DRILLER
 DL  .F               751:   DEPTH LOGGER
 BLI .F               750:   BOTTOM LOG INTERVAL
 TLI .F               100:   TOP LOG INTERVAL
 CBD .F                10:   CASING BOTTOM DRILLER
 BS  .IN             6.75:   BIT SIZE
 BSD .F               750:   BIT SIZE AT DEPTH
 DFT .           OIL EMUL:   DRILLING FLUID TYPE
 DFD .               10.2:   DRILLING FLUID DENSITY
 DFV .                 40:   DRILLING FLUID VISCOSITY
 DFL .                4.6:   DRILLING FLUID LOSS
 RMS .OHMM            5.2:   RESISTIVITY MUD SAMPLE
 MST .F                82:   MUD SAMPLE TEMPERATURE
 RMF .OHMM            3.7:   RESISTIVITY MUD FILTRATE SAMPLE
 MFST.F                82:   MUD FILTRATE SAMPLE TEMPERATURE
 RMC .OHMM            5.8:   RESISTIVITY MUD CAKE
 MCST.F                80:   MUD CAKE SAMPLE TEMPERATURE
 TCS .HRS              .5:   TIME CURCULATED STOPPED
 LUN .               2523:   LOGGING UNIT NUMBER
 LUL .               CSPR:   LOGGING UNIT LOCATION
 ENGI.           ELLERMAN:   RECORDING ENGINEER
 WITN.          JORGENSON:   WITNESSED BY
 CLNT.            A2DTECH:   CLIENT CODE
 ORIG.       2", 5" PRINT:   ORIGIN OF DATA
 UWI .       490250636100:   UNIQUE WELL ID
 DICO. A2D Technologies, Inc.:   DIGITIZING COMPANY
~OTHER INFORMATION
~A   DEPT      SPR       CILD        ILD          ASN       GR   
# ...
  526.0000   -53.5171   278.6794     3.2133     3.9439   118.2775
  526.5000   -52.7095   230.6072     3.8365     4.2624   111.5940
  527.0000   -52.2212   207.3683     4.4638     4.5297   106.8680
  527.5000   -52.3416   184.1293     4.7850     4.9291   103.7732
  528.0000   -52.6343   168.5517     4.8409     5.2474   108.3878
  528.5000   -51.9351   159.9920     4.8915     5.2890   119.5490
  529.0000   -51.1019   155.8882     4.9415     5.3367   113.4610
  529.5000   -50.8624   156.6483     4.9815     5.3833   112.0850
  530.0000   -52.4448   157.5802     5.0135     5.4513   108.6498
  530.5000   -53.4293   158.5438     5.0435     5.5810   114.2729
  531.0000   -52.8155   165.4089     4.9997     5.6897   125.7694
  531.5000   -52.0945   177.2865     4.8015     5.5605   122.7952
  532.0000   -51.3882   189.1043     4.6058     5.2495   120.2776
  532.5000   -52.5671   200.1668     4.4099     4.9380   128.9624
  533.0000   -53.9853   206.0265     4.2142     4.7530   119.6179
  533.5000   -54.0781   213.0330     4.0184     4.9141   117.2813
  534.0000   -53.4198   220.0412     3.8189     4.7015   131.2406
  534.5000   -52.8331   227.2429     3.5794     4.4660   130.8681
  535.0000   -52.5804   228.1846     3.5653     4.6223   134.1334
  535.5000   -52.3881   218.3149     3.8492     4.8762   122.0818
  536.0000   -52.1740   208.2447     4.1478     4.9748   126.9367
  536.5000   -51.9620   198.6024     4.4449     4.7909   123.4863
  537.0000   -51.7940   189.2907     4.7416     5.1533   119.4889
  537.5000   -52.0158   179.9644     5.0383     5.5109   116.1074
  538.0000   -52.2669   170.6416     5.3350     5.6982    98.5037
  538.5000   -52.5241   161.3173     5.6318     5.9064   103.4469
  539.0000   -52.6232   152.9493     5.9285     6.1324   114.1577
  539.5000   -51.9002   148.1540     6.2253     6.3614   122.9627
  540.0000   -51.0765   143.3586     6.5230     6.5917   127.4357
  540.5000   -51.0989   138.5633     6.8229     6.6918   121.1581
  541.0000   -52.4180   133.9017     6.8537     6.7380   120.5399
  541.5000   -52.8008   134.3926     6.7656     6.7560   111.0475
  542.0000   -51.9232   134.9850     6.6785     6.7564   114.6420
  542.5000   -50.5849   135.5773     6.5921     6.6954   125.1928
  543.0000   -50.5978   135.9077     6.5058     6.6162   134.1635
  543.5000   -52.3263   137.6630     6.4198     6.5377   125.3718
  544.0000   -53.4755   141.5967     6.3330     6.4279   125.4293
  544.5000   -53.5896   145.5303     6.2220     6.3044   120.4081
  545.0000   -53.2844   149.4640     6.0111     6.1798   129.4079
  545.5000   -53.0027   153.3977     5.8053     6.0680   128.8507
  546.0000   -52.7897   157.3314     5.5999     6.0020   130.5558
  546.5000   -52.8324   160.9830     5.3944     5.8854   127.5831
  547.0000   -52.8710   169.7693     5.1888     5.7458   130.2438
  547.5000   -52.9055   179.8395     4.9833     5.5979   119.3918
  548.0000   -52.9413   189.9097     4.7776     5.3958   122.8633
  548.5000   -52.9822   199.9799     4.5720     5.1990   128.4405
  549.0000   -52.9785   207.1214     4.3670     5.0037   119.6939
  549.5000   -52.0669   209.1274     4.2879     4.8458   126.2861
  550.0000   -51.2344   203.8938     4.3928     4.9132   126.9079
  550.5000   -50.5977   199.1169     4.4919     5.1116   132.4496
  551.0000   -49.1871   194.3401     4.6000     5.1055   122.7282
  551.5000   -51.7827   188.1790     4.9072     5.2823   126.6742
  552.0000   -54.4495   179.0230     5.2190     5.6243   124.8858
  552.5000   -54.3458   169.8670     5.5299     5.9686   128.2330
  553.0000   -52.7381   160.7110     5.8424     6.1607   125.2756
  553.5000   -52.0440   151.5550     6.1557     6.2290   133.2663
  554.0000   -53.8417   141.9258     6.2148     6.2947   124.7526
  554.5000   -55.1986   141.3586     6.2601     6.3601   116.3645
  555.0000   -55.0850   140.6018     6.3066     6.4246   119.9870
  555.5000   -54.9982   139.8450     6.3535     6.4890   126.6037
  556.0000   -54.9067   139.0883     6.4005     6.5614   117.1444
  556.5000   -54.8071   139.9198     6.4474     6.6480   120.5469
  557.0000   -54.4680   138.9798     6.4944     6.7346   116.2671
  557.5000   -54.1083   138.0188     6.5409     6.8217   118.7698
  558.0000   -53.7739   137.0578     6.5648     6.9077   116.1038
  558.5000   -53.6119   136.0969     6.5507     6.9123   114.7889
  559.0000   -53.4454   136.2252     6.5371     6.8753   128.5035
  559.5000   -53.2900   137.7607     6.5234     6.8310   127.6261
  560.0000   -52.8438   139.2961     6.5098     6.7866   129.6653
  560.5000   -51.9419   140.8316     6.4962     6.7423   137.6839
  561.0000   -51.1580   142.3671     6.4826     6.6980   142.2235
  561.5000   -51.0211   142.9954     6.4689     6.6536   132.0987
  562.0000   -51.2145   143.3001     6.4477     6.6093   125.2532
  562.5000   -51.4841   141.9802     6.4266     6.5652   127.3714
  563.0000   -51.7635   140.6157     6.4059     6.5801   114.3687
  563.5000   -51.7682   139.2574     6.3843     6.6482   114.8013
  564.0000   -50.7176   137.8991     6.3397     6.6449   122.9421
  564.5000   -49.5892   138.2161     6.2093     6.5691   135.7623
  565.0000   -50.6656   143.3333     6.1288     6.4956   127.9999
  565.5000   -52.1655   152.2805     6.0475     6.2991   131.6088
  566.0000   -52.0916   167.8450     5.6150     6.0647   128.5978
  566.5000   -51.9188   183.3407     5.1900     5.7092   129.6192
  567.0000   -51.7432   193.0792     4.7803     5.3576   124.5072
  567.5000   -51.5451   194.6666     4.2491     5.1197   122.2779
  568.0000   -51.7608   196.4214     4.2861     5.1954   122.8192
  568.5000   -52.2890   198.1763     4.3072     4.9801   113.9262
  569.0000   -52.8412   199.9311     4.3284     4.5816   110.8747
  569.5000   -52.7723   202.1063     4.3485     4.8924   114.4396
  570.0000   -52.2744   197.8650     4.3221     5.4009   107.4792
  570.5000   -52.4284   194.0822     4.1939     5.4829    98.1141
  571.0000   -52.8940   198.6617     4.0680     5.4299   101.9521
  571.5000   -52.6696   204.7879     3.9617     5.1398   100.4825
  572.0000   -51.4082   211.1334     3.9830     4.8603   111.4779
  572.5000   -50.0259   207.4581     4.0022     4.5061   117.3137
  573.0000   -49.8771   202.1063     4.0208     4.9788   121.5082
  573.5000   -51.0426   202.9137     4.0387     5.1673   114.0539
  574.0000   -51.5205   204.2999     4.0506     4.7279   110.7956
  574.5000   -49.9078   205.1742     4.3837     5.0246   118.9554
  575.0000   -48.3857   190.5882     4.7903     5.5570   126.9303
  575.5000   -49.5924   174.9649     5.1989     5.8513   125.1432
  576.0000   -51.3622   164.8746     5.6060     5.9823   118.1730
  576.5000   -52.0128   154.7843     6.0187     6.0403   116.1951
  577.0000   -51.8878   144.9068     6.0596     6.0993   121.9753
  577.5000   -51.6509   146.4995     5.8493     6.1599   116.0833
  578.0000   -51.4124   153.8212     5.5679     6.1284   118.5115
  578.5000   -51.4047   166.2131     5.2876     6.0497   120.8499
  579.0000   -51.7126   178.5737     5.0069     5.9169   114.3970
  579.5000   -52.0522   190.9343     4.7263     5.6014   110.5770
  580.0000   -52.3933   200.6219     4.4635     5.2027   108.9436
  580.5000   -52.3982   202.6399     4.3682     4.9985   116.0300
  581.0000   -51.8374   204.6580     4.2800     5.1591   115.5302
  581.5000   -51.2279   206.6760     4.1878     5.2256   116.8356
  582.0000   -50.6250   209.1274     4.2467     4.7643   108.6949
  582.5000   -50.8384   201.5145     4.3855     5.1683   101.6965
  583.0000   -51.2144   189.2095     4.8612     5.6090   105.5147
  583.5000   -50.9651   176.3673     5.3255     5.7501   113.5759
  584.0000   -51.3831   163.5251     5.7852     6.0715   110.9511
  584.5000   -52.3918   150.6830     6.2472     6.4751   108.5775
  585.0000   -52.6124   140.7795     6.5773     6.7424   110.5181
  585.5000   -51.4762   137.1758     6.7977     6.8917   119.7874
  586.0000   -51.5323   133.5581     7.0216     7.0325   118.7518
  586.5000   -52.9088   129.9807     7.0839     7.1561   122.9576
