~VERSION INFORMATION
 VERS.                2.0:   CWLS LOG ASCII STANDARD - VERSION 2.0
 WRAP.                 NO:   ONE LINE PER DEPTH STEP
~WELL INFORMATION
#MNEM.UNIT      DATA TYPE    INFORMATION
#----------   ------------   ------------------------------
 STRT.F           33.0000:   START DEPTH
 STOP.F         1374.0000:   STOP DEPTH
 STEP.F            0.5000:   STEP LENGTH
 NULL.          -999.2500:   NO VALUE
 COMP. FENIX & SCISSON INC:   COMPANY
 WELL.   NPR-3 "S" #84-14:   WELL
 FLD .             TEAPOT:   FIELD
 LOC .      S14 T38N R78W:   LOCATION
 CNTY.            NATRONA:   COUNTY
 STAT.            WYOMING:   STATE
 CTRY. UNITED STATES OF AMERICA:   COUNTRY
 SRVC.            Unknown:   SERVICE COMPANY
 DATE.        18-MAR-1978:   LOGDATE
 API .       490251060400:   API NUMBER
~CURVE INFORMATION
#MNEM.UNIT       API CODE    CURVE DESCRIPTION
#----------   ------------   ------------------------------
 DEPT.F                  :   
 SPR .MV     05 010 01 00:   SPONTANEOUS POTENTIAL FROM RES.
 SN  .OHMM   05 040 16 00:   SHORT NORMAL 16"
 ILD .OHMM   05 120 46 00:   INDUCTION LOG DEEP
 CALD.IN     45 280 60 00:   CALIPER
 GRD .GAPI   45 310 01 00:   GAMMA RAY FROM DENSITY LOG
 CORR.G/C3   45 356 01 00:   DENSITY CORRECTION
 RHOB.G/C3   45 350 01 00:   BULK DENSITY
 DPHI.DEC    45 890 00 00:   DENSITY POROSITY
~PARAMETER INFORMATION
#MNEM.UNIT          VALUE    DESCRIPTION
#----------   ------------   ------------------------------
 PD  .                 GL:   PERMANENT DATUM
 EPD .F              5314:   ELEVATION PERMANENT DATUM
 LMF .                 KB:   LOG MEASURED FROM
 DMF .                 KB:   DRILLING MEASURED FROM
 EKB .F              5318:   KELLING BUSHING
 EGL .F              5314:   GROUND LEVEL
 DATE.          3-18-1978:   RUN DATE
 RUN .                  1:   RUN NUMBER
 DD  .F              1375:   DEPTH DRILLER
 DL  .F              1380:   DEPTH LOGGER
 BLI .F              1374:   BOTTOM LOG INTERVAL
 TLI .F                50:   TOP LOG INTERVAL
 CS  .IN            8.625:   CASING SIZE
 CBD .F                40:   CASING BOTTOM DRILLER
 CBL .F                50:   CASING BOTTOM LOGGER
 BS  .IN            7.875:   BIT SIZE
 BSD .F              1375:   BIT SIZE AT DEPTH
 DFT .                KCL:   DRILLING FLUID TYPE
 DFD .                8.1:   DRILLING FLUID DENSITY
 DFV .                 31:   DRILLING FLUID VISCOSITY
 DFPH.                 10:   DRILLING FLUID PH
 DFL .                8.4:   DRILLING FLUID LOSS
 MSS .           FLOWLINE:   MUD SAMPLE SOURCE
 RMS .OHMM            .28:   RESISTIVITY MUD SAMPLE
 MST .F                62:   MUD SAMPLE TEMPERATURE
 RMF .OHMM            .26:   RESISTIVITY MUD FILTRATE SAMPLE
 MFST.F                67:   MUD FILTRATE SAMPLE TEMPERATURE
 RMC .OHMM            .36:   RESISTIVITY MUD CAKE
 MCST.F                70:   MUD CAKE SAMPLE TEMPERATURE
 MFSS.               MEAS:   MUD FILTRATE SAMPLE SOURCE
 RMB .OHMM            .22:   RESISTIVITY MUD AT BHT
 BHT .F                80:   BOTTOM HOLE TEMPERATURE
 TCS .HRS               4:   TIME CURCULATED STOPPED
 MRT .F                80:   MAXIMUM RECORDED TEMPERATURE
 LUN .               2958:   LOGGING UNIT NUMBER
 LUL .               CASP:   LOGGING UNIT LOCATION
 ENGI.             MILLER:   RECORDING ENGINEER
 WITN.           MCGINLEY:   WITNESSED BY
 CLNT.            A2DTECH:   CLIENT CODE
 ORIG.      2" & 5" PRINT:   ORIGIN OF DATA
 UWI .       490251060400:   UNIQUE WELL ID
 DICO. A2D Technologies, Inc.:   DIGITIZING COMPANY
~OTHER INFORMATION
~A   DEPT      SPR         SN        ILD       CALD         GRD      CORR       RHOB       DPHI   
# ...
  114.0000   -73.7960     5.5742     5.4338     7.9172    93.6339     0.0509     2.4258     0.1318
  114.5000   -73.8616     5.5495     5.4187     7.9213    94.5223     0.0500     2.4217     0.1328
  115.0000   -74.2047     5.5249     5.3917     7.9192    94.7148     0.0490     2.4184     0.1345
  115.5000   -74.5385     5.5004     5.3627     7.9170    94.7584     0.0512     2.4151     0.1362
  116.0000   -74.8704     5.4760     5.3338     7.9147    94.7954     0.0543     2.4139     0.1355
  116.5000   -74.6697     5.4506     5.3051     7.9125    94.8323     0.0570     2.4152     0.1316
  117.0000   -73.5435     5.4248     5.2766     7.9103    94.8669     0.0570     2.4289     0.1282
  117.5000   -72.6221     5.3992     5.2482     7.9081    94.9232     0.0537     2.4334     0.1202
  118.0000   -72.1861     5.3736     5.2199     7.9060    95.5773     0.0501     2.4325     0.1217
  118.5000   -72.2673     5.3481     5.1919     7.9040    95.2447     0.0464     2.4302     0.1238
  119.0000   -72.3633     5.3228     5.1639     7.9000    94.1763     0.0431     2.4280     0.1252
  119.5000   -72.0459     5.3196     5.1361     7.8506    93.0929     0.0443     2.4258     0.1255
  120.0000   -71.5772     5.3196     5.1245     7.8036    92.7687     0.0439     2.4228     0.1273
  120.5000   -71.1000     5.3196     5.1210     7.8190    94.5420     0.0415     2.4209     0.1290
  121.0000   -70.6080     5.3196     5.1175     7.7889    96.3690     0.0392     2.4224     0.1304
  121.5000   -70.6564     5.3196     5.1140     7.7363    96.4895     0.0368     2.4179     0.1322
  122.0000   -70.7429     5.3196     5.1105     7.6829    96.0832     0.0350     2.4135     0.1338
  122.5000   -70.8272     5.3196     5.1070     7.6629    96.4417     0.0355     2.4090     0.1313
  123.0000   -70.9114     5.3196     5.1035     7.6634    96.9126     0.0360     2.4104     0.1294
  123.5000   -70.9816     5.3196     5.1000     7.6641    96.7627     0.0364     2.4150     0.1317
  124.0000   -70.7137     5.3196     5.0965     7.6649    97.4909     0.0369     2.4194     0.1310
  124.5000   -70.4016     5.3197     5.0930     7.6656    99.5390     0.0358     2.4207     0.1312
  125.0000   -70.4324     5.3198     5.0895     7.6663    98.9407     0.0340     2.4204     0.1330
  125.5000   -70.5291     5.3195     5.0860     7.6671    97.8100     0.0322     2.4145     0.1370
  126.0000   -70.6244     5.2902     5.0826     7.6679    97.2098     0.0320     2.4077     0.1409
  126.5000   -70.7190     5.2610     5.0792     7.6686    98.4358     0.0347     2.3989     0.1449
  127.0000   -70.7863     5.2318     5.0578     7.6693    99.8594     0.0373     2.3904     0.1482
  127.5000   -70.7003     5.2028     5.0355     7.6701   101.1566     0.0384     2.3910     0.1469
  128.0000   -70.6055     5.1739     5.0134     7.6708    98.6868     0.0367     2.3944     0.1458
  128.5000   -70.5114     5.1453     4.9913     7.6716    96.4276     0.0351     2.3979     0.1471
  129.0000   -70.4150     5.1268     4.9693     7.6723    96.9443     0.0333     2.3937     0.1487
  129.5000   -70.3835     5.1268     4.9475     7.6731    98.2572     0.0355     2.3876     0.1498
  130.0000   -70.1707     5.1269     4.9257     7.6738    98.9702     0.0388     2.3850     0.1459
  130.5000   -69.3875     5.1269     4.9040     7.6746    98.2545     0.0399     2.3960     0.1406
  131.0000   -68.6882     5.1270     4.8824     7.6753    97.5513     0.0358     2.4036     0.1362
  131.5000   -68.2670     5.1268     4.8610     7.6761    96.8350     0.0394     2.4030     0.1340
  132.0000   -68.5882     5.1685     4.8507     7.6768    96.7126     0.0454     2.4050     0.1316
  132.5000   -68.7787     5.2141     4.8972     7.6776    97.4129     0.0455     2.4141     0.1290
  133.0000   -68.2945     5.2601     4.9484     7.6783    98.0906     0.0429     2.4231     0.1258
  133.5000   -67.8317     5.3065     5.0003     7.6790    98.7840     0.0402     2.4255     0.1229
  134.0000   -67.6224     5.3533     5.0527     7.6798    99.1109     0.0375     2.4273     0.1196
  134.5000   -67.6628     5.4005     5.1057     7.6806    99.3131     0.0351     2.4341     0.1182
  135.0000   -67.7027     5.4481     5.1592     7.6813    99.5118     0.0370     2.4382     0.1182
  135.5000   -67.7445     5.4961     5.2132     7.6820    99.6786     0.0389     2.4358     0.1182
  136.0000   -67.7906     5.5444     5.2679     7.6809    99.6272     0.0409     2.4399     0.1169
  136.5000   -67.6583     5.5763     5.3196     7.6762    99.5818     0.0427     2.4367     0.1154
  137.0000   -67.4612     5.5990     5.3392     7.6715    99.5363     0.0452     2.4432     0.1161
  137.5000   -67.2560     5.6213     5.3823     7.6669    99.4799     0.0439     2.4416     0.1169
  138.0000   -67.3140     5.6438     5.4256     7.6622    99.8542     0.0425     2.4448     0.1177
  138.5000   -67.5333     5.6664     5.4694     7.6576   100.3460     0.0412     2.4402     0.1185
  139.0000   -67.7564     5.6890     5.5135     7.6529   100.8541     0.0399     2.4374     0.1189
  139.5000   -67.9878     5.7118     5.5579     7.6483   101.2319     0.0386     2.4393     0.1186
  140.0000   -68.0035     5.7346     5.6025     7.6436   101.2758     0.0372     2.4386     0.1197
  140.5000   -67.8425     5.7574     5.6743     7.6389   101.2767     0.0385     2.4341     0.1224
  141.0000   -67.6206     5.7803     5.6616     7.6343   101.2774     0.0404     2.4303     0.1220
  141.5000   -67.3958     5.7507     5.6300     7.6296   101.7352     0.0423     2.4333     0.1187
  142.0000   -67.2306     5.7215     5.5986     7.6250   102.4651     0.0426     2.4318     0.1154
  142.5000   -67.7777     5.6924     5.5674     7.6228   102.4825     0.0421     2.4414     0.1183
  143.0000   -67.4514     5.6634     5.5363     7.6228   103.2609     0.0416     2.4421     0.1211
  143.5000   -66.9563     5.6347     5.5054     7.6228   103.1439     0.0410     2.4300     0.1240
  144.0000   -66.5965     5.6060     5.4747     7.6228   102.9713     0.0405     2.4293     0.1266
  144.5000   -66.6398     5.5775     5.4442     7.6228   102.8754     0.0399     2.4238     0.1310
  145.0000   -66.6797     5.5491     5.4187     7.6228   104.2681     0.0393     2.4200     0.1355
  145.5000   -66.7195     5.5209     5.3901     7.6228   104.2636     0.0396     2.4128     0.1410
  146.0000   -66.7609     5.4929     5.3526     7.6228   102.2581     0.0424     2.4076     0.1367
  146.5000   -66.7994     5.4690     5.3154     7.6228   100.6742     0.0515     2.4029     0.1310
  147.0000   -66.5550     5.4566     5.2784     7.6228    99.1289     0.0607     2.4165     0.1253
  147.5000   -66.2778     5.4399     5.2417     7.6228    99.2242     0.0613     2.4283     0.1226
  148.0000   -66.0023     5.4233     5.2052     7.6228    99.5301     0.0545     2.4304     0.1243
  148.5000   -65.8029     5.4067     5.1690     7.6228    99.6768     0.0478     2.4297     0.1260
  149.0000   -65.8074     5.3902     5.1331     7.6228    99.5787     0.0408     2.4261     0.1278
  149.5000   -65.8063     5.3737     5.0974     7.6228    99.4688     0.0386     2.4223     0.1298
  150.0000   -65.8097     5.3573     5.0783     7.6228    99.3556     0.0380     2.4186     0.1308
  150.5000   -66.0857     5.3410     5.0756     7.6228    99.2857     0.0374     2.4149     0.1320
  151.0000   -66.3965     5.3246     5.0728     7.6228   100.0918     0.0369     2.4115     0.1331
  151.5000   -66.7092     5.3167     5.0701     7.6228   100.9901     0.0363     2.4103     0.1342
  152.0000   -66.5493     5.3107     5.0674     7.6228   101.6980     0.0357     2.4090     0.1350
  152.5000   -65.5425     5.3048     5.0646     7.6228   100.4574     0.0351     2.4077     0.1346
  153.0000   -65.6634     5.2988     5.0619     7.6228    98.3175     0.0345     2.4104     0.1331
  153.5000   -65.7831     5.2929     5.0592     7.6160    96.2119     0.0340     2.4135     0.1322
  154.0000   -65.1926     5.2870     5.0564     7.6080    95.9819     0.0334     2.4121     0.1331
