~VERSION INFORMATION
 VERS.                2.0:   CWLS LOG ASCII STANDARD - VERSION 2.0
 WRAP.                 NO:   ONE LINE PER DEPTH STEP
~WELL INFORMATION
#MNEM.UNIT      DATA TYPE    INFORMATION
#----------   ------------   ------------------------------
 STRT.F            1.0000:   START DEPTH
 STOP.F          478.0000:   STOP DEPTH
 STEP.F            0.1000:   STEP LENGTH
 NULL.          -999.2500:   NO VALUE
 COMP. LAWRENCE/ALLISON INC:   COMPANY
 WELL.     58-61 SX #58-3:   WELL
 FLD .             TEAPOT:   FIELD
 LOC .       S3 T38N R78W:   LOCATION
 CNTY.            NATRONA:   COUNTY
 STAT.            WYOMING:   STATE
 CTRY. UNITED STATES OF AMERICA:   COUNTRY
 SRVC.           Gearhart:   SERVICE COMPANY
 DATE.        08-JUL-1988:   LOGDATE
 API .       490251123400:   API NUMBER
~CURVE INFORMATION
#MNEM.UNIT       API CODE    CURVE DESCRIPTION
#----------   ------------   ------------------------------
 DEPT.F                  :   
 GRR .GAPI   07 310 01 00:   GAMMA RAY
 RILD.OHMM   07 120 46 00:   INDUCTION LOG DEEP RESISTIVITY
 RILM.OHMM   07 120 44 00:   INDUCTION LOG MEDIUM RESISTIVITY
~PARAMETER INFORMATION
#MNEM.UNIT          VALUE    DESCRIPTION
#----------   ------------   ------------------------------
 PD  .                 GL:   PERMANENT DATUM
 EPD .F              5184:   ELEVATION PERMANENT DATUM
 LMF .                 KB:   LOG MEASURED FROM
 DAPD.F                 5:   FEET ABOVE PERMANENT DATUM
 DMF .                 KB:   DRILLING MEASURED FROM
 EKB .F              5189:   KELLING BUSHING
 EGL .F              5184:   GROUND LEVEL
 DATE.        08-JUL-1988:   RUN DATE
 RUN .                  1:   RUN NUMBER
 DD  .F               485:   DEPTH DRILLER
 DL  .F               486:   DEPTH LOGGER
 BLI .F               478:   BOTTOM LOG INTERVAL
 CS  .IN            9.625:   CASING SIZE
 CBD .F                45:   CASING BOTTOM DRILLER
 CBL .F                44:   CASING BOTTOM LOGGER
 BS  .IN             8.75:   BIT SIZE
 BSD .F               485:   BIT SIZE AT DEPTH
 DFT .                AIR:   DRILLING FLUID TYPE
 TCS .HRS            2200:   TIME CURCULATED STOPPED
 TLAB.HRS            2315:   TIME LOGGER AT BOTTOM
 LUN .               7597:   LOGGING UNIT NUMBER
 LUL .           GILLETTE:   LOGGING UNIT LOCATION
 ENGI.           JOHNSTON:   RECORDING ENGINEER
 WITN.              FIVAS:   WITNESSED BY
 CLNT.            A2DTECH:   CLIENT CODE
 ORIG.           5" PRINT:   ORIGIN OF DATA
 UWI .       490251123400:   UNIQUE WELL ID
 DICO. A2D Technologies, Inc.:   DIGITIZING COMPANY
~OTHER INFORMATION
~A    DEPT     GRR       RILD       RILM   
# ...
   73.8000   139.0620    10.1810     9.6587
   73.9000   139.4673    10.1808     9.5677
   74.0000   139.9535    10.1343     9.4926
   74.1000   140.4397    10.1096     9.4395
   74.2000   140.9664    10.0914     9.3811
   74.3000   141.6346    10.0388     9.2615
   74.4000   142.2017    10.0386     9.2171
   74.5000   142.6879     9.9923     9.1655
   74.6000   143.1741     9.9683     9.1142
   74.7000   143.7008     9.9682     9.0632
   74.8000   144.1465     9.9636     9.0059
   74.9000   144.6327     9.8984     9.0059
   75.0000   145.1189     9.8983     8.9745
   75.1000   145.5241     9.8658     8.9431
   75.2000   145.5248     9.8290     8.9431
   75.3000   145.3028     9.8240     8.9431
   75.4000   144.8987     9.7601     8.9431
   75.5000   144.3126     9.7142     8.9112
   75.6000   143.5848     9.6918     8.8807
   75.7000   142.7964     9.6730     8.8807
   75.8000   142.3519     9.6239     8.8807
   75.9000   142.0287     9.6238     8.8807
   76.0000   141.7865     9.5780     8.8807
   76.1000   141.5444     9.5243     8.8807
   76.2000   141.2820     9.4896     8.8884
   76.3000   141.2825     9.4839     8.9431
   76.4000   141.4450     9.4232     8.9431
   76.5000   141.6884     9.4230     8.9431
   76.6000   141.9723     9.4229     8.9431
   76.7000   142.4990     9.4228     8.9515
   76.8000   142.9447     9.4226     9.0059
   76.9000   143.2690     9.4225     9.0059
   77.0000   143.5124     9.4224     9.0059
   77.1000   143.7558     9.4222     9.0059
   77.2000   144.0195     9.4417     9.0150
   77.3000   144.0200     9.4882     9.0691
   77.4000   144.0206     9.4880     9.1168
   77.5000   144.0212     9.5345     9.1328
   77.6000   144.0219     9.5880     9.1554
   77.7000   144.0225     9.6214     9.1970
   77.8000   143.8005     9.6283     9.1970
   77.9000   143.3965     9.6887     9.1970
   78.0000   142.9115     9.6885     9.1970
   78.1000   142.5073     9.7230     9.1970
   78.2000   142.5081     9.7775     9.1970
   78.3000   142.5087     9.8247     9.1970
   78.4000   142.5092     9.8245     9.2466
   78.5000   142.5099     9.8736     9.2615
   78.6000   142.5509     9.8933     9.3101
   78.7000   142.8146     9.9151     9.4036
   78.8000   142.8152     9.9625     9.4581
   78.9000   143.3420     9.9623     9.4581
   79.0000   143.2858    10.0126     9.4966
   79.1000   143.0434    10.0320     9.5500
   79.2000   143.0458    10.0546     9.6038
   79.3000   142.8676    10.1110     9.6587
   79.4000   142.6270    10.1730     9.7122
   79.5000   142.3268    10.1729     9.7669
   79.6000   141.8416    10.1727     9.7949
   79.7000   141.1174    10.1961     9.8217
   79.8000   140.2092    10.2439     9.9330
   79.9000   138.7548    10.2437     9.9886
   80.0000   136.9955    10.2436    10.0449
   80.1000   135.7834    10.2435    10.0730
   80.2000   135.0568    10.2675    10.0874
   80.3000   134.8783    10.3251    10.1441
   80.4000   134.8807    10.3874    10.2013
   80.5000   134.9449    10.3873    10.2587
   80.6000   135.1915    10.4266    10.3165
   80.7000   135.6799    10.4599    10.3589
   80.8000   135.9846    10.4598    10.3601
   80.9000   136.2300    10.4596    10.4185
   81.0000   136.5382    10.5143    10.4771
   81.1000   137.0266    10.5328    10.5361
   81.2000   137.5150    10.5326    10.5954
   81.3000   137.8187    10.5436    10.6530
   81.4000   137.6915    10.6063    10.6530
   81.5000   137.2079    10.6062    10.7002
   81.6000   136.7211    10.6473    10.7604
   81.7000   135.9945    10.6804    10.8032
   81.8000   135.4537    10.6920    10.8059
   81.9000   134.9702    10.7551    10.8668
   82.0000   134.4219    10.7549    10.9280
   82.1000   133.6953    10.7972    10.9555
   82.2000   132.9688    10.8302    10.9743
   82.3000   132.2422    10.8425    11.0360
   82.4000   131.5156    10.9059    11.1099
   82.5000   130.9206    10.9645    11.1099
   82.6000   130.6852    10.9822    11.1452
   82.7000   130.9360    11.0105    11.2079
   82.8000   131.1814    11.0723    11.2665
   82.9000   131.5541    11.1365    11.2665
   83.0000   132.0425    11.1364    11.3187
   83.1000   132.5246    11.1362    11.3825
   83.2000   132.7701    11.1655    11.4465
   83.3000   133.0155    11.2281    11.5056
   83.4000   133.3892    11.2927    11.5056
   83.5000   133.8098    11.3544    11.5597
   83.6000   134.0552    11.4182    11.5864
   83.7000   134.3007    11.4514    11.6311
   83.8000   134.1665    11.4661    11.7560
   83.9000   134.0552    11.5315    11.8322
   84.0000   133.9889    11.5951    11.8322
   84.1000   133.7565    11.6602    11.8723
   84.2000   133.7590    11.7256    11.9391
   84.3000   133.7615    11.7913    12.0063
   84.4000   133.6336    11.8581    12.0833
   84.5000   133.3930    11.9905    12.1418
   84.6000   133.1617    12.0751    12.2102
   84.7000   133.1642    12.1092    12.2789
   84.8000   132.9748    12.1427    12.3564
   84.9000   132.7343    12.2795    12.5136
   85.0000   132.5645    12.3484    12.5751
   85.1000   132.5566    12.4177    12.6459
   85.2000   132.3160    12.5228    12.7171
   85.3000   132.0755    12.6455    12.7982
   85.4000   131.8349    12.7164    12.9593
   85.5000   131.5943    12.7878    13.0239
   85.6000   131.3538    12.9146    13.0972
   85.7000   131.1132    13.0226    13.2001
   85.8000   130.6788    13.0956    13.3380
   85.9000   130.1952    13.1701    13.4208
   86.0000   129.6388    13.3187    13.5570
   86.1000   128.9247    13.4108    13.6599
   86.2000   128.3452    13.4860    13.7681
   86.3000   127.7627    13.5825    13.9110
   86.4000   126.9018    13.7353    13.9964
   86.5000   125.8583    13.8902    14.0681
   86.6000   124.6458    13.9856    14.2003
   86.7000   123.1980    14.1060    14.3269
   86.8000   122.4166    14.2423    14.4075
   86.9000   121.3117    14.3221    14.4948
   87.0000   120.1740    14.4025    14.5701
   87.1000   119.2044    14.5474    14.6522
   87.2000   118.0508    14.6669    14.7346
   87.3000   117.6591    14.7732    14.8175
   87.4000   117.1755    14.9360    14.9063
   87.5000   116.6161    15.0198    14.9848
   87.6000   115.9203    15.1041    15.0110
   87.7000   115.6350    15.0964    14.9739
   87.8000   115.2413    15.0118    14.9063
   87.9000   114.8951    14.9276    14.9063
   88.0000   114.7314    14.8272    14.8273
   88.1000   114.7338    14.7607    14.7443
   88.2000   114.7367    14.7234    14.6618
   88.3000   114.7387    14.6982    14.5797
   88.4000   114.8795    14.6157    14.4948
   88.5000   115.1249    14.5181    14.4170
   88.6000   115.3704    14.3872    14.2793
   88.7000   115.6593    14.3160    14.1566
   88.8000   115.6613    14.2907    14.0947
   88.9000   115.8031    14.2106    14.0947
   89.0000   116.0485    14.1163    14.0180
   89.1000   116.3124    14.0517    13.8831
   89.2000   116.8854    13.9729    13.7648
   89.3000   117.0883    13.8946    13.6878
   89.4000   117.6146    13.8166    13.6100
   89.5000   118.3460    13.7257    13.5350
   89.6000   119.0774    13.6622    13.4592
   89.7000   119.9324    13.5856    13.3839
   89.8000   120.7421    13.5343    13.3272
   89.9000   121.7166    13.5280    13.3272
   90.0000   122.6910    13.4395    13.2528
   90.1000   123.6449    13.4394    13.1787
   90.2000   124.4969    13.3952    13.1419
   90.3000   125.1077    13.3201    13.1230
   90.4000   125.9816    13.2454    13.0503
   90.5000   126.7921    13.1594    13.0503
   90.6000   127.3020    13.1592    13.0503
   90.7000   128.1509    13.1154    13.0503
   90.8000   128.7648    13.0671    13.0503
   90.9000   129.4962    13.0597    13.0486
   91.0000   130.1446    12.9756    12.9756
   91.1000   130.6106    12.9138    12.9593
   91.2000   130.8945    12.8847    12.9593
   91.3000   130.8965    12.8590    12.9593
   91.4000   130.3211    12.7945    12.9593
   91.5000   129.4355    12.7943    12.9593
   91.6000   128.7089    12.7942    12.9021
   91.7000   127.8717    12.7503    12.8689
   91.8000   127.4618    12.7046    12.8689
   91.9000   126.9782    12.7044    12.8655
