~VERSION INFORMATION
 VERS.                2.0:   CWLS LOG ASCII STANDARD - VERSION 2.0
 WRAP.                 NO:   ONE LINE PER DEPTH STEP
~WELL INFORMATION
#MNEM.UNIT      DATA TYPE    INFORMATION
#----------   ------------   ------------------------------
 STRT.F          149.5000:   START DEPTH
 STOP.F          864.5000:   STOP DEPTH
 STEP.F            0.5000:   STEP LENGTH
 NULL.          -999.2500:   NO VALUE
 COMP. U S NAVY/INTEX OIL CO:   COMPANY
 WELL.    NPR #3 #78-S-27:   WELL
 FLD .             TEAPOT:   FIELD
 LOC .      S27 T39N R78W:   LOCATION
 CNTY.            NATRONA:   COUNTY
 STAT.            WYOMING:   STATE
 CTRY. UNITED STATES OF AMERICA:   COUNTRY
 SRVC. Schlumberger Well Surveying Corp:   SERVICE COMPANY
 DATE.        25-FEB-1961:   LOGDATE
 API .       490250657800:   API NUMBER
~CURVE INFORMATION
#MNEM.UNIT       API CODE    CURVE DESCRIPTION
#----------   ------------   ------------------------------
 DEPT.F                  :   
 SPR .MV     05 010 01 00:   SPONTANEOUS POTENTIAL FROM RES.
 CILD.MMHO   05 110 46 00:   CONDUCTIVITY INDUCTION LOG DEEP
 ASN .OHMM   05 041 16 00:   AMPLIFIED SHORT NORMAL 16"
 ILD .OHMM   05 120 46 00:   INDUCTION LOG DEEP
 GR  .GAPI   81 310 01 00:   GAMMA RAY
~PARAMETER INFORMATION
#MNEM.UNIT          VALUE    DESCRIPTION
#----------   ------------   ------------------------------
 PD  .                 GL:   PERMANENT DATUM
 EPD .F              5038:   ELEVATION PERMANENT DATUM
 LMF .                 KB:   LOG MEASURED FROM
 DAPD.F                 4:   FEET ABOVE PERMANENT DATUM
 DMF .                 KB:   DRILLING MEASURED FROM
 EKB .F              5042:   KELLING BUSHING
 EGL .F              5038:   GROUND LEVEL
 DATE.            2-25-61:   RUN DATE
 RUN .                  1:   RUN NUMBER
 DD  .F               865:   DEPTH DRILLER
 DL  .F               869:   DEPTH LOGGER
 BLI .F               864:   BOTTOM LOG INTERVAL
 TLI .F               150:   TOP LOG INTERVAL
 CBD .F                12:   CASING BOTTOM DRILLER
 BS  .IN            7.875:   BIT SIZE
 BSD .F               865:   BIT SIZE AT DEPTH
 DFT .       OIL EMULSION:   DRILLING FLUID TYPE
 DFD .               10.2:   DRILLING FLUID DENSITY
 DFV .                 48:   DRILLING FLUID VISCOSITY
 DFPH.                8.5:   DRILLING FLUID PH
 DFL .               10.2:   DRILLING FLUID LOSS
 RMS .OHMM            1.7:   RESISTIVITY MUD SAMPLE
 MST .F                57:   MUD SAMPLE TEMPERATURE
 MFSS.                  C:   MUD FILTRATE SAMPLE SOURCE
 MCSS.                  C:   MUD CAKE SAMPLE SOURCE
 RMB .OHMM            1.3:   RESISTIVITY MUD AT BHT
 BHT .F                75:   BOTTOM HOLE TEMPERATURE
 TCS .HRS               1:   TIME CURCULATED STOPPED
 MRT .F                75:   MAXIMUM RECORDED TEMPERATURE
 LUN .               2572:   LOGGING UNIT NUMBER
 LUL .                 NC:   LOGGING UNIT LOCATION
 ENGI.             ROUSER:   RECORDING ENGINEER
 WITN.          JORGENSEN:   WITNESSED BY
 CLNT.            A2DTECH:   CLIENT CODE
 ORIG.       2", 5" PRINT:   ORIGIN OF DATA
 UWI .       490250657800:   UNIQUE WELL ID
 DICO. A2D Technologies, Inc.:   DIGITIZING COMPANY
~OTHER INFORMATION
~A   DEPT      SPR       CILD        ASN        ILD         GR   
# ...
  637.5000   -45.1716   333.5003     3.6821     2.4031  -999.2500
  638.0000   -45.0279   360.1136     3.4344     2.0897  -999.2500
  638.5000   -45.4592   386.7268     3.4218     1.8826  -999.2500
  639.0000   -45.8224   408.3166     3.4448     1.8513  -999.2500
  639.5000   -45.3911   422.3447     3.4924     1.8431  -999.2500
  640.0000   -44.9088   418.3367     3.6413     1.8831  -999.2500
  640.5000   -44.3871   375.7079     3.9747     2.2832  -999.2500
  641.0000   -43.9999   339.6039     4.4284     2.7422  -999.2500
  641.5000   -44.0530   295.0902     4.9194     3.1865  -999.2500
  642.0000   -44.2728   273.2179     5.3296     3.6620  -999.2500
  642.5000   -44.4047   244.7037     6.1616     4.2807  -999.2500
  643.0000   -44.3643   214.9299     7.0591     4.9386  -999.2500
  643.5000   -44.5658   187.5050     7.2417     5.4653  -999.2500
  644.0000   -44.9397   161.8637     7.4869     5.9844  -999.2500
  644.5000   -45.2919   150.3527     7.5408     6.5188  -999.2500
  645.0000   -45.5793   145.8617     7.5820     7.0138  -999.2500
  645.5000   -45.5905   143.7876     7.6358     7.1389  -999.2500
  646.0000   -45.5961   145.6780     7.6845     7.0068  -999.2500
  646.5000   -45.5860   147.7956     7.7315     6.8135  -999.2500
  647.0000   -45.6407   147.7956     7.7730     6.7668  -999.2500
  647.5000   -45.7629   147.7956     7.8141     6.7598  -999.2500
  648.0000   -45.9204   147.7956     7.8478     6.7824  -999.2500
  648.5000   -45.9887   152.1177     7.8201     6.5849  -999.2500
  649.0000   -46.0151   158.1637     7.6099     6.2503  -999.2500
  649.5000   -45.7208   164.2098     7.2413     5.9722  -999.2500
  650.0000   -45.2166   170.2558     6.8438     5.6683  -999.2500
  650.5000   -44.7875   176.8537     6.4282     5.3809  -999.2500
  651.0000   -44.3995   185.8026     6.1565     5.0797  -999.2500
  651.5000   -44.4341   195.6503     6.1153     4.7950    73.7851
  652.0000   -44.9228   205.4980     6.1711     4.4834    76.1137
  652.5000   -45.3798   215.9319     6.2890     4.3424    78.4424
  653.0000   -45.9156   216.9339     6.3968     4.3763    79.8382
  653.5000   -46.2018   207.3547     6.5062     4.6163    75.4344
  654.0000   -45.8922   197.2545     6.6036     4.8917    75.7234
  654.5000   -45.5938   188.8778     6.5857     5.2040    73.4706
  655.0000   -45.2716   183.2944     6.7748     5.3663    75.4038
  655.5000   -45.1866   178.5248     7.1593     5.4434    77.1779
  656.0000   -45.1433   173.7553     7.4970     5.7201    78.9168
  656.5000   -44.9937   167.4727     7.8603     5.9676    79.6412
  657.0000   -45.0159   160.1781     8.1889     6.2336    72.8264
  657.5000   -45.3868   152.8835     8.4300     6.4874    68.9289
  658.0000   -45.8190   145.7916     8.7411     6.7512    63.9500
  658.5000   -46.2438   141.7134     8.8728     7.0029    66.6094
  659.0000   -46.6142   137.7455     8.9729     7.2719    70.1981
  659.5000   -46.9063   134.7695     8.9595     7.3748    71.9430
  660.0000   -47.1864   132.7655     8.9770     7.3679    73.1475
  660.5000   -47.3879   133.8224     8.8984     7.3239    77.8995
  661.0000   -47.4026   135.4171     8.7444     7.2021    80.2404
  661.5000   -47.3682   137.0119     8.6301     7.0897    81.9745
  662.0000   -47.0075   138.7776     8.4398     6.9780    80.9800
  662.5000   -46.6102   144.5749     8.2061     6.8379    84.4632
  663.0000   -46.2067   151.7111     7.9899     6.4600    76.3733
  663.5000   -45.8285   159.4805     7.7721     6.0686    77.7660
  664.0000   -45.3897   167.8357     7.5465     5.6814    79.0438
  664.5000   -45.1926   176.8631     7.1393     5.2910    74.9737
  665.0000   -45.4245   186.6266     6.7475     4.8924    78.5740
  665.5000   -45.6714   196.8938     6.3800     4.7216    82.2713
  666.0000   -45.7996   200.4860     6.0443     4.5782    80.8068
  666.5000   -45.7969   204.7295     5.8993     4.4281    76.9757
  667.0000   -45.6557   209.7796     6.1317     4.3334    73.0989
  667.5000   -45.2710   213.9279     6.3196     4.4490    73.2911
  668.0000   -44.9510   213.9279     6.7940     4.6523    67.6541
  668.5000   -44.5474   200.7265     7.4508     5.0895    70.4147
  669.0000   -44.4854   181.7886     7.9598     5.6731    75.4419
  669.5000   -44.7978   162.8507     8.4611     6.1782    73.6848
  670.0000   -45.0523   148.3843     8.6043     6.7113    72.5096
  670.5000   -45.3416   138.7776     8.7518     7.2228    74.3867
  671.0000   -45.5830   136.1598     8.8744     7.3838    73.2423
  671.5000   -45.7016   133.7544     9.0038     7.3586    74.4701
  672.0000   -45.7908   133.7527     9.1323     7.3734    73.9764
  672.5000   -45.7868   133.7467     9.2617     7.3588    79.1159
  673.0000   -45.8099   133.2943     9.3324     7.4174    76.8036
  673.5000   -45.6048   132.3413     9.3727     7.5128    80.3346
  674.0000   -45.2373   131.3864     9.3653     7.6168    83.2748
  674.5000   -44.9437   130.7145     9.3720     7.6488    81.0823
  675.0000   -44.5816   131.2592     9.3341     7.5785    78.2715
  675.5000   -44.3714   132.0780     9.2653     7.5228    75.5265
  676.0000   -44.6474   132.8549     9.2035     7.4603    74.1387
  676.5000   -44.7840   133.6319     9.1378     7.3986    81.0879
  677.0000   -44.9238   134.4088     9.0750     7.3590    83.5824
  677.5000   -45.3711   134.7695     9.0091     7.3733    79.3242
  678.0000   -45.8131   135.3144     8.9533     7.2860    76.6777
  678.5000   -46.1770   136.8925     8.9508     7.1798    78.8811
  679.0000   -46.1915   138.4707     8.9759     7.0925    74.0094
  679.5000   -46.2015   139.7796     8.9051     6.9883    76.2292
  680.0000   -46.1828   144.0023     8.7315     6.9062    78.3301
  680.5000   -46.2194   147.6095     8.5388     6.7638    79.5173
  681.0000   -45.9736   151.2167     8.2504     6.5810    73.6577
  681.5000   -45.5945   154.8239     7.9616     6.4187    69.9504
  682.0000   -45.4985   158.4312     7.6242     6.2470    72.8987
  682.5000   -45.4013   161.9701     7.4491     6.0820    74.8771
  683.0000   -45.3572   165.4663     7.4117     5.9102    73.8531
  683.5000   -45.0285   168.8377     7.4563     5.7632    74.9273
  684.0000   -44.9820   169.8397     7.6887     5.6744    70.0283
  684.5000   -44.9926   169.8397     7.8179     5.6017    71.9774
  685.0000   -44.9874   169.8397     7.7452     5.4993    74.3272
  685.5000   -44.9903   176.6767     7.5149     5.3191    75.3292
  686.0000   -44.9873   183.1296     7.1459     5.1353    70.2049
  686.5000   -44.9911   189.5825     6.6797     4.9512    67.0129
  687.0000   -44.9873   196.0801     6.2521     4.7674    68.9088
  687.5000   -44.9674   202.5694     6.0806     4.5835    71.1161
  688.0000   -44.5400   209.1191     6.1988     4.3831    66.6494
  688.5000   -44.4473   216.2524     6.3971     4.3452    61.6923
  689.0000   -45.1078   215.3869     6.7970     4.3965    57.4623
  689.5000   -45.7119   204.1107     7.2394     4.8587    61.6301
  690.0000   -45.8151   188.4837     7.6486     5.4027    64.1707
  690.5000   -45.7643   172.7810     8.1004     5.9222    58.8884
  691.0000   -45.5808   152.8056     8.2901     6.5051    56.2378
  691.5000   -45.4077   149.2969     8.4033     6.7134    66.2645
  692.0000   -45.2216   144.6677     8.4862     6.9022    70.2294
  692.5000   -45.0743   141.7836     8.5356     6.9032    68.2894
  693.0000   -44.7330   147.4406     8.5256     6.6938    73.8275
  693.5000   -44.2284   153.2121     8.4795     6.5147    77.3346
  694.0000   -43.8083   158.9837     8.1625     6.3182    78.8099
  694.5000   -43.3194   165.8317     7.7609     6.1317    82.7511
  695.0000   -43.3164   167.5002     7.3581     5.9391    84.9036
  695.5000   -43.7153   170.4462     7.1346     5.7516    78.6244
  696.0000   -44.0362   174.4083     7.1885     5.5559    73.8948
  696.5000   -44.4275   178.9792     7.4580     5.4348    69.7461
  697.0000   -44.6016   179.0394     7.8881     5.5914    70.2611
  697.5000   -44.5874   170.3408     8.4862     6.0496    67.3767
  698.0000   -44.5868   158.5439     8.9499     6.5173    71.0288
