~VERSION INFORMATION
 VERS.                2.0:   CWLS LOG ASCII STANDARD - VERSION 2.0
 WRAP.                 NO:   ONE LINE PER DEPTH STEP
~WELL INFORMATION
#MNEM.UNIT      DATA TYPE    INFORMATION
#----------   ------------   ------------------------------
 STRT.F           30.5000:   START DEPTH
 STOP.F          692.0000:   STOP DEPTH
 STEP.F            0.5000:   STEP LENGTH
 NULL.          -999.2500:   NO VALUE
 COMP. FENIX & SCISSON INC:   COMPANY
 WELL.   27-S-11-WP #3-11:   WELL
 FLD .  TEAPOT DOME NPR-3:   FIELD
 LOC .      S11 T38N R78W:   LOCATION
 CNTY.            NATRONA:   COUNTY
 STAT.            WYOMING:   STATE
 CTRY. UNITED STATES OF AMERICA:   COUNTRY
 SRVC.       Schlumberger:   SERVICE COMPANY
 DATE.        18-FEB-1978:   LOGDATE
 API .       490251058100:   API NUMBER
~CURVE INFORMATION
#MNEM.UNIT       API CODE    CURVE DESCRIPTION
#----------   ------------   ------------------------------
 DEPT.F                  :   
 CALD.IN     45 280 60 00:   CALIPER FROM DENSITY LOG
 CORR.G/C3   45 356 01 00:   DENSITY CORRECTION
 DPHI.DEC    45 890 12 00:   DENSITY POROSITY SANDSTONE
 GRD .GAPI   45 310 01 00:   GAMMA RAY FROM DENSITY LOG
 RHOB.G/C3   45 350 01 00:   BULK DENSITY
 ILD .OHMM   05 110 46 00:   INDUCTION LOG DEEP
 SN  .OHMM   05 040 16 00:   SHORT NORMAL 16"
 SPR .MV     05 010 01 00:   SPONTANEOUS POTENSIAL FROM RES.
~PARAMETER INFORMATION
#MNEM.UNIT          VALUE    DESCRIPTION
#----------   ------------   ------------------------------
 PD  .                 GL:   PERMANENT DATUM
 EPD .F              5195:   ELEVATION PERMANENT DATUM
 LMF .                 KB:   LOG MEASURED FROM
 DAPD.F                 4:   FEET ABOVE PERMANENT DATUM
 DMF .                 KB:   DRILLING MEASURED FROM
 EKB .F              5199:   KELLING BUSHING
 EGL .F              5195:   GROUND LEVEL
 DATE.        18-FEB-1978:   RUN DATE
 RUN .                  1:   RUN NUMBER
 DD  .F               690:   DEPTH DRILLER
 DL  .F               695:   DEPTH LOGGER
 BLI .F               688:   BOTTOM LOG INTERVAL
 TLI .F                40:   TOP LOG INTERVAL
 CS  .IN            8.625:   CASING SIZE
 CBD .F                40:   CASING BOTTOM DRILLER
 CBL .F                40:   CASING BOTTOM LOGGER
 BS  .IN            7.875:   BIT SIZE
 BSD .F               690:   BIT SIZE AT DEPTH
 DFT .       LIGNO/ SULF.:   DRILLING FLUID TYPE
 DFD .                8.8:   DRILLING FLUID DENSITY
 DFV .                 33:   DRILLING FLUID VISCOSITY
 DFPH.               10.0:   DRILLING FLUID PH
 DFL .                5.0:   DRILLING FLUID LOSS
 MSS .           FLOWLINE:   MUD SAMPLE SOURCE
 RMS .OHMM            1.7:   RESISTIVITY MUD SAMPLE
 MST .F                66:   MUD SAMPLE TEMPERATURE
 RMF .OHMM            2.0:   RESISTIVITY MUD FILTRATE SAMPLE
 MFST.F                58:   MUD FILTRATE SAMPLE TEMPERATURE
 RMC .OHMM            3.0:   RESISTIVITY MUD CAKE
 MCST.F                60:   MUD CAKE SAMPLE TEMPERATURE
 MFSS.               MEAS:   MUD FILTRATE SAMPLE SOURCE
 RMB .OHMM           1.65:   RESISTIVITY MUD AT BHT
 BHT .F                68:   BOTTOM HOLE TEMPERATURE
 TCS .HRS               2:   TIME CURCULATED STOPPED
 MRT .F                68:   MAXIMUM RECORDED TEMPERATURE
 LUN .               2958:   LOGGING UNIT NUMBER
 LUL .             CASPER:   LOGGING UNIT LOCATION
 ENGI.            POINTER:   RECORDING ENGINEER
 WITN.           MCGINLEY:   WITNESSED BY
 CLNT.            A2DTECH:   CLIENT CODE
 ORIG.           5" PRINT:   ORIGIN OF DATA
 UWI .       490251058100:   UNIQUE WELL ID
~OTHER INFORMATION
~A   DEPT     CALD       CORR       DPHI         GRD      RHOB        ILD         SN        SPR   
# ...
  111.5000     7.9671     0.0125     0.1216    93.5409     2.4396     7.0373     7.2814   -30.9350
  112.0000     7.9659     0.0275     0.1180    93.5289     2.4486     7.0305     7.1707   -31.7276
  112.5000     7.8571     0.0364     0.1141    93.5168     2.4530     6.9746     7.0616   -32.0503
  113.0000     7.7791     0.0468     0.1111    93.0357     2.4544     6.9193     7.0012   -32.0755
  113.5000     7.7465     0.0496     0.1106    92.3609     2.4581     6.8643     6.9919   -31.9488
  114.0000     7.7306     0.0570     0.1109    91.0312     2.4603     6.8098     6.9827   -31.9756
  114.5000     7.7293     0.0583     0.1092    91.0192     2.4618     6.7558     6.9735   -32.0066
  115.0000     7.7589     0.0627     0.1019    91.0072     2.4721     6.7492     6.9643   -32.1848
  115.5000     7.8342     0.0716     0.0998    90.9951     2.4797     6.7916     6.9552   -32.3630
  116.0000     7.8486     0.0614     0.0999    91.1360     2.4726     6.7834     6.8976   -32.3887
  116.5000     7.8628     0.0483     0.1239    91.2799     2.4398     6.8244     6.9391   -32.5669
  117.0000     7.8770     0.0330     0.1273    91.5737     2.4306     6.8673     6.9787   -32.5926
  117.5000     7.8908     0.0221     0.1235    92.9348     2.4396     6.9071     7.0654   -32.6183
  118.0000     7.9053     0.0219     0.1192    94.9105     2.4425     6.9506     7.1579   -32.4851
  118.5000     7.9037     0.0202     0.1159    95.5131     2.4332     7.0400     7.2492   -32.5173
  119.0000     7.9025     0.0185     0.1141    92.5929     2.4437     7.1326     7.3417   -32.2317
  119.5000     7.9013     0.0182     0.1139    92.1221     2.4604     7.1754     7.4329   -31.9590
  120.0000     7.9001     0.0196     0.1118    92.7217     2.4709     7.2188     7.5278   -31.8323
  120.5000     7.8989     0.0209     0.1106    94.2793     2.4692     7.3134     7.6263   -32.0104
  121.0000     7.9284     0.0237     0.1094    96.3160     2.4661     7.3577     7.7236   -32.1886
  121.5000     7.9272     0.0220     0.1077    99.4104     2.4659     7.4022     7.8196   -32.0554
  122.0000     7.9260     0.0218     0.1047   101.8449     2.4673     7.3949     7.8093   -31.7827
  122.5000     7.9247     0.0215     0.1041   103.2090     2.4702     7.3877     7.8542   -31.8084
  123.0000     7.9233     0.0213     0.1048   103.6587     2.4731     7.3804     7.8989   -31.5229
  123.5000     7.9221     0.0226     0.1033   103.3378     2.4760     7.3732     7.8881   -31.2501
  124.0000     7.9209     0.0254     0.1000   102.5613     2.4775     7.3660     7.8777   -30.9710
  124.5000     7.9196     0.0252     0.1001   102.0905     2.4796     7.3588     7.8673   -30.8443
  125.0000     7.9184     0.0266     0.1033   102.0785     2.4802     7.3516     7.7478   -31.0224
  125.5000     7.9172     0.0263     0.1174   101.9136     2.4778     7.2917     7.5239   -31.6579
  126.0000     7.9160     0.0307     0.1208   100.3725     2.4518     7.1834     7.3543   -31.9885
  126.5000     7.9148     0.0426     0.1202    99.2901     2.4494     7.0273     7.1953   -32.3191
  127.0000     7.8829     0.0591     0.1166    98.2077     2.4508     6.8746     7.0858   -32.3448
  127.5000     7.6359     0.0649     0.1130    95.5963     2.4576     6.8200     6.9781   -32.3705
  128.0000     7.6347     0.0663     0.1185    94.8094     2.4612     6.7659     6.9184   -32.2438
  128.5000     7.6949     0.0630     0.1253    94.3079     2.4478     6.8068     6.8611   -32.2764
  129.0000     7.8013     0.0537     0.1211    92.8049     2.4412     6.8001     6.9024   -32.4482
  129.5000     7.8625     0.0504     0.1120    91.8755     2.4623     6.7461     6.9417   -32.6265
  130.0000     7.8910     0.0426     0.1126    92.7809     2.4584     6.6926     6.8820   -32.4991
  130.5000     7.9202     0.0269     0.1166    93.8392     2.4484     6.6861     6.8729   -32.2200
  131.0000     7.9346     0.0190     0.1200    94.1360     2.4467     6.6796     6.8638   -31.9408
  131.5000     7.9331     0.0162     0.1191    93.6622     2.4504     6.6265     6.8548   -31.5157
  132.0000     7.9319     0.0160     0.1130    93.9560     2.4586     6.6201     6.8458   -31.3825
  132.5000     7.9307     0.0157     0.1020    95.0143     2.4661     6.6137     6.8367   -31.4147
  133.0000     7.9295     0.0155     0.0993    97.2958     2.4759     6.6536     6.8779   -31.5928
  133.5000     7.9283     0.0153     0.0984    99.4245     2.4811     6.6939     6.8666   -31.6186
  134.0000     7.9271     0.0151     0.0978   100.6357     2.4809     6.8292     6.9565   -31.6443
  134.5000     7.9259     0.0195     0.0921    99.0946     2.4848     6.9205     7.1422   -31.6700
  135.0000     7.9247     0.0329     0.0709    94.1896     2.4969     6.9121     7.3869   -31.6957
  135.5000     7.9235     0.0373     0.0737    87.0928     2.5322     6.9053     7.7475   -31.8739
  136.0000     7.9222     0.0325     0.0904    84.3588     2.5375     6.9962     7.9596   -32.3569
  136.5000     7.9210     0.0292     0.1041    84.5175     2.4651     7.0878     8.0023   -32.2302
  137.0000     7.9198     0.0275     0.1063    87.1048     2.4604     7.1807     8.0505   -32.1035
  137.5000     7.9340     0.0273     0.1066    90.9154     2.4656     7.3257     8.0373   -31.6719
  138.0000     7.9481     0.0287     0.1064    93.5028     2.4692     7.3701     7.9151   -31.3863
  138.5000     7.9466     0.0299     0.1055    93.1849     2.4676     7.4667     7.7948   -31.5709
  139.0000     7.9454     0.0251     0.1043    89.1974     2.4675     7.5118     7.7303   -31.9015
  139.5000     7.9442     0.0264     0.1032    88.8795     2.4719     7.4521     7.6128   -32.0797
  140.0000     7.9430     0.0262     0.1032    89.9378     2.4763     7.2867     7.5497   -32.2578
  140.5000     7.9418     0.0276     0.1069    92.9839     2.4778     7.0771     7.4331   -32.1247
  141.0000     7.9713     0.0288     0.1112    94.6538     2.4730     6.9279     7.3218   -32.1568
  141.5000     7.9701     0.0362     0.1118    94.9480     2.4713     6.9212     7.3120   -32.1825
  142.0000     7.9535     0.0497     0.1095    94.9356     2.4637     6.9144     7.3023   -32.2083
  142.5000     7.9062     0.0661     0.0998    94.6177     2.4734     6.9063     7.2926   -32.0808
  143.0000     7.8743     0.0720     0.0920    95.2273     2.4900     6.8515     7.2810   -31.9543
  143.5000     7.8423     0.0688     0.0947    96.4689     2.5051     6.8448     7.2714   -31.9805
  144.0000     7.8411     0.0716     0.1021    97.9426     2.4920     6.8381     7.2618   -32.0063
  144.5000     7.8399     0.0774     0.1094    97.7776     2.4676     6.8315     7.2523   -31.8791
  145.0000     7.8541     0.0863     0.1085    96.6952     2.4629     6.8249     7.2427   -31.7528
  145.5000     7.8682     0.0922     0.1030    96.2245     2.4673     6.8182     7.2332   -31.6261
  146.0000     7.8848     0.0786     0.0977    96.6712     2.4862     6.8611     7.2236   -31.4994
  146.5000     7.9116     0.0371     0.1002    97.8854     2.4871     6.9982     7.2141   -31.2202
  147.0000     7.9260     0.0278     0.1093    96.3413     2.4654     7.1899     7.2576   -31.0935
  147.5000     7.9245     0.0245     0.1057    92.3537     2.4554     7.4909     7.4514   -31.1204
  148.0000     7.9233     0.0243     0.1027    90.8127     2.4691     7.8046     7.7065   -31.1514
  148.5000     7.9221     0.0241     0.1046    93.8587     2.4787     7.9624     7.9175   -31.9393
  149.0000     7.9209     0.0239     0.1089    94.6112     2.4763     8.0688     8.0159   -32.5748
  149.5000     7.9197     0.0237     0.1104    94.7727     2.4708     8.1176     8.0615   -32.9054
  150.0000     7.9341     0.0175     0.1108    94.2813     2.4654     8.0512     8.6355   -32.6262
  150.5000     7.9320     0.0188     0.1111    90.4358     2.4668     7.9669     8.1648   -31.5803
  151.0000     7.9461     0.0186     0.1112    90.1070     2.4636     7.8999     7.9887   -31.3009
  151.5000     7.9440     0.0199     0.1121    90.0841     2.4604     7.7908     7.8746   -31.3326
