~VERSION INFORMATION
 VERS.                2.0:   CWLS LOG ASCII STANDARD - VERSION 2.0
 WRAP.                 NO:   ONE LINE PER DEPTH STEP
~WELL INFORMATION
#MNEM.UNIT      DATA TYPE    INFORMATION
#----------   ------------   ------------------------------
 STRT.F           99.0000:   START DEPTH
 STOP.F          750.0000:   STOP DEPTH
 STEP.F            0.5000:   STEP LENGTH
 NULL.          -999.2500:   NO VALUE
 COMP. U S NAVY/INTEX OIL CO:   COMPANY
 WELL.    NRP #3 #43-S-11:   WELL
 FLD .             TEAPOT:   FIELD
 LOC .      S11 T38N R78W:   LOCATION
 CNTY.            NATRONA:   COUNTY
 STAT.            WYOMING:   STATE
 CTRY. UNITED STATES OF AMERICA:   COUNTRY
 SRVC.       Schlumberger:   SERVICE COMPANY
 DATE.        12-JUL-1962:   LOGDATE
 API .       490250636100:   API NUMBER
~CURVE INFORMATION
#MNEM.UNIT       API CODE    CURVE DESCRIPTION
#----------   ------------   ------------------------------
 DEPT.F                  :   
 SPR .MV     05 010 01 00:   SPONTANEOUS POTENTIAL FROM RES.
 CILD.MMHO   05 110 46 00:   CONDUCTIVITY INDUCTION LOG DEEP
 ILD .OHMM   05 120 46 00:   INDUCTION LOG DEEP
 ASN .OHMM   05 041 16 00:   AMPLIFIED SHORT NORMAL 16"
 GR  .GAPI   30 310 01 00:   GAMMA RAY
~PARAMETER INFORMATION
#MNEM.UNIT          VALUE    DESCRIPTION
#----------   ------------   ------------------------------
 EPD .F              5177:   ELEVATION PERMANENT DATUM
 LMF .                 KB:   LOG MEASURED FROM
 DAPD.F                 5:   FEET ABOVE PERMANENT DATUM
 DMF .                 KB:   DRILLING MEASURED FROM
 EKB .F              5182:   KELLING BUSHING
 EGL .F              5177:   GROUND LEVEL
 DATE.          7-12-1962:   RUN DATE
 RUN .                  1:   RUN NUMBER
 DD  .F               750:   DEPTH DRILLER
 DL  .F               751:   DEPTH LOGGER
 BLI .F               750:   BOTTOM LOG INTERVAL
 TLI .F               100:   TOP LOG INTERVAL
 CBD .F                10:   CASING BOTTOM DRILLER
 BS  .IN             6.75:   BIT SIZE
 BSD .F               750:   BIT SIZE AT DEPTH
 DFT .           OIL EMUL:   DRILLING FLUID TYPE
 DFD .               10.2:   DRILLING FLUID DENSITY
 DFV .                 40:   DRILLING FLUID VISCOSITY
 DFL .                4.6:   DRILLING FLUID LOSS
 RMS .OHMM            5.2:   RESISTIVITY MUD SAMPLE
 MST .F                82:   MUD SAMPLE TEMPERATURE
 RMF .OHMM            3.7:   RESISTIVITY MUD FILTRATE SAMPLE
 MFST.F                82:   MUD FILTRATE SAMPLE TEMPERATURE
 RMC .OHMM            5.8:   RESISTIVITY MUD CAKE
 MCST.F                80:   MUD CAKE SAMPLE TEMPERATURE
 TCS .HRS              .5:   TIME CURCULATED STOPPED
 LUN .               2523:   LOGGING UNIT NUMBER
 LUL .               CSPR:   LOGGING UNIT LOCATION
 ENGI.           ELLERMAN:   RECORDING ENGINEER
 WITN.          JORGENSON:   WITNESSED BY
 CLNT.            A2DTECH:   CLIENT CODE
 ORIG.       2", 5" PRINT:   ORIGIN OF DATA
 UWI .       490250636100:   UNIQUE WELL ID
 DICO. A2D Technologies, Inc.:   DIGITIZING COMPANY
~OTHER INFORMATION
~A   DEPT      SPR       CILD        ILD          ASN       GR   
# ...
  404.0000   -57.0474   117.0486     7.7792     7.8794  -999.2500
  404.5000   -57.0837   115.7699     7.8468     7.9118  -999.2500
  405.0000   -57.1353   114.4911     7.9145     7.9451  -999.2500
  405.5000   -57.1841   113.2121     7.9821     7.9789  -999.2500
  406.0000   -56.9471   111.9330     8.0500     8.0113  -999.2500
  406.5000   -56.5280   110.6548     8.1178     8.0710  -999.2500
  407.0000   -56.1051   109.8295     8.1753     8.1461  -999.2500
  407.5000   -55.8040   110.0301     8.1335     8.2206  -999.2500
  408.0000   -55.9349   110.5895     8.0897     8.2699  -999.2500
  408.5000   -56.1015   111.1490     8.0462     8.2527  -999.2500
  409.0000   -56.2705   111.7085     8.0028     8.2369  -999.2500
  409.5000   -56.4330   113.0023     7.9594     8.2207  -999.2500
  410.0000   -55.6049   114.5134     7.9160     8.2041  -999.2500
  410.5000   -54.5416   116.0232     7.8726     8.1602  -999.2500
  411.0000   -54.2756   117.5465     7.8292     8.0832  -999.2500
  411.5000   -55.7656   117.8511     7.7857     8.0065  -999.2500
  412.0000   -56.1842   117.8555     7.7421     7.9296  -999.2500
  412.5000   -55.9931   117.8536     7.6992     7.9234  -999.2500
  413.0000   -54.8741   117.8536     7.6854     7.9962  -999.2500
  413.5000   -54.9912   117.8536     7.7570     8.0384  -999.2500
  414.0000   -56.0873   117.8979     7.8271     7.9434  -999.2500
  414.5000   -56.8732   116.7969     7.8970     7.8568  -999.2500
  415.0000   -57.0076   115.1662     7.9670     7.9106  -999.2500
  415.5000   -56.9733   113.4671     8.0367     8.0518  -999.2500
  416.0000   -56.9160   111.7887     8.1058     8.1913  -999.2500
  416.5000   -56.8601   110.1103     8.1804     8.2513  -999.2500
  417.0000   -56.8116   108.4320     8.3781     8.3272  -999.2500
  417.5000   -56.9099   106.7536     8.5774     8.4085  -999.2500
  418.0000   -57.0771   104.9129     8.7759     8.5671  -999.2500
  418.5000   -57.2313   102.8673     8.9743     8.7227  -999.2500
  419.0000   -56.7462   100.8218     9.1726     8.8780  -999.2500
  419.5000   -56.4453    98.7763     9.3716     9.0339  -999.2500
  420.0000   -56.5818    96.7308     9.5394     9.1840  -999.2500
  420.5000   -56.3441    94.6853     9.6718     9.3331  -999.2500
  421.0000   -55.5889    92.7724     9.8046     9.4524  -999.2500
  421.5000   -54.4091    91.8850     9.9358     9.5747  -999.2500
  422.0000   -55.4661    91.0431    10.1194    10.2738  -999.2500
  422.5000   -56.5518    89.8316    10.3221    10.9053  -999.2500
  423.0000   -57.3805    88.4426    10.5267    11.0991  -999.2500
  423.5000   -56.4640    87.0536    10.7314    11.3017  -999.2500
  424.0000   -55.0089    85.6646    10.9362    11.5034  -999.2500
  424.5000   -55.9054    84.2756    11.1399    11.7050  -999.2500
  425.0000   -56.9696    82.8866    11.2869    11.8848  -999.2500
  425.5000   -57.2155    81.7452    11.2837    11.8491  -999.2500
  426.0000   -57.1028    82.0027    11.2386    11.7738  -999.2500
  426.5000   -56.9223    82.8419    11.1882    11.6991  -999.2500
  427.0000   -56.8040    83.6810    11.1380    11.6243  -999.2500
  427.5000   -57.1525    84.5202    11.0842    11.5496  -999.2500
  428.0000   -57.5689    85.3597    10.9361    11.4827  -999.2500
  428.5000   -57.8053    86.1994    10.7758    11.4399  -999.2500
  429.0000   -57.4404    87.0343    10.6157    11.3564  -999.2500
  429.5000   -57.3384    87.7633    10.4550    11.2725  -999.2500
  430.0000   -57.6374    88.1874    10.3321    11.1886  -999.2500
  430.5000   -57.6871    88.7629    10.2377    11.1048  -999.2500
  431.0000   -56.8337    89.3383    10.1444    11.0198  -999.2500
  431.5000   -55.8885    89.9137    10.0508    10.9340  -999.2500
  432.0000   -54.9567    90.4892     9.9577    10.7745  -999.2500
  432.5000   -54.8514    91.0646     9.8907    10.7995  -999.2500
  433.0000   -56.9555    91.6401     9.9820    10.9280  -999.2500
  433.5000   -57.2511    91.4780    10.0715    11.0542  -999.2500
  434.0000   -55.9597    89.7009    10.1604    11.1802  -999.2500
  434.5000   -54.4857    87.9238    10.2494    11.3050  -999.2500
  435.0000   -54.7589    86.1467    10.3383    11.3852  -999.2500
  435.5000   -56.9159    87.2317    10.4254    11.3840  -999.2500
  436.0000   -56.9947    88.7761    10.4203    11.3846  -999.2500
  436.5000   -56.9237    88.7623    10.2548    11.3842  -999.2500
  437.0000   -56.8475    88.7697    10.0919    11.3801  -999.2500
  437.5000   -56.7726    89.1006     9.9284    11.2024  -999.2500
  438.0000   -56.6969    90.7790     9.7651    10.9146  -999.2500
  438.5000   -56.6245    92.4574     9.6017     9.9423  -999.2500
  439.0000   -56.7116    94.1357     9.4375     9.5377  -999.2500
  439.5000   -57.1542    95.8141     9.2827     9.3331  -999.2500
  440.0000   -57.0791    98.3222     9.2166     9.1808  -999.2500
  440.5000   -56.4582   101.9771     9.1218     9.0963  -999.2500
  441.0000   -56.0003   104.8320     9.0255     9.0105  -999.2500
  441.5000   -56.1561   105.0942     8.9290     8.9256  -999.2500
  442.0000   -56.0411   105.4283     8.8326     8.8503  -999.2500
  442.5000   -55.2806   105.7640     8.7362     8.7343  -999.2500
  443.0000   -54.6208   106.0996     8.6397     8.6154  -999.2500
  443.5000   -54.9493   106.4353     8.5429     8.4964  -999.2500
  444.0000   -56.4670   106.7710     8.4472     8.4896  -999.2500
  444.5000   -57.1270   106.8518     8.3920     8.5671  -999.2500
  445.0000   -55.2482   106.9751     8.4803     8.4491  -999.2500
  445.5000   -53.3484   107.0974     8.5644     8.2747  -999.2500
  446.0000   -53.1943   107.2202     8.6483     8.2667  -999.2500
  446.5000   -55.6903   107.3430     8.6213     8.3401  -999.2500
  447.0000   -56.3792   107.4658     8.5048     8.4121  -999.2500
  447.5000   -56.6460   107.5886     8.3903     8.3064  -999.2500
  448.0000   -56.9878   107.7114     8.3346     8.0819  -999.2500
  448.5000   -56.3794   107.8235     8.2890     8.0240  -999.2500
  449.0000   -56.0068   108.8265     8.2433     8.2765  -999.2500
  449.5000   -56.3168   108.8318     8.1976     8.3272  -999.2500
  450.0000   -56.3718   109.2111     8.1520     8.1842  -999.2500
  450.5000   -56.0087   109.7725     8.1059     8.0943  -999.2500
  451.0000   -55.6302   110.3563     8.0162     8.1041  -999.2500
  451.5000   -55.7032   111.8355     7.8186     8.1178  -999.2500
  452.0000   -55.8872   114.8278     7.6226     7.9502  -999.2500
  452.5000   -56.0254   119.0237     7.4267     7.7214  -999.2500
  453.0000   -55.4892   123.2197     7.2309     7.4917  -999.2500
  453.5000   -54.7785   127.4156     7.0345     7.2677  -999.2500
  454.0000   -54.0752   131.8957     6.8387     7.1292  -999.2500
  454.5000   -53.7290   132.2119     6.6653     7.0308  -999.2500
  455.0000   -54.5690   132.8043     6.6800     6.9689  -999.2500
  455.5000   -54.1957   133.3967     6.6921     6.8861  -999.2500
  456.0000   -52.9932   133.9064     6.7036     6.8472  -999.2500
  456.5000   -51.8031   132.7531     6.7151     6.9738  -999.2500
  457.0000   -53.7620   130.6589     6.7265     7.0514  -999.2500
  457.5000   -55.8582   128.8867     6.7379     7.0509  -999.2500
  458.0000   -55.7745   128.8867     6.7491     7.0511  -999.2500
  458.5000   -55.6976   128.8867     6.7607     7.0629  -999.2500
  459.0000   -55.6250   128.8949     6.7895     7.1389  -999.2500
  459.5000   -55.5525   127.8248     6.9104     7.2153  -999.2500
  460.0000   -55.4803   126.4550     7.0306     7.2477  -999.2500
  460.5000   -55.4154   125.0789     7.1505     7.2347  -999.2500
  461.0000   -55.5899   123.7057     7.2704     7.3247  -999.2500
  461.5000   -56.0140   121.8656     7.3903     7.4202  -999.2500
  462.0000   -56.3985   120.1173     7.5102     7.5149  -999.2500
  462.5000   -56.1179   118.3551     7.6304     7.5831  -999.2500
  463.0000   -55.5926   116.5928     7.7529     7.6375  -999.2500
  463.5000   -55.8479   114.7991     7.7490     7.6920  -999.2500
  464.0000   -55.6000   113.8620     7.7189     7.7463  -999.2500
  464.5000   -54.7221   113.8382     7.6883     7.8010  -999.2500
