~VERSION INFORMATION
 VERS.                2.0:   CWLS LOG ASCII STANDARD - VERSION 2.0
 WRAP.                 NO:   ONE LINE PER DEPTH STEP
~WELL INFORMATION
#MNEM.UNIT      DATA TYPE    INFORMATION
#----------   ------------   ------------------------------
 STRT.F           20.0000:   START DEPTH
 STOP.F         1363.5000:   STOP DEPTH
 STEP.F            0.5000:   STEP LENGTH
 NULL.          -999.2500:   NO VALUE
 COMP.   FLUOR DANIEL INC:   COMPANY
 WELL.   NPR 3 "S" #83-14:   WELL
 FLD .             TEAPOT:   FIELD
 LOC .      S14 T38N R78W:   LOCATION
 CNTY.            NATRONA:   COUNTY
 STAT.            WYOMING:   STATE
 CTRY. UNITED STATES OF AMERICA:   COUNTRY
 SRVC. Schlumberger Well Surveying Corp:   SERVICE COMPANY
 DATE.        22-AUG-1966:   LOGDATE
 API .       490250971000:   API NUMBER
~CURVE INFORMATION
#MNEM.UNIT       API CODE    CURVE DESCRIPTION
#----------   ------------   ------------------------------
 DEPT.F                  :   
 SPR .MV     05 010 01 00:   SPONTANEOUS POTENTIAL FROM RES.
 ASN .OHMM   05 041 16 00:   AMPLIFIED SHORT NORMAL 16"
 CILD.MMHO   05 110 00 00:   CONDUCTIVITY INDUCTION LOG
 ILD .OHMM   05 120 46 00:   INDUCTION LOG DEEP
 CALD.IN     45 280 60 00:   CALIPER
 GRD .GAPI   45 310 01 00:   GAMMA RAY FROM DENSITY LOG
 CORR.G/C3   45 356 01 00:   DENSITY CORRECTION
 RHOB.G/C3   45 350 01 00:   BULK DENSITY
 DPOR.DEC    45 890 12 00:   DENSITY POROSITY SANDSTONE
~PARAMETER INFORMATION
#MNEM.UNIT          VALUE    DESCRIPTION
#----------   ------------   ------------------------------
 PD  .                 GL:   PERMANENT DATUM
 EPD .F              5300:   ELEVATION PERMANENT DATUM
 LMF .                 KB:   LOG MEASURED FROM
 DAPD.F                 5:   FEET ABOVE PERMANENT DATUM
 DMF .                 KB:   DRILLING MEASURED FROM
 EKB .F              5305:   KELLING BUSHING
 EGL .F              5300:   GROUND LEVEL
 DATE.          8-22-1966:   RUN DATE
 RUN .                  1:   RUN NUMBER
 DD  .F              1365:   DEPTH DRILLER
 DL  .F              1363:   DEPTH LOGGER
 BLI .F              1362:   BOTTOM LOG INTERVAL
 TLI .F                20:   TOP LOG INTERVAL
 CS  .IN            8.625:   CASING SIZE
 CBD .F                15:   CASING BOTTOM DRILLER
 CBL .F                20:   CASING BOTTOM LOGGER
 BS  .IN            7.875:   BIT SIZE
 BSD .F              1365:   BIT SIZE AT DEPTH
 DFT .           GEL-CHEM:   DRILLING FLUID TYPE
 DFD .                 10:   DRILLING FLUID DENSITY
 DFV .                 55:   DRILLING FLUID VISCOSITY
 DFL .                  8:   DRILLING FLUID LOSS
 MSS .          FLOW LINE:   MUD SAMPLE SOURCE
 RMS .OHMM           1.86:   RESISTIVITY MUD SAMPLE
 MST .F                73:   MUD SAMPLE TEMPERATURE
 RMF .OHMM           1.13:   RESISTIVITY MUD FILTRATE SAMPLE
 MFST.F                70:   MUD FILTRATE SAMPLE TEMPERATURE
 MFSS.                  M:   MUD FILTRATE SAMPLE SOURCE
 RMB .OHMM           1.32:   RESISTIVITY MUD AT BHT
 BHT .F               102:   BOTTOM HOLE TEMPERATURE
 TCS .HRS               1:   TIME CURCULATED STOPPED
 MRT .F               102:   MAXIMUM RECORDED TEMPERATURE
 LUN .               3527:   LOGGING UNIT NUMBER
 LUL .               CSPR:   LOGGING UNIT LOCATION
 ENGI.          TOLLEFSON:   RECORDING ENGINEER
 WITN.         MAY/TUTTLE:   WITNESSED BY
 CLNT.            A2DTECH:   CLIENT CODE
 ORIG.       2", 5" PRINT:   ORIGIN OF DATA
 UWI .       490250971000:   UNIQUE WELL ID
 DICO. A2D Technologies, Inc.:   DIGITIZING COMPANY
~OTHER INFORMATION
~A   DEPT       SPR       ASN         CILD      ILD         CALD       GRD       CORR        RHOB     DPOR   
# ...
 1334.0000   -44.4792    12.9342    99.6646     9.5028     7.9499    91.6197     0.0377     2.5556     0.0589
 1334.5000   -44.5195    13.0219    99.8559     9.4813     7.9521    92.3023     0.0247     2.5443     0.0619
 1335.0000   -44.5587    13.1105   100.0473     9.4598     7.9541    99.4967     0.0403     2.5301     0.0780
 1335.5000   -44.5274    13.0764   100.2386     9.4383     7.9560    98.8199     0.0495     2.5350     0.0771
 1336.0000   -44.1809    12.9445   100.4299     9.4167     7.9580    90.2978     0.0640     2.5653     0.0591
 1336.5000   -43.8402    12.8110   100.6212     9.3952     7.9600    88.3060     0.0430     2.5612     0.0499
 1337.0000   -43.6036    12.6748   100.9695     9.3737     7.9620    89.3506     0.0298     2.5448     0.0676
 1337.5000   -44.1714    12.6497   101.6689     9.3521     7.9639    92.2212     0.0357     2.5486     0.0648
 1338.0000   -44.5746    12.6496   102.3682     9.3306     7.9660    91.3336     0.0444     2.5569     0.0510
 1338.5000   -44.0069    12.6500   103.0675     9.3091     7.9679    90.5794     0.0080     2.5647     0.0559
 1339.0000   -43.4547    12.6500   103.7668     9.2878     7.9693    92.5766     0.0102     2.5139     0.0723
 1339.5000   -43.5195    12.6502   104.4662     9.2661     7.9591    96.3584     0.0237     2.5228     0.0838
 1340.0000   -43.7934    12.6497   104.7094     9.2302     7.9457    98.0969     0.0350     2.5449     0.0750
 1340.5000   -43.9914    12.6517   104.7094     9.1401     7.9328    90.7243     0.0478     2.5345     0.0622
 1341.0000   -43.9677    12.5343   104.7094     9.0526     7.9198    87.5974     0.0577     2.5419     0.0742
 1341.5000   -43.8001    12.3678   104.7094     8.9652     7.9067    90.0235     0.0393     2.5522     0.0610
 1342.0000   -43.6306    12.1986   106.7384     8.8777     7.8938    94.3198     0.0309     2.5290     0.0764
 1342.5000   -43.4615    12.0301   108.7842     8.7902     7.8805    93.7595     0.0370     2.5025     0.0954
 1343.0000   -43.2945    11.8644   110.8301     8.7028     7.8701    92.7241     0.0340     2.5076     0.0899
 1343.5000   -43.1851    11.7079   112.8759     8.6153     7.8710    94.5410     0.0169     2.5109     0.0830
 1344.0000   -43.1867    11.5691   114.9218     8.5279     7.8806    97.6770     0.0201     2.5042     0.0874
 1344.5000   -43.1868    11.4343   116.9676     8.4404     7.8897    99.3795     0.0229     2.4999     0.0910
 1345.0000   -43.1930    11.3569   119.0135     8.3530     7.8983   100.7626     0.0271     2.5212     0.0738
 1345.5000   -42.9142    11.2151   121.0593     8.2655     7.9078   103.6796     0.0424     2.5335     0.0706
 1346.0000   -42.5946    11.0530   123.1058     8.1781     7.9153   102.6049     0.0506     2.5234     0.0770
 1346.5000   -42.6489    10.9499   125.1533     8.0906     7.9273    97.8151     0.0352     2.5302     0.0760
 1347.0000   -42.8076    10.8368   127.1969     8.0031     7.9181    96.6258     0.0330     2.5354     0.0735
 1347.5000   -42.9653    10.7381   128.7575     7.9157     7.8791    98.0768     0.0390     2.5448     0.0700
 1348.0000   -43.0013    10.6487   129.9861     7.8388     7.8313   101.6948     0.0455     2.5417     0.0630
 1348.5000   -42.3887    10.7554   130.3377     7.7939     7.8245   104.8081     0.0581     2.5355     0.0722
 1349.0000   -42.1677    10.7643   130.6893     7.7491     7.8727   106.0758     0.0741     2.5481     0.0631
 1349.5000   -42.1815    10.7820   131.0409     7.7042     7.9213   105.1877     0.0894     2.5622     0.0537
 1350.0000   -42.1848    10.7992   131.3925     7.6594     7.9517   104.2929     0.1054     2.5759     0.0453
 1350.5000   -42.1833    10.8173   131.7442     7.6145     7.9181   104.8375     0.1068     2.5907     0.0375
 1351.0000   -42.1851    10.8400   132.0958     7.5696     7.8854   105.8730     0.0945     2.5970     0.0333
 1351.5000   -42.2633    10.8330   132.4474     7.5247     7.8502   105.3201     0.0777     2.5824     0.0411
 1352.0000   -42.5953    10.9056   132.7655     7.4807     7.8159   104.1034     0.0718     2.5671     0.0498
 1352.5000   -42.5953    10.0640   134.0923     7.4484     7.7860  -999.2500     0.0770     2.5614     0.0517
 1353.0000   -42.1707     9.9855   136.6251     7.3815     7.7682  -999.2500     0.0806     2.5564     0.0554
 1353.5000   -41.7770     9.8173   139.1579     7.3087     7.7510  -999.2500     0.0827     2.5630     0.0566
 1354.0000   -41.7726     9.6872   141.6908     7.2362     7.7330  -999.2500     0.0815     2.5717     0.0489
 1354.5000   -41.6890     9.5894   144.2236     7.1637     7.7175  -999.2500     0.0816     2.5818     0.0426
 1355.0000   -41.6056     9.4092   145.7916     7.0917     7.6967  -999.2500     0.0802     2.5625     0.0618
 1355.5000   -41.5221     9.2304   145.7916     7.0496     7.6852  -999.2500     0.0886     2.5525     0.0582
 1356.0000   -41.4387     8.6892  -999.2500     7.0583     7.6511  -999.2500     0.1019     2.5582     0.0518
 1356.5000   -41.3552     8.5267  -999.2500     7.0703     7.6416  -999.2500     0.1147     2.5783     0.0446
 1357.0000   -41.2716     8.4844  -999.2500     7.0826     7.4345  -999.2500     0.1256     2.5731     0.0520
 1357.5000   -41.1890     8.3317  -999.2500     7.0948     7.0219  -999.2500     0.1433     2.5475     0.0654
 1358.0000   -41.1634     8.3244  -999.2500     7.1070     6.6506  -999.2500     0.1651     2.5549     0.0574
 1358.5000   -40.6307     8.3429  -999.2500     7.1192     6.2320  -999.2500     0.1804     2.5480     0.0615
 1359.0000   -40.9294     8.2502  -999.2500     7.1315     6.1201  -999.2500     0.1672     2.5404     0.0696
 1359.5000   -41.6041     8.0782  -999.2500     7.1443  -999.2500  -999.2500     0.1552     2.5213     0.0777
 1360.0000   -41.4061     7.9051  -999.2500     7.1494  -999.2500  -999.2500     0.1443     2.4886     0.0858
 1360.5000   -41.0943     7.7353  -999.2500     7.0082  -999.2500  -999.2500     0.1470     2.4568     0.1044
 1361.0000   -40.7833     7.2499  -999.2500     6.8501  -999.2500  -999.2500     0.1508     2.4279     0.1246
 1361.5000   -40.6221     6.7787  -999.2500     6.6926  -999.2500  -999.2500     0.1545     2.4054     0.1294
 1362.0000   -41.1302     6.6751  -999.2500     6.5460  -999.2500  -999.2500     0.1281     2.3847     0.1363
 1362.5000  -999.2500     6.6498  -999.2500     6.4523  -999.2500  -999.2500     0.1121     2.3553     0.1866
 1363.0000  -999.2500  -999.2500  -999.2500     6.3777  -999.2500  -999.2500     0.1180     2.3584     0.1730
 1363.5000  -999.2500  -999.2500  -999.2500  -999.2500  -999.2500  -999.2500  -999.2500  -999.2500     0.1802
