~VERSION INFORMATION
 VERS.                2.0:   CWLS LOG ASCII STANDARD - VERSION 2.0
 WRAP.                 NO:   ONE LINE PER DEPTH STEP
~WELL INFORMATION
#MNEM.UNIT      DATA TYPE    INFORMATION
#----------   ------------   ------------------------------
 STRT.F           30.0000:   START DEPTH
 STOP.F          691.0000:   STOP DEPTH
 STEP.F            0.5000:   STEP LENGTH
 NULL.          -999.2500:   NO VALUE
 COMP. U.S. DEPARTMENT OF ENERGY:   COMPANY
 WELL. NAVAL PETROLEUM RESERVE #3 #77-S-34:   WELL
 FLD .        TEAPOT DOME:   FIELD
 LOC .      S34 T39N R78W:   LOCATION
 CNTY.            NATRONA:   COUNTY
 STAT.            WYOMING:   STATE
 CTRY. UNITED STATES OF AMERICA:   COUNTRY
 SRVC.              Welex:   SERVICE COMPANY
 DATE.        26-APR-1977:   LOGDATE
 API .       490251034700:   API NUMBER
~CURVE INFORMATION
#MNEM.UNIT       API CODE    CURVE DESCRIPTION
#----------   ------------   ------------------------------
 DEPT.F                  :   
 CALD.IN     45 280 60 00:   CALIPER FROM DENSITY LOG
 CORR.G/C3   45 356 01 00:   DENSITY CORRECTION
 DPHI.DEC    45 890 12 00:   DENSITY POROSITY SANDSTONE
 RHOB.G/C3   45 350 01 00:   BULK DENSITY
 GRD .GAPI   45 310 01 00:   GAMMA RAY FROM DENSITY LOG
 ILD .OHMM   07 120 46 00:   INDUCTION LOG DEEP
 ILM .OHMM   07 120 44 00:   INDUCTION LOG MEDIUM
 SGRD.OHMM   07 220 05 00:   SHALLOW GUARD RESISTIVITY
 SPR .MV     07 010 01 00:   SPONTANEOUS POTENTIAL FROM RES.
~PARAMETER INFORMATION
#MNEM.UNIT          VALUE    DESCRIPTION
#----------   ------------   ------------------------------
 PD  .                 GL:   PERMANENT DATUM
 EPD .F              5075:   ELEVATION PERMANENT DATUM
 LMF .                 GL:   LOG MEASURED FROM
 DMF .                 GL:   DRILLING MEASURED FROM
 EGL .F              5075:   GROUND LEVEL
 DATE.          4-26-1977:   RUN DATE
 RUN .                  1:   RUN NUMBER
 DD  .F               700:   DEPTH DRILLER
 DL  .F               693:   DEPTH LOGGER
 BLI .F               691:   BOTTOM LOG INTERVAL
 TLI .F                35:   TOP LOG INTERVAL
 CS  .IN            8.625:   CASING SIZE
 CBD .F                40:   CASING BOTTOM DRILLER
 CBL .F                39:   CASING BOTTOM LOGGER
 BS  .IN            7.875:   BIT SIZE
 BSD .F               700:   BIT SIZE AT DEPTH
 DFT .            KCL MUD:   DRILLING FLUID TYPE
 DFD .                9.5:   DRILLING FLUID DENSITY
 DFV .                 35:   DRILLING FLUID VISCOSITY
 DFPH.               10.5:   DRILLING FLUID PH
 DFL .                 12:   DRILLING FLUID LOSS
 MSS .           FLOWLINE:   MUD SAMPLE SOURCE
 RMS .OHMM            .32:   RESISTIVITY MUD SAMPLE
 MST .F                66:   MUD SAMPLE TEMPERATURE
 RMF .OHMM            .28:   RESISTIVITY MUD FILTRATE SAMPLE
 MFST.F                66:   MUD FILTRATE SAMPLE TEMPERATURE
 RMC .OHMM            .49:   RESISTIVITY MUD CAKE
 MCST.F                66:   MUD CAKE SAMPLE TEMPERATURE
 RMB .OHMM            .28:   RESISTIVITY MUD AT BHT
 BHT .F                74:   BOTTOM HOLE TEMPERATURE
 TCS .HRS             1.5:   TIME CURCULATED STOPPED
 MRT .F                74:   MAXIMUM RECORDED TEMPERATURE
 LUN .               8611:   LOGGING UNIT NUMBER
 LUL .           GILLETTE:   LOGGING UNIT LOCATION
 ENGI.            C. DOAK:   RECORDING ENGINEER
 WITN.       MR. ROB LYON:   WITNESSED BY
 CLNT.            A2DTECH:   CLIENT CODE
 ORIG.           5" PRINT:   ORIGIN OF DATA
 UWI .       490251034700:   UNIQUE WELL ID
 DICO. A2D Technologies, Inc.:   DIGITIZING COMPANY
~OTHER INFORMATION
~A   DEPT       CALD      CORR      DPHI         RHOB       GRD       ILD        ILM       SGRD        SPR   
# ...
  577.5000     7.9581     0.0187     0.1543     2.4129    98.8939     9.4696    12.0999    12.3144   -38.1988
  578.0000     7.9581     0.0187     0.1504     2.4227    98.3826     9.3406    12.1845    11.9790   -38.3501
  578.5000     7.9581     0.0187     0.1534     2.4242   100.8435     9.2771    12.1853    12.3180   -38.5010
  579.0000     7.9581     0.0186     0.1584     2.4182   104.8822     9.2138    12.0192    12.4905   -38.6519
  579.5000     7.9581     0.0186     0.1578     2.4108   108.4724     9.1512    11.9374    12.4064   -38.8027
  580.0000     7.9581     0.0186     0.1536     2.4160   105.5657     9.0890    11.9439    12.1542   -38.7942
  580.5000     7.9581     0.0201     0.1554     2.4175   102.7979     9.0897    12.0219    11.9894   -38.5070
  581.0000     7.9581     0.0201     0.1597     2.4116   104.7447     9.0903    12.0227    11.9087   -38.5084
  581.5000     7.9581     0.0201     0.1608     2.4071   108.3349     9.0284    12.0235    12.1593   -38.5098
  582.0000     7.9581     0.0201     0.1575     2.4086   109.9820     9.0257    12.0242    12.2450   -38.3617
  582.5000     7.9581     0.0200     0.1539     2.4153   103.7075     8.9061    12.0252    12.1625   -38.2137
  583.0000     7.9581     0.0200     0.1500     2.4221   103.1117     8.9067    12.1929    11.8339   -37.7670
  583.5000     7.9581     0.0215     0.1452     2.4303   102.3678     8.9689    12.3628    11.7538   -37.4695
  584.0000     7.9581     0.0215     0.1416     2.4348   101.9064     9.1569    12.5351    12.5076   -37.1720
  584.5000     7.9581     0.0230     0.1452     2.4356    99.8330     9.5444    12.7166    12.7704   -37.0124
  585.0000     7.9432     0.0252     0.1485     2.4251    98.0421     9.8119    12.8872    13.0392   -36.2783
  585.5000     7.9432     0.0275     0.1530     2.4162    96.2512    10.2977    12.8881    13.5913   -35.5323
  586.0000     7.9432     0.0290     0.1613     2.4027    90.7893    10.8075    12.8889    13.8769   -34.6369
  586.5000     7.9283     0.0319     0.1778     2.3801    81.9078    11.3523    13.1589    13.5948   -33.7414
  587.0000     7.9283     0.0334     0.1856     2.3579    73.3904    11.9043    13.6212    13.0270   -32.5474
  587.5000     7.9283     0.0364     0.1895     2.3556    67.8626    12.4937    14.1969    15.6076   -31.2035
  588.0000     7.9283     0.0364     0.1927     2.3512    63.9431    13.2030    14.5945    17.4285   -29.8596
  588.5000     7.9283     0.0334     0.2005     2.3295    65.9257    13.7698    15.3165    15.5045   -29.1136
  589.0000     7.9283     0.0289     0.2274     2.2906    68.4697    14.5429    16.0936    14.7768   -28.5042
  589.5000     7.9283     0.0243     0.2362     2.2749    71.1631    15.3685    16.9863    15.9422   -27.9210
  590.0000     7.9283     0.0198     0.2370     2.2787    72.9795    16.4665    17.9499    18.9408   -27.4740
  590.5000     7.9283     0.0153     0.2295     2.2937    74.3782    17.4013    18.9682    19.2061   -27.4754
  591.0000     7.9283     0.0123     0.2199     2.3105    75.3576    18.9036    19.9065    18.8157   -27.7758
  591.5000     7.9133     0.0138     0.2014     2.3296    76.1078    19.9768    22.0754    19.2117   -27.9270
  592.0000     7.9092     0.0183     0.1493     2.3663    76.7085    21.1108    24.4801    20.5956   -28.3769
  592.5000     7.8984     0.0273     0.1227     2.4104    76.2636    22.3093    26.5915    24.1222   -29.2752
  593.0000     7.8834     0.0423     0.1146     2.4300    74.7716    22.7770    27.9070    38.8066   -29.8745
  593.5000     7.8685     0.0542     0.1140     2.4359    73.4291    22.6220    27.9089    50.0792   -30.0254
  594.0000     7.8685     0.0512     0.1251     2.4119    75.5485    22.4680    27.5292    38.5502   -30.1766
  594.5000     7.8685     0.0452     0.1660     2.3805    78.3682    22.1622    26.4162    24.4704   -30.1780
  595.0000     7.8685     0.0362     0.1879     2.3589    80.4637    21.4077    23.9891    23.4826   -30.1795
  595.5000     7.8685     0.0302     0.2037     2.3379    83.4561    19.9878    20.9029    21.1800   -30.1809
  596.0000     7.8685     0.0256     0.2081     2.3237    83.4428    18.6575    18.7230    18.4564   -29.8833
  596.5000     7.8834     0.0241     0.2124     2.3178    80.4729    17.6575    17.9660    17.9572   -29.4367
  597.0000     7.8834     0.0256     0.2145     2.3140    80.1760    16.8268    17.7214    20.3311   -29.1391
  597.5000     7.8834     0.0271     0.2163     2.3103    85.2617    15.8157    18.2176    18.0866   -28.8416
  598.0000     7.8984     0.0271     0.2169     2.3081    87.9590    15.0716    18.9877    17.2368   -28.5281
  598.5000     7.8984     0.0271     0.2171     2.3074    88.5566    14.5619    19.2526    20.6212   -28.0970
  599.0000     7.8984     0.0286     0.2180     2.3066    90.6521    14.2648    19.2539    19.3847   -28.0988
  599.5000     7.8984     0.0345     0.2162     2.3144    92.1497    13.9637    19.3883    17.0087   -28.1002
  600.0000     7.9134     0.0390     0.2099     2.3239    92.7504    13.7832    19.3895    16.5480   -27.9520
  600.5000     7.9136     0.0450     0.2051     2.3343    92.6024    13.7833    17.9760    19.3911   -27.8012
  601.0000     7.8990     0.0480     0.2002     2.3411    91.3752    13.6792    17.1309    19.7973   -27.7997
  601.5000     7.8993     0.0480     0.2049     2.3441    86.3276    13.5012    16.6663    19.9355   -28.0969
  602.0000     7.8996     0.0479     0.2114     2.3201    81.3963    13.5012    16.3265    19.1295   -28.3945
  602.5000     7.8999     0.0479     0.2144     2.3164    84.0883    13.5946    16.1042    17.3659   -28.6923
  603.0000     7.9002     0.0434     0.2126     2.3217    86.9298    13.5946    15.8849    17.0180   -28.9895
  603.5000     7.9154     0.0388     0.2091     2.3254    89.3632    13.5946    15.6685    15.8862   -29.2871
  604.0000     7.9306     0.0328     0.2064     2.3284    89.9222    13.4084    15.6698    17.1379   -29.5843
  604.5000     7.9459     0.0268     0.2049     2.3299    85.7386    13.3163    15.6708    16.7884   -29.5828
  605.0000     7.9462     0.0237     0.2022     2.3330    85.8895    13.2248    15.5643    15.4574   -29.8804
  605.5000     7.9465     0.0237     0.1988     2.3434    86.3393    13.1339    15.5655    16.3345   -30.0414
  606.0000     7.9468     0.0252     0.1947     2.3501    85.8606    13.0437    15.5666    16.5622   -30.3256
  606.5000     7.9471     0.0266     0.1971     2.3501    84.8474    13.0437    15.6752    16.1131   -30.4740
  607.0000     7.9474     0.0281     0.1995     2.3464    83.3544    13.0437    15.6762    15.2502   -30.4723
  607.5000     7.9327     0.0298     0.2016     2.3426    82.1600    13.0437    15.6775    16.0717   -30.7698
  608.0000     7.9331     0.0311     0.1916     2.3494    81.6891    13.0437    15.6785    16.5666   -30.9179
  608.5000     7.9333     0.0325     0.1791     2.3629    85.1324    12.9541    15.4647    15.2531   -31.2150
  609.0000     7.9336     0.0325     0.1687     2.3801    89.0406    12.8651    15.3596    17.0319   -31.3635
  609.5000     7.9340     0.0325     0.1621     2.3951    91.7326    12.8651    15.4670    16.1197   -31.6607
  610.0000     7.9342     0.0324     0.1612     2.4055    93.6772    12.7767    15.3618    20.6581   -31.9582
  610.5000     7.9345     0.0309     0.1633     2.4003    93.0807    12.6889    15.0489    14.8430   -32.1062
  611.0000     7.9349     0.0288     0.1672     2.3996    91.8236    12.6018    14.8437    15.5773   -32.2543
  611.5000     7.9202     0.0259     0.1714     2.3943    90.0944    12.4292    14.6417    16.4609   -32.5518
  612.0000     7.9055     0.0233     0.1752     2.3854    88.4516    12.3438    14.4424    15.2524   -32.5501
  612.5000     7.8908     0.0233     0.1792     2.3716    86.8088    12.3509    14.2457    14.5434   -32.5483
  613.0000     7.8763     0.0232     0.1857     2.3577    85.6144    12.5152    14.4445    13.9552   -32.5469
  613.5000     7.8666     0.0247     0.1905     2.3487    87.8258    12.6889    14.6458    15.3694   -32.5455
