~VERSION INFORMATION
 VERS.                2.0:   CWLS LOG ASCII STANDARD - VERSION 2.0
 WRAP.                 NO:   ONE LINE PER DEPTH STEP
~WELL INFORMATION
#MNEM.UNIT      DATA TYPE    INFORMATION
#----------   ------------   ------------------------------
 STRT.F            6.0000:   START DEPTH
 STOP.F         2600.0000:   STOP DEPTH
 STEP.F            0.5000:   STEP LENGTH
 NULL.          -999.2500:   NO VALUE
 COMP. FENIX & SCISSON INC:   COMPANY
 WELL.   NPR 3 SH #17 -34:   WELL
 FLD .             TEAPOT:   FIELD
 LOC .      S34 T39N R78W:   LOCATION
 CNTY.            NATRONA:   COUNTY
 STAT.            WYOMING:   STATE
 CTRY. UNITED STATES OF AMERICA:   COUNTRY
 SRVC.            Unknown:   SERVICE COMPANY
 DATE.        21-MAR-1978:   LOGDATE
 API .       490251060600:   API NUMBER
~CURVE INFORMATION
#MNEM.UNIT       API CODE    CURVE DESCRIPTION
#----------   ------------   ------------------------------
 DEPT.F                  :   
 NPHI.DEC    42 890 03 00:   NEUTRON POROSITY SANDSTONE
 CALD.IN     45 280 60 00:   CALIPER FROM DENSITY LOG
 GRD .GAPI   45 310 01 00:   GAMMA RAY FROM DENSITY LOG
 CORR.G/C3   45 356 01 00:   DENSITY CORRECTION
 RHOB.G/C3   45 350 01 00:   BULK DENSITY
 DPHI.DEC    45 890 12 00:   DENSITY POROSITY SANDSTONE
~PARAMETER INFORMATION
#MNEM.UNIT          VALUE    DESCRIPTION
#----------   ------------   ------------------------------
 PD  .                 GL:   PERMANENT DATUM
 EPD .F              5150:   ELEVATION PERMANENT DATUM
 LMF .                 KB:   LOG MEASURED FROM
 DMF .                 KB:   DRILLING MEASURED FROM
 EKB .F              5160:   KELLING BUSHING
 EGL .F              5150:   GROUND LEVEL
 DATE.          3-21-1978:   RUN DATE
 RUN .                  1:   RUN NUMBER
 DD  .F              2612:   DEPTH DRILLER
 DL  .F              2592:   DEPTH LOGGER
 BLI .F              2590:   BOTTOM LOG INTERVAL
 TLI .F                20:   TOP LOG INTERVAL
 CS  .IN            9.625:   CASING SIZE
 CBD .F               710:   CASING BOTTOM DRILLER
 CBL .F               710:   CASING BOTTOM LOGGER
 BS  .IN            8.625:   BIT SIZE
 BSD .F              2612:   BIT SIZE AT DEPTH
 DFT .           AIR MIST:   DRILLING FLUID TYPE
 BHT .F               110:   BOTTOM HOLE TEMPERATURE
 TCS .HRS               2:   TIME CURCULATED STOPPED
 MRT .F               110:   MAXIMUM RECORDED TEMPERATURE
 LUN .               2958:   LOGGING UNIT NUMBER
 LUL .               CASP:   LOGGING UNIT LOCATION
 ENGI.            POINTER:   RECORDING ENGINEER
 WITN.           MCGINLEY:   WITNESSED BY
 CLNT.            A2DTECH:   CLIENT CODE
 ORIG.      2" , 5" PRINT:   ORIGIN OF DATA
 UWI .       490251060600:   UNIQUE WELL ID
 DICO. A2D Technologies, Inc.:   DIGITIZING COMPANY
~OTHER INFORMATION
~A    DEPT      NPHI     CALD        GRD       CORR       RHOB       DPHI   
# ...
  786.0000  -999.2500    10.7589   114.1830     0.1569     2.4839     0.1003
  786.5000  -999.2500    10.7764   110.4630     0.1682     2.4868     0.0976
  787.0000  -999.2500    10.7944   107.5504     0.1712     2.4904     0.1004
  787.5000  -999.2500    10.7957   105.9814     0.1713     2.4908     0.0975
  788.0000  -999.2500    10.7959   109.7440     0.1713     2.4901     0.0928
  788.5000  -999.2500    10.7962   113.0123     0.1678     2.4894     0.0990
  789.0000  -999.2500    10.7965   114.0287     0.1616     2.4870     0.1031
  789.5000  -999.2500    10.7968   113.4175     0.1642     2.4804     0.1029
  790.0000  -999.2500    10.7971   112.8564     0.1671     2.4787     0.1039
  790.5000  -999.2500    10.7975   111.7592     0.1607     2.4845     0.1070
  791.0000  -999.2500    10.7978   111.0764     0.1535     2.4791     0.1102
  791.5000  -999.2500    10.7981   114.2021     0.1475     2.4721     0.1136
  792.0000  -999.2500    10.7985   120.3477     0.1484     2.4662     0.1152
  792.5000  -999.2500    10.7988   119.4595     0.1492     2.4669     0.1141
  793.0000  -999.2500    10.7991   117.8148     0.1432     2.4676     0.1168
  793.5000  -999.2500    10.7994   117.1660     0.1375     2.4625     0.1228
  794.0000  -999.2500    10.7998   115.7952     0.1379     2.4521     0.1293
  794.5000  -999.2500    10.8001   113.7284     0.1384     2.4430     0.1339
  795.0000  -999.2500    10.8004   111.8422     0.1391     2.4344     0.1365
  795.5000  -999.2500    10.8007   111.6889     0.1423     2.4311     0.1335
  796.0000  -999.2500    10.8011   112.7380     0.1530     2.4342     0.1295
  796.5000  -999.2500    10.8014   113.9503     0.1656     2.4423     0.1255
  797.0000  -999.2500    10.8017   113.8523     0.1780     2.4481     0.1212
  797.5000  -999.2500    10.8020   113.5622     0.1908     2.4518     0.1141
  798.0000  -999.2500    10.8024   113.2693     0.1966     2.4626     0.1097
  798.5000  -999.2500    10.8027   113.0013     0.1993     2.4718     0.1084
  799.0000  -999.2500    10.8030   112.9669     0.1993     2.4699     0.1111
  799.5000  -999.2500    10.8033   115.0515     0.1993     2.4682     0.1138
  800.0000  -999.2500    10.8037   116.0621     0.1993     2.4666     0.1166
  800.5000  -999.2500    10.8040   116.9922     0.1993     2.4649     0.1193
  801.0000  -999.2500    10.8043   117.9121     0.1993     2.4617     0.1200
  801.5000  -999.2500    10.8046   118.0371     0.2047     2.4567     0.1162
  802.0000  -999.2500    10.8050   118.0041     0.2111     2.4519     0.1118
  802.5000  -999.2500    10.8053   119.4755     0.2117     2.4591     0.1076
  803.0000  -999.2500    10.8056   120.8019     0.2092     2.4677     0.0999
  803.5000  -999.2500    10.8059   120.7746     0.2050     2.4765     0.1029
  804.0000  -999.2500    10.8063   120.7376     0.1932     2.4792     0.1089
  804.5000  -999.2500    10.8066   124.2086     0.1816     2.4717     0.1151
  805.0000  -999.2500    10.8069   125.9159     0.1786     2.4643     0.1142
  805.5000  -999.2500    10.8072   125.6224     0.1759     2.4621     0.1132
  806.0000  -999.2500    10.8076   124.1998     0.1731     2.4639     0.1128
  806.5000  -999.2500    10.8079   122.8129     0.1703     2.4657     0.1166
  807.0000  -999.2500    10.8082   121.4131     0.1675     2.4648     0.1207
  807.5000  -999.2500    10.8085   121.0653     0.1696     2.4561     0.1247
  808.0000  -999.2500    10.8089   121.9899     0.1735     2.4478     0.1269
  808.5000  -999.2500    10.8092   122.9011     0.1823     2.4403     0.1260
  809.0000  -999.2500    10.8095   123.5762     0.1909     2.4422     0.1219
  809.5000  -999.2500    10.8098   122.3332     0.1968     2.4478     0.1177
  810.0000  -999.2500    10.8102   120.3670     0.1740     2.4552     0.1135
  810.5000  -999.2500    10.8105   119.6725     0.1654     2.4627     0.1109
  811.0000  -999.2500    10.8108   119.8617     0.1653     2.4616     0.1086
  811.5000  -999.2500    10.8111   119.9970     0.1655     2.4611     0.1075
  812.0000  -999.2500    10.8115   119.1771     0.1607     2.4727     0.1118
  812.5000  -999.2500    10.8118   118.7493     0.1548     2.4719     0.1161
  813.0000  -999.2500    10.8121   121.1076     0.1529     2.4596     0.1203
  813.5000  -999.2500    10.8124   122.6521     0.1521     2.4478     0.1243
  814.0000  -999.2500    10.8128   123.2505     0.1514     2.4453     0.1268
  814.5000  -999.2500    10.8131   121.9928     0.1575     2.4477     0.1125
  815.0000  -999.2500    10.8134   121.6014     0.1642     2.4621     0.1082
  815.5000  -999.2500    10.8137   122.3320     0.1713     2.4680     0.1067
  816.0000  -999.2500    10.8141   120.9334     0.1718     2.4710     0.1053
  816.5000  -999.2500    10.8144   120.7907     0.1699     2.4740     0.1068
  817.0000  -999.2500    10.8147   121.1538     0.1647     2.4732     0.1107
  817.5000  -999.2500    10.8152   121.4329     0.1592     2.4703     0.1175
  818.0000  -999.2500    10.8098   125.1672     0.1536     2.4655     0.1242
  818.5000  -999.2500    10.8033   126.1795     0.1511     2.4523     0.1270
  819.0000  -999.2500    10.7968   126.1860     0.1611     2.4399     0.1142
  819.5000  -999.2500    10.7902   125.7461     0.1714     2.4558     0.1081
  820.0000  -999.2500    10.7837   124.4518     0.1537     2.4711     0.1135
  820.5000  -999.2500    10.7772   123.2224     0.1503     2.4568     0.1178
  821.0000  -999.2500    10.7706   121.2623     0.1513     2.4522     0.1206
  821.5000  -999.2500    10.7641   117.8669     0.1525     2.4519     0.1200
  822.0000  -999.2500    10.7573   123.7345     0.1526     2.4558     0.1194
  822.5000  -999.2500    10.7555   127.5178     0.1486     2.4614     0.1188
  823.0000  -999.2500    10.7555   120.5716     0.1367     2.4620     0.1188
  823.5000  -999.2500    10.7555   116.0896     0.1470     2.4606     0.1203
  824.0000  -999.2500    10.7555   114.9637     0.1580     2.4546     0.1219
  824.5000  -999.2500    10.7555   117.2326     0.1594     2.4462     0.1234
  825.0000  -999.2500    10.7555   119.0049     0.1610     2.4404     0.1250
  825.5000  -999.2500    10.7555   119.4667     0.1613     2.4386     0.1265
  826.0000  -999.2500    10.7555   119.7623     0.1613     2.4390     0.1257
  826.5000  -999.2500    10.7555   120.2485     0.1632     2.4506     0.1233
  827.0000  -999.2500    10.7555   123.2765     0.1666     2.4546     0.1208
  827.5000  -999.2500    10.7555   124.7674     0.1664     2.4694     0.1181
  828.0000  -999.2500    10.7555   122.2519     0.1651     2.4644     0.1167
  828.5000  -999.2500    10.7555   120.3123     0.1638     2.4590     0.1189
  829.0000  -999.2500    10.7554   120.5576     0.1625     2.4541     0.1217
  829.5000  -999.2500    10.7560   121.9455     0.1614     2.4546     0.1271
  830.0000  -999.2500    10.7291   123.1893     0.1627     2.4536     0.1248
  830.5000  -999.2500    10.6892   121.6205     0.1641     2.4482     0.1212
  831.0000  -999.2500    10.7020   118.5561     0.1654     2.4484     0.1216
  831.5000  -999.2500    10.7417   117.8287     0.1667     2.4489     0.1220
  832.0000  -999.2500    10.7819   117.8208     0.1680     2.4452     0.1116
  832.5000  -999.2500    10.8217   116.5680     0.1694     2.4400     0.1133
  833.0000  -999.2500    10.8554   114.5286     0.1651     2.4408     0.1155
  833.5000  -999.2500    10.8503   113.4500     0.1598     2.4414     0.1152
  834.0000  -999.2500    10.8463   113.9419     0.1545     2.4420     0.1150
  834.5000  -999.2500    10.8424   116.2170     0.1492     2.4425     0.1147
  835.0000  -999.2500    10.8385   120.6453     0.1439     2.4432     0.1144
  835.5000  -999.2500    10.8351   120.6065     0.1385     2.4438     0.1141
  836.0000  -999.2500    10.8411   119.6530     0.1332     2.4510     0.1138
  836.5000  -999.2500    10.8480   118.7548     0.1279     2.4619     0.1136
  837.0000  -999.2500    10.8548   117.8658     0.1226     2.4643     0.1036
  837.5000  -999.2500    10.8617   116.9735     0.1173     2.4778     0.1079
