~VERSION INFORMATION
 VERS.                2.0:   CWLS LOG ASCII STANDARD - VERSION 2.0
 WRAP.                 NO:   ONE LINE PER DEPTH STEP
~WELL INFORMATION
#MNEM.UNIT      DATA TYPE    INFORMATION
#----------   ------------   ------------------------------
 STRT.F           24.5000:   START DEPTH
 STOP.F          750.0000:   STOP DEPTH
 STEP.F            0.5000:   STEP LENGTH
 NULL.          -999.2500:   NO VALUE
 COMP. FENIX & SCISSON INC:   COMPANY
 WELL.    NPR 3 SX #35-11:   WELL
 FLD .          N.P.R. #3:   FIELD
 LOC .      S11 T38N R78W:   LOCATION
 CNTY.            NATRONA:   COUNTY
 STAT.            WYOMING:   STATE
 CTRY. UNITED STATES OF AMERICA:   COUNTRY
 SRVC.            Unknown:   SERVICE COMPANY
 DATE.        23-FEB-1978:   LOGDATE
 API .       490251027200:   API NUMBER
~CURVE INFORMATION
#MNEM.UNIT       API CODE    CURVE DESCRIPTION
#----------   ------------   ------------------------------
 DEPT.F                  :   
 ILM .OHMM   07 120 44 00:   INDUCTION LOG MEDIUM
 ILD .OHMM   07 120 46 00:   INDUCTION LOG DEEP
 LL8 .OHMM   07 220 08 00:   LATEROLOG-8 RES.
 SPR .MV     07 010 01 00:   SPONTANEOUS POTENTIAL
 CALD.IN     45 280 60 00:   CALIPER FROM DENSITY LOG
 CORR.G/C3   45 356 01 00:   DENSITY CORRECTION
 DPHI.DEC    45 890 12 00:   DENSITY POROSITY SANDSTONE
 GRD .GAPI   45 310 01 00:   GAMMA RAY FROM DENSITY LOG
 RHOB.G/C3   45 350 01 00:   BULK DENSITY
 IL  .OHMM   05 120 40 00:   INDUCTION RESISTIVITY
 SN  .OHMM   05 040 16 00:   SHORT NORMAL 16"
 SPR1.MV     05 010 01 00:   SPONTANEOUS POTENTIAL INDUCTION ELECTRICAL LOG
~PARAMETER INFORMATION
#MNEM.UNIT          VALUE    DESCRIPTION
#----------   ------------   ------------------------------
 PD  .                 GL:   PERMANENT DATUM
 EPD .F              5204:   ELEVATION PERMANENT DATUM
 LMF .                 KB:   LOG MEASURED FROM
 DAPD.F                 4:   FEET ABOVE PERMANENT DATUM
 DMF .                 KB:   DRILLING MEASURED FROM
 EKB .F              5208:   KELLING BUSHING
 EGL .F              5204:   GROUND LEVEL
 DATE.        23-FEB-1978:   RUN DATE
 RUN .                  1:   RUN NUMBER
 DD  .F               755:   DEPTH DRILLER
 DL  .F               751:   DEPTH LOGGER
 BLI .F               745:   BOTTOM LOG INTERVAL
 TLI .F                45:   TOP LOG INTERVAL
 CS  .IN            8.625:   CASING SIZE
 CBD .F                40:   CASING BOTTOM DRILLER
 CBL .F                40:   CASING BOTTOM LOGGER
 BS  .IN            7.875:   BIT SIZE
 BSD .F               755:   BIT SIZE AT DEPTH
 DFT .         LIGNO SULF:   DRILLING FLUID TYPE
 DFD .                8.7:   DRILLING FLUID DENSITY
 DFV .                 33:   DRILLING FLUID VISCOSITY
 DFPH.                 10:   DRILLING FLUID PH
 DFL .                  4:   DRILLING FLUID LOSS
 MSS .           FLOWLINE:   MUD SAMPLE SOURCE
 RMS .OHMM            2.0:   RESISTIVITY MUD SAMPLE
 MST .F                60:   MUD SAMPLE TEMPERATURE
 RMF .OHMM            1.9:   RESISTIVITY MUD FILTRATE SAMPLE
 MFST.F                62:   MUD FILTRATE SAMPLE TEMPERATURE
 RMC .OHMM            3.5:   RESISTIVITY MUD CAKE
 MCST.F                60:   MUD CAKE SAMPLE TEMPERATURE
 MFSS.               MEAS:   MUD FILTRATE SAMPLE SOURCE
 RMB .OHMM           1.69:   RESISTIVITY MUD AT BHT
 BHT .F                71:   BOTTOM HOLE TEMPERATURE
 TCS .HRS               3:   TIME CURCULATED STOPPED
 MRT .F                71:   MAXIMUM RECORDED TEMPERATURE
 CLNT.            A2DTECH:   CLIENT CODE
 ORIG.           5" PRINT:   ORIGIN OF DATA
 UWI .       490251027200:   UNIQUE WELL ID
 DICO. A2D Technologies, Inc.:   DIGITIZING COMPANY
~OTHER INFORMATION
~A   DEPT      ILM        ILD        LL8        SPR       CALD       CORR       DPHI         GRD      RHOB         IL         SN       SPR1   
# ...
  528.5000     6.3078     6.1645     8.3618   -27.4273     8.2075     0.0223     0.1122   127.7220     2.4663     6.0102     6.1821   -35.8426
  529.0000     6.0977     5.9616     8.3168   -27.1107     8.2100     0.0209     0.1172   130.4274     2.4596     5.8005     5.8087   -35.6811
  529.5000     5.9356     5.8054     8.2022   -26.7941     8.2201     0.0187     0.1295   132.3888     2.4363     5.4879     5.6511   -35.6693
  530.0000     5.8180     5.6908     6.3212   -26.0317     8.2295     0.0158     0.1433   131.8204     2.4093     5.1352     5.6531   -35.8072
  530.5000     5.7813     5.5815     4.6698   -25.7151     8.2319     0.0136     0.1628   130.6567     2.3876     4.9278     5.6550   -36.3942
  531.0000     5.7073     5.5873     4.9389   -25.5471     8.2193     0.0160     0.1562   125.7729     2.3825     4.8614     5.8574   -37.2806
  531.5000     5.7516     5.6709     7.4271   -25.5277     8.2218     0.0139     0.1426   123.8652     2.4014     5.1774     6.1950   -38.1670
  532.0000     5.8773     5.7557     7.1318   -25.8103     8.2241     0.0291     0.1217   126.4218     2.4543     5.6295     6.5521   -38.4546
  532.5000     6.2175     6.0887     6.9832   -26.0881     8.2265     0.0359     0.1045   129.2760     2.4905     5.9948     6.8817   -38.7422
  533.0000     6.6694     6.4856     7.8683   -26.3610     8.2289     0.0248     0.1108   129.8913     2.4763     6.2959     7.1777   -38.7304
  533.5000     7.2540     6.9562     8.5548   -26.4902     8.2163     0.0204     0.1131   126.9487     2.4689     6.5663     7.4345   -38.8683
  534.0000     7.7274     7.4609     8.6212   -26.7679     8.2188     0.0175     0.1119   127.2731     2.4652     6.7540     7.7005   -38.8563
  534.5000     8.0621     7.9473     8.7483   -27.0457     8.2361     0.0221     0.1073   130.8714     2.4842     6.9470     8.0318   -38.8443
  535.0000     8.3533     8.3493     8.8773   -27.1797     8.2385     0.0222     0.1030   132.7977     2.4918     7.0076     8.3155   -38.8323
  535.5000     8.5357     8.5919     9.0082   -27.4526     8.2258     0.0299     0.1057   130.1277     2.4807     7.0990     8.4977   -38.8203
  536.0000     8.6619     8.7204     9.2043   -27.5818     8.2283     0.0345     0.0969   124.5579     2.4891     7.1514     8.6198   -38.8084
  536.5000     8.6688     8.7899     9.2758   -28.0130     8.2307     0.0308     0.0917   122.9363     2.5005     7.2042     8.6831   -38.7964
  537.0000     8.6140     8.7991     9.2836   -28.7317     8.2331     0.0347     0.0911   123.4107     2.4984     7.2072     8.6861   -38.7844
  537.5000     8.9869     8.8083     9.2913   -29.7524     8.2355     0.0288     0.0943   123.5863     2.4955     7.2098     8.7498   -38.7724
  538.0000     8.9609     8.7545     9.2991   -30.0350     8.2379     0.0244     0.0949   123.9107     2.4926     7.2128     8.7528   -38.7604
  538.5000     8.9609     8.7278     9.3068   -29.8622     8.2402     0.0305     0.0958   121.4195     2.5033     7.2162     8.7559   -38.7485
  539.0000     8.9209     8.5934     9.3146   -29.6942     8.2426     0.0359     0.0864   119.1587     2.5147     7.2192     8.6981   -38.7365
  539.5000     8.8988     8.6023     9.3224   -29.3776     8.2300     0.0428     0.0797   118.4842     2.5163     7.2316     8.7012   -38.7245
  540.0000     8.8567     8.6112     9.5913   -28.6152     8.2330     0.0339     0.0844   119.2956     2.5074     7.2755     8.6438   -38.7125
  540.5000     8.7941     8.6201     9.6658   -27.8529     8.2353     0.0242     0.0847   121.0328     2.5113     7.3292     8.5868   -38.7006
  541.0000     8.7760     8.6291     9.5413   -27.5363     8.2222     0.0176     0.1012   125.3868     2.5024     7.3322     8.5898   -38.6886
  541.5000     8.7760     8.6380     9.2254   -27.5169     8.2252     0.0131     0.1081   128.4306     2.4822     7.3519     8.5928   -38.7133
  542.0000     8.7760     8.7068     8.9679   -27.7995     8.2276     0.0110     0.1053   126.5912     2.4710     7.3894     8.5958   -38.8143
  542.5000     8.8239     8.7158     8.6729   -28.3696     8.2300     0.0171     0.1011   124.3748     2.4794     7.4440     8.5988   -38.8024
  543.0000     8.8988     8.7249     8.6300   -28.5036     8.2170     0.0218     0.0986   121.2542     2.4833     7.4989     8.6619   -38.7904
  543.5000     8.9609     8.8554     8.6434   -28.9299     8.2194     0.0249     0.1028   115.1735     2.4849     7.6069     8.7255   -38.8241
  544.0000     9.1497     9.2393     9.2159   -28.6085     8.2222     0.0212     0.0934   111.5357     2.4835     7.7702     8.7895   -38.9161
  544.5000     9.4077     9.1853     9.6271   -28.2919     8.2241     0.0176     0.1011   111.4608     2.4814     7.9922     8.8655   -38.9543
  545.0000     9.3425     9.0686    10.1262   -28.1129     8.2265     0.0162     0.1057   112.0833     2.4792     8.1638     8.9818   -39.0419
  545.5000     9.0234     8.8923    10.4171   -27.9599     8.2293     0.0231     0.1051   112.2678     2.4771     7.7798     9.0477   -39.0299
  546.0000     8.6548     8.4818    10.3292   -28.2385     8.2466     0.0277     0.1002   112.8889     2.4817     7.2110     9.1141   -39.0748
  546.5000     8.0736     7.9245    10.2669   -28.2184     8.2335     0.0339     0.1062   113.6725     2.4909     6.5007     8.6836   -39.3923
  547.0000     7.4275     7.0061    10.4210   -28.1991     8.2365     0.0385     0.1072   115.9583     2.4790     5.7796     7.7171   -39.8653
  547.5000     6.6457     6.2008    10.5776   -28.1798     8.2389     0.0409     0.1081   121.4977     2.4580     5.5078     6.9060   -40.0300
  548.0000     6.1984     5.9067     9.1423   -28.0119     8.2257     0.0500     0.1249   126.8593     2.4400     5.5100     6.3107   -39.8863
  548.5000     5.9040     5.7932     5.5163   -27.8350     8.2283     0.0592     0.1386   131.3423     2.3867     5.5123     6.2250   -39.6385
  549.0000     5.8623     5.7992     3.7179   -27.5275     8.2460     0.0487     0.1654   131.0354     2.3567     5.5530     6.2277   -39.4043
  549.5000     5.8235     5.7638     4.1619   -27.2110     8.2484     0.0300     0.1871   125.6939     2.3470     5.6330     6.4058   -39.2336
  550.0000     5.8675     5.8117     8.5859   -27.0431     8.2504     0.0098     0.1364   112.9464     2.3682     5.8343     6.8694   -39.0932
  550.5000     5.9222     5.8169    11.5087   -27.5679     8.2530     0.0144     0.1153   106.8733     2.4579     6.1269     8.2364   -38.8205
  551.0000     6.5381     6.1526    11.9240   -28.6341     8.2553     0.0191     0.1023   108.2367     2.4867     6.8015     9.6036   -39.3102
  551.5000     8.0568     7.1677    11.5924   -28.6133     8.2571     0.0162     0.0971   110.4906     2.4890     7.7093    10.5912   -40.0468
  552.0000    10.3500     8.5841    11.2815   -28.2952     8.2593     0.0140     0.1001   113.4345     2.4838     8.6778    10.8948   -40.0948
  552.5000    11.1022    10.2804    11.2134   -27.9772     8.2615     0.0217     0.1031   115.9451     2.4809     8.9252    10.8994   -40.0449
  553.0000    11.1884    10.8736    11.3818   -27.9563     8.2489     0.0201     0.1009   117.2669     2.4788     8.9904    10.9040   -40.6101
  553.5000    10.9667    11.0347    11.4723   -28.2327     8.2511     0.0172     0.1012   117.7307     2.4781     8.9937    10.9085   -41.4634
  554.0000    10.7495    10.8932    11.4030   -28.3656     8.2534     0.0167     0.1024   118.3453     2.4820     9.0595    10.9131   -42.1158
  554.5000    10.4637    10.8280    11.0990   -28.4933     8.2556     0.0237     0.1010   119.7087     2.4866     9.0626    10.9939   -42.3485
  555.0000    10.3278    10.7608    10.9551   -28.4673     8.2579     0.0229     0.0995   116.7566     2.4829     9.1925    11.0753   -42.2468
  555.5000    10.1936    10.7729    10.9653   -28.7436     8.2602     0.0216     0.1010   112.6140     2.4808     9.2598    11.0800   -41.8433
  556.0000    10.4163    10.7826    11.0525   -29.0251     8.2624     0.0271     0.1037   109.3642     2.4869     9.3925    11.2400   -41.5838
