~VERSION INFORMATION
 VERS.                2.0:   CWLS LOG ASCII STANDARD - VERSION 2.0
 WRAP.                 NO:   ONE LINE PER DEPTH STEP
~WELL INFORMATION
#MNEM.UNIT      DATA TYPE    INFORMATION
#----------   ------------   ------------------------------
 STRT.F           99.0000:   START DEPTH
 STOP.F          761.5000:   STOP DEPTH
 STEP.F            0.5000:   STEP LENGTH
 NULL.          -999.2500:   NO VALUE
 COMP.          U.S. NAVY:   COMPANY
 WELL. RES 3 TEAPOT DOM #48S-11:   WELL
 FLD .             TEAPOT:   FIELD
 LOC .      S11 T38N R78W:   LOCATION
 CNTY.            NATRONA:   COUNTY
 STAT.            WYOMING:   STATE
 CTRY. UNITED STATES OF AMERICA:   COUNTRY
 SRVC.       Schlumberger:   SERVICE COMPANY
 DATE.        14-JUL-1963:   LOGDATE
 API .       490250632500:   API NUMBER
~CURVE INFORMATION
#MNEM.UNIT       API CODE    CURVE DESCRIPTION
#----------   ------------   ------------------------------
 DEPT.F                  :   
 SPR .MV     05 010 01 00:   SPONTANEOUS POTENTIAL FROM RES.
 ILD .OHMM   05 120 46 00:   INDUCTION LOG DEEP
 CILD.MMHO   05 110 46 00:   CONDUCTIVITY INDUCTION LOG DEEP
 GR  .GAPI   30 310 01 00:   GAMMA RAY
 ASN .OHMM   05 041 16 00:   AMPLIFIED SHORT NORMAL 16"
~PARAMETER INFORMATION
#MNEM.UNIT          VALUE    DESCRIPTION
#----------   ------------   ------------------------------
 PD  .                 GL:   PERMANENT DATUM
 EPD .F              5187:   ELEVATION PERMANENT DATUM
 LMF .                 KB:   LOG MEASURED FROM
 DAPD.F                 5:   FEET ABOVE PERMANENT DATUM
 DMF .                 KB:   DRILLING MEASURED FROM
 EKB .F              5192:   KELLING BUSHING
 EGL .F              5187:   GROUND LEVEL
 DATE.            7-14-63:   RUN DATE
 RUN .                  1:   RUN NUMBER
 DD  .F               762:   DEPTH DRILLER
 DL  .F               761:   DEPTH LOGGER
 BLI .F               760:   BOTTOM LOG INTERVAL
 TLI .F               100:   TOP LOG INTERVAL
 CS  .IN            8.625:   CASING SIZE
 CBD .F                10:   CASING BOTTOM DRILLER
 BS  .IN            7.875:   BIT SIZE
 BSD .F               762:   BIT SIZE AT DEPTH
 DFT .            GEL-OIL:   DRILLING FLUID TYPE
 DFD .                 10:   DRILLING FLUID DENSITY
 DFV .                 55:   DRILLING FLUID VISCOSITY
 DFPH.                9.5:   DRILLING FLUID PH
 DFL .                  4:   DRILLING FLUID LOSS
 MSS .          FLOW LINE:   MUD SAMPLE SOURCE
 RMS .OHMM           3.11:   RESISTIVITY MUD SAMPLE
 MST .F                78:   MUD SAMPLE TEMPERATURE
 RMF .OHMM           2.31:   RESISTIVITY MUD FILTRATE SAMPLE
 MFST.F                78:   MUD FILTRATE SAMPLE TEMPERATURE
 RMC .OHMM           3.82:   RESISTIVITY MUD CAKE
 MCST.F                78:   MUD CAKE SAMPLE TEMPERATURE
 MFSS.                  M:   MUD FILTRATE SAMPLE SOURCE
 MCSS.                  M:   MUD CAKE SAMPLE SOURCE
 TCS .HRS               1:   TIME CURCULATED STOPPED
 LUN .               4507:   LOGGING UNIT NUMBER
 ENGI.             KNOBEL:   RECORDING ENGINEER
 WITN.          JORGENSEN:   WITNESSED BY
 CLNT.            A2DTECH:   CLIENT CODE
 ORIG.       2", 5" PRINT:   ORIGIN OF DATA
 UWI .       490250632500:   UNIQUE WELL ID
 DICO. A2D Technologies, Inc.:   DIGITIZING COMPANY
~OTHER INFORMATION
~A   DEPT      SPR        ILD       CILD         GR        ASN   
# ...
  465.0000   -29.1571     8.1809   124.6447    54.7267     9.3310
  465.5000   -29.0619     8.0546   125.7473    56.3531     9.1776
  466.0000   -28.9575     7.9281   127.1635    61.9033     9.0830
  466.5000   -28.8518     7.8043   128.7468    71.1772     9.0087
  467.0000   -28.8491     7.7302   130.0162    69.1929     8.9905
  467.5000   -28.8999     7.6804   128.8288    75.8412     8.9775
  468.0000   -28.9519     7.8402   127.6457    76.6811     9.0088
  468.5000   -29.0039     7.9406   126.3680    71.0168     9.0834
  469.0000   -29.0558     8.0400   125.0360    81.0669     9.1711
  469.5000   -29.1078     8.1383   123.7015    76.0351     9.2595
  470.0000   -29.1599     8.2366   122.3674    76.9275     9.3479
  470.5000   -29.2113     8.3350   121.0333    73.2878     9.4237
  471.0000   -29.1499     8.4334   119.6362    66.7779     9.4936
  471.5000   -29.0204     8.5317   118.0925    61.7248     9.5287
  472.0000   -29.0906     8.6301   116.5487    64.1357     9.5669
  472.5000   -29.2203     8.7285   115.0050    70.3380     9.6735
  473.0000   -29.3505     8.8269   113.9142    72.0779     9.7957
  473.5000   -29.4814     8.9255   113.5184    79.0800     9.9030
  474.0000   -29.6123     9.0239   113.1225    75.1347     9.9967
  474.5000   -29.5941     9.0943   112.7267    70.6830    10.0242
  475.0000   -29.5659     9.0333   112.3309    65.1873    10.0619
  475.5000   -29.5383     8.9743   112.4221    70.9153    10.0271
  476.0000   -29.5110     8.9157   113.5656    69.1065     9.9616
  476.5000   -29.4835     8.8572   114.7091    71.6020     9.9024
  477.0000   -29.4566     8.7988   115.8526    75.9051     9.8560
  477.5000   -29.4272     8.7402   116.7308    76.0012     9.8173
  478.0000   -29.5810     8.6819   117.5448    65.2731     9.7929
  478.5000   -29.8562     8.6238   118.3589    65.6000     9.7780
  479.0000   -30.1363     8.5898   119.1013    63.8965     9.8044
  479.5000   -30.2107     8.5318   119.1000    60.6424     9.8187
  480.0000   -30.1733     8.4916   117.4835    66.5188     9.8190
  480.5000   -30.1359     8.5225   115.7191    64.5793     9.8197
  481.0000   -30.0987     8.5764   113.9587    66.6264     9.8552
  481.5000   -30.0620     8.6301   112.1984    62.9659     9.9417
  482.0000   -30.0274     8.6805   110.4380    65.7786    10.0993
  482.5000   -29.8312     8.8700   108.6776    60.6053    10.1717
  483.0000   -29.9314     9.0803   106.9172    69.4857    10.2400
  483.5000   -30.0571     9.2909   104.9278    58.5248    10.3182
  484.0000   -30.1824     9.5016   102.7058    56.7458    10.4529
  484.5000   -30.3073     9.7321   100.4838    53.5606    10.5903
  485.0000   -30.4206     9.9822    98.2618    53.6793    10.7303
  485.5000   -30.4238    10.2312    96.0397    60.4013    10.8764
  486.0000   -30.3262    10.4801    93.8177    61.8501    11.0231
  486.5000   -30.2071    10.7291    91.5957    57.3585    11.1686
  487.0000   -30.6681    10.9781    89.3737    60.3349    11.3194
  487.5000   -31.2367    11.2271    86.9347    63.7666    11.6313
  488.0000   -31.6217    11.4761    85.1488    68.5756    11.9371
  488.5000   -31.8260    11.7251    83.1697    63.2180    12.2421
  489.0000   -31.3141    11.9742    81.1906    61.3000    12.5523
  489.5000   -30.7565    12.2232    79.2114    58.8742    12.7137
  490.0000   -30.3570    12.4711    77.2323    59.4686    12.8852
  490.5000   -30.2298    12.6144    77.0193    58.2810    13.0569
  491.0000   -30.3747    12.6132    77.2337    58.7657    13.1765
  491.5000   -30.5251    12.6125    77.4481    52.5275    13.2704
  492.0000   -30.6742    12.5539    77.6625    54.1090    13.2556
  492.5000   -30.8201    12.3713    77.8895    56.6793    13.1370
  493.0000   -30.8782    12.2521    78.7319    60.9873    13.0176
  493.5000   -30.9325    12.1312    79.6268    49.5686    12.8980
  494.0000   -30.9857    12.0108    80.5217    46.4754    12.7786
  494.5000   -30.9871    11.8904    81.4166    52.2173    12.6591
  495.0000   -30.8602    11.7699    82.5179    54.1507    12.5397
  495.5000   -30.7356    11.6495    83.8720    50.0260    12.4202
  496.0000   -30.6110    11.5287    85.2237    58.5824    12.3007
  496.5000   -30.4871    11.4082    86.5942    61.8126    12.1814
  497.0000   -30.4507    11.3036    86.9318    58.1847    12.0614
  497.5000   -30.5125    11.3176    86.9347    54.0812    12.0097
  498.0000   -30.5731    11.3900    86.9347    49.2499    12.1201
  498.5000   -30.6133    11.4614    85.9385    47.4405    12.3041
  499.0000   -30.5509    11.5327    84.3141    47.6706    12.4892
  499.5000   -30.4902    11.6039    82.6897    47.4715    12.6763
  500.0000   -30.4298    11.6757    80.9045    45.2182    12.8433
  500.5000   -30.3692    11.7470    81.5578    50.0233    12.7063
  501.0000   -30.3091    11.7909    82.2828    52.4064    12.5085
  501.5000   -30.2479    11.6207    83.1497    45.1848    12.5262
  502.0000   -30.3003    11.4509    84.9735    40.8853    12.6114
  502.5000   -30.4450    11.2813    86.8020    50.5836    12.3664
  503.0000   -30.5951    11.1365    88.6313    53.7987    12.1014
  503.5000   -30.5595    11.0087    90.4583    49.5558    11.8368
  504.0000   -30.4788    10.8819    92.9648    51.1344    11.5718
  504.5000   -30.3972    10.7550    93.6194    67.7177    11.3126
  505.0000   -30.3122    10.6281    94.2872    64.9421    11.2235
  505.5000   -30.2181    10.5013    94.9550    63.1557    11.1419
  506.0000   -30.5242    10.3744    95.6228    64.2662    11.0595
  506.5000   -30.6972    10.2475    96.2909    60.2539    10.9769
  507.0000   -30.8698    10.1206    96.9591    58.2109    10.8942
  507.5000   -31.0273     9.9937    97.6269    59.9057    10.8116
  508.0000   -30.8656     9.8677    98.0962    56.1261    10.7290
  508.5000   -30.6835     9.7322    98.3257    49.5002    10.6463
  509.0000   -30.5012     9.8209    98.5564    60.8233    10.5924
  509.5000   -30.3197     9.8448    98.7871    63.7865    10.5704
  510.0000   -30.1398     9.8770    99.0178    56.0645    10.5484
  510.5000   -29.9953     9.8985    99.2485    54.0243    10.5292
  511.0000   -29.9286     9.8851    99.4792    53.3163    10.5048
  511.5000   -29.8597     9.8721    99.7099    52.5723     9.9324
  512.0000   -29.8261     9.8590    99.9406    53.9693     9.9424
  512.5000   -30.0966     9.8460   100.1216    55.5740     9.9347
  513.0000   -30.3801     9.8330   100.2854    56.6679     9.9579
  513.5000   -30.6627     9.8203   100.4491    55.3932    10.3749
  514.0000   -30.8972     9.8072   100.6131    58.1719    10.4803
  514.5000   -31.0674     9.7797   100.7765    49.5334    10.5052
  515.0000   -31.2293     9.6654   100.9402    58.7463    10.5026
  515.5000   -30.9928     9.5521   102.0100    63.5258    10.5015
  516.0000   -30.7200     9.4402   104.8804    64.4014    10.4856
  516.5000   -30.4491     9.2694   107.7226    63.5403    10.4135
  517.0000   -30.4686     9.0675   110.5648    66.6727    10.3164
  517.5000   -30.5232     8.8640   113.3958    68.3205    10.1006
  518.0000   -30.5773     8.6612   116.1002    69.8167     9.8960
  518.5000   -30.5875     8.4512   119.6515    63.4645     9.5507
  519.0000   -30.3180     8.2427   123.0486    63.8133     9.3620
  519.5000   -30.0494     8.0813   125.5653    69.0580     9.2519
  520.0000   -29.7834     7.9612   127.6801    70.0818     9.1194
  520.5000   -29.6194     7.8407   129.1457    56.6793     8.9883
  521.0000   -29.7304     7.7171   129.1457    57.4631     8.8568
  521.5000   -29.8433     7.7191   128.2286    58.9664     8.9769
  522.0000   -29.9528     7.8163   126.9598    61.8926     9.2560
  522.5000   -29.8744     7.9134   125.6909    56.7637     9.2030
  523.0000   -29.7114     8.0101   124.4221    52.8977     9.1555
  523.5000   -29.5852     8.1005   123.7688    58.9178     9.1439
  524.0000   -29.4579     8.1499   123.3074    51.7684     9.1948
  524.5000   -29.3302     8.2003   122.8460    46.1355     9.2457
  525.0000   -29.2181     8.2512   122.3847    47.2052     9.2967
  525.5000   -29.3531     8.3119   121.2989    53.7661     9.3296
