~VERSION INFORMATION
 VERS.                2.0:   CWLS LOG ASCII STANDARD - VERSION 2.0
 WRAP.                 NO:   ONE LINE PER DEPTH STEP
~WELL INFORMATION
#MNEM.UNIT      DATA TYPE    INFORMATION
#----------   ------------   ------------------------------
 STRT.F           32.0000:   START DEPTH
 STOP.F          502.0000:   STOP DEPTH
 STEP.F            0.5000:   STEP LENGTH
 NULL.          -999.2500:   NO VALUE
 COMP.    FENIX & SCISSON:   COMPANY
 WELL. NPR # #3 65-36-SX-3-FP:   WELL
 FLD .             TEAPOT:   FIELD
 LOC .       S3 T38N R78W:   LOCATION
 CNTY.            NATRONA:   COUNTY
 STAT.            WYOMING:   STATE
 CTRY. UNITED STATES OF AMERICA:   COUNTRY
 SRVC.              Welex:   SERVICE COMPANY
 DATE.        15-JUN-1980:   LOGDATE
 API .       490251082600:   API NUMBER
~CURVE INFORMATION
#MNEM.UNIT       API CODE    CURVE DESCRIPTION
#----------   ------------   ------------------------------
 DEPT.F                  :   
 CALD.IN     45 280 60 00:   CALIPER FROM DENSITY LOG
 CORR.G/C3   45 356 01 00:   DENSITY CORRECTION
 DPHI.DEC    45 890 12 00:   DENSITY POROSITY SANDSTONE
 GRD .GAPI   45 310 01 00:   GAMMA RAY FROM DENSITY LOG
 RHOB.G/C3   45 350 01 00:   BULK DENSITY
 NPHI.DEC    42 890 03 00:   NEUTRON POROSITY SANDSTONE
 ILD .OHMM   07 120 46 00:   INDUCTION LOG DEEP
 ILM .OHMM   07 120 44 00:   INDUCTION LOG MEDIUM
 SGRD.OHMM   07 220 05 00:   SHALLOW GUARD RESISTIVITY
 SPR .MV     07 010 01 00:   SPONTANEOUS POTENTIAL FROM RES.
~PARAMETER INFORMATION
#MNEM.UNIT          VALUE    DESCRIPTION
#----------   ------------   ------------------------------
 PD  .                 GL:   PERMANENT DATUM
 EPD .F              5159:   ELEVATION PERMANENT DATUM
 LMF .                 KB:   LOG MEASURED FROM
 DAPD.F                 5:   FEET ABOVE PERMANENT DATUM
 DMF .                 KB:   DRILLING MEASURED FROM
 EKB .F              5164:   KELLING BUSHING
 EGL .F              5159:   GROUND LEVEL
 DATE.            6-15-80:   RUN DATE
 RUN .                  1:   RUN NUMBER
 DD  .F               505:   DEPTH DRILLER
 DL  .F               504:   DEPTH LOGGER
 BLI .F               502:   BOTTOM LOG INTERVAL
 TLI .F                30:   TOP LOG INTERVAL
 BS  .IN            9.875:   BIT SIZE
 BSD .F               505:   BIT SIZE AT DEPTH
 DFT .             2% KCL:   DRILLING FLUID TYPE
 DFD .                9.4:   DRILLING FLUID DENSITY
 DFV .                 51:   DRILLING FLUID VISCOSITY
 DFPH.                 12:   DRILLING FLUID PH
 DFL .                5.6:   DRILLING FLUID LOSS
 MSS .           FLOWLINE:   MUD SAMPLE SOURCE
 RMS .OHMM            .36:   RESISTIVITY MUD SAMPLE
 MST .F                65:   MUD SAMPLE TEMPERATURE
 RMF .OHMM            .29:   RESISTIVITY MUD FILTRATE SAMPLE
 MFST.F                65:   MUD FILTRATE SAMPLE TEMPERATURE
 RMC .OHMM            .42:   RESISTIVITY MUD CAKE
 MCST.F                65:   MUD CAKE SAMPLE TEMPERATURE
 MFSS.           MEASURED:   MUD FILTRATE SAMPLE SOURCE
 MCSS.           MEASURED:   MUD CAKE SAMPLE SOURCE
 RMB .OHMM            .32:   RESISTIVITY MUD AT BHT
 BHT .F                74:   BOTTOM HOLE TEMPERATURE
 TCS .HRS               2:   TIME CURCULATED STOPPED
 MRT .F                74:   MAXIMUM RECORDED TEMPERATURE
 LUN .               1892:   LOGGING UNIT NUMBER
 LUL .             CASPER:   LOGGING UNIT LOCATION
 ENGI.               REIN:   RECORDING ENGINEER
 WITN.              AMEND:   WITNESSED BY
 CLNT.            A2DTECH:   CLIENT CODE
 ORIG.       2", 5" PRINT:   ORIGIN OF DATA
 UWI .       490251082600:   UNIQUE WELL ID
 DICO. A2D Technologies, Inc.:   DIGITIZING COMPANY
~OTHER INFORMATION
~A   DEPT     CALD       CORR       DPHI        GRD       RHOB       NPHI         ILD         ILM       SGRD      SPR   
# ...
  233.0000    10.4929     0.0906     0.0814   102.3316     2.5246     0.3062     8.8058     8.6058     6.3254   -56.8768
  233.5000    10.4940     0.1073     0.0745   101.6071     2.5436     0.3089     8.6841     8.5456     6.3239   -56.7335
  234.0000    10.4950     0.1134     0.0771   101.0275     2.5366     0.3124     8.5911     8.5445     6.3227   -56.5903
  234.5000    10.4960     0.0833     0.0906   101.1854     2.5067     0.3156     8.5357     8.4781     6.3215   -56.1605
  235.0000    10.4971     0.0683     0.1001   104.7356     2.4919     0.3142     8.4423     8.3097     6.3199   -55.7211
  235.5000    10.4981     0.0684     0.1001   106.3683     2.4927     0.3130     8.4407     8.1948     6.3187   -55.4441
  236.0000    10.4991     0.0655     0.1033   106.8212     2.4830     0.3130     8.3811     8.1375     6.3175   -56.3037
  236.5000    10.5002     0.0595     0.1078   106.9791     2.4793     0.3129     8.3795     8.0803     6.3163   -56.8768
  237.0000    10.5012     0.0536     0.1089   107.7269     2.4734     0.3138     8.3774     8.0237     6.3148   -57.1786
  237.5000    10.5022     0.0416     0.1115   106.4099     2.4704     0.3140     8.2611     8.0227     6.1843   -57.4499
  238.0000    10.5033     0.0332     0.1151   105.3852     2.4488     0.3179     8.0905     8.0150     5.9736   -57.7364
  238.5000    10.5000     0.0266     0.1192   106.5781     2.4406     0.3187     7.9229     7.9106     5.7302   -58.1662
  239.0000    10.4758     0.0362     0.1165   107.3233     2.4676     0.3189     7.8670     7.8552     5.6506   -58.1662
  239.5000    10.4326     0.0560     0.1059   106.7463     2.4871     0.3198     7.7045     7.8542     5.4959   -58.1662
  240.0000    10.3894     0.0903     0.0960   106.3142     2.5006     0.3197     7.6501     7.5869     5.4571   -57.5931
  240.5000    10.3610     0.0965     0.0974   106.0296     2.4894     0.3150     7.5957     7.3795     5.4557   -56.4470
  241.0000    10.3620     0.0890     0.0998   106.0400     2.4880     0.3136     7.5420     7.2276     5.4172   -55.8739
  241.5000    10.3480     0.0770     0.1009   105.3129     2.4880     0.3175     7.5931     7.0300     5.3053   -56.0172
  242.0000    10.3640     0.0665     0.1018   104.7333     2.4828     0.3195     7.6508     7.0289     5.1152   -56.7450
  242.5000    10.3799     0.0515     0.1026   104.2986     2.4799     0.3213     7.6950     7.1258     4.9157   -57.1633
  243.0000    10.4104     0.0607     0.1026   103.4266     2.4807     0.3284     7.7654     7.2236     4.8475   -57.5931
  243.5000    10.4557     0.0638     0.1043   103.4370     2.4770     0.3296     7.8793     7.5275     4.7802   -58.3095
  244.0000    10.4420     0.0533     0.1114   104.3324     2.4538     0.3328     7.9597     7.7905     4.7462   -58.8825
  244.5000    10.3988     0.0488     0.1210   105.5227     2.4456     0.3336     8.0136     7.8976     4.7129   -59.0258
  245.0000    10.3701     0.0535     0.1182   106.4159     2.4472     0.3323     7.9019     8.0062     4.7774   -59.1691
  245.5000    10.3416     0.0732     0.1161   106.0782     2.4592     0.3296     7.9004     8.0606     4.8504   -59.1691
  246.0000    10.3429     0.0552     0.1187   104.9612     2.4523     0.3289     7.9726     8.0593     5.0807   -58.5960
  246.5000    10.3439     0.0432     0.1163   106.5940     2.4538     0.3267     8.0070     8.0582     5.1859   -57.8797
  247.0000    10.3300     0.0418     0.1090   106.1619     2.4765     0.3186     8.1162     8.0569     5.3657   -57.7364
  247.5000    10.3313     0.0434     0.1087   105.4203     2.4721     0.3141     8.1708     8.0559     5.5536   -57.5931
  248.0000    10.3323     0.0434     0.1083   104.9911     2.4676     0.3197     8.2257     8.0549     5.5912   -57.5931
  248.5000    10.3481     0.0440     0.1059   104.4231     2.4769     0.3245     8.2810     7.9359     5.7859   -57.5931
  249.0000    10.3786     0.0633     0.1121   104.4335     2.4743     0.3214     8.2221     7.5681     5.7848   -57.5931
  249.5000    10.4092     0.0556     0.1177   104.1460     2.4580     0.3171     7.9966     7.2106     5.7042   -57.5931
  250.0000    10.4229     0.0483     0.1240   103.4148     2.4401     0.3174     7.7700     6.9182     5.5112   -57.7202
  250.5000    10.4208     0.0394     0.1242   102.2231     2.4372     0.3167     7.4712     6.5716     5.2726   -57.6786
  251.0000    10.4187     0.0531     0.1251   101.0314     2.4402     0.3146     7.3056     6.2353     5.0349   -57.6369
  251.5000    10.4166     0.0457     0.1244   100.3549     2.4380     0.3143     7.2536     6.2337     4.8293   -57.5953
  252.0000    10.4143     0.0458     0.1187   105.1878     2.4396     0.3211     7.3019     6.1473     4.6968   -57.5702
  252.5000    10.4117     0.0543     0.1120   107.0723     2.4544     0.3219     7.3505     6.1039     4.5043   -57.7082
  253.0000    10.4014     0.0765     0.1045   110.1209     2.4693     0.3216     7.4031     6.6356     4.3814   -57.7016
  253.5000    10.4027     0.0854     0.0987   107.4371     2.4860     0.3156     7.6035     7.5550     4.3803   -57.5530
  254.0000    10.4185     0.0807     0.1008   104.8201     2.4921     0.3131     7.8141     8.0370     4.3824   -57.4031
  254.5000    10.4195     0.0672     0.1010   102.4824     2.4869     0.3077     8.0928     8.3783     4.5942   -57.1113
  255.0000    10.4205     0.0555     0.0985   101.0179     2.4880     0.3076     8.5419     8.7868     4.8870   -56.9627
  255.5000    10.4068     0.0648     0.0948    98.6684     2.4990     0.3016     8.9619     9.0308     5.2038   -56.9570
  256.0000    10.3929     0.0649     0.0893    97.3514     2.5035     0.3003     9.4020     9.2203     5.6063   -56.6643
  256.5000    10.3770     0.0650     0.0842    95.5919     2.5088     0.3018     9.6631     9.4732     6.0049   -56.5158
  257.0000    10.3492     0.0757     0.0831    95.3048     2.5231     0.3045     9.8619     9.6033     6.3520   -56.3659
  257.5000    10.1571     0.0985     0.0932    98.1202     2.5231     0.3096     9.9276     9.6010     6.7944   -56.5052
  258.0000    10.0722     0.0880     0.1076    99.6055     2.5134     0.3146     9.9244     9.6656     7.0309   -56.9284
  258.5000    10.0441     0.0746     0.1120   100.6484     2.4865     0.3160     9.9219     9.6634     7.0778   -57.6381
  259.0000    10.0451     0.0596     0.1066   101.9863     2.4694     0.3159     9.9188     9.6614     7.0755   -58.0639
  259.5000    10.0462     0.0476     0.1011   101.5542     2.4664     0.3138     9.9165     9.6592     7.0737   -58.0573
  260.0000    10.0472     0.0583     0.1041   100.3821     2.4799     0.3122     9.9138     9.6573     6.9746   -57.4776
  260.5000    10.0483     0.0766     0.1037   101.5751     2.4875     0.3158     9.9106     9.6554     6.8774   -56.8042
  261.0000    10.0493     0.0752     0.1001   101.7330     2.4815     0.3148     9.9081     9.7200     6.8756   -56.3209
  261.5000    10.0504     0.0768     0.0949   101.4458     2.4838     0.3109     9.8375     9.7853     6.8734   -55.7412
  262.0000    10.0514     0.0784     0.0958    99.2465     2.4906     0.3111     9.9024     9.8511     6.8717   -55.3061
  262.5000    10.0524     0.0831     0.0957    99.1094     2.5034     0.3117     9.8997     9.9174     6.8699   -55.3009
  263.0000    10.0535     0.0787     0.0903    98.8249     2.4997     0.3116     9.9253     9.9150     6.8678   -55.1510
  263.5000    10.0545     0.0773     0.0947    96.0303     2.5020     0.3107     9.9738     9.9131     6.8660   -55.2890
  264.0000    10.0407     0.0910     0.0998    96.6333     2.5147     0.3073    10.0297     9.9108     6.8643   -55.4269
  264.5000    10.0269     0.0775     0.1048    98.2188     2.4953     0.3064    10.1657     9.9089     6.8621   -55.7082
  265.0000    10.0134     0.0686     0.1069    99.7493     2.4864     0.3064    10.1625     9.8321     6.9556   -55.7016
  265.5000     9.9850     0.0642     0.1083    97.9209     2.4692     0.3006    10.3017     9.6352     7.1483   -55.5530
  266.0000     9.9710     0.0613     0.1074    96.2144     2.4700     0.2997    10.5863     9.4362     7.3463   -55.2599
