~VERSION INFORMATION
 VERS.                2.0:   CWLS LOG ASCII STANDARD - VERSION 2.0
 WRAP.                 NO:   ONE LINE PER DEPTH STEP
~WELL INFORMATION
#MNEM.UNIT      DATA TYPE    INFORMATION
#----------   ------------   ------------------------------
 STRT.F           16.0000:   START DEPTH
 STOP.F          474.0000:   STOP DEPTH
 STEP.F            0.5000:   STEP LENGTH
 NULL.          -999.2500:   NO VALUE
 COMP. FENIX & SCISSON INCORPORATED:   COMPANY
 WELL.    NPR #3 #58-SX-3:   WELL
 FLD .             TEAPOT:   FIELD
 LOC .       S3 T38N R78W:   LOCATION
 CNTY.            NATRONA:   COUNTY
 STAT.            WYOMING:   STATE
 CTRY. UNITED STATES OF AMERICA:   COUNTRY
 SRVC.           BIRDWELL:   SERVICE COMPANY
 DATE.        19-OCT-1978:   LOGDATE
 API .       490251072000:   API NUMBER
~CURVE INFORMATION
#MNEM.UNIT       API CODE    CURVE DESCRIPTION
#----------   ------------   ------------------------------
 DEPT.F                  :   
 CALD.IN     45 280 60 00:   CALIPER FROM DENSITY LOG
 CORR.G/C3   45 356 01 00:   DENSITY CORRECTION
 DPHI.DEC    45 890 12 00:   DENSITY POROSITY SANDSTONE
 GRD .GAPI   45 310 01 00:   GAMMA RAY FROM DENSITY LOG
 RHOB.G/C3   45 350 01 00:   BULK DENSITY
 ILD .OHMM   05 120 46 00:   INDUCTION LOG DEEP
 SN  .OHMM   05 040 16 00:   SHORT NORMAL 16"
 SPR .MV     05 010 01 00:   SPONTANEOUS POTENTIAL FROM RES.
~PARAMETER INFORMATION
#MNEM.UNIT          VALUE    DESCRIPTION
#----------   ------------   ------------------------------
 PD  .                 GL:   PERMANENT DATUM
 EPD .F              5198:   ELEVATION PERMANENT DATUM
 LMF .                 KB:   LOG MEASURED FROM
 DAPD.F                 4:   FEET ABOVE PERMANENT DATUM
 DMF .                 KB:   DRILLING MEASURED FROM
 EKB .F              5202:   KELLING BUSHING
 EGL .F              5198:   GROUND LEVEL
 DATE.        19-OCT-1978:   RUN DATE
 RUN .                  1:   RUN NUMBER
 DD  .F               474:   DEPTH DRILLER
 DL  .F               474:   DEPTH LOGGER
 BLI .F               474:   BOTTOM LOG INTERVAL
 TLI .F                30:   TOP LOG INTERVAL
 CBD .F                40:   CASING BOTTOM DRILLER
 CBL .F                38:   CASING BOTTOM LOGGER
 BS  .IN            7.875:   BIT SIZE
 BSD .F               474:   BIT SIZE AT DEPTH
 DFT .                KCL:   DRILLING FLUID TYPE
 DFD .                8.7:   DRILLING FLUID DENSITY
 DFV .                 38:   DRILLING FLUID VISCOSITY
 DFPH.                9.0:   DRILLING FLUID PH
 DFL .                 13:   DRILLING FLUID LOSS
 MSS .           FLOWLINE:   MUD SAMPLE SOURCE
 RMS .OHMM            .25:   RESISTIVITY MUD SAMPLE
 MST .F                58:   MUD SAMPLE TEMPERATURE
 RMF .OHMM             .2:   RESISTIVITY MUD FILTRATE SAMPLE
 MFST.F                60:   MUD FILTRATE SAMPLE TEMPERATURE
 RMC .OHMM            .24:   RESISTIVITY MUD CAKE
 MCST.F                60:   MUD CAKE SAMPLE TEMPERATURE
 MFSS.               MEAS:   MUD FILTRATE SAMPLE SOURCE
 MCSS.               MEAS:   MUD CAKE SAMPLE SOURCE
 RMB .OHMM            .23:   RESISTIVITY MUD AT BHT
 BHT .F                70:   BOTTOM HOLE TEMPERATURE
 TCS .HRS               3:   TIME CURCULATED STOPPED
 MRT .F                70:   MAXIMUM RECORDED TEMPERATURE
 LUN .               2958:   LOGGING UNIT NUMBER
 LUL .               CASP:   LOGGING UNIT LOCATION
 ENGI.           REYNOLDS:   RECORDING ENGINEER
 WITN.           DINSMORE:   WITNESSED BY
 CLNT.            A2DTECH:   CLIENT CODE
 ORIG.           5" PRINT:   ORIGIN OF DATA
 UWI .       490251072000:   UNIQUE WELL ID
 DICO. A2D Technologies, Inc.:   DIGITIZING COMPANY
~OTHER INFORMATION
~A   DEPT     CALD       CORR       DPHI         GRD      RHOB        ILD         SN        SPR   
# ...
   56.5000     8.2639     0.0061     0.1149    60.7896     2.4926     8.0304     4.7980   -54.9376
   57.0000     8.2801     0.0061     0.1196    60.2017     2.4837     8.0331     4.1709   -55.0808
   57.5000     8.2960     0.0062     0.1231    60.2088     2.4704     8.0357     3.3284   -55.0737
   58.0000     8.2971     0.0063     0.1234    61.2530     2.4690     8.0384     5.5749   -55.0678
   58.5000     8.1799     0.0064     0.1213    63.0390     2.4742     8.0410     6.0488   -55.0608
   59.0000     7.9443     0.0064     0.1201    65.2702     2.4779     8.0437     4.3106   -55.0551
   59.5000     8.0493     0.0065     0.1198    66.4802     2.4794     8.0469     4.1115   -55.0494
   60.0000     8.1392     0.0066     0.1198    60.8318     2.4809     8.0496     4.8728   -55.0442
   60.5000     8.1995     0.0067     0.1206    59.9166     2.4809     8.1624     5.3596   -55.0380
   61.0000     8.2450     0.0067     0.1218    59.6243     2.4795     8.2767     5.7409   -55.0322
   61.5000     8.2464     0.0068     0.1227    63.4700     2.4780     8.3927     6.0318   -55.1740
   62.0000     8.2327     0.0054     0.1229    68.0532     2.4648     8.2261     6.3124   -55.1681
   62.5000     8.1895     0.0067     0.1521    69.6833     2.4383     8.0628     6.6211   -54.7187
   63.0000     8.1166     0.0946     0.1577    68.2104     2.4214     8.1759     6.9448   -53.5330
   63.5000     8.0289     0.1691     0.1371    64.6695     2.4173     8.4044     7.3340   -52.9374
   64.0000     7.9268     0.2349     0.1087    59.5039     2.4951     8.5222     7.6406   -52.6367
   64.5000     7.8392     0.2386     0.0774    54.7813     2.5799     8.6416     7.8528   -52.6309
   65.0000     7.7516     0.1974     0.0712    56.8545     2.5990     8.8224     7.8018   -52.6252
   65.5000     7.6492     0.1432     0.0706    57.3019     2.5762     8.8253     7.6987   -52.6195
   66.0000     7.5460     0.0877     0.0804    58.4878     2.5540     8.8282     7.5923   -52.6136
   66.5000     7.5035     0.0294     0.0918    61.0030     2.5343     8.7713     7.4971   -52.6077
   67.0000     7.5197     0.0091     0.1012    64.1959     2.5033     8.7749     7.3970   -52.6009
   67.5000     7.5208     0.0046     0.1086    65.5905     2.4724     8.7778     7.2509   -52.3002
   68.0000     7.5433     0.0019     0.1098    65.8911     2.4813     8.7807     7.2033   -52.1470
   68.5000     7.5527     0.0005     0.1074    66.6339     2.5012     8.6643     7.1569   -51.8463
   69.0000     7.5390     0.0006     0.1116    67.0812     2.5019     8.4355     7.0860   -51.2507
   69.5000     7.5253     0.0007     0.1207    67.0865     2.4887     8.2681     7.0132   -50.2021
   70.0000     7.5116     0.0007     0.1251    67.2384     2.4666     8.0491     6.9243   -49.4679
   70.5000     7.4982     0.0008     0.1292    67.3903     2.4644     7.8823     6.8788   -49.0197
   71.0000     7.4846     0.0009     0.1330    67.3945     2.4615     7.7855     6.7879   -48.8333
   71.5000     7.4709     0.0010     0.1366    67.5465     2.4578     7.7887     6.6987   -48.7133
   72.0000     7.4871     0.0025     0.1398    67.6994     2.4520     7.7912     6.6551   -48.7076
   72.5000     7.5030     0.0040     0.1350    67.7036     2.4446     7.7938     6.6119   -48.7019
   73.0000     7.5485     0.0056     0.1279    67.7078     2.4564     7.8495     6.6139   -48.6961
   73.5000     7.6239     0.0071     0.1232    67.8597     2.4675     7.8521     6.6605   -48.8379
   74.0000     7.6842     0.0101     0.1196    67.5695     2.4771     7.8583     6.7079   -48.8308
   74.5000     7.7741     0.0131     0.1190    63.5855     2.4830     7.9115     6.7094   -48.9740
   75.0000     7.8640     0.0132     0.1214    59.4538     2.4816     7.9141     6.7112   -48.0819
   75.5000     7.9255     0.0147     0.1220    59.4412     2.4801     7.9167     6.7131   -47.0437
   76.0000     7.9848     0.0162     0.1201    59.7576     2.4787     7.9730     6.7149   -46.3005
   76.5000     8.0155     0.0192     0.1207    55.3316     2.4772     7.9890     6.7168   -45.7049
   77.0000     8.0167     0.0222     0.1213    54.7449     2.4757     8.0328     6.7185   -45.4041
   77.5000     8.0178     0.0310     0.1178    54.4527     2.4743     8.0355     6.7204   -45.1032
   78.0000     8.0189     0.0399     0.1119    54.0148     2.4780     8.0382     6.7225   -44.9488
   78.5000     8.0052     0.0516     0.1027    55.3494     2.4957     8.0414     6.7243   -44.9431
   79.0000     7.9771     0.0531     0.0965    59.6372     2.5098     8.0437     6.7261   -44.9374
   79.5000     7.9486     0.0401     0.0941    64.5159     2.5194     8.1016     6.9128   -45.0806
   80.0000     7.9349     0.0212     0.0941    65.4063     2.5216     8.1595     7.1048   -45.0735
   80.5000     7.9213     0.0023     0.0968    64.3127     2.5076     8.2178     7.1551   -44.9203
   81.0000     7.9227    -0.0035     0.1070    60.6891     2.4863     8.2765     7.1569   -44.4720
   81.5000     7.9238    -0.0078     0.1159    57.4436     2.4716     8.1677     7.1104   -43.5800
   82.0000     7.9396    -0.0092     0.1241    55.6753     2.4657     8.1150     6.9224   -42.9843
   82.5000     7.9408    -0.0077     0.1277    54.0547     2.4642     8.1178     6.6477   -42.3886
   83.0000     7.9422    -0.0003     0.1291    56.7187     2.4635     8.1205     7.1165   -42.0893
   83.5000     7.9434     0.0086     0.1261    58.3477     2.4628     8.1238     7.4140   -42.2311
   84.0000     7.9445     0.0159     0.1220    55.1023     2.4702     8.1264     7.5168   -42.2240
   84.5000     7.9456     0.0218     0.1211    52.3000     2.4776     8.1845     7.2194   -42.0708
   85.0000     7.9467     0.0263     0.1223    50.6696     2.4791     8.4127     6.8399   -41.7552
   85.5000     7.9333     0.0293     0.1202    50.0928     2.4769     8.5887     6.7955   -41.3204
   86.0000     7.9345     0.0294     0.1175    50.6889     2.4784     8.6501     7.0801   -41.1672
   86.5000     7.9060     0.0294     0.1151    50.3976     2.4828     8.6530     7.2767   -41.0140
   87.0000     7.8923     0.0266     0.1142    50.6973     2.4865     8.7749     7.4282   -40.8608
   87.5000     7.8479     0.0208     0.1169    53.6567     2.4895     8.8978     7.5829   -40.5601
   88.0000     7.7765     0.0163     0.1198    59.2739     2.4893     8.9614     7.6365   -40.4069
   88.5000     7.7185     0.0093     0.1222    60.1644     2.4800     9.0870     7.7428   -40.2522
   89.0000     7.6161     0.0064     0.1248    60.4640     2.4689     9.2771     7.8506   -39.9321
   89.5000     7.5136     0.0050     0.1287    60.6228     2.4608     9.4712     8.0729   -39.6509
   90.0000     7.4389     0.0051     0.1360    63.7231     2.4549     9.6693     8.3497   -39.4977
   90.5000     7.3830     0.0066     0.1339    70.8174     2.4498     9.8807     8.4087   -39.3445
   91.0000     7.3691     0.0096     0.1262    71.4124     2.4602    10.0790     8.4682   -39.3387
   91.5000     7.3554     0.0112     0.1188    70.2349     2.4779    10.2202     8.5281   -39.3330
   92.0000     7.3568     0.0127     0.1131    65.9735     2.4875    10.3634     8.5884   -39.3274
   92.5000     7.3582     0.0128     0.1114    59.7569     2.4986    10.5802     8.5906   -39.3211
   93.0000     7.3593     0.0143     0.1158    57.8399     2.4956    10.8752     8.6514   -39.3156
   93.5000     7.3605     0.0158     0.1200    56.9588     2.4839    11.3312     8.7756   -39.3088
   94.0000     7.3616     0.0159     0.1274    47.7734     2.4677    11.8978     9.1392   -39.3038
   94.5000     7.3627     0.0160     0.1429    45.2992     2.4511    12.4709     9.3930   -39.2973
   95.0000     7.3641     0.0175     0.1438    44.2694     2.4405    12.9059     9.5886   -39.2920
   95.5000     7.3800     0.0191     0.1258    40.8763     2.4427    13.0867     9.6563   -39.2861
   96.0000     7.5735     0.0206     0.1202    38.3555     2.4619    13.1802     9.6589   -39.2802
   96.5000     7.7965     0.0265     0.1193    45.7799     2.4768    13.0942     9.6614   -39.1235
