~VERSION INFORMATION
 VERS.                2.0:   CWLS LOG ASCII STANDARD - VERSION 2.0
 WRAP.                 NO:   ONE LINE PER DEPTH STEP
~WELL INFORMATION
#MNEM.UNIT      DATA TYPE    INFORMATION
#----------   ------------   ------------------------------
 STRT.F           53.0000:   START DEPTH
 STOP.F         4152.0000:   STOP DEPTH
 STEP.F            0.5000:   STEP LENGTH
 NULL.          -999.2500:   NO VALUE
 COMP. DEPARTMENT OF ENERGY:   COMPANY
 WELL. RES 3 TEAPOT #11-STX-11:   WELL
 FLD . TEAPOT NAVAL RESERVE:   FIELD
 LOC .      S11 T38N R78W:   LOCATION
 CNTY.            NATRONA:   COUNTY
 STAT.            WYOMING:   STATE
 CTRY. UNITED STATES OF AMERICA:   COUNTRY
 SRVC.       Schlumberger:   SERVICE COMPANY
 DATE.        24-JUL-1975:   LOGDATE
 API .       490251025200:   API NUMBER
~CURVE INFORMATION
#MNEM.UNIT       API CODE    CURVE DESCRIPTION
#----------   ------------   ------------------------------
 DEPT.F                  :   
 SPR .MV     07 010 01 00:   SPONTANEOUS POTENTIAL
 ILD .OHMM   07 120 46 00:   INDUCTION LOG DEEP
 ILM .OHMM   07 120 44 00:   INDUCTION LOG MEDIUM
 LL8 .OHMM   07 220 08 00:   LATEROLOG-8 RES.
 DPOR.DEC    45 890 12 00:   DENSITY POROSITY SANDSTONE
 NPOR.DEC    42 890 03 00:   NEUTRON POROSITY SANDSTONE
 RHOB.G/C3   45 350 01 00:   BULK DENSITY
 CORR.G/C3   45 356 01 00:   DENSITY CORRECTION
 GRD .GAPI   45 310 01 00:   GAMMA RAY FROM DENSITY LOG
 CALD.IN     45 280 60 00:   CALIPER FROM DENSITY LOG
~PARAMETER INFORMATION
#MNEM.UNIT          VALUE    DESCRIPTION
#----------   ------------   ------------------------------
 PD  .                 GL:   PERMANENT DATUM
 EPD .F              5165:   ELEVATION PERMANENT DATUM
 LMF .                 KB:   LOG MEASURED FROM
 DAPD.F                13:   FEET ABOVE PERMANENT DATUM
 DMF .                 KB:   DRILLING MEASURED FROM
 EKB .F              5178:   KELLING BUSHING
 EGL .F              5165:   GROUND LEVEL
 DATE.            7-24-75:   RUN DATE
 RUN .                  1:   RUN NUMBER
 DD  .F              4150:   DEPTH DRILLER
 DL  .F              4154:   DEPTH LOGGER
 BLI .F              4152:   BOTTOM LOG INTERVAL
 TLI .F              1800:   TOP LOG INTERVAL
 CS  .IN            8.625:   CASING SIZE
 CBD .F               625:   CASING BOTTOM DRILLER
 CBL .F               627:   CASING BOTTOM LOGGER
 BS  .IN            7.875:   BIT SIZE
 BSD .F              4150:   BIT SIZE AT DEPTH
 DFT .                FGM:   DRILLING FLUID TYPE
 DFD .                9.5:   DRILLING FLUID DENSITY
 DFV .                 85:   DRILLING FLUID VISCOSITY
 MSS .           FLOWLINE:   MUD SAMPLE SOURCE
 RMS .OHMM           1.34:   RESISTIVITY MUD SAMPLE
 MST .F                91:   MUD SAMPLE TEMPERATURE
 RMF .OHMM           1.17:   RESISTIVITY MUD FILTRATE SAMPLE
 MFST.F                91:   MUD FILTRATE SAMPLE TEMPERATURE
 MFSS.                  M:   MUD FILTRATE SAMPLE SOURCE
 RMB .OHMM            .94:   RESISTIVITY MUD AT BHT
 BHT .F               130:   BOTTOM HOLE TEMPERATURE
 TCS .HRS            1230:   TIME CURCULATED STOPPED
 TLAB.HRS            1900:   TIME LOGGER AT BOTTOM
 MRT .F               132:   MAXIMUM RECORDED TEMPERATURE
 LUN .               7680:   LOGGING UNIT NUMBER
 LUL .               CSPR:   LOGGING UNIT LOCATION
 ENGI.             FRENCH:   RECORDING ENGINEER
 WITN.             CARTER:   WITNESSED BY
 CLNT.            A2DTECH:   CLIENT CODE
 ORIG.       2", 5" PRINT:   ORIGIN OF DATA
 UWI .       490251025200:   UNIQUE WELL ID
 DICO. A2D Technologies, Inc.:   DIGITIZING COMPANY
~OTHER INFORMATION
~A   DEPT      SPR          ILD        ILM       LL8      DPOR       NPOR       RHOB       CORR        GRD       CALD   
# ...
 3202.0000  -999.2500  -999.2500  -999.2500  -999.2500     0.0953     0.2929     2.4754     0.0159   202.0238     9.5055
 3202.5000  -999.2500  -999.2500  -999.2500  -999.2500     0.1031     0.3030     2.4767     0.0102   194.8769     9.5096
 3203.0000  -999.2500  -999.2500  -999.2500  -999.2500     0.1084     0.3133     2.4842     0.0055   190.2375     9.5136
 3203.5000  -999.2500  -999.2500  -999.2500  -999.2500     0.1041     0.3215     2.4905     0.0024   187.8202     9.5177
 3204.0000  -999.2500  -999.2500  -999.2500  -999.2500     0.1001     0.3121     2.4779     0.0039   190.4943     9.5217
 3204.5000  -999.2500  -999.2500  -999.2500  -999.2500     0.1022     0.2982     2.4893     0.0182   194.9066     9.5258
 3205.0000  -999.2500  -999.2500  -999.2500  -999.2500     0.1052     0.2946     2.5090     0.0277   199.3069     9.5298
 3205.5000  -999.2500  -999.2500  -999.2500  -999.2500     0.0936     0.2914     2.4981     0.0200   201.6764     9.5338
 3206.0000  -999.2500  -999.2500  -999.2500  -999.2500     0.0873     0.2937     2.4846     0.0120   204.5829     9.5343
 3206.5000  -999.2500  -999.2500  -999.2500  -999.2500     0.0965     0.2956     2.4679     0.0037   206.5522     9.5178
 3207.0000  -999.2500  -999.2500  -999.2500  -999.2500     0.1052     0.2958     2.4647     0.0036   206.0716     9.5016
 3207.5000  -999.2500  -999.2500  -999.2500  -999.2500     0.1124     0.2970     2.4853     0.0100   205.8209     9.4854
 3208.0000  -999.2500  -999.2500  -999.2500  -999.2500     0.1069     0.2982     2.4961     0.0169   206.5262     9.4693
 3208.5000  -999.2500  -999.2500  -999.2500  -999.2500     0.0944     0.3045     2.4864     0.0155   208.2961     9.4566
 3209.0000  -999.2500  -999.2500  -999.2500  -999.2500     0.0968     0.3143     2.4702     0.0090   211.2585     9.4569
 3209.5000  -999.2500  -999.2500  -999.2500  -999.2500     0.1006     0.3258     2.4548     0.0072   214.2180     9.4569
 3210.0000  -999.2500  -999.2500  -999.2500  -999.2500     0.1134     0.3299     2.4535     0.0069   214.4763     9.4569
 3210.5000  -999.2500  -999.2500  -999.2500  -999.2500     0.1208     0.3269     2.4575     0.0041   214.2235     9.4583
 3211.0000  -999.2500  -999.2500  -999.2500  -999.2500     0.1172     0.3216     2.4507     0.0049   214.7598     9.4614
 3211.5000  -999.2500  -999.2500  -999.2500  -999.2500     0.1204     0.3164     2.4693     0.0105   215.3811     9.4644
 3212.0000  -999.2500  -999.2500  -999.2500  -999.2500     0.1156     0.3111     2.4638     0.0128   215.3099     9.4675
 3212.5000  -999.2500  -999.2500  -999.2500  -999.2500     0.1109     0.3074     2.4702     0.0161   212.7070     9.4707
 3213.0000  -999.2500  -999.2500  -999.2500  -999.2500     0.1106     0.3158     2.4647     0.0221   209.0329     9.4741
 3213.5000  -999.2500  -999.2500  -999.2500  -999.2500     0.1139     0.3254     2.4740     0.0270   204.2234     9.4723
 3214.0000  -999.2500  -999.2500  -999.2500  -999.2500     0.1114     0.3157     2.4625     0.0184   196.7789     9.4367
 3214.5000  -999.2500  -999.2500  -999.2500  -999.2500     0.1109     0.3034     2.4610     0.0144   190.5416     9.4070
 3215.0000  -999.2500  -999.2500  -999.2500  -999.2500     0.1140     0.2968     2.4775     0.0175   193.2183     9.3780
 3215.5000  -999.2500  -999.2500  -999.2500  -999.2500     0.1120     0.2910     2.4888     0.0213   198.0448     9.3798
 3216.0000  -999.2500  -999.2500  -999.2500  -999.2500     0.1049     0.2938     2.5081     0.0199   195.5001     9.3861
 3216.5000  -999.2500  -999.2500  -999.2500  -999.2500     0.0960     0.2908     2.5182     0.0137   191.9350     9.3916
 3217.0000  -999.2500  -999.2500  -999.2500  -999.2500     0.0824     0.2810     2.5045     0.0117   192.3676     9.3808
 3217.5000  -999.2500  -999.2500  -999.2500  -999.2500     0.0851     0.2519     2.5309     0.0156   195.8822     9.3319
 3218.0000  -999.2500  -999.2500  -999.2500  -999.2500     0.0782     0.2252     2.5468     0.0198   202.4226     9.2851
 3218.5000  -999.2500  -999.2500  -999.2500  -999.2500     0.0665     0.2195     2.5312     0.0212   204.2177     9.2763
 3219.0000  -999.2500  -999.2500  -999.2500  -999.2500     0.0648     0.2262     2.5101     0.0235   208.3081     9.2849
 3219.5000  -999.2500  -999.2500  -999.2500  -999.2500     0.0787     0.2358     2.4961     0.0291   209.7489     9.2957
 3220.0000  -999.2500  -999.2500  -999.2500  -999.2500     0.0893     0.2454     2.4972     0.0349   201.1121     9.3069
 3220.5000  -999.2500  -999.2500  -999.2500  -999.2500     0.0936     0.2535     2.5150     0.0161   186.5628     9.3138
 3221.0000  -999.2500  -999.2500  -999.2500  -999.2500     0.0856     0.2539     2.5105     0.0171   178.4827     9.2391
 3221.5000  -999.2500  -999.2500  -999.2500  -999.2500     0.0845     0.2421     2.5189     0.0128   171.1100     9.1810
 3222.0000  -999.2500  -999.2500  -999.2500  -999.2500     0.0807     0.2246     2.5372     0.0112   166.3931     9.1799
 3222.5000  -999.2500  -999.2500  -999.2500  -999.2500     0.0714     0.2094     2.5545     0.0312   163.4460     9.1860
 3223.0000  -999.2500  -999.2500  -999.2500  -999.2500     0.0621     0.2106     2.5365     0.0169   160.5157     9.1920
 3223.5000  -999.2500  -999.2500  -999.2500  -999.2500     0.0604     0.2094     2.5181     0.0021   159.2466     9.1941
 3224.0000  -999.2500  -999.2500  -999.2500  -999.2500     0.0800     0.2051     2.5195     0.0069   158.4440     9.1835
 3224.5000  -999.2500  -999.2500  -999.2500  -999.2500     0.0800     0.2007     2.5354     0.0141   161.4764     9.1734
 3225.0000  -999.2500  -999.2500  -999.2500  -999.2500     0.0724     0.2044     2.5364     0.0161   165.8258     9.1634
 3225.5000  -999.2500  -999.2500  -999.2500  -999.2500     0.0694     0.2099     2.5306     0.0048   168.2744     9.1531
 3226.0000  -999.2500  -999.2500  -999.2500  -999.2500     0.0719     0.2125     2.5322     0.0007   170.2108     9.1425
 3226.5000  -999.2500  -999.2500  -999.2500  -999.2500     0.0736     0.2096     2.5431    -0.0031   172.1202     9.1318
 3227.0000  -999.2500  -999.2500  -999.2500  -999.2500     0.0685     0.2068     2.5319    -0.0054   174.1112     9.1212
 3227.5000  -999.2500  -999.2500  -999.2500  -999.2500     0.0656     0.2119     2.5264    -0.0027   174.5323     9.1105
 3228.0000  -999.2500  -999.2500  -999.2500  -999.2500     0.0774     0.2162     2.5225    -0.0062   177.0437     9.0999
 3228.5000  -999.2500  -999.2500  -999.2500  -999.2500     0.0780     0.2145     2.5283    -0.0074   181.5691     9.0893
 3229.0000  -999.2500  -999.2500  -999.2500  -999.2500     0.0765     0.2162     2.5216    -0.0038   185.8129     9.0783
 3229.5000  -999.2500  -999.2500  -999.2500  -999.2500     0.0767     0.2239     2.5116    -0.0027   187.9570     9.0822
 3230.0000  -999.2500  -999.2500  -999.2500  -999.2500     0.0844     0.2317     2.5177    -0.0035   189.9239     9.0928
 3230.5000  -999.2500  -999.2500  -999.2500  -999.2500     0.0844     0.2391     2.5238    -0.0028   190.6218     9.1035
 3231.0000  -999.2500  -999.2500  -999.2500  -999.2500     0.0800     0.2391     2.5147     0.0008   191.3316     9.1145
 3231.5000  -999.2500  -999.2500  -999.2500  -999.2500     0.0831     0.2169     2.5420     0.0094   192.4023     9.1086
 3232.0000  -999.2500  -999.2500  -999.2500  -999.2500     0.0791     0.2018     2.5647     0.0188   194.0896     9.0990
 3232.5000  -999.2500  -999.2500  -999.2500  -999.2500     0.0635     0.1867     2.5745     0.0320   197.0668     9.0893
 3233.0000  -999.2500  -999.2500  -999.2500  -999.2500     0.0481     0.1835     2.5613     0.0329   196.4069     9.0796
 3233.5000  -999.2500  -999.2500  -999.2500  -999.2500     0.0476     0.2043     2.5418     0.0190   195.4657     9.0784
 3234.0000  -999.2500  -999.2500  -999.2500  -999.2500     0.0617     0.2192     2.5353     0.0143   194.5108     9.0892
 3234.5000  -999.2500  -999.2500  -999.2500  -999.2500     0.0704     0.2355     2.5469     0.0168   194.2149     9.0999
 3235.0000  -999.2500  -999.2500  -999.2500  -999.2500     0.0704     0.2321     2.5496     0.0240   194.6971     9.1106
