~VERSION INFORMATION
 VERS.                2.0:   CWLS LOG ASCII STANDARD - VERSION 2.0
 WRAP.                 NO:   ONE LINE PER DEPTH STEP
~WELL INFORMATION
#MNEM.UNIT      DATA TYPE    INFORMATION
#----------   ------------   ------------------------------
 STRT.F            0.0000:   START DEPTH
 STOP.F         1002.0000:   STOP DEPTH
 STEP.F            0.5000:   STEP LENGTH
 NULL.          -999.2500:   NO VALUE
 COMP. U S NAVY-INTEX OIL:   COMPANY
 WELL.     NPR ##3 28-S-2:   WELL
 FLD .             TEAPOT:   FIELD
 LOC .       S2 T38N R78W:   LOCATION
 CNTY.            NATRONA:   COUNTY
 STAT.            WYOMING:   STATE
 CTRY. UNITED STATES OF AMERICA:   COUNTRY
 SRVC.      NL McCullough:   SERVICE COMPANY
 DATE.        13-JUN-1963:   LOGDATE
 API .       490250639400:   API NUMBER
~CURVE INFORMATION
#MNEM.UNIT       API CODE    CURVE DESCRIPTION
#----------   ------------   ------------------------------
 DEPT.F                  :   
 ASN .OHMM   05 041 16 00:   AMPLIFIED SHORT NORMAL 16"
 ILD .OHMM   05 120 46 00:   INDUCTION LOG DEEP
 CILD.MMHO   05 110 46 00:   CONDUCTIVITY INDUCTION LOG DEEP
 SPR .MV     05 010 01 00:   SPONTANEOUS POTENTIAL FROM RES.
 GR  .GAPI   30 310 01 00:   GAMMA RAY
~PARAMETER INFORMATION
#MNEM.UNIT          VALUE    DESCRIPTION
#----------   ------------   ------------------------------
 PD  .                 GL:   PERMANENT DATUM
 EPD .F              5147:   ELEVATION PERMANENT DATUM
 LMF .                 KB:   LOG MEASURED FROM
 DAPD.F                 5:   FEET ABOVE PERMANENT DATUM
 DMF .                 KB:   DRILLING MEASURED FROM
 EKB .F              5152:   KELLING BUSHING
 EGL .F              5147:   GROUND LEVEL
 DATE.        13-SEP-1963:   RUN DATE
 RUN .                  1:   RUN NUMBER
 BLI .F               600:   BOTTOM LOG INTERVAL
 CS  .IN                7:   CASING SIZE
 DFT .                OIL:   DRILLING FLUID TYPE
 ENGI.            JACKSON:   RECORDING ENGINEER
 WITN.             HUDSON:   WITNESSED BY
 CLNT.            A2DTECH:   CLIENT CODE
 ORIG.           5" PRINT:   ORIGIN OF DATA
 UWI .       490250639400:   UNIQUE WELL ID
 DICO. A2D Technologies, Inc.:   DIGITIZING COMPANY
~OTHER INFORMATION
~A    DEPT     ASN        ILD       CILD        SPR          GR  
# ...
  915.0000    12.5561    13.2613    71.7284   -32.4997  -999.2500
  915.5000    12.7055    13.5634    70.2097   -32.4967  -999.2500
  916.0000    13.0045    14.0904    67.1871   -32.4937  -999.2500
  916.5000    13.2287    14.7673    64.9165   -32.3419  -999.2500
  917.0000    13.4529    15.5192    62.6458   -32.3389  -999.2500
  917.5000    13.7519    16.2256    59.6232   -32.4848  -999.2500
  918.0000    13.9761    17.0644    55.8488   -32.6313  -999.2500
  918.5000    14.1256    17.9632    53.5782   -32.9252  -999.2500
  919.0000    14.2003    18.6252    51.3075   -33.0711  -999.2500
  919.5000    14.1256    19.0532    50.5406   -33.3664  -999.2500
  920.0000    14.1256    18.9705    49.7737   -33.5123  -999.2500
  920.5000    13.9761    18.6559    50.5105   -33.5085  -999.2500
  921.0000    13.8266    17.5367    52.0000   -33.5055  -999.2500
  921.5000    13.6024    16.5465    56.4955   -33.3537  -999.2500
  922.0000    13.3782    15.2173    60.9918   -33.3508  -999.2500
  922.5000    13.0792    14.0991    66.9918   -33.1990  -999.2500
  923.0000    12.7803    12.9810    73.7437   -33.1960  -999.2500
  923.5000    12.4813    12.0187    77.4881   -33.0442  -999.2500
  924.0000    12.1076    11.4981    81.2324   -32.8924  -999.2500
  924.5000    11.8087    10.9789    84.9768   -32.8894  -999.2500
  925.0000    11.6592    10.6072    89.4731   -32.7376  -999.2500
  925.5000    11.5845    10.3846    92.4656   -32.7346  -999.2500
  926.0000    11.4350    10.0870    93.9549   -32.5828  -999.2500
  926.5000    11.3602     9.9393    95.4436   -32.4310  -999.2500
  927.0000    11.3602     9.7916    96.1805   -32.5776  -999.2500
  927.5000    11.3602     9.7939    96.1648   -32.5739  -999.2500
  928.0000    11.3602     9.7961    96.1498   -32.5709  -999.2500
  928.5000    11.3602     9.7984    96.1348   -32.4191  -999.2500
  929.0000    11.2855     9.8007    96.1198   -32.5649  -999.2500
  929.5000    11.2855     9.8779    96.8571   -32.5619  -999.2500
  930.0000    11.2855     9.8801    96.8416   -32.5595  -999.2500
  930.5000    11.2855     9.9574    96.8266   -32.5566  -999.2500
  931.0000    11.3602     9.9596    96.0597   -32.5278  -999.2500
  931.5000    11.2855    10.1118    94.5409   -32.4018  -999.2500
  932.0000    11.2108    10.3389    92.2702   -32.3988  -999.2500
  932.5000    11.5097    10.5661    90.7514   -32.3958  -999.2500
  933.0000    11.9581    10.7932    89.2327   -32.3749  -999.2500
  933.5000    12.4066    10.9454    88.4658   -32.2410  -999.2500
  934.0000    12.6308    10.9477    88.4507   -32.2381  -999.2500
  934.5000    12.8550    11.0249    88.4357   -32.2470  -999.2500
  935.0000    12.7055    11.0271    88.4207   -32.3810  -999.2500
  935.5000    12.4813    10.9544    88.4057   -32.3700  -999.2500
  936.0000    11.9581    10.8068    89.8944   -32.2262  -999.2500
  936.5000    11.5097    10.7335    92.1350   -32.2232  -999.2500
  937.0000    11.2855    10.5858    94.3756   -32.2202  -999.2500
  937.5000    11.2108    10.3638    95.8646   -32.2173  -999.2500
  938.0000    11.1360    10.2161    96.6015   -32.0655  -999.2500
  938.5000    11.1360    10.1428    97.3381   -32.0625  -999.2500
  939.0000    11.1360     9.9957    97.3230   -32.0595  -999.2500
  939.5000    11.0613     9.8480    98.0602   -32.0565  -999.2500
  940.0000    11.0613     9.8503    98.0449   -31.9047  -999.2500
  940.5000    10.9865     9.7776    98.7819   -32.0506  -999.2500
  941.0000    10.9118     9.7799    98.7667   -32.0476  -999.2500
  941.5000    10.9118     9.7821    99.5037   -31.8958  -999.2500
  942.0000    10.8371     9.7844    99.4885   -31.8928  -999.2500
  942.5000    10.7623     9.7866    99.4735   -31.7410  -999.2500
  943.0000    10.7623     9.8638    98.7066   -31.4404  -999.2500
  943.5000    10.8371     9.8661    98.6916   -30.9910  -999.2500
  944.0000    10.8371     9.8684    97.9247   -30.5415  -999.2500
  944.5000    10.9118     9.9456    97.1578   -30.3897  -999.2500
  945.0000    10.9118     9.9478    96.3909   -30.2379  -999.2500
  945.5000    10.9865    10.0250    95.6239   -30.3838  -999.2500
  946.0000    10.9865    10.1023    95.6089   -30.8272  -999.2500
  946.5000    10.9865    10.1795    95.5939   -31.2707  -999.2500
  947.0000    10.9865    10.1062    96.3309   -31.4172  -999.2500
  947.5000    10.9118    10.1090    96.3157   -31.4135  -999.2500
  948.0000    10.9118    10.0363    97.0527   -31.4105  -999.2500
  948.5000    10.8371    10.0386    97.7894   -31.4075  -999.2500
  949.0000    10.8371    10.0408    98.5263   -31.4045  -999.2500
  949.5000    10.8371    10.0431    98.5113   -31.4015  -999.2500
  950.0000    10.7623    10.0448    98.4962   -31.4178  -999.2500
  950.5000    10.7623    10.0045    98.6520   -31.5476  -999.2500
  951.0000    10.8371     9.9670    98.8078   -31.8452  -999.2500
  951.5000    10.8273     9.8905    98.9636   -31.6964  -999.2500
  952.0000    10.8040     9.8890    99.1194   -30.9524  -999.2500
  952.5000    10.7807     9.8875    99.8878   -30.5060  -999.2500
  953.0000    10.7623     9.8860   100.6168   -30.2083  -999.2500
  953.5000    10.6876     9.8845   100.5940   -30.0411  -999.2500
  954.0000    10.6876     9.7331   101.3233   -29.9107  -999.2500
  954.5000    10.6129     9.5816   101.3003   -29.9107  -999.2500
  955.0000    10.4634     9.4302   102.0301   -29.9157  -999.2500
  955.5000    10.3886     9.3537   102.7594   -30.5065  -999.2500
  956.0000    10.3886     9.2773   103.4874   -31.1012  -999.2500
  956.5000    10.3886     9.1258   104.9684   -31.3988  -999.2500
  957.0000    10.3139     9.0494   104.9455   -31.3988  -999.2500
  957.5000    10.2392     9.0479   105.6746   -31.3988  -999.2500
  958.0000    10.1644     8.9714   105.6518   -31.3988  -999.2500
  958.5000    10.1644     8.9699   106.3865   -31.5476  -999.2500
  959.0000    10.0897     8.9684   106.3580   -31.5476  -999.2500
  959.5000    10.0897     8.9669   106.3352   -31.5476  -999.2500
  960.0000    10.0149     8.8904   106.3124   -31.5476  -999.2500
  960.5000    10.0149     8.8889   107.0471   -31.5476  -999.2500
  961.0000    10.0109     8.8124   107.0186   -31.5476  -999.2500
  961.5000    10.0044     8.8109   107.7534   -31.5476  -999.2500
  962.0000     9.9978     8.8094   108.4824   -31.6964  -999.2500
  962.5000     9.9913     8.8079   109.2115   -31.9940  -999.2500
  963.0000     9.9847     8.8064   109.9405   -32.1429  -999.2500
  963.5000     9.9782     8.8049   109.9724   -32.2917  -999.2500
  964.0000     9.9716     8.7284   110.6468   -32.2917  -999.2500
  964.5000     9.9651     8.6520   110.6239   -32.2917  -999.2500
  965.0000     9.9585     8.6504   112.1053   -32.2917  -999.2500
  965.5000     9.9520     8.5740   113.5864   -32.2917  -999.2500
  966.0000     9.9454     8.4225   115.8195   -32.1429  -999.2500
  966.5000     9.9388     8.1962   120.3071   -31.9940  -999.2500
  967.0000     9.9323     7.7449   127.0512   -31.8452  -999.2500
  967.5000     9.9253     7.2186   133.0434   -31.2500  -999.2500
  968.0000     9.6413     6.9922   140.5394   -30.8036  -999.2500
  968.5000     8.9387     6.9158   141.2741   -30.5060  -999.2500
  969.0000     8.4305     6.8393   142.7494   -30.5060  -999.2500
  969.5000     8.3109     6.8378   143.4841   -30.5060  -999.2500
  970.0000     8.3707     6.7616   143.4556   -30.5060  -999.2500
  970.5000     8.9088     6.8352   143.4328   -30.3571  -999.2500
  971.0000     9.5815     7.0075   139.6506   -30.2083  -999.2500
  971.5000     9.8505     7.4422   133.6127   -30.2083  -999.2500
  972.0000     9.7860     7.8891   126.8230   -30.0595  -999.2500
  972.5000     9.7127     8.1859   121.5370   -30.0595  -999.2500
  973.0000     9.6413     8.3269   119.2631   -30.0595  -999.2500
  973.5000     9.6413     8.3254   118.4887   -30.0595  -999.2500
  974.0000     9.5665     8.3239   118.4662   -30.0595  -999.2500
  974.5000     9.5685     8.2474   118.4436   -30.0595  -999.2500
  975.0000     9.6413     8.1709   118.4211   -30.0595  -999.2500
  975.5000     9.5665     8.1694   118.3982   -30.0595  -999.2500
