~VERSION INFORMATION
 VERS.                2.0:   CWLS LOG ASCII STANDARD - VERSION 2.0
 WRAP.                 NO:   ONE LINE PER DEPTH STEP
~WELL INFORMATION
#MNEM.UNIT      DATA TYPE    INFORMATION
#----------   ------------   ------------------------------
 STRT.F           34.0000:   START DEPTH
 STOP.F          638.0000:   STOP DEPTH
 STEP.F            0.5000:   STEP LENGTH
 NULL.          -999.2500:   NO VALUE
 COMP. FENIX & SCISSON INC:   COMPANY
 WELL. S N.P.R. #3 #33-34:   WELL
 FLD .             TEAPOT:   FIELD
 LOC .      S34 T39N R78W:   LOCATION
 CNTY.            NATRONA:   COUNTY
 STAT.            WYOMING:   STATE
 CTRY. UNITED STATES OF AMERICA:   COUNTRY
 SRVC.       Schlumberger:   SERVICE COMPANY
 DATE.        18-MAR-1977:   LOGDATE
 API .       490251030400:   API NUMBER
~CURVE INFORMATION
#MNEM.UNIT       API CODE    CURVE DESCRIPTION
#----------   ------------   ------------------------------
 DEPT.F                  :   
 LL8 .OHMM   07 220 08 00:   LATEROLOG-8 RES.
 ILD .OHMM   07 120 46 00:   INDUCTION LOG DEEP
 ILM .OHMM   07 120 44 00:   INDUCTION LOG MEDIUM
 SPR .MV     07 010 01 00:   SPONTANEOUS POTENTIAL
 GRD .GAPI   45 310 01 00:   GAMMA RAY FROM DENSITY LOG
 CALD.IN     45 280 60 00:   CALIPER FROM DENSITY LOG
 RHOB.G/C3   45 350 01 00:   BULK DENSITY
 CORR.G/C3   45 356 01 00:   DENSITY CORRECTION
 DPHI.DEC    45 890 12 00:   DENSITY POROSITY SANDSTONE
~PARAMETER INFORMATION
#MNEM.UNIT          VALUE    DESCRIPTION
#----------   ------------   ------------------------------
 PD  .                 GL:   PERMANENT DATUM
 EPD .F              5081:   ELEVATION PERMANENT DATUM
 LMF .                 KB:   LOG MEASURED FROM
 DAPD.F                 5:   FEET ABOVE PERMANENT DATUM
 DMF .                 KB:   DRILLING MEASURED FROM
 EKB .F              5086:   KELLING BUSHING
 EGL .F              5081:   GROUND LEVEL
 DATE.            3-18-77:   RUN DATE
 RUN .                  1:   RUN NUMBER
 DD  .F               631:   DEPTH DRILLER
 DL  .F               637:   DEPTH LOGGER
 BLI .F               631:   BOTTOM LOG INTERVAL
 TLI .F                45:   TOP LOG INTERVAL
 CS  .IN            8.625:   CASING SIZE
 CBD .F                40:   CASING BOTTOM DRILLER
 CBL .F                45:   CASING BOTTOM LOGGER
 BS  .IN            7.875:   BIT SIZE
 BSD .F               631:   BIT SIZE AT DEPTH
 DFT .            KCL MUD:   DRILLING FLUID TYPE
 DFD .                8.7:   DRILLING FLUID DENSITY
 DFV .                 31:   DRILLING FLUID VISCOSITY
 DFPH.                  8:   DRILLING FLUID PH
 DFL .                8.2:   DRILLING FLUID LOSS
 MSS .                PIT:   MUD SAMPLE SOURCE
 RMS .OHMM            .27:   RESISTIVITY MUD SAMPLE
 MST .F                60:   MUD SAMPLE TEMPERATURE
 RMF .OHMM            .25:   RESISTIVITY MUD FILTRATE SAMPLE
 MFST.F                60:   MUD FILTRATE SAMPLE TEMPERATURE
 MFSS.                  M:   MUD FILTRATE SAMPLE SOURCE
 TCS .HRS            0400:   TIME CURCULATED STOPPED
 TLAB.HRS            0530:   TIME LOGGER AT BOTTOM
 LUN .               7711:   LOGGING UNIT NUMBER
 LUL .               CSPR:   LOGGING UNIT LOCATION
 ENGI.             SAYLER:   RECORDING ENGINEER
 WITN.         STUEBINGER:   WITNESSED BY
 CLNT.            A2DTECH:   CLIENT CODE
 ORIG.        2" 5" PRINT:   ORIGIN OF DATA
 UWI .       490251030400:   UNIQUE WELL ID
 DICO. A2D Technologies, Inc.:   DIGITIZING COMPANY
~OTHER INFORMATION
~A   DEPT      LL8        ILD        ILM        SPR         GRD      CALD       RHOB       CORR       DPHI   
# ...
  180.0000     8.9298     9.5265     9.2675   -48.5107    93.4399     8.2458     2.4586     0.0031     0.1147
  180.5000     9.0155     9.3960     9.1405   -48.3678    94.4760     8.2452     2.4531     0.0001     0.1174
  181.0000     8.8529     9.2022     8.9520   -48.2255    96.3629     8.2447     2.4580    -0.0025     0.1165
  181.5000     8.6149     9.0124     8.7673   -48.0826    98.1997     8.2442     2.4694     0.0030     0.1118
  182.0000     8.3832     8.8265     8.5865   -47.9393    99.1554     8.2436     2.4614     0.0092     0.1144
  182.5000     8.1579     8.6444     8.4094   -47.7976   100.0761     8.2430     2.4522     0.0135     0.1188
  183.0000     7.9385     8.4661     8.2359   -47.7665   100.1729     8.2425     2.4444     0.0075     0.1215
  183.5000     7.7253     8.2915     8.0660   -47.7502    98.3448     8.2419     2.4518     0.0143     0.1187
  184.0000     7.5179     8.1205     7.8997   -47.7340    96.6877     8.2414     2.4536     0.0184     0.1185
  184.5000     7.2972     7.9531     7.7367   -47.7177    97.3371     8.2408     2.4457     0.0135     0.1207
  185.0000     7.2990     7.7123     7.5022   -47.7013    97.9592     8.2403     2.4443     0.0085     0.1211
  185.5000     7.2296     7.7197     7.5094   -47.6850    97.0714     8.2397     2.4570     0.0089     0.1176
  186.0000     7.2539     7.7338     7.5233   -47.6686    96.1098     8.2392     2.4596     0.0094     0.1150
  186.5000     7.2699     7.7479     7.5372   -47.6522    97.8265     8.2386     2.4575     0.0099     0.1160
  187.0000     7.2853     7.7622     7.5512   -47.6359    99.4518     8.2381     2.4578     0.0103     0.1174
  187.5000     7.2967     7.7830     7.5714   -47.6194    99.5585     8.2375     2.4711     0.0203     0.1115
  188.0000     7.2281     7.7302     7.5200   -47.6031    97.4211     8.2370     2.4846     0.0375     0.1030
  188.5000     7.1676     7.6355     7.4279   -47.5902    95.3953     8.2366     2.4879     0.0197     0.0964
  189.0000     7.1076     7.5420     7.3369   -47.4552    93.8431     8.2360     2.4797     0.0166     0.1037
  189.5000     7.0343     7.5022     7.2982   -47.2896    92.4910     8.2355     2.4665     0.0138     0.1099
  190.0000     7.0806     7.6156     7.4086   -47.1227    92.9676     8.2349     2.4533     0.0146     0.1160
  190.5000     7.1602     7.7260     7.5159   -46.9558    93.3992     8.2344     2.4497     0.0188     0.1169
  191.0000     7.2409     7.8029     7.5907   -46.7892    92.7147     8.2339     2.4615     0.0225     0.1151
  191.5000     7.3225     7.8805     7.6663   -46.6230    92.0149     8.2333     2.4575     0.0189     0.1157
  192.0000     7.4050     7.9590     7.7426   -46.4541    91.5736     8.2328     2.4529     0.0112     0.1173
  192.5000     7.4884     8.0382     7.8196   -46.4810    91.7150     8.2322     2.4557     0.0037     0.1162
  193.0000     7.5728     8.1182     7.8974   -46.6267    92.9112     8.2317     2.4594    -0.0006     0.1138
  193.5000     7.6581     8.1990     7.9760   -46.7734    94.0597     8.2312     2.4678     0.0078     0.1113
  194.0000     7.7444     8.2806     8.0554   -46.9207    95.1385     8.2306     2.4760     0.0162     0.1089
  194.5000     7.8316     8.3630     8.1356   -47.0677    94.5135     8.2301     2.4732     0.0187     0.1092
  195.0000     7.9199     8.4462     8.2166   -47.2151    93.2236     8.2295     2.4645     0.0110     0.1127
  195.5000     8.0091     8.5299     8.2984   -47.3617    93.0873     8.2290     2.4559     0.0054     0.1161
  196.0000     8.1483     8.6108     8.3766   -47.3979    93.6325     8.2285     2.4528     0.0081     0.1178
  196.5000     8.1077     8.5275     8.2957   -47.4141    93.7383     8.2279     2.4603     0.0117     0.1147
  197.0000     8.0194     8.4491     8.2194   -47.4300    91.9309     8.2274     2.4709     0.0145     0.1109
  197.5000     7.9319     8.3715     8.1439   -47.4460    90.6548     8.2268     2.4690     0.0078     0.1100
  198.0000     7.8452     8.2945     8.0690   -47.4621    91.1578     8.2263     2.4640     0.0024     0.1125
  198.5000     7.7594     8.2182     7.9948   -47.4781    91.8027     8.2258     2.4634     0.0025     0.1142
  199.0000     7.6745     8.1427     7.9213   -47.4942    92.5999     8.2252     2.4685     0.0110     0.1120
  199.5000     7.5906     8.0678     7.8485   -47.5103    94.0250     8.2247     2.4741     0.0193     0.1090
  200.0000     7.5076     7.9937     7.7763   -47.5264    95.3969     8.2241     2.4800     0.0216     0.1062
  200.5000     7.4336     7.9274     7.7118   -47.5425    96.7427     8.2236     2.4782     0.0239     0.1063
  201.0000     7.4514     7.9274     7.7118   -47.5587    97.4730     8.2231     2.4741     0.0266     0.1068
  201.5000     7.4676     7.9274     7.7118   -47.5743    97.9743     8.2225     2.4891     0.0245     0.1074
  202.0000     7.4840     7.9941     7.7766   -47.5821    97.8068     8.2220     2.5015     0.0176     0.1065
  202.5000     7.5004     8.0552     7.8362   -47.5026    97.6375     8.2214     2.4980     0.0106     0.1054
  203.0000     7.6677     8.1844     7.9620   -47.3407    98.2417     8.2209     2.4712     0.0095     0.1095
  203.5000     7.8580     8.3469     8.1200   -47.1789    99.0824     8.2204     2.4697     0.0116     0.1118
  204.0000     8.0531     8.5125     8.2811   -47.0165    99.5643     8.2198     2.4805     0.0140     0.1043
  204.5000     8.2530     8.6814     8.4454   -46.8542    97.7030     8.2193     2.4886     0.0146     0.0982
  205.0000     8.4579     8.8537     8.6130   -46.6920    95.8001     8.2188     2.4843     0.0115     0.1008
  205.5000     8.6679     9.0294     8.7839   -46.5298    95.8095     8.2182     2.4762     0.0053     0.1068
  206.0000     8.8831     9.2086     8.9582   -46.3675    96.4519     8.2177     2.4672    -0.0014     0.1128
  206.5000     9.1037     9.3913     9.1360   -46.2050    97.8830     8.2171     2.4613     0.0048     0.1155
  207.0000     9.2675     9.5265     9.2675   -46.0433    99.3470     8.2167     2.4792     0.0131     0.1074
  207.5000     9.0491     9.3663     9.1104   -45.8814    98.8938     8.2167     2.4978     0.0152     0.0950
  208.0000     8.8029     9.1300     8.8818   -45.7954    98.0650     8.2167     2.4944     0.0161     0.0962
  208.5000     8.5637     8.9000     8.6581   -45.9524    98.7106     8.2167     2.4835     0.0135     0.1013
  209.0000     8.3312     8.6760     8.4402   -46.1336    99.5190     8.2167     2.4727     0.0110     0.1071
  209.5000     8.1052     8.4579     8.2280   -46.3158    99.1429     8.2167     2.4642     0.0086     0.1128
  210.0000     7.8852     8.2451     8.0210   -46.4977    96.8901     8.2167     2.4633     0.0108     0.1138
  210.5000     7.7463     8.0378     7.8193   -46.6794    94.6069     8.2167     2.4641     0.0132     0.1138
  211.0000     7.6220     7.9274     7.6413   -46.8612    93.0332     8.2167     2.4562     0.0155     0.1169
  211.5000     7.5000     7.8549     7.6413   -47.0429    94.2435     8.2167     2.4577     0.0178     0.1156
  212.0000     7.4327     7.8549     7.6413   -47.2247    95.3939     8.2167     2.4643     0.0203     0.1133
  212.5000     7.4992     7.8788     7.6820   -47.4065    96.0989     8.2167     2.4624     0.0171     0.1139
  213.0000     7.6009     7.9750     7.7731   -47.5871    95.8939     8.2167     2.4563     0.0131     0.1170
  213.5000     7.7041     8.0723     7.8653   -47.7724    94.3255     8.2167     2.4557     0.0138     0.1178
  214.0000     7.8030     8.1709     7.9586   -47.9746    94.1079     8.2167     2.4614     0.0197     0.1147
  214.5000     7.8855     8.2707     8.0530   -47.7769    95.2247     8.2167     2.4634     0.0169     0.1132
  215.0000     7.9687     8.3717     8.1485   -47.6173    95.8472     8.2167     2.4612     0.0105     0.1152
  215.5000     8.0529     8.4739     8.2451   -47.4493    94.5512     8.2167     2.4601     0.0040     0.1141
  216.0000     8.1380     8.5574     8.3247   -47.2860    92.7505     8.2167     2.4776     0.0128     0.1053
