~VERSION INFORMATION
 VERS.                2.0:   CWLS LOG ASCII STANDARD - VERSION 2.0
 WRAP.                 NO:   ONE LINE PER DEPTH STEP
~WELL INFORMATION
#MNEM.UNIT      DATA TYPE    INFORMATION
#----------   ------------   ------------------------------
 STRT.F           36.0000:   START DEPTH
 STOP.F          686.0000:   STOP DEPTH
 STEP.F            0.5000:   STEP LENGTH
 NULL.          -999.2500:   NO VALUE
 COMP.    FENIX & SCISSON:   COMPANY
 WELL.        NPR #15-S-2:   WELL
 FLD .             TEAPOT:   FIELD
 LOC .       S2 T38N R78W:   LOCATION
 CNTY.            NATRONA:   COUNTY
 STAT.            WYOMING:   STATE
 CTRY. UNITED STATES OF AMERICA:   COUNTRY
 SRVC.       Schlumberger:   SERVICE COMPANY
 DATE.        16-MAR-1977:   LOGDATE
 API .       490251029900:   API NUMBER
~CURVE INFORMATION
#MNEM.UNIT       API CODE    CURVE DESCRIPTION
#----------   ------------   ------------------------------
 DEPT.F                  :   
 SPR .MV     07 010 01 00:   SPONTANEOUS POTENTIAL FROM RES.
 ILD .OHMM   07 120 46 00:   INDUCTION LOG DEEP
 ILM .OHMM   07 120 44 00:   INDUCTION LOG MEDIUM
 LL8 .OHMM   07 220 08 00:   LATEROLOG-8 RES.
 GRD .GAPI   45 310 01 00:   GAMMA RAY FROM DENSITY LOG
 CALD.IN     45 280 60 00:   CALIPER FROM DENSITY LOG
 CORR.G/C3   45 356 01 00:   DENSITY CORRECTION
 RHOB.G/C3   45 350 01 00:   BULK DENSITY
 DPHI.DEC    45 890 12 00:   DENSITY POROSITY SANDSTONE
~PARAMETER INFORMATION
#MNEM.UNIT          VALUE    DESCRIPTION
#----------   ------------   ------------------------------
 PD  .                 GL:   PERMANENT DATUM
 EPD .F              5129:   ELEVATION PERMANENT DATUM
 LMF .                 KB:   LOG MEASURED FROM
 DAPD.F                 4:   FEET ABOVE PERMANENT DATUM
 DMF .                 KB:   DRILLING MEASURED FROM
 EKB .F              5133:   KELLING BUSHING
 EGL .F              5129:   GROUND LEVEL
 DATE.        15-MAR-1977:   RUN DATE
 RUN .                  1:   RUN NUMBER
 DD  .F               680:   DEPTH DRILLER
 DL  .F               680:   DEPTH LOGGER
 BLI .F               683:   BOTTOM LOG INTERVAL
 TLI .F                48:   TOP LOG INTERVAL
 CS  .IN            8.625:   CASING SIZE
 CBD .F                40:   CASING BOTTOM DRILLER
 CBL .F                49:   CASING BOTTOM LOGGER
 BS  .IN            7.875:   BIT SIZE
 BSD .F               680:   BIT SIZE AT DEPTH
 DFT .            KCL MUD:   DRILLING FLUID TYPE
 DFD .                8.8:   DRILLING FLUID DENSITY
 DFV .                 33:   DRILLING FLUID VISCOSITY
 DFPH.                9.6:   DRILLING FLUID PH
 DFL .                9.0:   DRILLING FLUID LOSS
 MSS .                PIT:   MUD SAMPLE SOURCE
 RMS .OHMM           0.22:   RESISTIVITY MUD SAMPLE
 MST .F                50:   MUD SAMPLE TEMPERATURE
 RMF .OHMM           0.21:   RESISTIVITY MUD FILTRATE SAMPLE
 MFST.F                50:   MUD FILTRATE SAMPLE TEMPERATURE
 MFSS.               MEAS:   MUD FILTRATE SAMPLE SOURCE
 TCS .HRS            1800:   TIME CURCULATED STOPPED
 TLAB.HRS            2130:   TIME LOGGER AT BOTTOM
 LUN .               7711:   LOGGING UNIT NUMBER
 LUL .               CSPR:   LOGGING UNIT LOCATION
 ENGI.             TAYLER:   RECORDING ENGINEER
 CLNT.            A2DTECH:   CLIENT CODE
 ORIG.           5" PRINT:   ORIGIN OF DATA
 UWI .       490251029900:   UNIQUE WELL ID
 DICO. A2D Technologies, Inc.:   DIGITIZING COMPANY
~OTHER INFORMATION
~A   DEPT      SPR        ILD        ILM        LL8         GRD      CALD       CORR       RHOB       DPHI   
# ...
  145.5000   -66.1179     7.9484     8.9249     8.7576   113.4623     8.3297     0.0041     2.4669     0.1117
  146.0000   -65.9303     7.8963     8.8698     8.7005   115.2638     8.3313     0.0012     2.4723     0.1076
  146.5000   -65.6373     7.8991     8.8151     8.6450   116.3045     8.3329    -0.0071     2.4671     0.1073
  147.0000   -65.4716     7.9018     8.8219     8.6510   115.7265     8.3346    -0.0085     2.4642     0.1112
  147.5000   -65.4520     7.9051     8.8297     8.8384   115.7455     8.3510    -0.0070     2.4612     0.1144
  148.0000   -65.4357     7.9078     8.8971     9.1563   116.5022     8.3527    -0.0032     2.4553     0.1129
  148.5000   -65.4194     7.9105     8.9660     9.0966   114.7312     8.3691     0.0014     2.4674     0.1111
  149.0000   -65.4031     7.9681     8.9733     9.0385   114.3061     8.3856     0.0059     2.4765     0.1005
  149.5000   -65.3867     8.0262     9.1691     8.9821   116.1065     8.4021     0.0135     2.4916     0.0945
  150.0000   -65.3227     8.1519     9.3709     9.1120   117.4591     8.4181     0.0144     2.4955     0.0934
  150.5000   -64.9066     8.2577     9.7098     8.5055   116.9756     8.4020     0.0150     2.4978     0.0927
  151.0000   -64.7413     8.3190     9.6498     9.1260   116.1218     8.3882     0.0107     2.5001     0.0920
  151.5000   -64.2775     8.3237     9.5883     9.8585   114.6523     8.3787     0.0192     2.5010     0.0919
  152.0000   -64.1122     8.3855     9.5290     9.5945   113.8092     8.3655     0.0281     2.4980     0.0925
  152.5000   -63.9469     8.4476     9.4700     9.3360   114.3536     8.3675     0.0195     2.4921     0.0959
  153.0000   -64.0801     8.5693     9.3479     9.0875   115.4801     8.3691     0.0116     2.4876     0.0995
  153.5000   -64.0640     8.6928     9.2901     9.0305   115.7935     8.3708     0.0110     2.4823     0.1014
  154.0000   -64.1972     8.8180     9.2327     9.0368   116.2555     8.3724     0.0179     2.5073     0.0875
  154.5000   -64.4797     8.8834     9.2396     9.1062   116.8660     8.3740     0.0187     2.5194     0.0782
  155.0000   -64.6129     8.9493     9.3806     9.2510   119.8540     8.3756     0.0195     2.5203     0.0770
  155.5000   -65.0406     8.9535     9.6576     9.5088   123.2877     8.3772     0.0136     2.5053     0.0890
  156.0000   -65.1778     8.9578     9.9294     9.8520   125.0870     8.3788     0.0084     2.4895     0.0986
  156.5000   -65.4562     8.9621    10.0761    10.0667   127.6292     8.3953     0.0054     2.4828     0.1001
  157.0000   -65.7387     8.9665    10.2250    10.2147   128.8341     8.3969     0.0032     2.4822     0.0955
  157.5000   -65.7226     8.9716    10.4485    10.4372   128.1073     8.3985     0.0018     2.4958     0.0931
  158.0000   -65.7066     8.9759    10.5293    10.5172   126.6376     8.3849    -0.0004     2.4957     0.0937
  158.5000   -65.6905     9.0424    10.5372    10.5978   126.5012     8.3869    -0.0026     2.4890     0.0984
  159.0000   -65.5252     9.1727    10.5451    10.6051   127.2644     8.3733    -0.0040     2.4839     0.1017
  159.5000   -65.2104     9.3048    10.5531    10.6864   124.6060     8.3308    -0.0070     2.4927     0.0930
  160.0000   -65.0448     9.4389    10.4858    10.6937   121.6504     8.3324     0.0066     2.5085     0.0845
  160.5000   -64.8760     9.5749    10.5689    10.7758   120.9196     8.3340     0.0127     2.5119     0.0827
  161.0000   -64.7107     9.6459    10.6507    10.8586   120.9399     8.3356     0.0143     2.5128     0.0827
  161.5000   -64.6946     9.7174    10.9611    10.9434   121.1046     8.3372     0.0144     2.5098     0.0832
  162.0000   -64.8318     9.8574    11.2848    11.1818   121.2694     8.3240     0.0122     2.5046     0.0862
  162.5000   -64.8118     9.9995    11.6180    11.5051   121.5828     8.3256     0.0092     2.5167     0.0805
  163.0000   -64.7957    10.0738    12.0261    11.5421   121.6058     8.3273     0.0025     2.5176     0.0789
  163.5000   -64.4811    10.2908    12.2038    11.6013   121.4666     8.3140    -0.0080     2.5146     0.0849
  164.0000   -64.3158    10.3671    12.2982    11.7718   120.7361     8.3160    -0.0011     2.5049     0.0879
  164.5000   -64.2998    10.6629    12.3074    12.0283   121.6759     8.3024    -0.0010     2.4990     0.0921
  165.0000   -64.2836    10.8916    12.2290    12.2051   123.1947     8.2892     0.0035     2.4968     0.0929
  165.5000   -64.1179    11.2024    12.2405    12.2134   124.2268     8.2912     0.0119     2.4991     0.0899
  166.0000   -64.0983    11.5220    12.2497    12.2217   124.9916     8.2928     0.0150     2.5029     0.0884
  166.5000   -64.2355    11.7691    12.1716    12.2303   125.2785     8.2944     0.0150     2.5007     0.0886
  167.0000   -64.0662    11.9386    12.1831    12.2388   122.6241     8.2961     0.0128     2.4970     0.0919
  167.5000   -64.0502    12.1106    12.2773    12.4204   119.5200     8.2977     0.0114     2.4948     0.0916
  168.0000   -64.0341    12.2004    12.6333    12.7774   116.7130     8.2845     0.0175     2.5047     0.0828
  168.5000   -64.1713    12.2910    12.9095    12.6968   114.6490     8.2861     0.0194     2.5191     0.0789
  169.0000   -64.1513    12.3112    12.8295    12.9756   113.7736     8.2877     0.0131     2.5093     0.0816
  169.5000   -64.2844    12.3894    12.6642    13.1663   113.4886     8.2893     0.0117     2.5034     0.0894
  170.0000   -64.1191    12.3084    12.4119    13.0840   115.1433     8.2909     0.0072     2.4975     0.0932
  170.5000   -64.1030    12.2308    12.3328    13.0021   116.4968     8.3074     0.0065     2.5020     0.0884
  171.0000   -64.0865    12.1509    12.1739    12.8914   115.7701     8.3090     0.0074     2.5006     0.0893
  171.5000   -64.0670    11.9897    12.0124    12.3172   115.1919     8.3106     0.0120     2.4976     0.0913
  172.0000   -64.3494    11.9127    11.8576    12.1553   114.6137     8.3122     0.0158     2.5022     0.0883
  172.5000   -64.6319    11.7561    11.7004    11.9935   114.3328     8.3138     0.0082     2.5061     0.0871
  173.0000   -64.7691    11.6804    11.6280    12.0037   113.9032     8.3154     0.0039     2.5091     0.0837
  173.5000   -65.1968    11.6055    11.6389    12.0119   113.6182     8.3022     0.0093     2.5047     0.0852
  174.0000   -65.1807    11.5311    11.5666    12.1885   113.3372     8.3038     0.0061     2.4920     0.0976
  174.5000   -65.1646    11.4571    11.5756    12.2819   113.9518     8.3203     0.0025     2.4950     0.0928
  175.0000   -65.1486    11.4627    11.5040    12.3761   116.1968     8.3220     0.0059     2.5049     0.0882
  175.5000   -65.1325    11.3889    11.4328    12.3845   118.7390     8.3239     0.0096     2.5132     0.0833
  176.0000   -64.9671    11.3957    11.4417    12.3585   119.9439     8.3103     0.0103     2.5178     0.0787
  176.5000   -64.8015    11.4011    11.3707    12.4016   119.9683     8.3271     0.0104     2.5224     0.0769
  177.0000   -64.4833    11.3265    11.3813    12.4247   118.9362     8.3288     0.0074     2.5226     0.0778
  177.5000   -64.3180    11.3333    11.3899    12.5050   117.0157     8.3304     0.0037     2.5165     0.0793
  178.0000   -64.4552    11.2592    11.3985    12.1705   116.4412     8.3468     0.0046     2.5151     0.0804
  178.5000   -64.5884    11.1869    11.8108    12.1790   116.6101     8.3633     0.0024     2.5144     0.0837
  179.0000   -64.8709    11.1162    12.2380    11.7709   117.0720     8.3649     0.0002     2.5016     0.0912
  179.5000   -65.0041    11.1217    12.5055    11.6163   115.6023     8.3665     0.0002     2.4972     0.0900
  180.0000   -65.1373    11.0503    12.2564    11.6247   114.1327     8.3830     0.0018     2.5111     0.0821
  180.5000   -65.2671    10.9793    11.7642    11.8065   114.2974     8.3846     0.0056     2.5169     0.0791
  181.0000   -65.4000    10.9088    11.4500    12.5015   116.2453     8.3862     0.0004     2.5162     0.0800
  181.5000   -65.3836    10.8388    11.2218    12.8406   119.0846     8.3878    -0.0003     2.5087     0.0853
