~VERSION INFORMATION
 VERS.                2.0:   CWLS LOG ASCII STANDARD - VERSION 2.0
 WRAP.                 NO:   ONE LINE PER DEPTH STEP
~WELL INFORMATION
#MNEM.UNIT      DATA TYPE    INFORMATION
#----------   ------------   ------------------------------
 STRT.F           64.0000:   START DEPTH
 STOP.F          390.0000:   STOP DEPTH
 STEP.F            0.5000:   STEP LENGTH
 NULL.          -999.2500:   NO VALUE
 COMP. DEPARTMENT OF ENERGY:   COMPANY
 WELL. NPR-3 55-65-SX C-2 #55-3:   WELL
 FLD . TEAPOT NAVAL RESERVE:   FIELD
 LOC .       S3 T38N R78W:   LOCATION
 CNTY.            NATRONA:   COUNTY
 STAT.            WYOMING:   STATE
 CTRY. UNITED STATES OF AMERICA:   COUNTRY
 SRVC.      Dresser Atlas:   SERVICE COMPANY
 DATE.        29-JUN-1985:   LOGDATE
 API .       490251134500:   API NUMBER
~CURVE INFORMATION
#MNEM.UNIT       API CODE    CURVE DESCRIPTION
#----------   ------------   ------------------------------
 DEPT.F                  :   
 CALD.IN     45 280 60 00:   CALIPER FROM DENSITY LOG
 CNC .DEC    42 890 03 00:   NEUTRON POROSITY SANDSTONE
 CORR.G/C3   45 356 01 00:   DENSITY CORRECTION
 GRD .GAPI   45 310 01 00:   GAMMA RAY FROM DENSITY LOG
 PORD.DEC    45 890 12 00:   POROSITY DENSITY SANDSTONE
 RHOB.G/C3   45 350 01 00:   BULK DENSITY
 SPR .MV     07 010 01 00:   SPONTANEOUS POTENTIAL
 ILD .OHMM   06 120 46 00:   INDUCTION LOG DEEP
 ILM .OHMM   07 120 44 00:   INDUCTION LOG MEDIUM
~PARAMETER INFORMATION
#MNEM.UNIT          VALUE    DESCRIPTION
#----------   ------------   ------------------------------
 PD  .                 GL:   PERMANENT DATUM
 EPD .F              5168:   ELEVATION PERMANENT DATUM
 LMF .                 GL:   LOG MEASURED FROM
 DMF .                 GL:   DRILLING MEASURED FROM
 EGL .F              5168:   GROUND LEVEL
 DATE.        29-JUN-1985:   RUN DATE
 RUN .                  1:   RUN NUMBER
 DD  .F               394:   DEPTH DRILLER
 DL  .F               394:   DEPTH LOGGER
 BLI .F               386:   BOTTOM LOG INTERVAL
 CS  .IN                7:   CASING SIZE
 CBD .F                80:   CASING BOTTOM DRILLER
 CBL .F                82:   CASING BOTTOM LOGGER
 BS  .IN            4.875:   BIT SIZE
 BSD .F               394:   BIT SIZE AT DEPTH
 DFT .           FOAM AIR:   DRILLING FLUID TYPE
 TCS .HRS               5:   TIME CURCULATED STOPPED
 MRT .F               238:   MAXIMUM RECORDED TEMPERATURE
 LUN .               6274:   LOGGING UNIT NUMBER
 LUL .               GLTE:   LOGGING UNIT LOCATION
 ENGI.             RAUTIO:   RECORDING ENGINEER
 WITN.           JENNINGS:   WITNESSED BY
 CLNT.            A2DTECH:   CLIENT CODE
 ORIG.           5" PRINT:   ORIGIN OF DATA
 UWI .       490251134500:   UNIQUE WELL ID
 DICO. A2D Technologies, Inc.:   DIGITIZING COMPANY
~OTHER INFORMATION
~A   DEPT     CALD          CNC     CORR        GRD       PORD       RHOB        SPR        ILD        ILM   
# ...
  283.0000     5.1847     0.1113    -0.0323    98.8975     0.2482     2.2520  -127.8128    10.8793     8.9450
  283.5000     5.1848     0.1150    -0.0383    98.8946     0.2201     2.3273  -125.0618     8.2476     7.7802
  284.0000     5.2000     0.1219    -0.0293    99.2370     0.1715     2.4027  -121.9670     7.0832     6.4765
  284.5000     5.1851     0.1425     0.0068   102.5025     0.1459     2.4034  -118.9210     6.0412     5.9602
  285.0000     5.1852     0.1875     0.0218   104.9092     0.1606     2.3493  -115.6834     5.8776     5.7982
  285.5000     5.1854     0.1957     0.0263   104.6050     0.1920     2.2775  -113.2553     5.9201     5.8397
  286.0000     5.1855     0.1943     0.0248   103.9997     0.2349     2.2572  -112.9426     6.0479     6.1744
  286.5000     5.1857     0.1703     0.0006   103.9968     0.2431     2.2504  -118.0522     6.4074     6.9975
  287.0000     5.1708     0.1470    -0.0267   106.1023     0.2443     2.2489  -123.7689     7.0326     8.5595
  287.5000     5.1710     0.1228    -0.0444   107.3294     0.2362     2.2549  -125.8694     8.2091    11.4587
  288.0000     5.1560     0.0814    -0.0459   105.4778     0.2353     2.2617  -121.3260     9.6972    13.2595
  288.5000     5.1411     0.0702    -0.0444   103.9849     0.2386     2.2594  -117.3896    11.2195    14.9231
  289.0000     5.1262     0.0657    -0.0368   105.4874     0.2461     2.2540  -116.4698    12.8020    17.1488
  289.5000     5.1264     0.0656    -0.0323   109.0989     0.2566     2.2338  -116.1533    15.1227    19.3234
  290.0000     5.1265     0.0693    -0.0293   113.0117     0.2697     2.2051  -111.9153    17.3757    20.8748
  290.5000     5.1116     0.0801    -0.0038   112.4063     0.2736     2.2006  -109.4872    18.2444    21.7274
  291.0000     5.1268     0.0914     0.0189   108.7889     0.2712     2.2013  -111.0467    18.2494    22.0356
  291.5000     5.1420     0.1011     0.0248   105.4727     0.2619     2.2141  -115.5767    18.0031    21.7363
  292.0000     5.1422     0.1083     0.0098   101.2529     0.2504     2.2383  -116.6825    17.7601    20.2830
  292.5000     5.1423     0.1165    -0.0083   100.3464     0.2456     2.2473  -114.5524    17.0414    17.0554
  293.0000     5.1425     0.1243    -0.0218   105.0141     0.2444     2.2495  -111.2193    16.1223    15.3722
  293.5000     5.1426     0.1328    -0.0233   112.0868     0.2418     2.2529  -109.0929    15.2423    14.8509
  294.0000     5.1578     0.1325    -0.0233   115.9995     0.2314     2.2714  -111.7930    14.5105    14.3473
  294.5000     5.1580     0.1239    -0.0203   117.5033     0.2287     2.2729  -112.6869    13.5733    13.7649
  295.0000     5.1581     0.1166    -0.0143   117.4997     0.2350     2.2653  -110.2551    12.8448    13.1148
  295.5000     5.1733     0.1147    -0.0007   118.4004     0.2384     2.2555  -106.9220    12.0714    12.3231
  296.0000     5.1735     0.1168     0.0100   122.9155     0.2411     2.2457  -105.7005    11.4234    11.2458
  296.5000     5.1737     0.1228    -0.0203   124.1174     0.2480     2.2337  -107.4956    11.0374    10.3366
  297.0000     5.1738     0.1355    -0.0534   122.9018     0.2589     2.2261  -109.5924    10.8884     9.4725
  297.5000     5.1589     0.1452    -0.0744   116.1045     0.2610     2.2231  -110.7842    10.8154     9.0251
  298.0000     5.1591     0.1682    -0.0774   111.7585     0.2533     2.2374  -111.3886    10.6694     8.5394
  298.5000     5.1592     0.2060    -0.0669   111.1531     0.2396     2.2555  -111.6596    10.3096     8.1361
  299.0000     5.1593     0.2227    -0.0338   111.1502     0.2309     2.2728  -111.6411     9.8241     7.8058
  299.5000     5.1595     0.2377    -0.0083   108.7376     0.2194     2.2849  -111.3246     9.2967     7.3857
  300.0000     5.1596     0.2395    -0.0008   107.8318     0.2173     2.2909  -109.2013     8.4392     6.9398
  300.5000     5.1748     0.2426     0.0113   111.4538     0.2167     2.2931  -113.4135     7.8187     6.5070
  301.0000     5.1750     0.2501     0.0113   116.8828     0.2167     2.2935  -113.4047     7.3450     6.0833
  301.5000     5.1752     0.2626     0.0052   121.7094     0.2146     2.2939  -112.4909     6.9479     5.7952
  302.0000     5.1753     0.2782     0.0037   121.3755     0.2067     2.3022  -111.5771     6.6180     5.4826
  302.5000     5.1755     0.2819     0.0127   118.0262     0.2022     2.3151  -110.9650     6.3476     5.2593
  303.0000     5.1756     0.2752     0.0248   115.7074     0.2013     2.3127  -112.7661     6.1306     5.0102
  303.5000     5.1607     0.2671     0.0278   118.1262     0.2065     2.3075  -113.6623     5.9163     4.8397
  304.0000     5.1458     0.2629     0.0157   117.2300     0.2089     2.3127  -111.9517     5.7122     4.7075
  304.5000     5.1309     0.2610     0.0217   113.9241     0.2034     2.3173  -108.5142     5.4847     4.6429
  305.0000     5.1310     0.2638     0.0224   110.6182     0.2016     2.3195  -106.6954     5.3340     4.5792
  305.5000     5.1312     0.2598     0.0217   112.7340     0.1992     2.3233  -105.1783     5.2236     4.4541
  306.0000     5.1313     0.2568     0.0202   116.9582     0.1926     2.3353  -106.0745     5.0450     4.3882
  306.5000     5.1465     0.2611     0.0172   116.9971     0.1829     2.3489  -108.4789     4.8054     4.2731
  307.0000     5.1467     0.2577     0.0066   115.7681     0.1799     2.3542  -108.7740     4.6091     4.2145
  307.5000     5.1619     0.2469    -0.0039   112.9642     0.1865     2.3414  -107.8580     4.4208     4.1279
  308.0000     5.1620     0.2426    -0.0204   106.3922     0.1971     2.3239  -107.2458     4.2993     4.0431
  308.5000     5.1773     0.2511    -0.0370   107.6595     0.2019     2.3140  -107.8945     4.2103     3.9876
  309.0000     5.1774     0.2677    -0.0355   112.1849     0.2038     2.3127  -113.5608     4.1230     3.9329
  309.5000     5.1625     0.2753    -0.0096   116.4091     0.2047     2.3157  -117.1741     4.0376     3.8790
  310.0000     5.1326     0.2738     0.0081   119.1273     0.2001     2.3218  -116.8614     3.9540     3.8258
  310.5000     5.1327     0.2556     0.0006   117.6287     0.1995     2.3210  -118.6626     3.8721     3.7464
  311.0000     5.1178     0.2478    -0.0024   112.8167     0.2035     2.3157  -118.9576     3.7919     3.6925
  311.5000     5.1179     0.2533     0.0171   108.9084     0.2047     2.3150  -115.9300     3.7134     3.6199
  312.0000     5.1181     0.2744     0.0246   110.4218     0.2035     2.3142  -113.8095     3.6365     3.5703
  312.5000     5.1333     0.2705     0.0186   112.5377     0.2038     2.3120  -114.7057     3.5612     3.5458
  313.0000     5.1334     0.2596     0.0020   112.8832     0.2053     2.3105  -114.6909     3.4629     3.5215
  313.5000     5.1336     0.2518    -0.0070   113.7590     0.2059     2.3112  -113.1050     3.3887     3.4492
  314.0000     5.1534     0.2472    -0.0100   116.1760     0.2030     2.3143  -111.9621     3.2983     3.4019
  314.5000     5.1640     0.2554    -0.0130   118.5930     0.1968     2.3205  -112.5566     3.2077     3.3320
  315.0000     5.1792     0.2557    -0.0160   118.8997     0.1935     2.3301  -113.7566     3.1413     3.2863
  315.5000     5.1794     0.2485    -0.0236   117.4029     0.1908     2.3376  -113.7456     3.0762     3.2188
  316.0000     5.1795     0.2448    -0.0326   115.6030     0.1890     2.3421  -113.1334     3.0125     3.1288
  316.5000     5.1759     0.2457    -0.0356   114.7049     0.1884     2.3338  -112.2196     2.9707     3.0243
  317.0000     5.1648     0.2557    -0.0341   113.5093     0.1944     2.3286  -111.3058     2.9092     2.9622
  317.5000     5.1649     0.2624    -0.0191   112.3118     0.1966     2.3263  -110.6937     2.8887     2.9014
  318.0000     5.1349     0.2606     0.0080   110.4920     0.1911     2.3376  -111.0025     2.8475     2.8418
  318.5000     5.1200     0.2573     0.0245   110.2181     0.1857     2.3466  -112.5801     2.7703     2.7834
  319.0000     5.1051     0.2564     0.0395   111.4321     0.1835     2.3482  -113.6838     2.7128     2.7452
