~VERSION INFORMATION
 VERS.                2.0:   CWLS LOG ASCII STANDARD - VERSION 2.0
 WRAP.                 NO:   ONE LINE PER DEPTH STEP
~WELL INFORMATION
#MNEM.UNIT      DATA TYPE    INFORMATION
#----------   ------------   ------------------------------
 STRT.F            0.0000:   START DEPTH
 STOP.F          825.0000:   STOP DEPTH
 STEP.F            0.5000:   STEP LENGTH
 NULL.          -999.2500:   NO VALUE
 COMP. BROWN JOHN E&C INC:   COMPANY
 WELL. NAVAL PETROLEUM RESERVE 3 SHX- #21-1-2:   WELL
 FLD .             TEAPOT:   FIELD
 LOC .       S2 T38N R78W:   LOCATION
 CNTY.            NATRONA:   COUNTY
 STAT.            WYOMING:   STATE
 CTRY. UNITED STATES OF AMERICA:   COUNTRY
 SRVC.     Atlas Wireline:   SERVICE COMPANY
 DATE.        11-NOV-1991:   LOGDATE
 API .       490252247600:   API NUMBER
~CURVE INFORMATION
#MNEM.UNIT       API CODE    CURVE DESCRIPTION
#----------   ------------   ------------------------------
 DEPT.F                  :   
 GRR .GAPI   07 310 01 00:   GAMMA RAY
 RFOC.OHMM   07 220 04 00:   RESISTIVITY FOCUSED LOG
 RILD.OHMM   07 120 46 00:   INDUCTION LOG DEEP RESISTIVITY
 RILM.OHMM   07 120 44 00:   INDUCTION LOG MEDIUM RESISTIVITY
 SPR .MV     07 010 01 00:   SPONTANEOUS POTENTIAL
~PARAMETER INFORMATION
#MNEM.UNIT          VALUE    DESCRIPTION
#----------   ------------   ------------------------------
 PD  .                 GL:   PERMANENT DATUM
 EPD .F              5110:   ELEVATION PERMANENT DATUM
 LMF .                 KB:   LOG MEASURED FROM
 DAPD.F                10:   FEET ABOVE PERMANENT DATUM
 DMF .                 KB:   DRILLING MEASURED FROM
 EKB .F              5120:   KELLING BUSHING
 EGL .F              5110:   GROUND LEVEL
 DATE.        11-NOV-1991:   RUN DATE
 RUN .                  1:   RUN NUMBER
 DD  .F               830:   DEPTH DRILLER
 DL  .F               527:   DEPTH LOGGER
 BLI .F               525:   BOTTOM LOG INTERVAL
 CS  .IN            9.625:   CASING SIZE
 CBD .F                58:   CASING BOTTOM DRILLER
 CBL .F                58:   CASING BOTTOM LOGGER
 BS  .IN             8.75:   BIT SIZE
 BSD .F               830:   BIT SIZE AT DEPTH
 DFT .          KCL WATER:   DRILLING FLUID TYPE
 RMS .OHMM          0.248:   RESISTIVITY MUD SAMPLE
 MST .F                93:   MUD SAMPLE TEMPERATURE
 BHT .F               104:   BOTTOM HOLE TEMPERATURE
 TCS .HRS               2:   TIME CURCULATED STOPPED
 MRT .F               104:   MAXIMUM RECORDED TEMPERATURE
 LUN .            HL 6274:   LOGGING UNIT NUMBER
 LUL .             CASPER:   LOGGING UNIT LOCATION
 ENGI.       P. RASMUSSEN:   RECORDING ENGINEER
 WITN.        GARY STRONG:   WITNESSED BY
 CLNT.            A2DTECH:   CLIENT CODE
 ORIG.           5" PRINT:   ORIGIN OF DATA
 UWI .       490252247600:   UNIQUE WELL ID
 DICO. A2D Technologies, Inc.:   DIGITIZING COMPANY
~OTHER INFORMATION
~A    DEPT       GRR     RFOC       RILD       RILM        SPR   
# ...
  244.0000   109.0883     6.2148     6.2259     5.6210   -59.1665
  244.5000   105.7862     6.2127     6.0124     5.6198   -59.0210
  245.0000   106.0790     6.4739     6.0525     5.6578   -59.0055
  245.5000   105.1699     6.7930     6.1775     5.7755   -59.0308
  246.0000   104.2629     6.9594     6.1758     5.8625   -59.6349
  246.5000   104.2542     6.9789     6.1742     5.9767   -60.6887
  247.0000   104.5449     6.9279     6.1725     5.9752   -61.7425
  247.5000   105.4940     6.9255     6.1709     5.8917   -62.4965
  248.0000   111.4115     6.8280     6.1266     5.6899   -62.8008
  248.5000   112.3009     6.6855     6.1250     5.6105   -62.9551
  249.0000   113.7892     6.5008     6.1233     5.6486   -62.8095
  249.5000   114.9781     6.3651     6.1642     5.7260   -62.2153
  250.0000   114.9693     6.3410     6.2485     5.8451   -61.7698
  250.5000   114.6612     6.3170     6.3340     5.9667   -61.4733
  251.0000   114.9521     6.4915     6.4201     6.0070   -61.3277
  251.5000   114.6437     6.7644     6.5079     6.0893   -61.6330
  252.0000   113.1018     7.0002     6.5062     6.0881   -61.7873
  252.5000   111.3307     6.9979     6.5044     6.0868   -59.8427
  253.0000   111.3219     6.9473     6.5026     6.0856   -60.3048
  253.5000   106.2234     6.8495     6.4560     6.0844   -61.1029
  254.0000   102.9212     6.8000     6.4093     6.0411   -62.5427
  254.5000   103.5113     6.7977     6.3634     5.9156   -64.0615
  255.0000   105.5984     6.6496     6.2742     5.7527   -64.3484
  255.5000   103.4938     6.3824     6.1862     5.6322   -64.0507
  256.0000    99.2934     6.2061     6.0995     5.5161   -63.6046
  256.5000   100.0088     6.1612     6.0978     5.4388   -63.4568
  257.0000   103.4676     6.1591     6.0962     5.4756   -63.3098
  257.5000   105.3437     6.1081     6.0945     5.5509   -63.1634
  258.0000   106.8378     6.1907     6.0378     5.7057   -62.8666
  258.5000   108.3319     6.2745     6.2042     5.8244   -62.7052
  259.0000   109.8260     6.3593     6.5098     5.9045   -62.5726
  259.5000   111.3201     6.4454     6.8318     5.9444   -62.5762
  260.0000   106.8262     6.5779     7.1173     5.9845   -62.5791
  260.5000   101.1347     6.6669     6.9674     5.9830   -62.5820
  261.0000   102.0718     6.7105     6.8214     5.8995   -62.2851
  261.5000   107.0717     6.5693     6.8668     5.9393   -61.8382
  262.0000   110.1080     6.2996     6.8633     6.0629   -61.6912
  262.5000   106.2122     6.2536     6.9165     6.2754   -61.6942
  263.0000   100.5206     6.4265     7.0017     6.4505   -61.3979
  263.5000   101.7153     6.6963     6.9989     6.5392   -61.1002
  264.0000   105.3052     6.9786     7.1429     6.5833   -60.6541
  264.5000   107.6975     7.1703     7.1897     6.5816   -60.5063
  265.0000   107.9940     7.1173     7.3377     6.6264   -60.5100
  265.5000   107.6447     6.9682     7.4879     6.8110   -60.2130
  266.0000   104.9935     7.1115     7.6420     7.0010   -57.5173
  266.5000   103.1942     7.3082     7.5862     7.0976   -57.6807
  267.0000   102.8926     7.3052     7.4789     7.0468   -58.2734
  267.5000   104.3860     7.2019     7.6858     6.7585   -58.7261
  268.0000   105.8801     7.0511     7.7361     6.6591   -57.8295
  268.5000   103.1826     6.9034     7.5210     6.6164   -56.4831
  269.0000   101.0838     6.6653     7.3126     6.6151   -56.3353
  269.5000   103.6049     6.5257     7.0608     6.4776   -56.6388
  270.0000   105.5691     6.6140     6.8652     6.3872   -56.9416
  270.5000    99.8768     6.6114     6.7213     6.2545   -56.9445
  271.0000   101.0715     6.3399     6.5805     6.2101   -56.9481
  271.5000   103.1644     6.1644     6.3981     6.1233   -56.6512
  272.0000   104.0604     6.2478     6.4400     6.0759   -56.5042
  272.5000   105.2544     6.3351     6.5272     5.9946   -56.9569
  273.0000   105.8523     6.3737     6.6148     5.9934   -57.8593
  273.5000   106.4462     6.2396     6.6122     6.0342   -58.3120
  274.0000   115.1252     6.1940     6.6095     6.0327   -58.1650
  274.5000   115.4224     6.2352     6.5613     6.0734   -58.1679
  275.0000   114.5206     6.3195     6.6501     6.1144   -58.0209
  275.5000   111.8231     6.4488     6.7401     6.2850   -58.0245
  276.0000   104.6345     6.5815     6.8351     6.5505   -58.1773
  276.5000   103.1346     6.7180     6.9231     6.5489   -58.1802
  277.0000   103.4311     6.8549     6.9204     6.5934   -58.0325
  277.5000   105.9282     6.7107     6.8698     6.5462   -57.8862
  278.0000   107.9163     6.5249     6.8671     6.4997   -57.8891
  278.5000   105.8169     6.3882     6.9127     6.3647   -57.5877
  279.0000   104.0176     6.3416     6.9092     6.3195   -56.9725
  279.5000   101.6195     6.3391     7.0027     6.2745   -56.0995
  280.0000    98.9220     6.3806     7.0486     6.3169   -55.8018
  280.5000   106.4041     6.4668     7.0947     6.3596   -56.2552
  281.0000   109.9940     6.5543     7.1900     6.4915   -55.8084
  281.5000   110.8893     6.6891     7.2378     6.6726   -55.5107
  282.0000   112.6821     6.8267     7.2341     6.8588   -55.8142
  282.5000   116.2720     6.9663     7.2312     6.9055   -56.7216
  283.0000   117.1673     7.0126     7.2283     6.8087   -57.7901
  283.5000   117.4645     6.8177     7.1755     6.7136   -58.6722
  284.0000   117.7610     6.7213     7.0251     6.6174   -58.9750
  284.5000   115.3622     6.5806     6.8773     6.4373   -58.9779
  285.0000   114.1617     6.4427     6.6405     6.2168   -58.5310
  285.5000   112.9342     6.3072     6.5016     5.9624   -57.6344
  286.0000   109.3647     6.2180     6.2778     5.7184   -56.4379
  286.5000   106.3678     6.1301     6.1888     5.6777   -57.0405
  287.0000   107.5625     6.0434     6.1383     5.7561   -57.4933
  287.5000   108.7572     5.9999     6.0983     5.8350   -57.9466
  288.0000   107.8561     6.1227     6.0958     5.9580   -58.0994
  288.5000   104.5598     6.2920     6.0934     6.1295   -58.4022
  289.0000   102.1616     6.4225     6.0909     6.2931   -58.5550
  289.5000   100.9611     6.3680     6.0464     6.3359   -58.7078
  290.0000   111.1371     6.1546     6.0861     6.1611   -58.7107
  290.5000   114.1290     6.0676     6.0836     5.9090   -58.5637
  291.0000   112.0295     6.0652     6.0810     5.7463   -58.4167
  291.5000   110.5296     6.0627     6.0780     5.7054   -58.2697
  292.0000   109.0297     6.1030     6.0756     5.7849   -58.1234
  292.5000   108.1286     6.1849     6.1160     5.9042   -58.2762
  293.0000   106.6287     6.2686     6.1129     5.9441   -58.7289
  293.5000   105.4281     6.3975     6.1956     6.0255   -58.4320
  294.0000   104.5264     6.5737     6.2363     6.1509   -57.9850
  294.5000   101.5294     6.7089     6.3206     6.3225   -57.6882
  295.0000    97.3356     6.8003     6.4507     6.4094   -57.6912
  295.5000    99.7272     6.9395     6.6285     6.4976   -57.6947
  296.0000   104.8141     6.9367     6.7656     6.5875   -57.6976
  296.5000   110.4999     6.9822     6.9042     6.6838   -57.7005
  297.0000   116.1856     7.0765     6.9501     6.7226   -57.8534
  297.5000   119.8202     7.1755     6.9466     6.7209   -57.8563
  298.0000   120.0720     7.2692     6.8958     6.6731   -57.8592
  298.5000   112.2839     7.0672     6.8455     6.6257   -57.8621
  299.0000   104.7960     6.9192     6.7954     6.4881   -57.8651
  299.5000   102.6973     6.7743     6.6987     6.3975   -58.0186
  300.0000   107.1854     6.5868     6.6039     6.2213   -58.3213
  300.5000   107.7820     6.5387     6.5104     6.1292   -58.3242
  301.0000   107.1796     6.4018     6.4183     6.0067   -58.3271
  301.5000   106.5779     6.3550     6.3714     5.9640   -58.1794
  302.0000   109.2093     6.3022     6.3249     5.9216   -57.8832
  302.5000   110.4643     6.2620     6.2787     5.9204   -57.5862
  303.0000   110.4606     6.2595     6.2761     5.8784   -57.2784
  303.5000   111.3559     6.2570     6.2730     5.9181   -57.2929
  304.0000   112.5514     6.3416     6.3579     5.9580   -57.5957
  304.5000   110.1525     6.5170     6.6250     6.0866   -58.0484
