~VERSION INFORMATION
 VERS.                2.0:   CWLS LOG ASCII STANDARD - VERSION 2.0
 WRAP.                 NO:   ONE LINE PER DEPTH STEP
~WELL INFORMATION
#MNEM.UNIT      DATA TYPE    INFORMATION
#----------   ------------   ------------------------------
 STRT.F           28.0000:   START DEPTH
 STOP.F          659.0000:   STOP DEPTH
 STEP.F            0.5000:   STEP LENGTH
 NULL.          -999.2500:   NO VALUE
 COMP. FENIX & SCISSON INC:   COMPANY
 WELL.    NPR 3 #46-SX-34:   WELL
 FLD .             TEAPOT:   FIELD
 LOC .      S34 T39N R78W:   LOCATION
 CNTY.            NATRONA:   COUNTY
 STAT.            WYOMING:   STATE
 CTRY. UNITED STATES OF AMERICA:   COUNTRY
 SRVC.              Welex:   SERVICE COMPANY
 DATE.        01-MAY-1977:   LOGDATE
 API .       490251035600:   API NUMBER
~CURVE INFORMATION
#MNEM.UNIT       API CODE    CURVE DESCRIPTION
#----------   ------------   ------------------------------
 DEPT.F                  :   
 CALD.IN     45 280 60 00:   CALIPER FROM DENSITY
 GRD .GAPI   45 310 01 00:   GAMMA RAY FROM DENSITY LOG
 CORR.G/C3   45 356 01 00:   DENSITY CORRECTION
 DPHI.DEC    45 890 12 00:   DENSITY POROSITY SANDSTONE
 RHOB.G/C3   45 350 01 00:   BULK DENSITY
 SPR .MV     07 010 01 00:   SPONTANEOUS POTENTIAL
 ILD .OHMM   07 120 46 00:   INDUCTION LOG DEEP
 ILM .OHMM   07 120 44 00:   INDUCTION LOG MEDIUM
 SGRD.OHMM   07 221 05 00:   SHALLOW SHORT GUARD RESISTIVITY
~PARAMETER INFORMATION
#MNEM.UNIT          VALUE    DESCRIPTION
#----------   ------------   ------------------------------
 PD  .                 GL:   PERMANENT DATUM
 EPD .F              5120:   ELEVATION PERMANENT DATUM
 LMF .                 GL:   LOG MEASURED FROM
 DMF .                 GL:   DRILLING MEASURED FROM
 EGL .F              5120:   GROUND LEVEL
 DATE.        01-MAY-1977:   RUN DATE
 RUN .                  1:   RUN NUMBER
 DD  .F               660:   DEPTH DRILLER
 DL  .F               663:   DEPTH LOGGER
 BLI .F               661:   BOTTOM LOG INTERVAL
 TLI .F                28:   TOP LOG INTERVAL
 CS  .IN            8.625:   CASING SIZE
 BS  .IN               12:   BIT SIZE
 BSD .F               660:   BIT SIZE AT DEPTH
 DFT .            KCL MUD:   DRILLING FLUID TYPE
 DFD .                8.7:   DRILLING FLUID DENSITY
 TCS .HRS            0100:   TIME CURCULATED STOPPED
 MRT .F                71:   MAXIMUM RECORDED TEMPERATURE
 ENGI.          T. JOYNER:   RECORDING ENGINEER
 WITN.            R. LYON:   WITNESSED BY
 CLNT.            A2DTECH:   CLIENT CODE
 ORIG.           5" PRINT:   ORIGIN OF DATA
 UWI .       490251035600:   UNIQUE WELL ID
 DICO. A2D Technologies, Inc.:   DIGITIZING COMPANY
~OTHER INFORMATION
~A   DEPT     CALD        GRD        CORR      DPHI       RHOB        SPR        ILD        ILM       SGRD   
# ...
   64.5000     7.8108    94.5611     0.0170     0.1825     2.3700   -16.6636    17.8599    19.4002    20.3185
   65.0000     7.8105    94.6997     0.0169     0.1834     2.3692   -16.9508    17.2571    19.5371    20.1803
   65.5000     7.8102    95.2986     0.0154     0.1816     2.3775   -17.3868    16.7901    19.5398    20.1817
   66.0000     7.8099    97.6995     0.0154     0.1767     2.3828   -17.9691    16.2234    19.4076    20.1831
   66.5000     7.8096    99.0493     0.0139     0.1762     2.3827   -18.5539    16.0029    19.1445    20.0454
   67.0000     7.8093    98.4472     0.0123     0.1768     2.3797   -19.1387    15.8951    18.7558    19.9091
   67.5000     7.8090    97.3946     0.0093     0.1777     2.3767   -19.2797    15.7881    18.2482    19.6382
   68.0000     7.8087    96.0418     0.0078     0.1789     2.3744   -19.5644    15.9001    17.5112    19.3702
   68.5000     7.8084    95.2899     0.0062     0.1807     2.3729   -20.1492    16.0123    17.1551    18.9750
   69.0000     7.8081    96.8899     0.0047     0.1822     2.3729   -20.8829    16.0145    17.2761    18.7168
   69.5000     7.8078    99.8013     0.0047     0.1831     2.3729   -21.9141    16.0167    17.1598    18.3346
   70.0000     7.8225   101.4414     0.0062     0.1789     2.3797   -22.9454    15.7995    16.6954    17.8375
   70.5000     7.8223   104.1426     0.0077     0.1741     2.3831   -23.9767    15.4782    16.1319    17.4735
   71.0000     7.8069   104.9119     0.0107     0.1693     2.3934   -25.0079    14.9559    15.4804    17.2355
   71.5000     7.8066   102.7882     0.0122     0.1611     2.4054   -26.4856    14.3518    14.7531    17.1179
   72.0000     7.8214   102.3362     0.0137     0.1539     2.4188   -27.8145    13.4903    13.9634    17.0015
   72.5000     7.8211   102.6552     0.0152     0.1476     2.4301   -28.6970    12.3355    13.2159    16.4268
   73.0000     7.8358   103.3842     0.0167     0.1419     2.4406   -29.7282    11.2022    12.1683    15.1236
   73.5000     7.8355   104.5839     0.0167     0.1361     2.4526   -30.9083    10.0336    11.2037    12.8183
   74.0000     7.8352   107.8857     0.0167     0.1289     2.4609   -32.0884     9.1117    10.3156    11.4015
   74.5000     7.8349   111.3376     0.0151     0.1259     2.4669   -33.2685     8.3894     9.6297    10.6427
   75.0000     7.8346   115.9907     0.0151     0.1247     2.4714   -34.1509     7.9404     9.1773    10.2828
   75.5000     7.8343   120.3436     0.0151     0.1260     2.4646   -34.8846     7.5673     9.1152    10.2835
   76.0000     7.8340   120.7929     0.0151     0.1290     2.4473   -35.3206     7.3119     9.0538    10.2842
   76.5000     7.8336   118.3088     0.0136     0.1292     2.4601   -35.6104     7.1632     8.9928    10.4277
   77.0000     7.8333   115.0841     0.0136     0.1283     2.4616   -36.0438     7.1147     8.9944    10.5005
   77.5000     7.8330   115.9835     0.0120     0.1313     2.4616   -36.1849     7.1160     8.9956    10.5739
   78.0000     7.8327   116.3023     0.0150     0.1322     2.4601   -36.1719     7.1170     8.9968    10.5746
   78.5000     7.8324   112.9774     0.0211     0.1310     2.4578   -36.1615     7.1179     8.9360    10.5027
   79.0000     7.8322   111.1741     0.0226     0.1274     2.4653   -36.3025     7.1189     8.9375    10.2884
   79.5000     7.8319   114.6260     0.0210     0.1262     2.4677   -36.4409     7.1199     8.9387    10.0785
   80.0000     7.8316   116.2765     0.0180     0.1247     2.4627   -36.7281     7.1209     9.0018     9.9412
   80.5000     7.8313   115.5239     0.0180     0.1313     2.4570   -36.8665     7.1218     9.0653     9.9419
   81.0000     7.8310   116.5734     0.0195     0.1316     2.4570   -37.0049     7.1228     9.2560     9.9425
   81.5000     7.8307   119.1244     0.0195     0.1316     2.4570   -37.1433     7.1731     9.3858    10.0120
   82.0000     7.8304   117.1709     0.0179     0.1313     2.4570   -37.2817     7.2237     9.5833    10.2927
   82.5000     7.8301   114.4667     0.0164     0.1316     2.4555   -37.4201     7.2247     9.8526    10.4363
   83.0000     7.8298   115.5162     0.0149     0.1343     2.4525   -37.7074     7.2257     9.9907    10.8030
   83.5000     7.8294   116.9565     0.0118     0.1369     2.4525   -37.8458     7.1768     9.9921    10.9538
   84.0000     7.8443   118.6667     0.0103     0.1392     2.4525   -37.9842     7.0797     9.9245    10.8792
   84.5000     7.8439   115.5020     0.0088     0.1334     2.4509   -38.2714     7.0807     9.9262    10.8018
   85.0000     7.8436   115.5105     0.0073     0.1355     2.4479   -38.4098     7.0328     9.9276    10.6531
   85.5000     7.8433   116.1096     0.0057     0.1395     2.4449   -38.6944     6.9854     9.8604    10.5128
   86.0000     7.8430   117.1591     0.0057     0.1416     2.4419   -38.9817     6.9384     9.7940    10.3620
   86.5000     7.8427   118.3588     0.0072     0.1410     2.4411   -38.9713     6.8917     9.7280    10.2901
   87.0000     7.8423   118.8081     0.0087     0.1392     2.4449   -38.9609     6.8929     9.5965    10.1485
   87.5000     7.8421   116.1035     0.0042     0.1364     2.4501   -39.0997     6.8938     9.5978    10.0203
   88.0000     7.8418   113.9998     0.0026     0.1319     2.4524   -39.0889     6.9424     9.5328    10.0210
   88.5000     7.8415   113.3981     0.0011     0.1322     2.4524   -39.0785     6.9914     9.4686    10.0218
   89.0000     7.8412   114.4473     0.0011     0.1349     2.4506   -39.0681     7.0408     9.4703    10.0918
   89.5000     7.8409   117.2986     0.0041     0.1377     2.4447   -39.0577     7.1889     9.5371    10.2326
   90.0000     7.8406   119.3991     0.0071     0.1413     2.4373   -39.0473     7.2897     9.6044    10.3754
   90.5000     7.8403   120.5988     0.0101     0.1446     2.4381   -39.1860     7.4945     9.8065    10.5202
   91.0000     7.8400   120.7478     0.0146     0.1416     2.4418   -39.1753     7.7052     9.9440    10.5937
   91.5000     7.8397   120.4259     0.0161     0.1367     2.4478   -39.1649     7.9217    10.0141    10.6677
   92.0000     7.8394   119.8038     0.0178     0.1313     2.4538   -39.3036     8.0883    10.0848    10.6684
   92.5000     7.8391   114.8874     0.0191     0.1313     2.4576   -39.4420     8.0894    10.0862    10.6692
   93.0000     7.8388   114.2853     0.0175     0.1328     2.4538   -39.4313     8.0906    10.0182    10.6699
   93.5000     7.8385   113.8333     0.0131     0.1312     2.4591   -39.5699     8.1476     9.9508    10.7444
   94.0000     7.8381   110.5285     0.0130     0.1298     2.4628   -39.8569     8.2619     9.9522    10.8944
   94.5000     7.8378   110.0769     0.0100     0.1292     2.4568   -39.9955     8.3202    10.0224    11.1228
   95.0000     7.8375   111.8767     0.0009     0.1301     2.4500   -39.9849     8.4952    10.0931    11.2780
   95.5000     7.8373   114.1275     0.0009     0.1343     2.4478   -40.1234     8.6740    10.0945    11.5145
   96.0000     7.8370   116.0779     0.0054     0.1377     2.4508   -40.4106     8.8564    10.0959    11.5949
   96.5000     7.8367   115.7761     0.0069     0.1319     2.4621   -40.5491     9.0427    10.0973    11.5158
   97.0000     7.8364   113.3721     0.0069     0.1235     2.4718   -40.9850     9.1066    10.1685    11.3591
   97.5000     7.8361   111.1184     0.0069     0.1226     2.4733   -41.2722     9.1078    10.2403    11.2817
   98.0000     7.8358   109.1649     0.0069     0.1238     2.4665   -41.2618     9.1091    10.2417    11.5184
   98.5000     7.8355   109.7943     0.0053     0.1286     2.4609   -41.1026     9.1103    10.1727    11.6791
   99.0000     7.8352   110.7037     0.0023     0.1328     2.4551   -41.0922     9.0490    10.1042    11.8421
   99.5000     7.8349   112.1837     0.0008     0.1328     2.4499   -40.9330     8.9263    10.0362    11.6005
  100.0000     7.8316   108.4084    -0.0008     0.1346     2.4462   -40.7738     8.8053     9.9686    11.4053
  100.5000     7.8269   110.2102    -0.0008     0.1383     2.4432   -40.7177     8.5860    10.0091    11.1830
