~VERSION INFORMATION
 VERS.                2.0:   CWLS LOG ASCII STANDARD - VERSION 2.0
 WRAP.                 NO:   ONE LINE PER DEPTH STEP
~WELL INFORMATION
#MNEM.UNIT      DATA TYPE    INFORMATION
#----------   ------------   ------------------------------
 STRT.F           50.0000:   START DEPTH
 STOP.F          854.0000:   STOP DEPTH
 STEP.F            0.5000:   STEP LENGTH
 NULL.          -999.2500:   NO VALUE
 COMP. FENIX & SCISSON INC:   COMPANY
 WELL.    45 SX 11 #45-11:   WELL
 FLD .             TEAPOT:   FIELD
 LOC .      S11 T38N R78W:   LOCATION
 CNTY.            NATRONA:   COUNTY
 STAT.            WYOMING:   STATE
 CTRY. UNITED STATES OF AMERICA:   COUNTRY
 SRVC.           BIRDWELL:   SERVICE COMPANY
 DATE.        01-MAR-1978:   LOGDATE
 API .       490251058600:   API NUMBER
~CURVE INFORMATION
#MNEM.UNIT       API CODE    CURVE DESCRIPTION
#----------   ------------   ------------------------------
 DEPT.F                  :   
 CALD.IN     45 280 60 00:   CALIPER
 CORR.G/C3   45 356 01 00:   DENSITY CORRECTION
 RHOB.G/C3   45 350 01 00:   BULK DENSITY
 DPOR.DEC    45 890 12 00:   DENSITY POROSITY SANDSTONE
 GRD .GAPI   45 310 01 00:   GAMMA RAY FROM DENSITY LOG
 SPR .MV     05 010 01 00:   SPONTANEOUS POTENTIAL FROM RES.
 SN  .OHMM   05 040 16 00:   SHORT NORMAL 16"
 ILD .OHMM   05 120 46 00:   INDUCTION LOG DEEP
~PARAMETER INFORMATION
#MNEM.UNIT          VALUE    DESCRIPTION
#----------   ------------   ------------------------------
 PD  .                 GL:   PERMANENT DATUM
 EPD .F              5186:   ELEVATION PERMANENT DATUM
 LMF .                 KB:   LOG MEASURED FROM
 DAPD.F                 4:   FEET ABOVE PERMANENT DATUM
 DMF .                 KB:   DRILLING MEASURED FROM
 EKB .F              5190:   KELLING BUSHING
 EGL .F              5186:   GROUND LEVEL
 DATE.           3-1-1978:   RUN DATE
 RUN .                  1:   RUN NUMBER
 DD  .F               848:   DEPTH DRILLER
 DL  .F               856:   DEPTH LOGGER
 BLI .F               851:   BOTTOM LOG INTERVAL
 TLI .F                50:   TOP LOG INTERVAL
 CS  .IN            8.625:   CASING SIZE
 CBD .F                40:   CASING BOTTOM DRILLER
 CBL .F                40:   CASING BOTTOM LOGGER
 BS  .IN            7.875:   BIT SIZE
 BSD .F               848:   BIT SIZE AT DEPTH
 DFT .          LIGNOSULF:   DRILLING FLUID TYPE
 DFD .                8.5:   DRILLING FLUID DENSITY
 DFV .                 30:   DRILLING FLUID VISCOSITY
 DFPH.               11.5:   DRILLING FLUID PH
 MSS .                PIT:   MUD SAMPLE SOURCE
 RMS .OHMM              2:   RESISTIVITY MUD SAMPLE
 MST .F                59:   MUD SAMPLE TEMPERATURE
 RMF .OHMM            1.8:   RESISTIVITY MUD FILTRATE SAMPLE
 MFST.F                60:   MUD FILTRATE SAMPLE TEMPERATURE
 RMC .OHMM            2.2:   RESISTIVITY MUD CAKE
 MCST.F                60:   MUD CAKE SAMPLE TEMPERATURE
 MFSS.               MEAS:   MUD FILTRATE SAMPLE SOURCE
 MCSS.               MEAS:   MUD CAKE SAMPLE SOURCE
 RMB .OHMM           1.69:   RESISTIVITY MUD AT BHT
 BHT .F                70:   BOTTOM HOLE TEMPERATURE
 TCS .HRS               3:   TIME CURCULATED STOPPED
 MRT .F                70:   MAXIMUM RECORDED TEMPERATURE
 LUN .               2959:   LOGGING UNIT NUMBER
 LUL .               CASP:   LOGGING UNIT LOCATION
 ENGI.            POINTER:   RECORDING ENGINEER
 WITN.         HARRINGTON:   WITNESSED BY
 CLNT.            A2DTECH:   CLIENT CODE
 ORIG.       2", 5" PRINT:   ORIGIN OF DATA
 UWI .       490251058600:   UNIQUE WELL ID
 DICO. A2D Technologies, Inc.:   DIGITIZING COMPANY
~OTHER INFORMATION
~A   DEPT       CALD      CORR      RHOB       DPOR        GRD        SPR         SN        ILD   
# ...
  455.0000     7.7983     0.0591     2.4654     0.1167    96.5113   -19.0606    11.1816     9.8161
  455.5000     7.7836     0.0586     2.4748     0.1129    96.0346   -18.7994    11.1816     9.8161
  456.0000     7.7690     0.0534     2.4711     0.1076    93.5434   -19.0068    11.1816     9.8161
  456.5000     7.7544     0.0582     2.4836     0.0996    90.5100   -19.3077    11.1818     9.8161
  457.0000     7.7398     0.0675     2.4968     0.0923    88.9569   -19.6112    11.1811     9.8161
  457.5000     7.7250     0.0747     2.4958     0.1023    94.6607   -19.9189    11.1783     9.6857
  458.0000     7.7255     0.0688     2.4844     0.1108   101.5396   -20.0478    11.1816     9.5283
  458.5000     7.7290     0.0683     2.4732     0.1192   103.5819   -20.1360    10.5409     9.3731
  459.0000     7.7326     0.0761     2.4619     0.1277   103.1142   -20.2243    10.0373     9.2205
  459.5000     7.7361     0.0838     2.4496     0.1311   103.1946   -20.3118     9.3700     9.0705
  460.0000     7.7397     0.0877     2.4363     0.1287   103.1816   -20.3138     9.4575     8.9229
  460.5000     7.7425     0.0973     2.4396     0.1285   101.0622   -19.7588     9.2748     8.8140
  461.0000     7.7622     0.1110     2.4425     0.1295   100.1085   -19.1579     9.2273     8.7329
  461.5000     7.7903     0.1144     2.4411     0.1259   102.4154   -18.7512     9.1972     8.6525
  462.0000     7.8187     0.0871     2.4339     0.1176   104.0753   -18.7624     9.1972     8.5729
  462.5000     7.8440     0.0601     2.4551     0.1093   103.6170   -18.7625     9.0626     8.4940
  463.0000     7.8439     0.0534     2.4756     0.1068   101.1535   -18.7627     8.9249     8.4158
  463.5000     7.8432     0.0461     2.4618     0.1192    99.5503   -18.7627     8.8602     8.3383
  464.0000     7.8427     0.0384     2.4478     0.1235   101.4738   -18.7627     8.8933     8.2616
  464.5000     7.8421     0.0306     2.4460     0.1268   104.0694   -18.7627     8.9277     8.2257
  465.0000     7.8416     0.0316     2.4498     0.1323   106.6757   -18.7627     8.9441     8.2257
  465.5000     7.8411     0.0334     2.4377     0.1379   108.9432   -18.7626     8.8321     8.2257
  466.0000     7.8405     0.0372     2.4279     0.1436   108.1072   -18.7617     8.7860     8.2257
  466.5000     7.8400     0.0422     2.4189     0.1436   105.6622   -18.7554     8.7426     8.2257
  467.0000     7.8395     0.0436     2.4099     0.1438   103.2170   -19.0294     8.6995     8.2262
  467.5000     7.8389     0.0462     2.4116     0.1479   103.0859   -19.3495     8.6565     8.2283
  468.0000     7.8384     0.0548     2.4138     0.1493   104.8048   -19.6705     8.6173     8.1586
  468.5000     7.8379     0.0511     2.4037     0.1460   105.3203   -19.9872     8.5097     8.2261
  469.0000     7.8373     0.0453     2.4100     0.1456   105.7774   -20.1102     8.3897     8.1146
  469.5000     7.8368     0.0396     2.4137     0.1452   105.7707   -19.9158     8.2711     7.9913
  470.0000     7.8362     0.0364     2.4192     0.1353   105.0346   -19.7262     8.1542     7.8691
  470.5000     7.8357     0.0366     2.4351     0.1335   104.2924   -19.5355     8.0390     7.7485
  471.0000     7.8352     0.0365     2.4353     0.1351   103.9729   -19.3452     7.9254     7.6357
  471.5000     7.8346     0.0368     2.4302     0.1367   106.7751   -19.1547     7.8135     7.3631
  472.0000     7.8341     0.0371     2.4270     0.1344   110.0192   -18.9630     7.6357     7.1121
  472.5000     7.8335     0.0373     2.4301     0.1319   109.2405   -18.7711     7.6593     7.0224
  473.0000     7.8330     0.0376     2.4316     0.1342   106.4221   -18.7612     7.6967     7.0224
  473.5000     7.8325     0.0378     2.4299     0.1359   103.6371   -18.7624     7.7342     7.0224
  474.0000     7.8319     0.0381     2.4282     0.1355   101.7099   -18.7627     7.7719     7.0224
  474.5000     7.8314     0.0384     2.4274     0.1312   102.3138   -18.7627     7.8099     7.0739
  475.0000     7.8309     0.0334     2.4312     0.1256   103.8926   -18.7627     7.8480     7.1252
  475.5000     7.8303     0.0265     2.4390     0.1194   105.5795   -18.7627     7.8863     7.1769
  476.0000     7.8298     0.0195     2.4469     0.1247   106.3252   -18.7627     7.9252     7.2290
  476.5000     7.8292     0.0209     2.4536     0.1349   105.6642   -18.7627     7.9332     7.2815
  477.0000     7.8287     0.0259     2.4357     0.1437   104.9565   -18.7627     7.9414     7.3339
  477.5000     7.8282     0.0311     2.4158     0.1404   104.2409   -18.7616     7.9496     7.3572
  478.0000     7.8276     0.0361     2.4142     0.1371   103.7493   -18.7587     7.9577     7.3568
  478.5000     7.8271     0.0357     2.4220     0.1336   104.6990   -18.8130     7.9659     7.3747
  479.0000     7.8266     0.0349     2.4304     0.1301   105.6207   -18.9595     7.9741     7.4248
  479.5000     7.8260     0.0340     2.4387     0.1266   105.6630   -18.9668     7.9823     7.4752
  480.0000     7.8255     0.0333     2.4467     0.1263   105.6590   -18.9659     7.9906     7.5259
  480.5000     7.8250     0.0325     2.4464     0.1271   105.7269   -18.9655     7.9999     7.5770
  481.0000     7.8244     0.0328     2.4397     0.1257   105.9140   -18.9655     7.9988     7.6285
  481.5000     7.8239     0.0334     2.4402     0.1254   106.0710   -18.9655     8.0983     7.6803
  482.0000     7.8233     0.0340     2.4425     0.1285   105.8023   -18.9657     8.1495     7.7324
  482.5000     7.8228     0.0344     2.4399     0.1275   105.4810   -18.9667     8.1331     7.7791
  483.0000     7.8223     0.0337     2.4401     0.1239   105.1588   -18.9166     8.1011     7.7232
  483.5000     7.8217     0.0306     2.4440     0.1202   104.8266   -18.8538     8.0693     7.6733
  484.0000     7.8212     0.0276     2.4456     0.1235   104.3697   -18.7908     8.0376     7.6236
  484.5000     7.8207     0.0246     2.4445     0.1335   107.2279   -18.7279     8.0061     7.5743
  485.0000     7.8201     0.0215     2.4435     0.1202   109.7276   -18.6651     7.9746     7.5253
  485.5000     7.8196     0.0185     2.4454     0.1270   107.1207   -18.6022     7.9433     7.4767
  486.0000     7.8190     0.0155     2.4488     0.1210   102.5305   -18.5393     7.9121     7.4283
  486.5000     7.8185     0.0124     2.4446     0.1258   103.9226   -18.4761     7.8810     7.3802
  487.0000     7.8180     0.0127     2.4456     0.1296   108.5380   -18.4131     7.8518     7.3325
  487.5000     7.8174     0.0177     2.4411     0.1319   111.6498   -18.3607     7.8446     7.2850
  488.0000     7.8169     0.0239     2.4334     0.1290   109.5821   -18.4138     7.8377     7.2379
  488.5000     7.8164     0.0298     2.4259     0.1274   106.1141   -18.4663     7.8309     7.2098
  489.0000     7.8158     0.0328     2.4179     0.1357   105.2983   -18.5184     7.8241     7.1923
  489.5000     7.8153     0.0343     2.4218     0.1388   107.9131   -18.5704     7.8172     7.1748
  490.0000     7.8148     0.0334     2.4288     0.1324   109.6510   -18.6224     7.8104     7.1574
  490.5000     7.8142     0.0316     2.4304     0.1299   109.4012   -18.6745     7.8036     7.1400
  491.0000     7.8137     0.0299     2.4405     0.1295   109.1884   -18.7265     7.7969     7.1227
  491.5000     7.8131     0.0281     2.4386     0.1278   108.9688   -18.7785     7.7901     7.1054
  492.0000     7.8126     0.0263     2.4368     0.1267   108.7498   -18.8307     7.7832     7.0881
  492.5000     7.8121     0.0262     2.4481     0.1277   108.5239   -18.8828     7.7288     7.0709
  493.0000     7.8115     0.0263     2.4450     0.1286   108.6122   -18.9338     7.6023     7.0536
  493.5000     7.8110     0.0246     2.4406     0.1283   108.7741   -18.9292     7.4778     7.0365
  494.0000     7.8105     0.0218     2.4390     0.1285   108.9377   -18.8367     7.3526     7.0224
  494.5000     7.8099     0.0202     2.4404     0.1302   109.0975   -18.7454     7.3283     6.9439
  495.0000     7.8094     0.0215     2.4378     0.1321   109.2491   -18.6539     7.3042     6.8641
