~VERSION INFORMATION
 VERS.                2.0:   CWLS LOG ASCII STANDARD - VERSION 2.0
 WRAP.                 NO:   ONE LINE PER DEPTH STEP
~WELL INFORMATION
#MNEM.UNIT      DATA TYPE    INFORMATION
#----------   ------------   ------------------------------
 STRT.F            0.0000:   START DEPTH
 STOP.F         2838.0000:   STOP DEPTH
 STEP.F            0.5000:   STEP LENGTH
 NULL.          -999.2500:   NO VALUE
 COMP. INTEX OIL CO U S NAVY:   COMPANY
 WELL. NAVAL PETROLEUM RESERVE 3 29 #NPR #3 (204A29)-29:   WELL
 FLD .                N/A:   FIELD
 LOC .      S29 T39N R78W:   LOCATION
 CNTY.            NATRONA:   COUNTY
 STAT.            WYOMING:   STATE
 CTRY. UNITED STATES OF AMERICA:   COUNTRY
 SRVC.      NL McCullough:   SERVICE COMPANY
 DATE.        24-JUN-1965:   LOGDATE
 API .       490251021700:   API NUMBER
~CURVE INFORMATION
#MNEM.UNIT       API CODE    CURVE DESCRIPTION
#----------   ------------   ------------------------------
 DEPT.F                  :   
 GR  .GAPI   30 310 01 00:   GAMMA RAY
 HD  .IN     70 280 01 00:   DAIMETER
~PARAMETER INFORMATION
#MNEM.UNIT          VALUE    DESCRIPTION
#----------   ------------   ------------------------------
 PD  .                 GL:   PERMANENT DATUM
 LMF .                 GL:   LOG MEASURED FROM
 EDF .F              5016:   DRILLING FLOOR
 DATE.        24-JUN-1965:   RUN DATE
 RUN .                  1:   RUN NUMBER
 DD  .F              2838:   DEPTH DRILLER
 DL  .F              2838:   DEPTH LOGGER
 BLI .F              2836:   BOTTOM LOG INTERVAL
 TLI .F              2400:   TOP LOG INTERVAL
 CS  .IN            6.625:   CASING SIZE
 CBD .F              2820:   CASING BOTTOM DRILLER
 BSD .F              2838:   BIT SIZE AT DEPTH
 LUN .               1497:   LOGGING UNIT NUMBER
 ENGI.         COWLTHORPE:   RECORDING ENGINEER
 WITN.         MR. HUDSON:   WITNESSED BY
 CLNT.            A2DTECH:   CLIENT CODE
 ORIG.           5" PRINT:   ORIGIN OF DATA
 UWI .       490251021700:   UNIQUE WELL ID
 DICO. A2D Technologies, Inc.:   DIGITIZING COMPANY
~OTHER INFORMATION
~A    DEPT      GR           HD 
# ...
 1579.5000  -999.2500     6.5782
 1580.0000  -999.2500     6.5783
 1580.5000  -999.2500     6.5785
 1581.0000  -999.2500     6.5786
 1581.5000  -999.2500     6.5788
 1582.0000  -999.2500     6.5789
 1582.5000  -999.2500     6.5791
 1583.0000  -999.2500     6.5792
 1583.5000  -999.2500     6.5794
 1584.0000  -999.2500     6.5795
 1584.5000  -999.2500     6.5947
 1585.0000  -999.2500     6.5949
 1585.5000  -999.2500     6.5950
 1586.0000  -999.2500     6.5952
 1586.5000  -999.2500     6.5964
 1587.0000  -999.2500     6.6106
 1587.5000  -999.2500     6.6107
 1588.0000  -999.2500     6.6140
 1588.5000  -999.2500     6.6260
 1589.0000  -999.2500     6.6262
 1589.5000  -999.2500     6.6264
 1590.0000  -999.2500     6.6265
 1590.5000  -999.2500     6.6267
 1591.0000  -999.2500     6.6265
 1591.5000  -999.2500     6.6251
 1592.0000  -999.2500     6.6237
 1592.5000  -999.2500     6.6223
 1593.0000  -999.2500     6.6209
 1593.5000  -999.2500     6.6196
 1594.0000  -999.2500     6.6182
 1594.5000  -999.2500     6.6168
 1595.0000  -999.2500     6.6154
 1595.5000  -999.2500     6.6140
 1596.0000  -999.2500     6.6127
 1596.5000  -999.2500     6.6113
 1597.0000  -999.2500     6.6099
 1597.5000  -999.2500     6.6085
 1598.0000  -999.2500     6.6071
 1598.5000  -999.2500     6.6058
 1599.0000  -999.2500     6.6044
 1599.5000  -999.2500     6.6030
 1600.0000  -999.2500     6.6016
 1600.5000  -999.2500     6.6002
 1601.0000  -999.2500     6.6016
 1601.5000  -999.2500     6.6054
 1602.0000  -999.2500     6.6091
 1602.5000  -999.2500     6.6128
 1603.0000  -999.2500     6.6166
 1603.5000  -999.2500     6.6203
 1604.0000  -999.2500     6.6241
 1604.5000  -999.2500     6.6278
 1605.0000  -999.2500     6.6316
 1605.5000  -999.2500     6.6479
 1606.0000  -999.2500     6.6482
 1606.5000  -999.2500     6.6485
 1607.0000  -999.2500     6.6488
 1607.5000  -999.2500     6.6793
 1608.0000  -999.2500     6.7097
 1608.5000  -999.2500     6.7100
 1609.0000  -999.2500     6.6951
 1609.5000  -999.2500     6.6503
 1610.0000  -999.2500     6.6506
 1610.5000  -999.2500     6.7112
 1611.0000  -999.2500     6.7416
 1611.5000  -999.2500     6.7569
 1612.0000  -999.2500     6.7572
 1612.5000  -999.2500     6.7576
 1613.0000  -999.2500     6.7729
 1613.5000  -999.2500     6.7732
 1614.0000  -999.2500     6.7584
 1614.5000  -999.2500     6.7588
 1615.0000  -999.2500     6.7591
 1615.5000  -999.2500     6.7594
 1616.0000  -999.2500     6.7596
 1616.5000  -999.2500     6.7603
 1617.0000  -999.2500     6.7602
 1617.5000  -999.2500     6.7605
 1618.0000  -999.2500     6.7609
 1618.5000  -999.2500     6.7612
 1619.0000  -999.2500     6.7615
 1619.5000  -999.2500     6.7618
 1620.0000  -999.2500     6.7629
 1620.5000  -999.2500     6.7641
 1621.0000  -999.2500     6.7653
 1621.5000  -999.2500     6.7665
 1622.0000  -999.2500     6.7678
 1622.5000  -999.2500     6.7690
 1623.0000  -999.2500     6.7702
 1623.5000  -999.2500     6.7714
 1624.0000  -999.2500     6.7726
 1624.5000  -999.2500     6.7739
 1625.0000  -999.2500     6.7751
 1625.5000  -999.2500     6.7763
 1626.0000  -999.2500     6.7775
 1626.5000  -999.2500     6.7787
 1627.0000  -999.2500     6.7800
 1627.5000  -999.2500     6.7812
 1628.0000  -999.2500     6.7669
 1628.5000  -999.2500     6.7672
 1629.0000  -999.2500     6.7675
 1629.5000  -999.2500     6.7678
 1630.0000  -999.2500     6.7681
 1630.5000  -999.2500     6.7684
 1631.0000  -999.2500     6.7687
 1631.5000  -999.2500     6.7841
 1632.0000  -999.2500     6.7994
 1632.5000  -999.2500     6.8148
 1633.0000  -999.2500     6.8221
 1633.5000  -999.2500     6.8304
 1634.0000  -999.2500     6.8307
 1634.5000  -999.2500     6.8311
 1635.0000  -999.2500     6.8314
 1635.5000  -999.2500     6.8316
 1636.0000  -999.2500     6.8320
 1636.5000  -999.2500     6.8323
 1637.0000  -999.2500     6.8325
 1637.5000  -999.2500     6.8328
 1638.0000  -999.2500     6.8331
 1638.5000  -999.2500     6.8485
 1639.0000  -999.2500     6.8488
 1639.5000  -999.2500     6.8475
 1640.0000  -999.2500     6.8343
 1640.5000  -999.2500     6.8498
 1641.0000  -999.2500     6.8500
 1641.5000  -999.2500     6.8503
 1642.0000  -999.2500     6.8506
 1642.5000  -999.2500     6.8509
 1643.0000  -999.2500     6.8512
 1643.5000  -999.2500     6.8515
 1644.0000  -999.2500     6.8518
 1644.5000  -999.2500     6.8516
 1645.0000  -999.2500     6.8507
 1645.5000  -999.2500     6.8498
 1646.0000  -999.2500     6.8490
 1646.5000  -999.2500     6.8481
 1647.0000  -999.2500     6.8473
 1647.5000  -999.2500     6.8464
 1648.0000  -999.2500     6.8455
 1648.5000  -999.2500     6.8447
 1649.0000  -999.2500     6.8438
 1649.5000  -999.2500     6.8429
 1650.0000  -999.2500     6.8421
 1650.5000  -999.2500     6.8412
 1651.0000  -999.2500     6.8410
 1651.5000  -999.2500     6.8412
 1652.0000  -999.2500     6.8415
 1652.5000  -999.2500     6.8419
 1653.0000  -999.2500     6.8271
 1653.5000  -999.2500     6.8123
 1654.0000  -999.2500     6.7975
 1654.5000  -999.2500     6.7979
 1655.0000  -999.2500     6.7982
 1655.5000  -999.2500     6.7985
 1656.0000  -999.2500     6.7988
 1656.5000  -999.2500     6.7840
 1657.0000  -999.2500     6.7844
 1657.5000  -999.2500     6.7696
 1658.0000  -999.2500     6.7698
 1658.5000  -999.2500     6.7702
 1659.0000  -999.2500     6.7705
 1659.5000  -999.2500     6.7708
 1660.0000  -999.2500     6.7650
 1660.5000  -999.2500     6.7563
 1661.0000  -999.2500     6.7566
 1661.5000  -999.2500     6.7569
 1662.0000  -999.2500     6.7572
 1662.5000  -999.2500     6.7425
 1663.0000  -999.2500     6.7428
 1663.5000  -999.2500     6.7431
 1664.0000  -999.2500     6.7283
 1664.5000  -999.2500     6.7286
 1665.0000  -999.2500     6.7289
 1665.5000  -999.2500     6.7141
 1666.0000  -999.2500     6.7144
 1666.5000  -999.2500     6.6997
 1667.0000  -999.2500     6.7000
 1667.5000  -999.2500     6.6853
 1668.0000  -999.2500     6.6856
 1668.5000  -999.2500     6.6708
 1669.0000  -999.2500     6.6711
 1669.5000  -999.2500     6.6714
 1670.0000  -999.2500     6.6717
 1670.5000  -999.2500     6.6569
 1671.0000  -999.2500     6.6572
 1671.5000  -999.2500     6.6575
 1672.0000  -999.2500     6.6578
 1672.5000  -999.2500     6.6431
 1673.0000  -999.2500     6.6434
 1673.5000  -999.2500     6.6286
 1674.0000  -999.2500     6.6290
 1674.5000  -999.2500     6.6293
 1675.0000  -999.2500     6.6296
 1675.5000  -999.2500     6.6298
 1676.0000  -999.2500     6.6301
 1676.5000  -999.2500     6.6304
 1677.0000  -999.2500     6.6458
 1677.5000  -999.2500     6.6461
 1678.0000  -999.2500     6.6464
 1678.5000  -999.2500     6.6467
 1679.0000  -999.2500     6.6470
 1679.5000  -999.2500     6.6623
 1680.0000  -999.2500     6.6476
 1680.5000  -999.2500     6.6629
 1681.0000  -999.2500     6.6633
 1681.5000  -999.2500     6.6636
 1682.0000  -999.2500     6.6789
 1682.5000  -999.2500     6.6792
 1683.0000  -999.2500     6.6795
 1683.5000  -999.2500     6.6949
 1684.0000  -999.2500     6.6952
 1684.5000  -999.2500     6.6955
 1685.0000  -999.2500     6.6958
 1685.5000  -999.2500     6.6961
 1686.0000  -999.2500     6.6964
 1686.5000  -999.2500     6.6967
 1687.0000  -999.2500     6.6970
 1687.5000  -999.2500     6.6973
 1688.0000  -999.2500     6.6825
 1688.5000  -999.2500     6.6678
 1689.0000  -999.2500     6.6681
 1689.5000  -999.2500     6.6382
 1690.0000  -999.2500     6.6235
 1690.5000  -999.2500     6.6238
 1691.0000  -999.2500     6.6241
 1691.5000  -999.2500     6.6244
 1692.0000  -999.2500     6.6247
 1692.5000  -999.2500     6.6250
 1693.0000  -999.2500     6.6253
 1693.5000  -999.2500     6.6256
 1694.0000  -999.2500     6.6259
 1694.5000  -999.2500     6.6262
 1695.0000  -999.2500     6.6265
 1695.5000  -999.2500     6.6269
 1696.0000  -999.2500     6.6272
 1696.5000  -999.2500     6.6275
 1697.0000  -999.2500     6.6278
 1697.5000  -999.2500     6.6129
 1698.0000  -999.2500     6.6133
 1698.5000  -999.2500     6.6136
 1699.0000  -999.2500     6.6139
 1699.5000  -999.2500     6.6142
 1700.0000  -999.2500     6.6145
 1700.5000  -999.2500     6.5997
