~VERSION INFORMATION
 VERS.                2.0:   CWLS LOG ASCII STANDARD - VERSION 2.0
 WRAP.                 NO:   ONE LINE PER DEPTH STEP
~WELL INFORMATION
#MNEM.UNIT      DATA TYPE    INFORMATION
#----------   ------------   ------------------------------
 STRT.F          534.0000:   START DEPTH
 STOP.F         1847.5000:   STOP DEPTH
 STEP.F            0.5000:   STEP LENGTH
 NULL.          -999.2500:   NO VALUE
 COMP. LAWRENCE/ALLISON INC:   COMPANY
 WELL.      18 SHX #18-27:   WELL
 FLD .             TEAPOT:   FIELD
 LOC .      S27 T39N R78W:   LOCATION
 CNTY.            NATRONA:   COUNTY
 STAT.            WYOMING:   STATE
 CTRY. UNITED STATES OF AMERICA:   COUNTRY
 SRVC.            Unknown:   SERVICE COMPANY
 DATE.        01-MAR-1985:   LOGDATE
 API .       490251102000:   API NUMBER
~CURVE INFORMATION
#MNEM.UNIT       API CODE    CURVE DESCRIPTION
#----------   ------------   ------------------------------
 DEPT.F                  :   
 ROP .MIN/FT 91 810 01 00:   RATE OF DRILLING PENETRATION
 TGAS.UNITS  91 830 01 00:   TOTAL GAS FROM HOTWIRE
~PARAMETER INFORMATION
#MNEM.UNIT          VALUE    DESCRIPTION
#----------   ------------   ------------------------------
 DATE.           3-1-1985:   RUN DATE
 DD  .F              1848:   DEPTH DRILLER
 DL  .F              1825:   DEPTH LOGGER
 TLI .F               535:   TOP LOG INTERVAL
 WITN.  ALBERT C. KRAVATZ:   WITNESSED BY
 CLNT.            A2DTECH:   CLIENT CODE
 ORIG.           5" PRINT:   ORIGIN OF DATA
 UWI .       490251102000:   UNIQUE WELL ID
 DICO. A2D Technologies, Inc.:   DIGITIZING COMPANY
~OTHER INFORMATION
~A   DEPT      ROP       TGAS   
# ...
  898.5000     2.0062     6.1617
  899.0000     2.0059     6.1815
  899.5000     2.0056     6.2014
  900.0000     2.0053     6.2212
  900.5000     2.0050     6.2264
  901.0000     2.0048     6.2317
  901.5000     2.0045     6.2369
  902.0000     2.0042     6.2421
  902.5000     2.0039     6.2474
  903.0000     2.0036     6.2526
  903.5000     2.0033     6.2578
  904.0000     2.0031     6.2631
  904.5000     2.0028     6.2683
  905.0000     2.0025     6.2735
  905.5000     2.0022     6.2788
  906.0000     2.0019     6.2840
  906.5000     2.0016     6.2892
  907.0000     2.0014     6.2945
  907.5000     2.0011     6.2997
  908.0000     2.0008     6.3049
  908.5000     2.0005     6.3102
  909.0000     2.0002     6.3154
  909.5000     1.9999     6.3207
  910.0000     1.9997     6.3259
  910.5000     1.9994     6.3311
  911.0000     1.9991     6.3364
  911.5000     1.9988     6.3416
  912.0000     1.9985     6.3468
  912.5000     1.9982     6.3521
  913.0000     1.9979     6.3573
  913.5000     1.9977     6.3625
  914.0000     1.9974     6.3678
  914.5000     1.9971     6.3730
  915.0000     1.9968     6.3782
  915.5000     1.9965     6.3835
  916.0000     1.9962     6.3887
  916.5000     1.9960     6.3939
  917.0000     1.9957     6.3992
  917.5000     1.9954     6.4044
  918.0000     1.9957     6.4096
  918.5000     1.9959     6.4149
  919.0000     1.9962     6.4201
  919.5000     1.9964     6.4253
  920.0000     1.9967     6.4306
  920.5000     1.9969     6.4358
  921.0000     1.9972     6.4410
  921.5000     1.9974     6.4463
  922.0000     1.9977     6.4515
  922.5000     1.9979     6.4567
  923.0000     1.9981     6.4620
  923.5000     1.9984     6.4672
  924.0000     1.9986     6.4724
  924.5000     1.9989     6.4777
  925.0000     1.9991     6.4829
  925.5000     1.9994     6.4881
  926.0000     1.9996     6.4934
  926.5000     1.9999     6.4986
  927.0000     2.0001     6.5038
  927.5000     2.0004     6.5091
  928.0000     2.0006     6.5143
  928.5000     2.0008     6.5195
  929.0000     2.0011     6.5248
  929.5000     2.0013     6.5300
  930.0000     2.0016     6.5353
  930.5000     2.0018     6.5405
  931.0000     2.0021     6.5457
  931.5000     2.0023     6.5510
  932.0000     2.0026     6.5562
  932.5000     2.0028     6.5614
  933.0000     2.0031     6.5667
  933.5000     2.0033     6.5719
  934.0000     2.0036     6.5771
  934.5000     2.0038     6.5824
  935.0000     2.0040     6.5876
  935.5000     2.0043     6.5928
  936.0000     2.0045     6.5981
  936.5000     2.0048     6.6033
  937.0000     2.0050     6.6085
  937.5000     2.0053     6.6138
  938.0000     2.0055     6.6190
  938.5000     2.0058     6.6242
  939.0000     2.0060     6.6295
  939.5000     2.0063     6.6347
  940.0000     2.0065     6.6399
  940.5000     2.0067     6.6452
  941.0000     2.0070     6.6504
  941.5000     2.0072     6.6556
  942.0000     2.0075     6.6609
  942.5000     2.0077     6.6661
  943.0000     2.0080     6.6713
  943.5000     2.0082     6.6766
  944.0000     2.0085     6.6818
  944.5000     2.0087     6.6870
  945.0000     2.0090     6.6923
  945.5000     2.0092     6.6975
  946.0000     2.0095     6.7027
  946.5000     2.0097     6.7080
  947.0000     2.0099     6.7132
  947.5000     2.0102     6.7184
  948.0000     2.0104     6.7237
  948.5000     2.0107     6.7289
  949.0000     2.0109     6.7341
  949.5000     2.0112     6.7394
  950.0000     2.0114     6.7446
  950.5000     2.0117     6.7499
  951.0000     2.0119     6.7551
  951.5000     2.0122     6.7603
  952.0000     2.0124     6.7656
  952.5000     2.0126     6.7708
  953.0000     2.0129     6.7760
  953.5000     2.0131     6.7813
  954.0000     2.0134     6.7865
  954.5000     2.0136     6.7917
  955.0000     2.0139     6.7970
  955.5000     2.0141     6.8022
  956.0000     2.0144     6.8074
  956.5000     2.0146     6.8127
  957.0000     2.0149     6.8179
  957.5000     2.0151     6.8231
  958.0000     2.0154     6.8284
  958.5000     2.0156     6.8336
  959.0000     2.0158     6.8388
  959.5000     1.9362     6.8441
  960.0000     1.8317     6.8493
  960.5000     1.7273     6.8545
  961.0000     1.6228     6.8598
  961.5000     1.5184     6.8650
  962.0000     1.4881     6.8702
  962.5000     1.4876     6.8755
  963.0000     1.4871     6.8807
  963.5000     1.4865     6.8859
  964.0000     1.4860     6.8912
  964.5000     1.4855     6.8964
  965.0000     1.4850     6.9016
  965.5000     1.4845     6.9069
  966.0000     1.4839     6.9121
  966.5000     1.4834     6.9173
  967.0000     1.4829     6.9226
  967.5000     1.4824     6.9278
  968.0000     1.4819     6.9330
  968.5000     1.4813     6.9383
  969.0000     1.4808     6.9435
  969.5000     1.4803     6.9488
  970.0000     1.4798     6.9540
  970.5000     1.4793     6.9592
  971.0000     1.4787     6.9645
  971.5000     1.4782     6.9697
  972.0000     1.4777     6.9749
  972.5000     1.4772     6.9802
  973.0000     1.4767     6.9854
  973.5000     1.4761     6.9906
  974.0000     1.4756     6.9959
  974.5000     1.4751     7.0011
  975.0000     1.4746     7.0063
  975.5000     1.4741     7.0116
  976.0000     1.4735     7.0168
  976.5000     1.4730     7.0220
  977.0000     1.4725     7.0273
  977.5000     1.4720     7.0325
  978.0000     1.4715     7.0377
  978.5000     1.4709     7.0430
  979.0000     1.4704     7.0482
  979.5000     1.4699     7.0534
  980.0000     1.4694     7.0587
  980.5000     1.4689     7.0639
  981.0000     1.4683     7.0691
  981.5000     1.4678     7.0744
  982.0000     1.4673     7.0796
  982.5000     1.4668     7.0848
  983.0000     1.4663     7.0901
  983.5000     1.4657     7.0953
  984.0000     1.4652     7.1005
  984.5000     1.4647     7.1058
  985.0000     1.4642     7.1110
  985.5000     1.4637     7.1162
  986.0000     1.4631     7.1215
  986.5000     1.4626     7.1267
  987.0000     1.4621     7.1319
  987.5000     1.4616     7.1372
  988.0000     1.4611     7.1424
  988.5000     1.4605     7.1476
  989.0000     1.4600     7.1529
  989.5000     1.4595     7.1581
  990.0000     1.3882     7.1634
  990.5000     1.3588     7.1686
  991.0000     1.3254     7.1738
  991.5000     1.2920     7.1791
  992.0000     1.2569     7.1843
  992.5000     1.2570     7.1895
  993.0000     1.2570     7.1948
  993.5000     1.2570     7.2000
  994.0000     1.2570     7.2052
  994.5000     1.2570     7.2105
  995.0000     1.2571     7.2157
  995.5000     1.2571     7.2209
  996.0000     1.2571     7.2262
  996.5000     1.2571     7.2314
  997.0000     1.2571     7.2366
  997.5000     1.2572     7.2419
  998.0000     1.2572     7.2471
  998.5000     1.2572     7.2523
  999.0000     1.2572     7.2576
  999.5000     1.2573     7.2628
 1000.0000     1.2573     7.2680
 1000.5000     1.2573     7.2505
 1001.0000     1.2573     7.2258
 1001.5000     1.2573     7.2011
 1002.0000     1.2574     7.1764
 1002.5000     1.2574     7.1516
 1003.0000     1.2574     7.1269
 1003.5000     1.2574     7.1022
 1004.0000     1.2574     7.0775
 1004.5000     1.2575     7.0528
 1005.0000     1.2575     7.0280
 1005.5000     1.2575     7.0033
 1006.0000     1.2575     6.9786
 1006.5000     1.2575     6.9539
 1007.0000     1.2576     6.9292
 1007.5000     1.2576     6.9045
 1008.0000     1.2576     6.8797
 1008.5000     1.2576     6.8550
 1009.0000     1.2577     6.8303
 1009.5000     1.2577     6.8056
 1010.0000     1.2577     6.7809
 1010.5000     1.2577     6.7561
 1011.0000     1.2577     6.7314
 1011.5000     1.2578     6.7067
 1012.0000     1.2578     6.6820
 1012.5000     1.2578     6.6573
 1013.0000     1.2578     6.6325
 1013.5000     1.2578     6.6078
 1014.0000     1.2579     6.5831
 1014.5000     1.2579     6.5584
 1015.0000     1.2579     6.5337
 1015.5000     1.2579     6.5089
 1016.0000     1.2579     6.4842
 1016.5000     1.2580     6.4595
 1017.0000     1.2580     6.4348
 1017.5000     1.2580     6.4101
 1018.0000     1.2580     6.3853
 1018.5000     1.2581     6.3606
 1019.0000     1.2581     6.3359
 1019.5000     1.2581     6.3112
