~VERSION INFORMATION
 VERS.                2.0:   CWLS LOG ASCII STANDARD - VERSION 2.0
 WRAP.                 NO:   ONE LINE PER DEPTH STEP
~WELL INFORMATION
#MNEM.UNIT      DATA TYPE    INFORMATION
#----------   ------------   ------------------------------
 STRT.F           26.0000:   START DEPTH
 STOP.F          655.0000:   STOP DEPTH
 STEP.F            0.5000:   STEP LENGTH
 NULL.          -999.2500:   NO VALUE
 COMP. FENIX & SCISSON, INCORPORATED:   COMPANY
 WELL. RES 3 TEAPOT DOM #22S-11:   WELL
 FLD .             TEAPOT:   FIELD
 LOC .      S11 T38N R78W:   LOCATION
 CNTY.            NATRONA:   COUNTY
 STAT.            WYOMING:   STATE
 CTRY. UNITED STATES OF AMERICA:   COUNTRY
 SRVC.            Unknown:   SERVICE COMPANY
 DATE.        03-FEB-1978:   LOGDATE
 API .       490251057200:   API NUMBER
~CURVE INFORMATION
#MNEM.UNIT       API CODE    CURVE DESCRIPTION
#----------   ------------   ------------------------------
 DEPT.F                  :   
 ILD .OHMM   05 120 46 00:   INDUCTION LOG DEEP
 SN  .OHMM   05 040 16 00:   SHORT NORMAL 16"
 SPR .MV     05 010 01 00:   SPONTANEOUS POTENTIAL.
 CALD.IN     45 280 60 00:   CALIPER FROM DENSITY LOG
 CORR.G/C3   45 356 01 00:   DENSITY CORRECTION
 DPHI.DEC    45 890 12 00:   DENSITY POROSITY SANDSTONE
 GRD .GAPI   45 310 01 00:   GAMMA RAY FROM DENSITY LOG
 RHOB.G/C3   45 350 01 00:   BULK DENSITY
~PARAMETER INFORMATION
#MNEM.UNIT          VALUE    DESCRIPTION
#----------   ------------   ------------------------------
 PD  .                 GL:   PERMANENT DATUM
 EPD .F              5168:   ELEVATION PERMANENT DATUM
 LMF .                 KB:   LOG MEASURED FROM
 DMF .                 KB:   DRILLING MEASURED FROM
 EKB .F              5171:   KELLING BUSHING
 EGL .F              5168:   GROUND LEVEL
 DATE.        03-FEB-1978:   RUN DATE
 RUN .                  1:   RUN NUMBER
 DD  .F               650:   DEPTH DRILLER
 DL  .F               655:   DEPTH LOGGER
 BLI .F               655:   BOTTOM LOG INTERVAL
 TLI .F                40:   TOP LOG INTERVAL
 CS  .IN            8.625:   CASING SIZE
 CBD .F                39:   CASING BOTTOM DRILLER
 CBL .F                40:   CASING BOTTOM LOGGER
 BS  .IN            7.875:   BIT SIZE
 BSD .F               650:   BIT SIZE AT DEPTH
 DFT .                KCL:   DRILLING FLUID TYPE
 DFD .                8.6:   DRILLING FLUID DENSITY
 DFV .                 31:   DRILLING FLUID VISCOSITY
 DFPH.                9.5:   DRILLING FLUID PH
 DFL .               12.8:   DRILLING FLUID LOSS
 MSS .           FLOWLINE:   MUD SAMPLE SOURCE
 RMS .OHMM           0.38:   RESISTIVITY MUD SAMPLE
 MST .F                62:   MUD SAMPLE TEMPERATURE
 RMF .OHMM            4.4:   RESISTIVITY MUD FILTRATE SAMPLE
 MFST.F                62:   MUD FILTRATE SAMPLE TEMPERATURE
 RMC .OHMM            0.8:   RESISTIVITY MUD CAKE
 MCST.F                62:   MUD CAKE SAMPLE TEMPERATURE
 MFSS.               MEAS:   MUD FILTRATE SAMPLE SOURCE
 RMB .OHMM           0.35:   RESISTIVITY MUD AT BHT
 BHT .F                68:   BOTTOM HOLE TEMPERATURE
 TCS .HRS               1:   TIME CURCULATED STOPPED
 MRT .F                68:   MAXIMUM RECORDED TEMPERATURE
 LUN .               2958:   LOGGING UNIT NUMBER
 LUL .             CASPER:   LOGGING UNIT LOCATION
 ENGI.           REYNOLDS:   RECORDING ENGINEER
 WITN.         HARRINGTON:   WITNESSED BY
 CLNT.            A2DTECH:   CLIENT CODE
 ORIG.           5" PRINT:   ORIGIN OF DATA
 UWI .       490251057200:   UNIQUE WELL ID
 DICO. A2D Technologies, Inc.:   DIGITIZING COMPANY
~OTHER INFORMATION
~A   DEPT      ILD         SN        SPR       CALD       CORR       DPHI         GRD      RHOB   
# ...
  552.5000    30.3782    21.4665   -52.5586     7.9440     0.0965     0.2195    75.3701     2.2744
  553.0000    29.1223    21.4578   -52.4146     7.9428     0.0919     0.1835    75.8039     2.3351
  553.5000    27.1563    21.4492   -52.2757     7.9416     0.0664     0.1523    73.3815     2.3883
  554.0000    25.6772    21.1449   -52.1316     7.9402     0.0319     0.1415    71.5645     2.4332
  554.5000    25.1367    20.9899   -52.1445     7.9392     0.0370     0.1418    70.0495     2.4317
  555.0000    25.4773    20.6904   -52.1548     7.9378     0.0542     0.1460    69.7029     2.4001
  555.5000    25.6436    20.3970   -52.1654     7.9521     0.0660     0.1616    72.9258     2.3693
  556.0000    25.0756    20.1077   -52.1779     7.9506     0.0689     0.1748    75.7755     2.3344
  556.5000    23.8994    19.8225   -52.1882     7.9495     0.0613     0.1842    77.2817     2.3325
  557.0000    23.5594    19.6774   -52.1985     7.9329     0.0612     0.1914    77.8827     2.3400
  557.5000    23.2243    19.3983   -52.2087     7.9166     0.0641     0.1948    75.7624     2.3362
  558.0000    23.0534    19.2456   -52.2190     7.9156     0.0639     0.1968    75.1549     2.3286
  558.5000    22.9758    19.1136   -52.2293     7.8990     0.0575     0.1959    75.9048     2.3233
  559.0000    22.8739    18.9737   -52.4016     7.8980     0.0488     0.1938    74.8147     2.3218
  559.5000    22.8636    18.8349   -52.7077     7.8817     0.0428     0.1959    73.4780     2.3247
  560.0000    22.8515    18.6978   -53.1732     7.8805     0.0412     0.1956    75.2864     2.3172
  560.5000    22.8415    18.5603   -53.6387     7.8793     0.0411     0.1929    77.3968     2.3239
  561.0000    22.8315    18.5530   -54.1042     7.8779     0.0410     0.1946    78.7530     2.3268
  561.5000    22.8216    18.2896   -54.5697     7.8769     0.0439     0.2043    75.4243     2.3155
  562.0000    22.4969    18.1556   -54.7318     7.8604     0.0513     0.2095    76.6344     2.3057
  562.5000    21.8709    18.0211   -55.0455     7.8442     0.0608     0.2107    77.8575     2.2989
  563.0000    21.4103    17.7655   -55.0561     7.8430     0.0779     0.1975    78.1303     2.3019
  563.5000    21.2507    17.6356   -55.0686     7.8264     0.0927     0.1939    77.8227     2.3229
  564.0000    20.9484    17.5065   -55.0789     7.8103     0.1105     0.1923    77.5162     2.3251
  564.5000    20.0845    17.2582   -55.0892     7.8089     0.1194     0.1757    77.0587     2.3355
  565.0000    19.3905    17.1319   -55.0995     7.7927     0.1013     0.1741    76.2990     2.3565
  565.5000    19.1147    16.8854   -55.1098     7.7764     0.0953     0.1741    75.6642     2.3602
  566.0000    19.2397    16.7465   -55.1200     7.7752     0.0797     0.1702    74.1744     2.3594
  566.5000    19.5001    16.5259   -55.2822     7.7740     0.0443     0.1693    76.8894     2.3661
  567.0000    19.6275    16.2925   -55.4467     7.7728     0.0412     0.1801    79.4530     2.3713
  567.5000    19.0793    16.1723   -55.7604     7.7790     0.0441     0.1834    80.6621     2.3585
  568.0000    18.1658    15.8327   -55.9225     7.7857     0.0455     0.1849    79.4432     2.3468
  568.5000    17.7835    15.7168   -56.0845     7.7841     0.0499     0.1765    75.9645     2.3502
  569.0000    17.9016    15.6018   -56.3983     7.7982     0.0545     0.1783    75.5070     2.3554
  569.5000    17.8918    15.3804   -56.5603     7.8040     0.0571     0.1864    76.5600     2.3508
  570.0000    17.8839    15.2677   -56.4188     7.8129     0.0555     0.1879    77.9152     2.3365
  570.5000    17.8546    15.2603   -56.2774     7.8249     0.0554     0.1864    79.4214     2.3335
  571.0000    17.4980    15.2541   -56.1359     7.8236     0.0583     0.1825    80.8247     2.3357
  571.5000    17.1297    15.1431   -56.1487     7.8224     0.0686     0.1875    82.8859     2.3439
  572.0000    16.8860    15.1368   -56.1590     7.8321     0.0790     0.1895    83.6379     2.3426
  572.5000    17.1166    15.1303   -56.4728     7.8351     0.0969     0.1874    81.5177     2.3310
  573.0000    17.7118    15.1242   -56.7866     7.8337     0.1168     0.1811    82.8728     2.3385
  573.5000    18.0771    15.1179   -57.1003     7.8327     0.1398     0.1736    83.3409     2.3400
  574.0000    18.3394    15.2173   -57.1106     7.8313     0.1517     0.1658    83.0110     2.3564
  574.5000    18.4414    15.3171   -56.8174     7.8302     0.1531     0.1521    81.1970     2.3856
  575.0000    18.3038    15.5234   -56.8302     7.8290     0.1440     0.1343    78.6247     2.4089
  575.5000    17.7945    15.6252   -56.6888     7.8430     0.1051     0.0907    76.2034     2.4483
  576.0000    17.2993    15.6189   -56.8508     7.8266     0.0632     0.0979    73.7821     2.4916
  576.5000    16.7015    15.6126   -56.8611     7.8101     0.0648     0.1030    70.3038     2.5092
  577.0000    16.5787    15.2846   -56.8714     7.8089     0.0785     0.1069    75.8874     2.4927
  577.5000    16.3427    15.1569   -56.8816     7.8078     0.0927     0.1111    77.9979     2.4844
  578.0000    15.7764    14.6479   -56.8923     7.8066     0.0971     0.1181    79.8062     2.4551
  578.5000    15.2312    14.0448   -56.9022     7.8054     0.0657     0.1318    81.0103     2.4280
  579.0000    14.7049    13.5603   -56.7607     7.8235     0.0417     0.1523    82.8186     2.4167
  579.5000    14.3954    13.0925   -56.7736     7.8333     0.0297     0.1655    81.2895     2.4052
  580.0000    13.9948    12.7288   -56.7839     7.8624     0.0266     0.1682    79.9387     2.3641
  580.5000    13.7957    12.2889   -56.9459     7.8761     0.0294     0.1685    79.4812     2.3543
  581.0000    13.7896    12.1146   -57.2597     7.8815     0.0323     0.1661    79.1747     2.3678
  581.5000    13.6868    12.0260   -57.5736     7.8890     0.0337     0.1616    78.1129     2.3745
  582.0000    13.6808    11.8554   -58.0415     7.8992     0.0351     0.1595    76.7490     2.3767
  582.5000    13.6749    11.7686   -58.3553     7.9182     0.0320     0.1523    75.8383     2.3857
  583.0000    13.5743    11.6825   -58.6691     7.9308     0.0304     0.1472    76.6433     2.3991
  583.5000    13.5684    11.5935   -58.8300     7.9446     0.0228     0.1476    78.8497     2.4084
  584.0000    13.3753    11.5120   -59.1457     7.9618     0.0168     0.1497    79.2996     2.4088
  584.5000    13.1850    11.4268   -59.1560     7.9727     0.0137     0.1503    79.1430     2.4050
  585.0000    12.9961    11.1868   -59.3180     7.9712     0.0136     0.1509    79.2897     2.4027
  585.5000    12.8112    11.1050   -59.3278     7.9549     0.0179     0.1512    80.1917     2.3997
  586.0000    12.6289    11.0237   -59.3386     7.9384     0.0208     0.1512    81.5589     2.3957
  586.5000    12.5360    10.7175   -59.5008     7.9374     0.0222     0.1473    84.1094     2.3988
  587.0000    12.4438    10.6358   -59.5114     7.9362     0.0236     0.1449    87.1262     2.4070
  587.5000    12.2668    10.7089   -59.5237     7.9349     0.0235     0.1446    87.7271     2.4107
  588.0000    12.2614    10.7035   -59.5326     7.9337     0.0219     0.1443    84.8516     2.4107
  588.5000    12.2559    10.6992   -59.5432     7.9324     0.0218     0.1437    83.0345     2.4106
  589.0000    12.2494    10.6209   -59.5546     7.9313     0.0232     0.1389    82.1238     2.4136
  589.5000    12.3294    10.5432   -59.5648     7.9301     0.0261     0.1344    81.7018     2.4195
  590.0000    12.3240    10.3937   -59.5751     7.9288     0.0334     0.1317    85.4811     2.4256
  590.5000    12.2334    10.2462   -59.5857     7.9277     0.0393     0.1302    88.9417     2.4240
  591.0000    12.2281    10.2421   -59.5982     7.9265     0.0422     0.1281    86.5266     2.4194
  591.5000    12.1381    10.2378   -59.7891     7.9253     0.0406     0.1257    86.8234     2.4351
  592.0000    12.1327    10.2328   -59.9223     7.9241     0.0405     0.1239    87.4215     2.4441
  592.5000    12.1262    10.2287   -60.2361     7.9228     0.0389     0.1218    87.8689     2.4545
