~VERSION INFORMATION
 VERS.                2.0:   CWLS LOG ASCII STANDARD - VERSION 2.0
 WRAP.                 NO:   ONE LINE PER DEPTH STEP
~WELL INFORMATION
#MNEM.UNIT      DATA TYPE    INFORMATION
#----------   ------------   ------------------------------
 STRT.F           29.0000:   START DEPTH
 STOP.F          882.0000:   STOP DEPTH
 STEP.F            0.5000:   STEP LENGTH
 NULL.          -999.2500:   NO VALUE
 COMP. FENIX & SCISSON INC:   COMPANY
 WELL. NAVAL PETROLEUM RESERVE 3 S-14 #42-14:   WELL
 FLD .             TEAPOT:   FIELD
 LOC .      S14 T38N R78W:   LOCATION
 CNTY.            NATRONA:   COUNTY
 STAT.            WYOMING:   STATE
 CTRY. UNITED STATES OF AMERICA:   COUNTRY
 SRVC.              Welex:   SERVICE COMPANY
 DATE.        03-MAY-1977:   LOGDATE
 API .       490251035400:   API NUMBER
~CURVE INFORMATION
#MNEM.UNIT       API CODE    CURVE DESCRIPTION
#----------   ------------   ------------------------------
 DEPT.F                  :   
 CALD.IN     45 280 60 00:   CALIPER FROM DENSITY LOG
 GRD .GAPI   45 310 01 00:   GAMMA RAY FROM DENSITY LOG
 CORR.G/C3   45 356 01 00:   DENSITY CORRECTION
 DPHI.DEC    45 890 12 00:   DENSITY POROSITY SANDSTONE
 RHOB.G/C3   45 350 01 00:   BULK DENSITY
 SPR .MV     07 010 01 00:   SPONTANEOUS POTENTIAL
 ILD .OHMM   07 120 46 00:   INDUCTION LOG DEEP
 ILM .OHMM   07 120 44 00:   INDUCTION LOG MEDIUM
 SGRD.OHMM   07 221 05 00:   SHALLOW SHORT GUARD RESISTIVITY
~PARAMETER INFORMATION
#MNEM.UNIT          VALUE    DESCRIPTION
#----------   ------------   ------------------------------
 PD  .                 GL:   PERMANENT DATUM
 EPD .F              5206:   ELEVATION PERMANENT DATUM
 LMF .                 GL:   LOG MEASURED FROM
 DMF .                 GL:   DRILLING MEASURED FROM
 EGL .F              5206:   GROUND LEVEL
 DATE.        03-MAY-1977:   RUN DATE
 RUN .                  1:   RUN NUMBER
 DD  .F               855:   DEPTH DRILLER
 DL  .F               884:   DEPTH LOGGER
 BLI .F               882:   BOTTOM LOG INTERVAL
 TLI .F                28:   TOP LOG INTERVAL
 CS  .IN            8.625:   CASING SIZE
 BS  .IN               12:   BIT SIZE
 BSD .F               855:   BIT SIZE AT DEPTH
 DFT .            KCL MUD:   DRILLING FLUID TYPE
 DFD .                8.7:   DRILLING FLUID DENSITY
 BHT .F                75:   BOTTOM HOLE TEMPERATURE
 TCS .HRS            0130:   TIME CURCULATED STOPPED
 MRT .F                75:   MAXIMUM RECORDED TEMPERATURE
 ENGI.            C. DOAK:   RECORDING ENGINEER
 WITN.            R. LYON:   WITNESSED BY
 CLNT.            A2DTECH:   CLIENT CODE
 ORIG.           5" PRINT:   ORIGIN OF DATA
 UWI .       490251035400:   UNIQUE WELL ID
 DICO. A2D Technologies, Inc.:   DIGITIZING COMPANY
~OTHER INFORMATION
~A   DEPT       CALD      GRD       CORR       DPHI         RHOB      SPR        ILD        ILM       SGRD   
# ...
  613.0000     8.0062   138.6886     0.0471     0.1090     2.4959   -42.8885     4.0623     4.0403     6.5612
  613.5000     8.0209   139.2788     0.0456     0.1108     2.4903   -42.5947     3.8967     3.7784     5.1976
  614.0000     8.0203   138.8189     0.0426     0.1148     2.4831   -41.9991     3.8427     3.8046     3.4573
  614.5000     8.0199   139.8582     0.0381     0.1162     2.4839   -41.3895     3.9814     3.9933     3.4431
  615.0000     8.0194   140.7478     0.0410     0.1102     2.4898   -40.5224     4.2028     4.2792     4.5130
  615.5000     8.0339   139.6913     0.0485     0.1063     2.4980   -40.0797     4.4721     4.6174     6.7830
  616.0000     8.0334   136.9880     0.0544     0.0991     2.5115   -39.9339     4.7586     4.8800     8.0304
  616.5000     8.0330   138.0251     0.0559     0.0956     2.5182   -39.7892     5.0286     5.1660     8.1410
  617.0000     8.0326   138.4678     0.0604     0.0920     2.5279   -39.7946     5.3139     5.4887     8.3099
  617.5000     8.0321   138.4570     0.0618     0.0896     2.5249   -39.6498     5.5767     5.6818     8.3078
  618.0000     8.0467   140.6939     0.0573     0.0938     2.5174   -39.6543     5.7721     5.8411     8.3062
  618.5000     8.0461   140.6853     0.0483     0.0959     2.5122   -39.5088     5.9831     6.0049     8.4201
  619.0000     8.0457   143.6707     0.0393     0.1040     2.4935   -39.3649     6.3130     6.1733     8.5949
  619.5000     8.0602   144.4105     0.0348     0.1082     2.4807   -39.3703     6.7175     6.2162     8.7733
  620.0000     8.0598   140.2081     0.0392     0.1042     2.4997   -39.2245     6.8576     6.3027     8.8364
  620.5000     8.0743   144.6905     0.0377     0.1010     2.5054   -39.2300     6.7623     6.3027     9.0157
  621.0000     8.0739   146.6280     0.0317     0.1100     2.4904   -39.0842     6.6226     6.1733     9.1394
  621.5000     8.0733   147.5198     0.0376     0.1106     2.4754   -39.0896     6.6677     6.1308     9.0741
  622.0000     8.0729   142.7186     0.0256     0.1190     2.4702   -38.9448     6.7155     6.0049     8.8248
  622.5000     8.0724   139.1150     0.0046     0.1244     2.4724   -38.9494     6.6628     6.0049     8.7622
  623.0000     8.0720   137.1602     0.0001     0.1204     2.4739   -38.9547     6.5732     6.0885     8.8217
  623.5000     8.0716   139.3993     0.0001     0.1247     2.4619   -38.9590     6.5723     6.1797     8.8807
  624.0000     8.0712   144.1789     0.0016     0.1387     2.4470   -38.9634     6.5714     6.2593     8.9405
  624.5000     8.0706   147.1643     0.0030     0.1360     2.4447   -38.9677     6.6163     6.1733     8.9386
  625.0000     8.0702   147.1557     0.0075     0.1328     2.4454   -38.9720     6.7073     5.9635     8.8140
  625.5000     8.0548   143.5543     0.0149     0.1271     2.4619   -38.9764     6.8470     5.8411     8.5715
  626.0000     8.0544   146.8369     0.0224     0.1259     2.4641   -38.9807     6.9896     5.8411     8.6292
  626.5000     8.0539   149.0738     0.0224     0.1259     2.4650   -38.8360     6.9405     5.8418     8.8083
  627.0000     8.0386   152.7169     0.0208     0.1229     2.4708   -38.8406     6.7367     5.9225     8.8065
  627.5000     8.0232   156.9892     0.0208     0.1280     2.4618   -38.8458     6.4748     5.9635     8.7441
  628.0000     8.0077   158.7792     0.0223     0.1313     2.4528   -38.8501     6.3851     5.9225     8.6821
  628.5000     8.0073   155.1756     0.0267     0.1319     2.4506   -38.8545     6.3842     5.9225     8.8012
  629.0000     8.0219   151.1250     0.0327     0.1280     2.4595   -38.8588     6.3833     5.8816     8.7994
  629.5000     8.0213   153.8110     0.0327     0.1290     2.4603   -39.0122     6.3825     5.8411     8.7976
  630.0000     8.0209   154.8503     0.0326     0.1277     2.4550   -39.1656     6.3377     5.7199     8.7348
  630.5000     8.0205   144.5102     0.0356     0.1256     2.4640   -39.4680     6.2931     5.6037     8.5538
  631.0000     8.0199   143.6034     0.0416     0.1236     2.4684   -39.6214     6.1161     5.5268     8.5520
  631.5000     8.0195   144.7923     0.0430     0.1221     2.4751   -39.7758     5.8709     5.5651     8.6101
  632.0000     8.0341   142.9873     0.0355     0.1278     2.4602   -39.7801     5.7100     5.6037     8.5486
  632.5000     8.0336   141.9329     0.0340     0.1348     2.4475   -39.9335     5.6308     5.6426     8.4880
  633.0000     8.0332   143.8683     0.0384     0.1400     2.4451   -40.0869     5.5145     5.5268     8.0853
  633.5000     8.0327   140.2647     0.0384     0.1433     2.4272   -40.3893     5.3633     5.3372     6.6541
  634.0000     8.0309   137.1123     0.0305     0.1487     2.4347   -40.6917     5.2525     5.1575     6.0869
  634.5000     8.0168   132.7624     0.0204     0.1329     2.4467   -41.2922     5.1085     5.0867     7.6455
  635.0000     8.0014   130.3586     0.0353     0.1251     2.4601   -41.7536     5.0007     5.0867     7.4355
  635.5000     8.0010   133.1943     0.0428     0.1170     2.4810   -42.1961     4.8322     5.0168     7.9658
  636.0000     8.0006   136.3293     0.0368     0.1125     2.4885   -42.3495     4.6673     4.9479     8.0755
  636.5000     8.0151   136.7698     0.0337     0.1114     2.4884   -42.2037     4.4770     4.6817     7.6920
  637.0000     8.0296   133.0165     0.0367     0.1141     2.4862   -42.0590     4.2355     4.4221     5.6731
  637.5000     8.0292   131.3634     0.0382     0.1242     2.4705   -41.7664     4.0629     4.0770     3.6437
  638.0000     8.0286   135.5442     0.0336     0.1281     2.4578   -41.4716     4.1189     4.0489     3.4708
  638.5000     8.0282   136.5856     0.0306     0.1332     2.4495   -41.1788     4.2632     4.1913     7.4245
  639.0000     8.0128   134.4790     0.0321     0.1366     2.4458   -40.7362     4.4134     4.3992     7.7911
  639.5000     8.0124   133.8716     0.0336     0.1389     2.4450   -40.5915     4.5765     4.6174     7.8436
  640.0000     8.0120   137.1543     0.0320     0.1410     2.4405   -40.4468     4.8262     4.8800     7.8419
  640.5000     8.0115   139.3911     0.0274     0.1455     2.4315   -40.6013     5.0648     5.1961     7.9496
  641.0000     8.0110   142.6759     0.0185     0.1491     2.4255   -40.9037     5.2423     5.4509     8.0583
  641.5000     8.0105   144.9150     0.0260     0.1521     2.4195   -41.3551     5.3888     5.6037     6.9197
  642.0000     8.0252   142.5090     0.0184     0.1435     2.4248   -41.6575     5.5010     5.6037     7.8353
  642.5000     8.0246   140.7018     0.0139     0.1330     2.4406   -41.9599     5.5382     5.5651     8.1097
  643.0000     8.0242   140.3959     0.0304     0.1240     2.4636   -42.2623     5.4993     5.4509     8.1076
  643.5000     8.0238   143.6786     0.0333     0.1234     2.4703   -42.2826     5.3078     5.1575     8.1060
  644.0000     8.0233   144.8697     0.0318     0.1267     2.4613   -42.4211     5.0250     4.7676     8.1036
  644.5000     8.0228   141.2661     0.0303     0.1252     2.4658   -42.2753     4.6887     4.3089     7.5390
  645.0000     8.0224   135.5689     0.0272     0.1197     2.4800   -42.1317     4.4052     4.1338     4.2584
  645.5000     8.0369   133.3147     0.0212     0.1106     2.4912   -41.8380     4.1965     4.0489     3.3423
  646.0000     8.0364   139.1444     0.0257     0.1049     2.4965   -41.2462     4.0815     4.1913     6.9547
  646.5000     8.0360   135.8402     0.0391     0.1025     2.5008   -40.8033     4.1954     4.3992     7.8749
  647.0000     8.0505   133.8855     0.0406     0.1007     2.5046   -40.2117     4.3424     4.6817     7.8191
  647.5000     8.0500   131.1823     0.0391     0.0968     2.5150   -39.7590     4.4987     4.9175     7.7636
  648.0000     8.0496   129.2275     0.0390     0.0953     2.5165   -39.3262     4.7823     5.2293     6.6102
  648.5000     8.0491   130.4144     0.0390     0.0950     2.5135   -39.0325     4.9842     5.4509     7.7607
  649.0000     8.0337   132.5016     0.0405     0.0962     2.5172   -38.7387     5.2670     5.6426     8.0445
