~VERSION INFORMATION
 VERS.                2.0:   CWLS LOG ASCII STANDARD - VERSION 2.0
 WRAP.                 NO:   ONE LINE PER DEPTH STEP
~WELL INFORMATION
#MNEM.UNIT      DATA TYPE    INFORMATION
#----------   ------------   ------------------------------
 STRT.F           84.0000:   START DEPTH
 STOP.F          860.0000:   STOP DEPTH
 STEP.F            0.5000:   STEP LENGTH
 NULL.          -999.2500:   NO VALUE
 COMP.               NAVY:   COMPANY
 WELL. 52-S-11  NPR #3 #52S-11:   WELL
 FLD .        TEAPOT DOME:   FIELD
 LOC .      S11 T38N R78W:   LOCATION
 CNTY.            NATRONA:   COUNTY
 STAT.            WYOMING:   STATE
 CTRY. UNITED STATES OF AMERICA:   COUNTRY
 SRVC.       Schlumberger:   SERVICE COMPANY
 DATE.        01-JUL-1962:   LOGDATE
 API .       490250637300:   API NUMBER
~CURVE INFORMATION
#MNEM.UNIT       API CODE    CURVE DESCRIPTION
#----------   ------------   ------------------------------
 DEPT.F                  :   
 ASN .OHMM   05 041 16 00:   AMPLIFIED SHORT NORMAL 16"
 CILD.MMHO   05 110 46 00:   CONDUCTIVITY INDUCTION LOG DEEP
 ILD .OHMM   05 120 46 00:   INDUCTION LOG DEEP
 SPR .MV     05 010 01 00:   SPONTANEOUS POTENTIAL FROM RES.
 GR  .GAPI   30 310 01 00:   GAMMA RAY
~PARAMETER INFORMATION
#MNEM.UNIT          VALUE    DESCRIPTION
#----------   ------------   ------------------------------
 LMF .                 KB:   LOG MEASURED FROM
 DMF .                 KB:   DRILLING MEASURED FROM
 EKB .F              5191:   KELLING BUSHING
 EGL .F              5186:   GROUND LEVEL
 DATE.           7-1-1962:   RUN DATE
 RUN .                  1:   RUN NUMBER
 DD  .F               860:   DEPTH DRILLER
 DL  .F               861:   DEPTH LOGGER
 BLI .F               860:   BOTTOM LOG INTERVAL
 TLI .F                91:   TOP LOG INTERVAL
 CBD .F                10:   CASING BOTTOM DRILLER
 BS  .IN             6.75:   BIT SIZE
 BSD .F               860:   BIT SIZE AT DEPTH
 DFT .            GEL-OIL:   DRILLING FLUID TYPE
 DFD .               10.2:   DRILLING FLUID DENSITY
 DFV .                 45:   DRILLING FLUID VISCOSITY
 DFL .                  4:   DRILLING FLUID LOSS
 MSS .           FLOWLINE:   MUD SAMPLE SOURCE
 RMS .OHMM           5.54:   RESISTIVITY MUD SAMPLE
 MST .F                75:   MUD SAMPLE TEMPERATURE
 RMB .OHMM           5.19:   RESISTIVITY MUD AT BHT
 BHT .F                80:   BOTTOM HOLE TEMPERATURE
 TCS .HRS               1:   TIME CURCULATED STOPPED
 MRT .F                80:   MAXIMUM RECORDED TEMPERATURE
 LUN .               2503:   LOGGING UNIT NUMBER
 LUL .              CSPR.:   LOGGING UNIT LOCATION
 ENGI.             KNOBEL:   RECORDING ENGINEER
 WITN.          JORGENSEN:   WITNESSED BY
 CLNT.            A2DTECH:   CLIENT CODE
 ORIG.      2" & 5" PRINT:   ORIGIN OF DATA
 UWI .       490250637300:   UNIQUE WELL ID
 DICO. A2D Technologies, Inc.:   DIGITIZING COMPANY
~OTHER INFORMATION
~A   DEPT      ASN       CILD        ILD        SPR         GR   
# ...
  328.0000     5.8933   180.0348     5.9328   -28.5621  -999.2500
  328.5000     6.0775   174.0370     6.0808   -28.2662  -999.2500
  329.0000     6.2526   167.2840     6.1539   -27.9681  -999.2500
  329.5000     6.3884   163.5521     6.3010   -27.5221  -999.2500
  330.0000     6.4787   160.5755     6.2972   -27.3764  -999.2500
  330.5000     6.5387   159.1095     6.3695   -27.3877  -999.2500
  331.0000     6.5534   159.9094     6.4416   -27.2439  -999.2500
  331.5000     6.5527   159.9547     6.4378   -27.2533  -999.2500
  332.0000     6.5977   160.7552     6.4340   -27.2623  -999.2500
  332.5000     6.6122   161.5646     6.4302   -27.2713  -999.2500
  333.0000     6.5509   162.3644     6.4264   -27.1279  -999.2500
  333.5000     6.4897   163.1643     6.4219   -27.1372  -999.2500
  334.0000     6.5042   164.7194     6.4182   -26.9935  -999.2500
  334.5000     6.5188   164.7639     6.4144   -26.8523  -999.2500
  335.0000     6.5182   166.3190     6.4107   -26.8613  -999.2500
  335.5000     6.5176   167.8741     6.4070   -26.8704  -999.2500
  336.0000     6.5170   169.4292     6.4032   -26.8794  -999.2500
  336.5000     6.5315   170.2291     6.3995   -26.8884  -999.2500
  337.0000     6.5156   171.0289     6.3958   -26.7427  -999.2500
  337.5000     6.4696   171.8287     6.3920   -26.7540  -999.2500
  338.0000     6.3629   171.1179     6.3883   -26.7630  -999.2500
  338.5000     6.3017   171.1631     6.3846   -26.7720  -999.2500
  339.0000     6.3163   170.4518     6.4567   -26.7810  -999.2500
  339.5000     6.3461   168.9969     6.4530   -26.9425  -999.2500
  340.0000     6.4060   167.5308     6.5251   -26.9515  -999.2500
  340.5000     6.5721   165.3095     6.5213   -26.9605  -999.2500
  341.0000     6.7988   161.5776     6.5935   -26.9696  -999.2500
  341.5000     6.8133   156.3351     6.7406   -26.9787  -999.2500
  342.0000     6.8127   151.0927     6.8886   -26.9878  -999.2500
  342.5000     6.9636   146.6055     7.0366   -27.0198  -999.2500
  343.0000     7.0701   142.1183     7.1855   -27.1603  -999.2500
  343.5000     7.1483   137.6311     7.2577   -27.3218  -999.2500
  344.0000     7.1891   136.1651     7.4057   -27.4832  -999.2500
  344.5000     7.2037   134.6990     7.4778   -27.6447  -999.2500
  345.0000     7.1423   134.7436     7.4732   -27.8062  -999.2500
  345.5000     7.0205   134.7885     7.5462   -27.8152  -999.2500
  346.0000     6.8533   135.5891     7.4657   -27.9766  -999.2500
  346.5000     6.7163   137.1451     7.3861   -28.1381  -999.2500
  347.0000     6.5945   140.2199     7.3065   -27.9064  -999.2500
  347.5000     6.4187   148.5726     6.9980   -27.6883  -999.2500
  348.0000     6.2424   166.7440     6.4460   -27.4703  -999.2500
  348.5000     5.9534   189.4471     5.5283   -27.2451  -999.2500
  349.0000     5.6651   229.5219     4.6351   -26.9165  -999.2500
  349.5000     5.0902   286.9683     3.8726   -26.7763  -999.2500
  350.0000     4.4242   356.7087     3.2862   -26.7884  -999.2500
  350.5000     3.8178   413.2409     2.6479   -26.8005  -999.2500
  351.0000     3.5144   467.3281     2.3369   -26.4982  -999.2500
  351.5000     3.4837   531.9077     2.2581   -26.2009  -999.2500
  352.0000     3.3015   574.2640     2.3279   -25.7514  -999.2500
  352.5000     3.1345   599.2488     2.3977   -25.3267  -999.2500
  353.0000     3.1181   580.4268     2.4676   -25.7985  -999.2500
  353.5000     3.2095   521.5746     2.6133   -26.5716  -999.2500
  354.0000     3.4818   463.9658     2.9226   -27.6491  -999.2500
  354.5000     3.7996   384.0302     3.5524   -27.9656  -999.2500
  355.0000     4.1932   293.5561     4.8698   -27.6732  -999.2500
  355.5000     5.3292   242.4242     6.2295   -27.5301  -999.2500
  356.0000     6.7833   163.9803     7.4374   -27.6974  -999.2500
  356.5000     7.5708   121.4699     8.6453   -28.0139  -999.2500
  357.0000     8.3583   100.5932    10.0809   -28.4826  -999.2500
  357.5000     9.1307    86.2658    10.9853   -28.9513  -999.2500
  358.0000     9.6757    79.5285    11.2084   -29.8766  -999.2500
  358.5000    10.1451    79.5887    11.1250   -30.4975  -999.2500
  359.0000    10.0235    87.2018     9.8291   -30.5096  -999.2500
  359.5000     9.6140   100.1019     8.5332   -30.2142  -999.2500
  360.0000     9.5227   121.3101     7.6926   -29.7727  -999.2500
  360.5000     9.2042   151.5818     6.9278   -29.1759  -999.2500
  361.0000     8.3401   180.3430     6.2389   -28.5792  -999.2500
  361.5000     6.9307   191.7325     5.5500   -27.9824  -999.2500
  362.0000     6.2030   199.3456     5.0887   -27.5349  -999.2500
  362.5000     5.6269   203.1823     5.0068   -27.0928  -999.2500
  363.0000     5.3689   202.4721     5.0767   -27.1054  -999.2500
  363.5000     5.7473   197.2604     5.2982   -27.5741  -999.2500
  364.0000     6.5500   185.2360     5.8233   -28.6516  -999.2500
  364.5000     7.9587   161.1271     6.8795   -29.4248  -999.2500
  365.0000     8.5341   137.0181     7.7839   -29.5890  -999.2500
  365.5000     8.8064   118.1961     8.5366   -29.1394  -999.2500
  366.0000     8.9727   107.6824     9.0617   -28.8422  -999.2500
  366.5000     9.1844   100.9450     9.4350   -28.5449  -999.2500
  367.0000     9.4265    98.7393     9.6581   -28.4197  -999.2500
  367.5000     9.6382    97.2890     9.8782   -28.9143  -999.2500
  368.0000     9.9863    95.8386    10.0254   -29.8167  -999.2500
  368.5000    10.3252    94.3732    10.2454   -30.4376  -999.2500
  369.0000    10.7645    92.9379    10.3168   -30.7541  -999.2500
  369.5000    10.9132    88.4664    10.5368   -30.4618  -999.2500
  370.0000    11.0609    85.5055    10.6082   -30.1664  -999.2500
  370.5000    11.2077    85.5657    10.6768   -30.3337  -999.2500
  371.0000    11.2040    84.8556    10.7466   -30.8024  -999.2500
  371.5000    11.2769    84.1756    10.8920   -31.5755  -999.2500
  372.0000    11.3489    84.2358    10.9619   -32.1964  -999.2500
  372.5000    11.4957    84.2961    11.0319   -32.6651  -999.2500
  373.0000    11.5687    83.6010    11.0257   -32.8264  -999.2500
  373.5000    11.6407    83.6612    11.0956   -32.5371  -999.2500
  374.0000    11.7127    83.7214    11.0895   -32.0925  -999.2500
  374.5000    11.7847    83.7817    11.1593   -31.6480  -999.2500
  375.0000    11.8567    83.0715    11.2291   -31.3556  -999.2500
  375.5000    11.9287    82.3915    11.2990   -31.2125  -999.2500
  376.0000    12.0764    81.6965    11.3688   -31.5320  -999.2500
  376.5000    12.1484    80.9863    11.4430   -32.0007  -999.2500
  377.0000    12.2204    80.2913    11.5085   -32.4694  -999.2500
  377.5000    12.3673    79.5962    11.5783   -32.9381  -999.2500
  378.0000    12.4394    78.9011    11.6481   -33.4068  -999.2500
  378.5000    12.5871    78.2061    11.6421   -33.4189  -999.2500
  379.0000    12.8105    77.5261    11.7119   -33.4309  -999.2500
  379.5000    12.9583    76.8310    11.8576   -33.4430  -999.2500
  380.0000    13.1061    76.1209    12.0018   -33.7595  -999.2500
  380.5000    13.2538    75.4381    12.0717   -34.2333  -999.2500
  381.0000    13.3308    74.7432    12.1430   -34.7073  -999.2500
  381.5000    13.4736    73.2955    12.2887   -35.0289  -999.2500
  382.0000    13.6313    72.5982    12.4344   -35.4825  -999.2500
  382.5000    13.7816    71.9033    12.5801   -35.9767  -999.2500
  383.0000    13.9917    71.2085    12.7258   -36.7269  -999.2500
  383.5000    14.1394    70.5152    12.7957   -37.3478  -999.2500
  384.0000    14.2872    69.8187    12.8655   -38.2731  -999.2500
  384.5000    14.4359    69.1239    13.0112   -39.0463  -999.2500
  385.0000    14.6585    68.4290    13.1554   -39.3627  -999.2500
  385.5000    14.8820    67.7341    13.3026   -39.5270  -999.2500
  386.0000    15.3328    66.2846    13.5985   -39.3869  -999.2500
  386.5000    15.9351    64.8342    14.1236   -39.2437  -999.2500
  387.0000    16.5374    61.8733    14.6487   -38.8435  -999.2500
  387.5000    17.2912    56.6465    15.4772   -38.3639  -999.2500
  388.0000    18.0450    52.9112    16.6093   -36.8395  -999.2500
  388.5000    19.1019    48.4588    17.6655   -34.4646  -999.2500
