~VERSION INFORMATION
 VERS.                2.0:   CWLS LOG ASCII STANDARD - VERSION 2.0
 WRAP.                 NO:   ONE LINE PER DEPTH STEP
~WELL INFORMATION
#MNEM.UNIT      DATA TYPE    INFORMATION
#----------   ------------   ------------------------------
 STRT.F           34.0000:   START DEPTH
 STOP.F          514.0000:   STOP DEPTH
 STEP.F            0.5000:   STEP LENGTH
 NULL.          -999.2500:   NO VALUE
 COMP. FENIX & SCISSON INC:   COMPANY
 WELL. NPR 3 #41 SX 10-10:   WELL
 FLD .             TEAPOT:   FIELD
 LOC .      S10 T38N R78W:   LOCATION
 CNTY.            NATRONA:   COUNTY
 STAT.            WYOMING:   STATE
 CTRY. UNITED STATES OF AMERICA:   COUNTRY
 SRVC.           BIRDWELL:   SERVICE COMPANY
 DATE.        25-JUN-1978:   LOGDATE
 API .       490251065200:   API NUMBER
~CURVE INFORMATION
#MNEM.UNIT       API CODE    CURVE DESCRIPTION
#----------   ------------   ------------------------------
 DEPT.F                  :   
 SPR .MV     07 010 01 00:   SPONTANEOUS POTENTIAL
 ILD .OHMM   07 120 46 00:   INDUCTION LOG DEEP
 SN  .OHMM   07 040 16 00:   SHORT NORMAL 16"
 CALD.IN     45 280 60 00:   CALIPER FROM DENSITY LOG
 GRD .GAPI   45 310 01 00:   GAMMA RAY FROM DENSITY LOG
 CORR.G/C3   45 356 01 00:   DENSITY CORRECTION
 DPHI.DEC    45 890 12 00:   DENSITY POROSITY SANDSTONE
 DEN .G/C3   45 350 01 00:   COMPENSATED BULK DENSTIY
 GRN .GAPI   35 310 01 00:   GAMMA RAY
 NEUT.NAPI   35 330 01 00:   NEUTRON
~PARAMETER INFORMATION
#MNEM.UNIT          VALUE    DESCRIPTION
#----------   ------------   ------------------------------
 PD  .                 GL:   PERMANENT DATUM
 EPD .F              5235:   ELEVATION PERMANENT DATUM
 LMF .                 KB:   LOG MEASURED FROM
 DAPD.F                 4:   FEET ABOVE PERMANENT DATUM
 DMF .                 KB:   DRILLING MEASURED FROM
 EKB .F              5239:   KELLING BUSHING
 EGL .F              5235:   GROUND LEVEL
 DATE.        25-JUN-1978:   RUN DATE
 RUN .                  1:   RUN NUMBER
 DD  .F               510:   DEPTH DRILLER
 DL  .F               514:   DEPTH LOGGER
 BLI .F               514:   BOTTOM LOG INTERVAL
 TLI .F                30:   TOP LOG INTERVAL
 CS  .IN            8.625:   CASING SIZE
 CBD .F                40:   CASING BOTTOM DRILLER
 CBL .F                40:   CASING BOTTOM LOGGER
 BS  .IN            7.875:   BIT SIZE
 BSD .F               510:   BIT SIZE AT DEPTH
 DFT .                KCL:   DRILLING FLUID TYPE
 DFD .                8.6:   DRILLING FLUID DENSITY
 DFV .                 31:   DRILLING FLUID VISCOSITY
 DFPH.                9.5:   DRILLING FLUID PH
 DFL .                 17:   DRILLING FLUID LOSS
 MSS .           FLOWLINE:   MUD SAMPLE SOURCE
 RMS .OHMM             .5:   RESISTIVITY MUD SAMPLE
 MST .F                74:   MUD SAMPLE TEMPERATURE
 RMF .OHMM            .54:   RESISTIVITY MUD FILTRATE SAMPLE
 MFST.F                72:   MUD FILTRATE SAMPLE TEMPERATURE
 RMC .OHMM            1.0:   RESISTIVITY MUD CAKE
 MCST.F                66:   MUD CAKE SAMPLE TEMPERATURE
 MFSS.               MEAS:   MUD FILTRATE SAMPLE SOURCE
 MCSS.               MEAS:   MUD CAKE SAMPLE SOURCE
 BHT .F                74:   BOTTOM HOLE TEMPERATURE
 TCS .HRS            0100:   TIME CURCULATED STOPPED
 MRT .F                74:   MAXIMUM RECORDED TEMPERATURE
 LUN .               2958:   LOGGING UNIT NUMBER
 LUL .               CASP:   LOGGING UNIT LOCATION
 ENGI.           REYNOLDS:   RECORDING ENGINEER
 CLNT.            A2DTECH:   CLIENT CODE
 ORIG.           5" PRINT:   ORIGIN OF DATA
 UWI .       490251065200:   UNIQUE WELL ID
 DICO. A2D Technologies, Inc.:   DIGITIZING COMPANY
~OTHER INFORMATION
~A   DEPT      SPR        ILD         SN       CALD        GRD       CORR       DPHI        DEN        GRN       NEUT   
# ...
  469.5000   -57.2857    10.3470    10.7282     7.5680    92.9412     0.0078     0.1548     2.4733    37.9154   316.2162
  470.0000   -57.2932    10.2709    10.6464     7.5680    92.4887     0.0080     0.1491     2.4591    38.3934   305.4054
  470.5000   -57.3022    10.1250    10.5666     7.5680    92.6395     0.0093     0.1500     2.4568    37.2673   298.6487
  471.0000   -57.1573    10.0504    10.3433     7.5680    90.6787     0.0077     0.1503     2.4636    36.8168   313.7847
  471.5000   -57.3166     9.8996    10.1247     7.5704    90.6787     0.0092     0.1515     2.4646    41.9403   314.8649
  472.0000   -57.4742     9.6316     9.9795     7.5831    91.1312     0.0092     0.1587     2.4568    42.4627   302.7027
  472.5000   -57.4814     9.3643     9.7686     7.5982    90.6787     0.0077     0.1539     2.4508    43.9487   297.2973
  473.0000   -57.4887     8.8558     9.4237     7.5831    89.6229     0.0076     0.1586     2.4538    46.1940   300.0000
  473.5000   -57.4976     8.2599     8.9781     7.5831    89.6365     0.0091     0.1650     2.4493    46.9403   306.7567
  474.0000   -57.5048     7.4420     8.6077     7.5982    91.8854     0.0136     0.1686     2.4358    49.9254   313.5135
  474.5000   -57.5120     6.7036     8.1393     7.5680    93.6953     0.0212     0.1740     2.4275    50.2985   320.2703
  475.0000   -57.5192     6.3704     7.6432     7.5680    98.8235     0.0418     0.1821     2.4237    46.1404   331.0811
  475.5000   -57.3759     6.0797     7.0788     7.5529   102.7451     0.0795     0.1860     2.4170    44.7015   332.4324
  476.0000   -57.2329     5.9520     6.6935     7.5529   107.5716     0.0885     0.1653     2.4005    47.2388   332.4324
  476.5000   -57.0897     6.0740     6.3254     7.5529   113.6048     0.0675     0.1314     2.4172    47.8358   335.1351
  477.0000   -57.0987     6.3285     6.1518     7.5680   115.1202     0.0269     0.1068     2.4539    47.6866   341.8919
  477.5000   -57.1059     6.6856     6.4981     7.5680   113.4540     0.0194     0.0941     2.5139    47.1601   348.6487
  478.0000   -57.1131     7.1713     7.3556     7.5831   103.0468     0.0178     0.1194     2.5537    43.4328   366.9366
  478.5000   -57.1203     7.9951     8.3841     7.5982    95.9578     0.0179     0.1257     2.5229    44.0299   410.8108
  479.0000   -57.2782     8.8043     9.3041     7.5982    92.9412     0.0208     0.1224     2.5071    44.1791   455.4054
  479.5000   -57.2857     9.7627    10.0933     7.5982    92.9412     0.0207     0.1242     2.5056    43.7313   506.7567
  480.0000   -57.4451    10.2425    10.2988     7.5982    92.4887     0.0207     0.1371     2.5071    38.6850   654.0541
  480.5000   -57.4517    10.3100    10.3656     7.5831    91.1312     0.0222     0.1380     2.5011  -999.2500   745.9459
  481.0000   -57.4595    10.3756    10.4313     7.5529    94.3832     0.0222     0.1356     2.4906  -999.2500   766.2162
  481.5000   -57.3157    10.2990    10.3516     7.5378    97.3152     0.0221     0.1314     2.4899  -999.2500   741.8919
  482.0000   -57.1726    10.2931    10.3454     7.5378    97.3152     0.0221     0.1290     2.4906  -999.2500   608.1081
  482.5000   -56.7304    10.2883    10.4109     7.5378    97.3152     0.0221     0.1338     2.4981  -999.2500   465.6508
  483.0000   -56.2865    10.4993    10.6213     7.5378    97.4661     0.0220     0.1356     2.4989  -999.2500   301.3513
  483.5000   -55.8426    10.9392    10.8376     7.5529    97.4661     0.0205     0.1299     2.4929  -999.2500   291.8919
  484.0000   -55.6992    11.3977    11.1351     7.5529    95.5053     0.0145     0.1212     2.4899  -999.2500   285.1351
  484.5000   -55.5451    11.6313    11.5202     7.5529    91.1166     0.0129     0.1176     2.4944  -999.2500   277.0270
  485.0000   -55.4120    11.7877    11.8364     7.5529    91.2821     0.0144     0.1215     2.5102  -999.2500   268.9189
  485.5000   -55.3935    11.9466    12.0774     7.5529    92.1870     0.0189     0.1257     2.5124  -999.2500   254.0540
  486.0000   -55.3751    12.1060    12.3233     7.5529    93.5445     0.0234     0.1310     2.5094  -999.2500   241.8919
  486.5000   -55.3566    12.2690    12.4875     7.5529    94.1478     0.0201     0.1332     2.4989  -999.2500  -999.2500
  487.0000   -55.3381    12.3499    12.6539     7.5529    91.8854     0.0143     0.1170     2.4906  -999.2500  -999.2500
  487.5000   -55.3197    12.4285    12.8226     7.5529    91.1312     0.0113     0.1212     2.5034  -999.2500  -999.2500
  488.0000   -55.3012    12.5088    12.9038     7.5529    91.9014     0.0127     0.1263     2.5169  -999.2500  -999.2500
  488.5000   -55.2828    12.5015    12.9856     7.5529    92.7903     0.0142     0.1311     2.5139  -999.2500  -999.2500
  489.0000   -55.2643    12.5834    13.1567     7.5529    92.9412     0.0142     0.1356     2.5048  -999.2500  -999.2500
  489.5000   -55.2458    12.6639    13.2401     7.5529    92.4887     0.0186     0.1365     2.4918  -999.2500  -999.2500
  490.0000   -55.2274    12.6580    13.3240     7.5529    92.1870     0.0291     0.1353     2.4861  -999.2500  -999.2500
  490.5000   -55.2089    12.7414    13.4084     7.5529    92.4887     0.0291     0.1359     2.4861  -999.2500  -999.2500
  491.0000   -55.1982    12.7340    13.3984     7.5529    92.4887     0.0276     0.1389     2.4846  -999.2500  -999.2500
  491.5000   -55.1958    12.8164    13.3903     7.5529    91.5778     0.0260     0.1248     2.4846  -999.2500  -999.2500
  492.0000   -55.1933    12.8090    13.3816     7.5529    90.6787     0.0260     0.1209     2.4936  -999.2500  -999.2500
  492.5000   -55.1909    12.8934    13.2820     7.5529    90.8296     0.0260     0.1233     2.5056  -999.2500  -999.2500
  493.0000   -55.1884    12.8859    13.2739     7.5529    90.8296     0.0259     0.1224     2.5094  -999.2500  -999.2500
  493.5000   -55.1860    12.8799    13.2640     7.5378    90.6787     0.0259     0.1196     2.5101  -999.2500  -999.2500
  494.0000   -55.1836    12.8738    13.2560     7.5378    91.8854     0.0260     0.1179     2.5109  -999.2500  -999.2500
  494.5000   -55.1811    12.8678    13.2480     7.5378    93.0920     0.0259     0.1272     2.5124  -999.2500  -999.2500
  495.0000   -55.1787    12.8616    13.2401     7.5378    92.4887     0.0258     0.1339     2.5103  -999.2500  -999.2500
  495.5000   -55.1762    12.7657    13.2321     7.5529    90.3771     0.0258     0.1339     2.5096  -999.2500  -999.2500
  496.0000   -55.1738    12.7597    13.2235     7.5529    90.6787     0.0258     0.1318     2.4946  -999.2500  -999.2500
  496.5000   -55.1714    12.7538    13.2162     7.5378    90.9804     0.0257     0.1312     2.4946  -999.2500  -999.2500
  497.0000   -55.0146    12.7478    13.2079     7.5378    91.2821     0.0257     0.1315     2.4954  -999.2500  -999.2500
  497.5000   -55.1581    12.7414    13.1983     7.5378    88.5671     0.0257     0.1267     2.4969  -999.2500  -999.2500
  498.0000   -54.9987    12.4738    13.0994     7.5378    88.8688     0.0274     0.1292     2.4969  -999.2500  -999.2500
  498.5000   -54.9916    12.1276    13.0915     7.5529    91.4329     0.0376     0.1321     2.4969  -999.2500  -999.2500
  499.0000   -54.9846    11.9525    12.9934     7.5529    91.2549     0.0376     0.1348     2.4947  -999.2500  -999.2500
  499.5000   -54.8268    11.7028    12.8961     7.5529    89.3213     0.0376     0.1366     2.4895  -999.2500  -999.2500
  500.0000   -54.8181    11.5313    12.7994     7.5378    88.1146     0.0465     0.1312     2.4917  -999.2500  -999.2500
  500.5000   -54.6604    11.4579    12.6235     7.5378    93.3937     0.0495     0.1303     2.4948  -999.2500  -999.2500
  501.0000   -54.5028    11.3005    12.4500     7.5378    91.8854     0.0495     0.1249     2.4970  -999.2500  -999.2500
  501.5000   -54.4955    11.1451    12.2745     7.5378    93.9970     0.0495     0.1208     2.4978  -999.2500  -999.2500
  502.0000   -54.6393    10.9162    12.0266     7.5378    94.6003     0.0479     0.1193     2.5106  -999.2500  -999.2500
  502.5000   -54.6304    10.7661    11.8613     7.5529    94.2986     0.0464     0.1184     2.5106  -999.2500  -999.2500
