~VERSION INFORMATION
 VERS.                2.0:   CWLS LOG ASCII STANDARD - VERSION 2.0
 WRAP.                 NO:   ONE LINE PER DEPTH STEP
~WELL INFORMATION
#MNEM.UNIT      DATA TYPE    INFORMATION
#----------   ------------   ------------------------------
 STRT.F           65.0000:   START DEPTH
 STOP.F          860.0000:   STOP DEPTH
 STEP.F            0.5000:   STEP LENGTH
 NULL.          -999.2500:   NO VALUE
 COMP.          U.S. NAVY:   COMPANY
 WELL. NPR 3 TEAPOT DOM #71-S-34:   WELL
 FLD .             TEAPOT:   FIELD
 LOC .      S34 T39N R78W:   LOCATION
 CNTY.            NATRONA:   COUNTY
 STAT.            WYOMING:   STATE
 CTRY. UNITED STATES OF AMERICA:   COUNTRY
 SRVC. Schlumberger Well Surveying Corp:   SERVICE COMPANY
 DATE.        22-FEB-1961:   LOGDATE
 API .       490250657300:   API NUMBER
~CURVE INFORMATION
#MNEM.UNIT       API CODE    CURVE DESCRIPTION
#----------   ------------   ------------------------------
 DEPT.F                  :   
 GR  .GAPI   30 310 01 00:   GAMMA RAY
 ASN .OHMM   05 041 16 00:   AMPLIFIED SHORT NORMAL 16"
 CILD.MMHO   05 110 46 00:   CONDUCTIVITY INDUCTION LOG DEEP
 ILD .OHMM   05 120 46 00:   INDUCTION LOG DEEP
 SPR .MV     05 010 01 00:   SPONTANEOUS POTENTIAL FROM RES.
~PARAMETER INFORMATION
#MNEM.UNIT          VALUE    DESCRIPTION
#----------   ------------   ------------------------------
 LMF .                 KB:   LOG MEASURED FROM
 DMF .                 KB:   DRILLING MEASURED FROM
 EKB .F              5067:   KELLING BUSHING
 EGL .F              5063:   GROUND LEVEL
 DATE.        22-FEB-1961:   RUN DATE
 RUN .                  1:   RUN NUMBER
 DD  .F               861:   DEPTH DRILLER
 DL  .F               861:   DEPTH LOGGER
 BLI .F               860:   BOTTOM LOG INTERVAL
 TLI .F                80:   TOP LOG INTERVAL
 CBD .F                12:   CASING BOTTOM DRILLER
 BS  .IN            7.875:   BIT SIZE
 BSD .F               861:   BIT SIZE AT DEPTH
 DFT .       GEL-OIL EMUL:   DRILLING FLUID TYPE
 DFD .                9.6:   DRILLING FLUID DENSITY
 DFV .                 38:   DRILLING FLUID VISCOSITY
 DFPH.                  9:   DRILLING FLUID PH
 DFL .               15.4:   DRILLING FLUID LOSS
 MSS .           FLOWLINE:   MUD SAMPLE SOURCE
 RMS .OHMM           0.86:   RESISTIVITY MUD SAMPLE
 MST .F                68:   MUD SAMPLE TEMPERATURE
 RMF .OHMM           0.52:   RESISTIVITY MUD FILTRATE SAMPLE
 MFST.F                68:   MUD FILTRATE SAMPLE TEMPERATURE
 RMC .OHMM           1.98:   RESISTIVITY MUD CAKE
 MCST.F                68:   MUD CAKE SAMPLE TEMPERATURE
 MFSS.               MEAS:   MUD FILTRATE SAMPLE SOURCE
 MCSS.               MEAS:   MUD CAKE SAMPLE SOURCE
 RMB .OHMM           0.77:   RESISTIVITY MUD AT BHT
 BHT .F                78:   BOTTOM HOLE TEMPERATURE
 TCS .HRS               1:   TIME CURCULATED STOPPED
 MRT .F                78:   MAXIMUM RECORDED TEMPERATURE
 LUN .               2523:   LOGGING UNIT NUMBER
 LUL .               CSPR:   LOGGING UNIT LOCATION
 ENGI.             KNOBEL:   RECORDING ENGINEER
 WITN.          JORGENSEN:   WITNESSED BY
 CLNT.            A2DTECH:   CLIENT CODE
 ORIG.      2" , 5" PRINT:   ORIGIN OF DATA
 UWI .       490250657300:   UNIQUE WELL ID
 DICO. A2D Technologies, Inc.:   DIGITIZING COMPANY
~OTHER INFORMATION
~A   DEPT       GR          ASN       CILD        ILD      SPR   
# ...
  553.0000  -999.2500     9.2476   137.3656     7.3973   -21.2893
  553.5000  -999.2500     9.2320   137.2969     7.4004   -21.2835
  554.0000  -999.2500     9.2163   135.6533     7.4819   -21.4357
  554.5000  -999.2500     9.2494   134.7665     7.5636   -21.5878
  555.0000  -999.2500     9.2989   133.1364     7.6452   -21.7399
  555.5000  -999.2500     9.4044   131.4929     7.6484   -21.8921
  556.0000  -999.2500     9.4984   129.8493     7.7305   -21.8863
  556.5000  -999.2500     9.6082   128.2058     7.7336   -21.8817
  557.0000  -999.2500     9.7179   127.3496     7.8344   -22.0350
  557.5000  -999.2500     9.7962   125.7061     7.9193   -22.0292
  558.0000  -999.2500     9.8746   125.6373     8.0568   -22.1825
  558.5000  -999.2500     9.9060   125.5669     8.0598   -22.1771
  559.0000  -999.2500     9.8746   127.0574     8.0629   -22.0157
  559.5000  -999.2500     9.8433   126.9887     8.0659   -22.0107
  560.0000  -999.2500     9.8433   127.7246     7.9906   -21.8495
  560.5000  -999.2500     9.8927   128.4432     7.9152   -21.8448
  561.0000  -999.2500    10.0000   128.3573     7.9182   -21.8401
  561.5000  -999.2500     9.7806   129.0788     7.7651   -21.8354
  562.0000  -999.2500     9.5611   129.0072     7.7677   -21.8307
  562.5000  -999.2500     9.4357   128.9370     7.7872   -21.8064
  563.0000  -999.2500     9.4671   129.6399     7.8528   -21.6638
  563.5000  -999.2500     9.5298   129.5827     7.9344   -21.5024
  564.0000  -999.2500     9.5611   130.3070     7.9372   -21.8113
  564.5000  -999.2500     9.5925   131.0085     7.9403   -21.8072
  565.0000  -999.2500     9.5768   130.9397     7.9436   -21.9600
  565.5000  -999.2500     9.5298   131.1519     7.9466   -21.9542
  566.0000  -999.2500     9.5136   131.5905     7.9498   -21.9496
  566.5000  -999.2500     9.4984   132.3071     7.9529   -22.1019
  567.0000  -999.2500     9.4828   132.2224     7.9560   -22.0971
  567.5000  -999.2500     9.4671   132.9582     7.9598   -22.0925
  568.0000  -999.2500     9.4671   132.8895     7.9558   -22.0878
  568.5000  -999.2500     9.4514   133.6024     7.8867   -22.1097
  569.0000  -999.2500     9.4357   133.9703     7.8116   -22.2354
  569.5000  -999.2500     9.3887   134.5630     7.7134   -22.2304
  570.0000  -999.2500     9.3103   134.9606     7.5827   -22.2257
  570.5000  -999.2500     9.2163   135.6781     7.5071   -22.2210
  571.0000  -999.2500     9.1223   136.7034     7.2749   -22.2158
  571.5000  -999.2500     9.0439   137.9028     7.1754   -22.0549
  572.0000  -999.2500     9.0282   139.3917     7.0455   -22.0502
  572.5000  -999.2500     9.0125   140.8978     6.8372   -22.0452
  573.0000  -999.2500     8.9028   144.5145     6.6920   -22.1975
  573.5000  -999.2500     8.7618   148.6343     6.5061   -22.1928
  574.0000  -999.2500     8.6991   151.7151     6.2737   -22.1881
  574.5000  -999.2500     8.6991   157.1916     6.1190   -22.1834
  575.0000  -999.2500     8.6207   161.9422     5.8089   -22.1787
  575.5000  -999.2500     8.5110   168.8146     5.6550   -22.0172
  576.0000  -999.2500     8.2445   171.8954     5.6580   -22.0125
  576.5000  -999.2500     7.8997   174.9935     5.6611   -22.0071
  577.0000  -999.2500     7.6481   174.1201     5.6642   -22.0031
  577.5000  -999.2500     7.5078   171.6892     5.6673   -21.9984
  578.0000  -999.2500     7.7116   170.0456     5.8012   -21.9933
  578.5000  -999.2500     7.9467   165.9918     5.9515   -21.9890
  579.0000  -999.2500     8.1505   161.0628     6.1541   -21.9843
  579.5000  -999.2500     8.3386   155.6490     6.3208   -21.9795
  580.0000  -999.2500     8.4483   150.0684     6.5468   -21.8181
  580.5000  -999.2500     8.5266   146.0627     6.7113   -21.8135
  581.0000  -999.2500     8.5737   144.4191     6.9454   -21.6520
  581.5000  -999.2500     8.6050   144.3504     7.0270   -21.6473
  582.0000  -999.2500     8.6364   145.8564     6.9516   -21.6426
  582.5000  -999.2500     8.6520   146.5879     6.6399   -21.6379
  583.0000  -999.2500     8.6520   147.3648     6.4083   -21.6325
  583.5000  -999.2500     8.6163   149.5700     6.1759   -21.6285
  584.0000  -999.2500     8.5110   153.4383     5.9827   -21.6238
  584.5000  -999.2500     8.4169   158.0939     5.8114   -21.6187
  585.0000  -999.2500     8.3072   162.7496     5.7012   -21.5596
  585.5000  -999.2500     8.1661   167.4053     5.5602   -21.2960
  586.0000  -999.2500     8.0094   173.6357     5.4063   -21.2906
  586.5000  -999.2500     7.8213   179.8717     5.2524   -21.2731
  587.0000  -999.2500     7.6176   186.3939     5.1770   -21.1254
  587.5000  -999.2500     7.2727   194.6721     5.1809   -21.1207
  588.0000  -999.2500     7.0063   195.4080     5.1047   -21.1160
  588.5000  -999.2500     6.8337   195.3221     5.1870   -20.9545
  589.0000  -999.2500     6.7712   192.8911     5.3471   -20.9491
  589.5000  -999.2500     6.7712   188.0980     5.4286   -20.9451
  590.0000  -999.2500     6.8966   180.9426     5.5887   -20.9404
  590.5000  -999.2500     7.2727   173.7872     5.8306   -20.9356
  591.0000  -999.2500     7.7116   168.0264     6.0659   -20.9302
  591.5000  -999.2500     7.9937   161.0341     6.2266   -20.9263
  592.0000  -999.2500     8.1818   157.8158     6.4652   -21.0789
  592.5000  -999.2500     8.3072   153.8100     6.6412   -21.0737
  593.0000  -999.2500     8.4483   150.5917     6.7853   -21.0690
  593.5000  -999.2500     8.5854   147.3733     6.9454   -21.2210
  594.0000  -999.2500     8.6991   144.1550     7.0528   -21.2163
  594.5000  -999.2500     8.8102   142.5114     7.1868   -21.3023
  595.0000  -999.2500     8.9383   139.2913     7.3164   -21.3636
  595.5000  -999.2500     9.0647   138.4197     7.3501   -21.5160
  596.0000  -999.2500     9.1632   137.5636     7.3532   -21.5103
  596.5000  -999.2500     9.2454   137.3190     7.4349   -21.6624
  597.0000  -999.2500     9.3574   135.8513     7.5165   -21.6578
  597.5000  -999.2500     9.4357   134.2077     7.5987   -21.6532
  598.0000  -999.2500     9.4828   134.1390     7.6803   -21.6485
  598.5000  -999.2500     9.5141   134.0702     7.6833   -21.6439
  599.0000  -999.2500     9.5611   132.4252     7.6864   -21.6393
  599.5000  -999.2500     9.5611   132.3407     7.6895   -21.6347
  600.0000    66.1654     9.5768   131.4846     7.6926   -21.6301
  600.5000    65.4630     9.5850   131.4661     7.6954   -21.6254
  601.0000    68.3037     9.6011   131.5120     7.6986   -21.6604
  601.5000    70.5407     9.6172   133.0945     7.7017   -21.7070
  602.0000    71.2958     9.6264   133.1024     7.7837   -21.7536
  602.5000    64.9854     9.5956   133.1116     7.8653   -21.6065
  603.0000    65.5912     9.5613   133.1192     7.8683   -21.4451
  603.5000    64.3865     9.4716   131.5521     7.8713   -21.4396
  604.0000    64.9993     9.3625   131.5597     7.7959   -21.5917
  604.5000    63.1991     9.1593   131.5674     7.7991   -21.5872
  605.0000    63.5042     9.0032   132.3624     7.8027   -21.5826
  605.5000    62.6062     8.7373   133.1761     7.7265   -21.5784
  606.0000    60.9564     8.5185   135.6429     7.4948   -21.5291
  606.5000    61.7137     8.2986   140.2612     7.0269   -21.4122
  607.0000    62.0176     8.0869   145.7807     6.2450   -21.5176
  607.5000    59.7674     7.7838   156.8120     5.6986   -21.5596
  608.0000    57.8168     7.3455   170.2054     5.1398   -21.5549
  608.5000    61.1294     6.9073   189.1107     4.3711   -21.5502
  609.0000    61.2841     6.4690   223.7640     3.8247   -21.5450
  609.5000    58.7330     5.9054   248.3000     3.2783   -21.5408
  610.0000    55.5794     5.4044   304.0949     2.7319   -21.5361
  610.5000    53.6289     4.9915   364.7337     2.4994   -21.5313
  611.0000    58.8963     4.5123   402.5366     2.1885   -21.3699
  611.5000    57.7627     4.0271   429.3159     1.9560   -21.2076
  612.0000    53.6429     3.7612   456.0952     1.7236   -20.9753
  612.5000    50.9404     3.4640   493.7174     1.7274   -20.7283
  613.0000    48.2379     3.2922   516.7411     1.7305   -20.7237
  613.5000    48.0405     3.2590   512.0243     1.8120   -20.7192
