~VERSION INFORMATION
 VERS.                2.0:   CWLS LOG ASCII STANDARD - VERSION 2.0
 WRAP.                 NO:   ONE LINE PER DEPTH STEP
~WELL INFORMATION
#MNEM.UNIT      DATA TYPE    INFORMATION
#----------   ------------   ------------------------------
 STRT.F           50.0000:   START DEPTH
 STOP.F          854.0000:   STOP DEPTH
 STEP.F            0.5000:   STEP LENGTH
 NULL.          -999.2500:   NO VALUE
 COMP. FENIX & SCISSON INC:   COMPANY
 WELL.    45 SX 11 #45-11:   WELL
 FLD .             TEAPOT:   FIELD
 LOC .      S11 T38N R78W:   LOCATION
 CNTY.            NATRONA:   COUNTY
 STAT.            WYOMING:   STATE
 CTRY. UNITED STATES OF AMERICA:   COUNTRY
 SRVC.           BIRDWELL:   SERVICE COMPANY
 DATE.        01-MAR-1978:   LOGDATE
 API .       490251058600:   API NUMBER
~CURVE INFORMATION
#MNEM.UNIT       API CODE    CURVE DESCRIPTION
#----------   ------------   ------------------------------
 DEPT.F                  :   
 CALD.IN     45 280 60 00:   CALIPER
 CORR.G/C3   45 356 01 00:   DENSITY CORRECTION
 RHOB.G/C3   45 350 01 00:   BULK DENSITY
 DPOR.DEC    45 890 12 00:   DENSITY POROSITY SANDSTONE
 GRD .GAPI   45 310 01 00:   GAMMA RAY FROM DENSITY LOG
 SPR .MV     05 010 01 00:   SPONTANEOUS POTENTIAL FROM RES.
 SN  .OHMM   05 040 16 00:   SHORT NORMAL 16"
 ILD .OHMM   05 120 46 00:   INDUCTION LOG DEEP
~PARAMETER INFORMATION
#MNEM.UNIT          VALUE    DESCRIPTION
#----------   ------------   ------------------------------
 PD  .                 GL:   PERMANENT DATUM
 EPD .F              5186:   ELEVATION PERMANENT DATUM
 LMF .                 KB:   LOG MEASURED FROM
 DAPD.F                 4:   FEET ABOVE PERMANENT DATUM
 DMF .                 KB:   DRILLING MEASURED FROM
 EKB .F              5190:   KELLING BUSHING
 EGL .F              5186:   GROUND LEVEL
 DATE.           3-1-1978:   RUN DATE
 RUN .                  1:   RUN NUMBER
 DD  .F               848:   DEPTH DRILLER
 DL  .F               856:   DEPTH LOGGER
 BLI .F               851:   BOTTOM LOG INTERVAL
 TLI .F                50:   TOP LOG INTERVAL
 CS  .IN            8.625:   CASING SIZE
 CBD .F                40:   CASING BOTTOM DRILLER
 CBL .F                40:   CASING BOTTOM LOGGER
 BS  .IN            7.875:   BIT SIZE
 BSD .F               848:   BIT SIZE AT DEPTH
 DFT .          LIGNOSULF:   DRILLING FLUID TYPE
 DFD .                8.5:   DRILLING FLUID DENSITY
 DFV .                 30:   DRILLING FLUID VISCOSITY
 DFPH.               11.5:   DRILLING FLUID PH
 MSS .                PIT:   MUD SAMPLE SOURCE
 RMS .OHMM              2:   RESISTIVITY MUD SAMPLE
 MST .F                59:   MUD SAMPLE TEMPERATURE
 RMF .OHMM            1.8:   RESISTIVITY MUD FILTRATE SAMPLE
 MFST.F                60:   MUD FILTRATE SAMPLE TEMPERATURE
 RMC .OHMM            2.2:   RESISTIVITY MUD CAKE
 MCST.F                60:   MUD CAKE SAMPLE TEMPERATURE
 MFSS.               MEAS:   MUD FILTRATE SAMPLE SOURCE
 MCSS.               MEAS:   MUD CAKE SAMPLE SOURCE
 RMB .OHMM           1.69:   RESISTIVITY MUD AT BHT
 BHT .F                70:   BOTTOM HOLE TEMPERATURE
 TCS .HRS               3:   TIME CURCULATED STOPPED
 MRT .F                70:   MAXIMUM RECORDED TEMPERATURE
 LUN .               2959:   LOGGING UNIT NUMBER
 LUL .               CASP:   LOGGING UNIT LOCATION
 ENGI.            POINTER:   RECORDING ENGINEER
 WITN.         HARRINGTON:   WITNESSED BY
 CLNT.            A2DTECH:   CLIENT CODE
 ORIG.       2", 5" PRINT:   ORIGIN OF DATA
 UWI .       490251058600:   UNIQUE WELL ID
 DICO. A2D Technologies, Inc.:   DIGITIZING COMPANY
~OTHER INFORMATION
~A   DEPT       CALD      CORR      RHOB       DPOR        GRD        SPR         SN        ILD   
# ...
  495.5000     7.8088     0.0223     2.4316     0.1340   110.1233   -18.5624     7.2801     6.7852
  496.0000     7.8083     0.0180     2.4251     0.1351   112.3509   -18.4710     7.2561     6.7073
  496.5000     7.8078     0.0180     2.4302     0.1359   114.1636   -18.3795     7.2321     6.6302
  497.0000     7.8072     0.0265     2.4356     0.1356   112.0281   -18.2880     7.1215     6.5796
  497.5000     7.8067     0.0348     2.4301     0.1352   110.9049   -18.1965     7.0253     6.5796
  498.0000     7.8062     0.0317     2.4244     0.1348   110.9166   -18.1049     6.9304     6.4640
  498.5000     7.8056     0.0303     2.4254     0.1347   110.8622   -18.0149     6.8291     6.3418
  499.0000     7.8051     0.0311     2.4300     0.1347   109.8518   -17.9694     6.6596     6.2219
  499.5000     7.8046     0.0320     2.4325     0.1369   109.3038   -18.0340     6.4796     6.1043
  500.0000     7.8040     0.0325     2.4283     0.1379   109.1951   -18.0965     6.3045     5.9886
  500.5000     7.7991     0.0355     2.4252     0.1366   108.8880   -18.1592     6.1341     5.8757
  501.0000     7.7835     0.0385     2.4350     0.1352   107.3302   -18.2218     6.0511     5.7748
  501.5000     7.7681     0.0459     2.4272     0.1366   104.3182   -18.2845     6.1648     5.8359
  502.0000     7.7528     0.0633     2.4286     0.1435   101.3124   -18.3471     6.2806     5.8905
  502.5000     7.7432     0.0805     2.4205     0.1508    98.6479   -18.4098     6.4786     5.9457
  503.0000     7.7625     0.0953     2.4100     0.1517    98.4479   -18.4724     6.7039     6.0014
  503.5000     7.7830     0.0889     2.4033     0.1443   101.1344   -18.5350     6.9573     6.0576
  504.0000     7.8036     0.0717     2.4122     0.1380   104.0982   -18.5977     7.0224     6.1313
  504.5000     7.8242     0.0548     2.4278     0.1316   109.2847   -18.6603     7.0099     6.4015
  505.0000     7.8436     0.0422     2.4401     0.1287   113.2705   -18.7230     6.9963     6.3995
  505.5000     7.8443     0.0369     2.4425     0.1283   115.9005   -18.7857     6.9827     6.4113
  506.0000     7.8442     0.0314     2.4404     0.1275   116.1818   -18.8490     6.9691     6.4183
  506.5000     7.8441     0.0265     2.4406     0.1284   116.2002   -18.9118     6.9570     6.4256
  507.0000     7.8441     0.0240     2.4432     0.1324   116.5982   -18.9343     6.9574     6.4330
  507.5000     7.8441     0.0245     2.4384     0.1365   112.4430   -18.6710     6.9573     6.4403
  508.0000     7.8441     0.0313     2.4305     0.1406   108.1734   -18.4077     6.9575     6.4480
  508.5000     7.8441     0.0383     2.4234     0.1447   107.0939   -18.1453     6.9576     6.4553
  509.0000     7.8441     0.0404     2.4173     0.1468   106.4628   -17.8827     6.9583     6.4616
  509.5000     7.8441     0.0404     2.4106     0.1398   105.8289   -17.6184     6.8979     6.2331
  510.0000     7.8441     0.0403     2.4266     0.1349   105.3581   -17.3548     6.7248     6.0956
  510.5000     7.8441     0.0390     2.4382     0.1307   107.8796   -17.3736     6.5560     6.0559
  511.0000     7.8441     0.0363     2.4363     0.1325   111.1835   -17.4103     6.3914     6.0176
  511.5000     7.8441     0.0334     2.4404     0.1347   111.2363   -17.4459     6.2224     5.9794
  512.0000     7.8441     0.0293     2.4367     0.1314   111.1153   -17.4812     6.1679     5.9400
  512.5000     7.8441     0.0251     2.4327     0.1291   111.0021   -17.5161     6.0975     5.8687
  513.0000     7.8441     0.0246     2.4340     0.1364   110.9634   -17.5343     6.0267     5.7952
  513.5000     7.8441     0.0256     2.4274     0.1442   112.4280   -17.4485     5.8134     5.5419
  514.0000     7.8442     0.0262     2.4201     0.1521   112.3921   -17.3630     5.4966     5.2448
  514.5000     7.8438     0.0233     2.4090     0.1529   110.1451   -17.2779     5.1969     4.9634
  515.0000     7.8359     0.0202     2.4019     0.1593   108.1326   -17.1979     4.9155     4.6953
  515.5000     7.8280     0.0235     2.3983     0.1695   107.5868   -17.3387     4.7044     4.5351
  516.0000     7.8201     0.0275     2.3775     0.1798   109.9464   -17.8982     4.7049     4.6060
  516.5000     7.8122     0.0249     2.3692     0.1896   114.0574   -18.3656     4.8145     4.6810
  517.0000     7.8040     0.0232     2.3504     0.1785   112.5669   -18.3551     4.8959     4.7571
  517.5000     7.8237     0.0303     2.3435     0.1677   109.1884   -18.3590     5.1925     4.8345
  518.0000     7.8631     0.0373     2.3769     0.1569   111.8247   -18.4646     5.9717     4.9131
  518.5000     7.8424     0.0420     2.4005     0.1461   114.3478   -18.7491     6.2577     5.1737
  519.0000     7.8122     0.0396     2.4222     0.1353   116.8863   -18.7507     6.4232     5.5055
  519.5000     7.7822     0.0384     2.4261     0.1307   114.5435   -18.9603     6.5930     5.8573
  520.0000     7.7629     0.0384     2.4415     0.1329   110.1154   -18.8750     6.7674     6.1648
  520.5000     7.7630     0.0384     2.4442     0.1344   110.9413   -18.7252     6.9463     6.2214
  521.0000     7.7627     0.0384     2.4294     0.1314   113.6748   -18.5728     7.0904     6.2796
  521.5000     7.7687     0.0369     2.4348     0.1284   115.4741   -18.4186     7.2087     6.3385
  522.0000     7.8141     0.0322     2.4422     0.1254   115.2612   -18.4042     7.3289     6.3978
  522.5000     7.8895     0.0273     2.4487     0.1254   114.5196   -18.4809     7.4511     6.4583
  523.0000     7.9466     0.0318     2.4473     0.1274   113.7537   -18.5587     7.5753     6.5972
  523.5000     7.9454     0.0263     2.4394     0.1317   113.4625   -18.6391     7.7017     6.7417
  524.0000     7.9451     0.0223     2.4322     0.1327   113.7668   -18.7230     7.7893     6.8304
  524.5000     7.9449     0.0253     2.4402     0.1327   114.0227   -18.9848     7.8153     6.8395
  525.0000     7.9447     0.0284     2.4385     0.1327   116.4925   -18.9160     7.8414     6.8483
  525.5000     7.9446     0.0305     2.4311     0.1344   119.4820   -18.6306     7.8675     6.8570
  526.0000     7.9444     0.0271     2.4285     0.1348   119.2588   -18.2756     7.8938     6.8658
  526.5000     7.9443     0.0266     2.4354     0.1290   114.4675   -18.1406     7.9201     6.8746
  527.0000     7.9441     0.0280     2.4521     0.1283   108.3289   -18.0008     7.9465     6.8833
  527.5000     7.9439     0.0295     2.4511     0.1287   108.1077   -18.1308     7.9730     6.8921
  528.0000     7.9438     0.0310     2.4435     0.1287   111.2226   -18.4188     7.9994     6.9009
  528.5000     7.9436     0.0324     2.4467     0.1254   114.4092   -18.7138     7.9884     6.9098
  529.0000     7.9434     0.0339     2.4505     0.1235   112.9951   -18.7321     7.9752     6.9186
  529.5000     7.9433     0.0353     2.4528     0.1216   108.8341   -18.6834     7.9619     6.9274
  530.0000     7.9431     0.0353     2.4577     0.1198   104.8645   -18.6332     7.9486     6.9363
  530.5000     7.9430     0.0311     2.4625     0.1178   103.5577   -18.5835     7.9351     6.9450
  531.0000     7.9428     0.0286     2.4669     0.1169   104.6214   -18.5339     7.8805     6.9569
  531.5000     7.9426     0.0298     2.4598     0.1283   106.0358   -18.4843     7.6747     6.8777
  532.0000     7.9425     0.0297     2.4553     0.1349   106.3315   -18.4347     7.4761     6.7498
  532.5000     7.9423     0.0262     2.4292     0.1291   108.2415   -18.3855     7.2886     6.6250
  533.0000     7.9421     0.0268     2.4418     0.1289   110.2886   -18.3561     7.2254     6.4580
  533.5000     7.9420     0.0274     2.4487     0.1307   112.4268   -18.4036     7.1263     6.4586
  534.0000     7.9418     0.0280     2.4411     0.1307   112.6013   -18.4756     7.0287     6.3247
  534.5000     7.9416     0.0279     2.4357     0.1300   109.9131   -18.5488     6.9324     6.2184
  535.0000     7.9415     0.0255     2.4384     0.1295   107.6497   -18.5600     6.8363     6.1139
  535.5000     7.9413     0.0231     2.4366     0.1312   109.4563   -18.5600     6.7032     6.0112
