~VERSION INFORMATION
 VERS.                2.0:   CWLS LOG ASCII STANDARD - VERSION 2.0
 WRAP.                 NO:   ONE LINE PER DEPTH STEP
~WELL INFORMATION
#MNEM.UNIT      DATA TYPE    INFORMATION
#----------   ------------   ------------------------------
 STRT.F           40.0000:   START DEPTH
 STOP.F          684.0000:   STOP DEPTH
 STEP.F            0.5000:   STEP LENGTH
 NULL.          -999.2500:   NO VALUE
 COMP.    FENIX & SCISSON:   COMPANY
 WELL.   N P R-3 #26SX2-2:   WELL
 FLD .             TEAPOT:   FIELD
 LOC .       S2 T38N R78W:   LOCATION
 CNTY.            NATRONA:   COUNTY
 STAT.            WYOMING:   STATE
 CTRY. UNITED STATES OF AMERICA:   COUNTRY
 SRVC.            Unknown:   SERVICE COMPANY
 DATE.        26-JAN-1978:   LOGDATE
 API .       490251056400:   API NUMBER
~CURVE INFORMATION
#MNEM.UNIT       API CODE    CURVE DESCRIPTION
#----------   ------------   ------------------------------
 DEPT.F                  :   
 ILD .OHMM   05 120 46 00:   INDUCTION LOG DEEP
 SN  .OHMM   05 040 16 00:   SHORT NORMAL 16"
 SPR .MV     05 010 01 00:   SPONTANEOUS POTENTIAL FROM RES.
 CALD.IN     45 280 60 00:   CALIPER FROM DENSITY LOG
 CORR.G/C3   45 356 01 00:   DENSITY CORRECTION
 DPHI.DEC    45 890 12 00:   DENSITY POROSITY SANDSTONE
 GRD .GAPI   45 310 01 00:   GAMMA RAY FROM DENSITY LOG
 RHOB.G/C3   45 350 01 00:   BULK DENSITY
~PARAMETER INFORMATION
#MNEM.UNIT          VALUE    DESCRIPTION
#----------   ------------   ------------------------------
 PD  .                 GL:   PERMANENT DATUM
 EPD .F              5142:   ELEVATION PERMANENT DATUM
 LMF .                 KB:   LOG MEASURED FROM
 DMF .                 KB:   DRILLING MEASURED FROM
 EKB .F              5146:   KELLING BUSHING
 EGL .F              5142:   GROUND LEVEL
 DATE.        26-JAN-1978:   RUN DATE
 RUN .                  1:   RUN NUMBER
 DD  .F               690:   DEPTH DRILLER
 DL  .F               684:   DEPTH LOGGER
 BLI .F               684:   BOTTOM LOG INTERVAL
 TLI .F                50:   TOP LOG INTERVAL
 CS  .IN            8.625:   CASING SIZE
 CBD .F                39:   CASING BOTTOM DRILLER
 CBL .F                40:   CASING BOTTOM LOGGER
 BS  .IN            7.875:   BIT SIZE
 BSD .F               690:   BIT SIZE AT DEPTH
 DFT .                KCL:   DRILLING FLUID TYPE
 DFD .                8.5:   DRILLING FLUID DENSITY
 DFV .                 33:   DRILLING FLUID VISCOSITY
 DFPH.                  9:   DRILLING FLUID PH
 MSS .           FLOWLINE:   MUD SAMPLE SOURCE
 RMS .OHMM           0.48:   RESISTIVITY MUD SAMPLE
 MST .F                75:   MUD SAMPLE TEMPERATURE
 RMF .OHMM           0.46:   RESISTIVITY MUD FILTRATE SAMPLE
 MFST.F                75:   MUD FILTRATE SAMPLE TEMPERATURE
 RMC .OHMM              1:   RESISTIVITY MUD CAKE
 MCST.F                75:   MUD CAKE SAMPLE TEMPERATURE
 MFSS.               MEAS:   MUD FILTRATE SAMPLE SOURCE
 MCSS.               MEAS:   MUD CAKE SAMPLE SOURCE
 RMB .OHMM           0.47:   RESISTIVITY MUD AT BHT
 BHT .F                76:   BOTTOM HOLE TEMPERATURE
 TCS .HRS               1:   TIME CURCULATED STOPPED
 MRT .F                76:   MAXIMUM RECORDED TEMPERATURE
 LUN .               2958:   LOGGING UNIT NUMBER
 LUL .             CASPER:   LOGGING UNIT LOCATION
 ENGI.           REYNOLDS:   RECORDING ENGINEER
 WITN.       MR. MCGINLEY:   WITNESSED BY
 CLNT.            A2DTECH:   CLIENT CODE
 ORIG.      2.5" 5" PRINT:   ORIGIN OF DATA
 UWI .       490251056400:   UNIQUE WELL ID
 DICO. A2D Technologies, Inc.:   DIGITIZING COMPANY
~OTHER INFORMATION
~A   DEPT      ILD         SN        SPR       CALD       CORR       DPHI         GRD        RHOB 
# ...
  526.0000    22.6641    27.8726   -53.5002     9.1562     0.0626     0.2069    66.7400     2.3390
  526.5000    22.6782    28.0841   -53.4885     9.1561     0.0584     0.2481    64.8893     2.3208
  527.0000    22.6949    28.2972   -53.4768     9.1559     0.0779     0.2592    63.9848     2.2632
  527.5000    22.5497    28.3163   -53.4651     9.1558     0.1111     0.2663    65.2982     2.2375
  528.0000    22.4088    28.3355   -53.4534     9.1556     0.1444     0.2707    65.5109     2.2253
  528.5000    22.4259    28.3547   -53.4416     9.1555     0.1776     0.2734    65.2036     2.2162
  529.0000    22.2824    27.6033   -53.4299     9.1553     0.2169     0.2759    65.9174     2.2100
  529.5000    22.1432    26.8718   -53.4182     9.1552     0.2471     0.2763    66.4239     2.2054
  530.0000    22.1601    26.1596   -53.4065     9.1722     0.2713     0.2670    66.4220     2.2026
  530.5000    21.8707    25.2917   -53.3948     9.1853     0.2834     0.2471    66.8884     2.2134
  531.0000    21.5818    24.1159   -53.3831     9.1851     0.2616     0.2306    66.7245     2.2372
  531.5000    21.1571    23.3060   -53.3714     9.2153     0.2430     0.2270    66.4172     2.2713
  532.0000    20.5955    22.6778   -53.5196     9.2152     0.2351     0.2451    66.4157     2.2862
  532.5000    19.9114    22.1022   -53.8122     9.2150     0.2524     0.2560    66.7200     2.2824
  533.0000    19.3829    21.6615   -54.0776     9.2149     0.2693     0.2572    68.2476     2.2645
  533.5000    18.8683    20.9463   -54.3625     9.2147     0.2785     0.2554    68.8854     2.2514
  534.0000    18.6219    20.1124   -54.4990     9.2146     0.2805     0.2294    66.4098     2.2480
  534.5000    18.3771    19.4451   -54.6356     9.2144     0.2582     0.2154    64.8680     2.2904
  535.0000    18.0063    18.7999   -54.6210     9.2143     0.2426     0.2081    66.2541     2.3116
  535.5000    17.8874    18.3017   -54.6093     9.2141     0.2318     0.2051    68.3399     2.3207
  536.0000    17.6474    17.9398   -54.5976     9.2140     0.2231     0.2083    69.1561     2.3192
  536.5000    17.4372    17.9519   -54.4376     9.2138     0.2232     0.2172    68.3653     2.3131
  537.0000    17.4487    17.8408   -54.2776     9.2137     0.2262     0.2249    66.7962     2.3055
  537.5000    17.4612    17.8526   -53.9694     9.2135     0.2323     0.2197    66.3481     2.2979
  538.0000    17.4719    17.8649   -53.5129     9.2438     0.2353     0.1976    68.3671     2.3002
  538.5000    17.4811    17.8772   -53.2046     9.2436     0.1658     0.1780    70.3981     2.3202
  539.0000    17.4933    17.8896   -52.8964     9.2434     0.1386     0.1605    71.5930     2.3694
  539.5000    17.5040    17.9043   -52.8847     9.2433     0.1235     0.1583    71.8976     2.4115
  540.0000    17.5147    17.9142   -53.0212     9.2432     0.1143     0.1568    71.5900     2.3807
  540.5000    17.5254    18.0524   -53.0095     9.2734     0.1085     0.1931    71.5265     2.3486
  541.0000    17.5361    18.0646   -52.9977     9.2733     0.1055     0.2052    72.5045     2.3232
  541.5000    17.5468    18.0768   -52.9858     9.2731     0.1062     0.2046    73.1146     2.3176
  542.0000    17.4367    18.0891   -52.9740     9.2729     0.1094     0.2040    73.1131     2.3184
  542.5000    17.4129    18.1013   -52.9598     9.2728     0.1146     0.2034    73.1116     2.3191
  543.0000    17.3386    17.9862   -52.9481     9.2726     0.1230     0.2059    73.0061     2.3190
  543.5000    17.3493    18.1258   -53.0876     9.2725     0.1355     0.2174    71.8313     2.3190
  544.0000    17.3601    18.1375   -53.0729     9.2723     0.1464     0.2216    70.8930     2.3145
  544.5000    17.3708    18.1504   -53.0612     9.2722     0.1428     0.2163    70.5663     2.3024
  545.0000    17.3816    18.1626   -53.0495     9.2720     0.1298     0.2076    69.9337     2.3145
  545.5000    17.3701    18.1750   -53.0378     9.2719     0.1177     0.1958    69.4327     2.3161
  546.0000    17.1647    18.1876   -53.1773     9.2717     0.1086     0.1889    69.4312     2.3066
  546.5000    17.0575    18.2001   -53.1627     9.2716     0.1026     0.1908    69.2941     2.2963
  547.0000    16.7193    18.2149   -53.1510     9.2714     0.0936     0.1916    71.2627     2.3085
  547.5000    16.3903    17.9780   -53.1393     9.2713     0.0875     0.1920    73.0961     2.3396
  548.0000    16.0654    17.7412   -53.1275     9.2407     0.0966     0.1908    74.3178     2.3455
  548.5000    15.6389    17.5135   -53.1158     9.1494     0.1178     0.1908    74.6223     2.3498
  549.0000    15.4323    17.2857   -53.1041     9.0873     0.1361     0.1908    74.3149     2.3514
  549.5000    15.3359    17.1758   -53.0924     9.0275     0.1420     0.1877    74.6192     2.3545
  550.0000    15.3476    16.9524   -52.9403     8.9970     0.1390     0.1859    76.1468     2.3553
  550.5000    15.3188    16.7052   -52.9602     8.9664     0.1397     0.1847    75.8395     2.3553
  551.0000    15.1168    16.5021   -52.9800     8.9663     0.1489     0.1859    76.7554     2.3447
  551.5000    14.9149    16.2989   -52.9999     8.9661     0.1511     0.1974    75.3561     2.3371
  552.0000    14.7129    16.1998   -53.0198     8.9660     0.1511     0.1999    73.7678     2.3310
  552.5000    14.5698    16.1010   -53.0300     8.9658     0.1511     0.2017    72.2758     2.3280
  553.0000    14.4787    16.0013   -52.7208     8.9826     0.1602     0.2035    71.8563     2.3280
  553.5000    14.4897    16.1254   -52.7107     8.9959     0.1726     0.2041    71.9903     2.3295
  554.0000    14.3969    16.1363   -52.8488     8.9957     0.1784     0.1983    72.9256     2.3325
  554.5000    14.3068    16.1472   -52.9873     9.0260     0.1754     0.1904    74.0352     2.3356
  555.0000    14.3176    16.0472   -52.9768     9.0258     0.1724     0.1841    78.2719     2.3454
  555.5000    14.3263    16.0580   -53.1149     9.0257     0.1724     0.1799    80.4113     2.3613
  556.0000    14.3349    16.0688   -53.2530     9.0255     0.1724     0.1926    78.8806     2.3501
  556.5000    14.2453    16.0797   -53.2423     9.0561     0.1724     0.1957    77.6558     2.3446
  557.0000    14.1562    16.0905   -53.3802     9.0860     0.1724     0.1927    76.7369     2.3431
  557.5000    14.1648    15.9908   -53.3683     9.0902     0.1755     0.1903    76.7354     2.3452
  558.0000    13.8859    15.8919   -53.3582     9.1161     0.1755     0.1866    79.8125     2.3498
  558.5000    13.7045    15.7787   -53.3480     9.1464     0.1758     0.1844    82.5898     2.3551
  559.0000    13.5254    15.4837   -53.3387     9.1462     0.1820     0.1824    84.1560     2.3575
  559.5000    13.4388    15.1775   -53.1795     9.1460     0.1846     0.1787    84.6806     2.3582
  560.0000    13.4482    14.7752   -53.1693     9.1459     0.1739     0.1763    83.0683     2.3612
  560.5000    13.3628    14.2850   -53.1592     9.1457     0.1625     0.1751    83.7569     2.3718
  561.0000    13.2793    14.0024   -53.0007     9.1294     0.1563     0.1763    85.5280     2.3770
  561.5000    13.1980    13.9134   -52.9903     9.1150     0.1514     0.1769    86.3430     2.3733
  562.0000    13.1156    13.9251   -52.9780     9.1149     0.1514     0.1775    86.2018     2.3672
  562.5000    13.1236    13.9345   -52.9678     9.1147     0.1514     0.1787    86.0219     2.3687
  563.0000    12.9521    14.0402   -52.9577     9.1146     0.1515     0.1787    85.2811     2.3687
  563.5000    12.7829    14.0497   -52.9476     9.1144     0.1515     0.1794    84.0564     2.3672
  564.0000    12.7925    14.0591   -52.9374     9.0839     0.1545     0.1800    81.6084     2.3657
  564.5000    12.7106    13.7811   -52.9273     9.0837     0.1606     0.1800    80.9953     2.3642
  565.0000    12.7202    13.6041   -53.2162     9.0836     0.1636     0.1806    81.6054     2.3642
  565.5000    12.6387    13.4249   -53.3521     9.0834     0.1666     0.1784    81.9098     2.3642
  566.0000    12.5597    13.1616   -53.6382     9.0833     0.1727     0.1692    81.6024     2.3688
