~VERSION INFORMATION
 VERS.                2.0:   CWLS LOG ASCII STANDARD - VERSION 2.0
 WRAP.                 NO:   ONE LINE PER DEPTH STEP
~WELL INFORMATION
#MNEM.UNIT      DATA TYPE    INFORMATION
#----------   ------------   ------------------------------
 STRT.F           24.0000:   START DEPTH
 STOP.F          609.0000:   STOP DEPTH
 STEP.F            0.5000:   STEP LENGTH
 NULL.          -999.2500:   NO VALUE
 COMP. FENIX & SCISSON INC:   COMPANY
 WELL.        S 34 #48-34:   WELL
 FLD .            NPR - 3:   FIELD
 LOC .      S34 T39N R78W:   LOCATION
 CNTY.            NATRONA:   COUNTY
 STAT.            WYOMING:   STATE
 CTRY. UNITED STATES OF AMERICA:   COUNTRY
 SRVC.              Welex:   SERVICE COMPANY
 DATE.        03-MAY-1977:   LOGDATE
 API .       490251035700:   API NUMBER
~CURVE INFORMATION
#MNEM.UNIT       API CODE    CURVE DESCRIPTION
#----------   ------------   ------------------------------
 DEPT.F                  :   
 CALD.IN     45 280 60 00:   CALIPER FROM DENSITY LOG
 CORR.G/C3   45 356 01 00:   DENSITY CORRECTION
 DPHI.DEC    45 890 12 00:   DENSITY POROSITY SANDSTONE
 GRD .GAPI   45 310 01 00:   GAMMA RAY FROM DENSITY LOG
 RHOB.G/C3   45 350 01 00:   BULK DENSITY
 GURD.OHMM   07 220 05 00:   SHALLOW GUARD RESISTIVITY
 ILD .OHMM   07 120 46 00:   INDUCTION LOG DEEP
 ILM .OHMM   07 120 44 00:   INDUCTION LOG MEDIUM
 SPR .MV     07 010 01 00:   SPONTANEOUS POTENTIAL FROM RES.
~PARAMETER INFORMATION
#MNEM.UNIT          VALUE    DESCRIPTION
#----------   ------------   ------------------------------
 PD  .                 GL:   PERMANENT DATUM
 EPD .F              5160:   ELEVATION PERMANENT DATUM
 LMF .                 GL:   LOG MEASURED FROM
 DMF .                 GL:   DRILLING MEASURED FROM
 EGL .F              5160:   GROUND LEVEL
 DATE.        03-MAY-1977:   RUN DATE
 RUN .                  1:   RUN NUMBER
 DD  .F               610:   DEPTH DRILLER
 DL  .F               611:   DEPTH LOGGER
 BLI .F               609:   BOTTOM LOG INTERVAL
 TLI .F                30:   TOP LOG INTERVAL
 CS  .IN            8.625:   CASING SIZE
 CBD .F                40:   CASING BOTTOM DRILLER
 CBL .F                32:   CASING BOTTOM LOGGER
 BS  .IN            7.875:   BIT SIZE
 BSD .F               610:   BIT SIZE AT DEPTH
 DFT .            KCL GEL:   DRILLING FLUID TYPE
 DFD .                8.9:   DRILLING FLUID DENSITY
 DFV .                 33:   DRILLING FLUID VISCOSITY
 DFPH.                8.0:   DRILLING FLUID PH
 DFL .                7.2:   DRILLING FLUID LOSS
 MSS .            MUD PIT:   MUD SAMPLE SOURCE
 RMS .OHMM           0.19:   RESISTIVITY MUD SAMPLE
 MST .F                65:   MUD SAMPLE TEMPERATURE
 RMF .OHMM           0.16:   RESISTIVITY MUD FILTRATE SAMPLE
 MFST.F                65:   MUD FILTRATE SAMPLE TEMPERATURE
 RMC .OHMM           0.24:   RESISTIVITY MUD CAKE
 MCST.F                65:   MUD CAKE SAMPLE TEMPERATURE
 MFSS.               MEAS:   MUD FILTRATE SAMPLE SOURCE
 MCSS.               MEAS:   MUD CAKE SAMPLE SOURCE
 RMB .OHMM           0.17:   RESISTIVITY MUD AT BHT
 BHT .F                72:   BOTTOM HOLE TEMPERATURE
 TCS .HRS               2:   TIME CURCULATED STOPPED
 MRT .F                72:   MAXIMUM RECORDED TEMPERATURE
 LUN .               8766:   LOGGING UNIT NUMBER
 LUL .             CASPER:   LOGGING UNIT LOCATION
 ENGI.          T. JOYNER:   RECORDING ENGINEER
 WITN.           ROB LYON:   WITNESSED BY
 CLNT.            A2DTECH:   CLIENT CODE
 ORIG.           5" PRINT:   ORIGIN OF DATA
 UWI .       490251035700:   UNIQUE WELL ID
 DICO. A2D Technologies, Inc.:   DIGITIZING COMPANY
~OTHER INFORMATION
~A   DEPT       CALD      CORR        DPHI      GRD         RHOB     GURD        ILD        ILM        SPR   
# ...
  462.0000     7.8373     0.0245     0.1309    87.7452     2.4622    19.0340    12.5003    13.9173   -19.8071
  462.5000     7.8723     0.0239     0.1326    88.9466     2.4578    18.9182    12.6905    13.9275   -19.7895
  463.0000     7.8438     0.0187     0.1326    88.9614     2.4556    18.9442    12.7034    13.5598   -19.7718
  463.5000     7.8153     0.0158     0.1335    88.9791     2.4557    18.8332    12.8935    13.0177   -19.9074
  464.0000     7.8165     0.0129     0.1400    87.8066     2.4475    18.7240    12.9065    12.6716   -19.8853
  464.5000     7.8177     0.0070     0.1457    86.4857     2.4348    18.4873    12.3087    12.3347   -20.0209
  465.0000     7.8189     0.0071     0.1493    84.8681     2.4323    18.3797    11.9021    12.1719   -19.9988
  465.5000     7.8201     0.0073     0.1519    83.6957     2.4252    17.8973    11.6723    12.6126   -19.9812
  466.0000     7.8213     0.0089     0.1531    83.7101     2.4238    17.5423    11.6036    13.2490   -20.2611
  466.5000     7.8223     0.0135     0.1510    87.2854     2.4321    17.2066    11.6303    13.3512   -20.2435
  467.0000     7.8235     0.0136     0.1485    92.1960     2.4359    16.9885    11.6708    13.0840   -20.5235
  467.5000     7.8247     0.0167     0.1458    95.6627     2.4390    17.0297    11.7113    12.8271   -20.5058
  468.0000     7.8259     0.0168     0.1431    97.9920     2.4421    18.2517    11.7518    13.1973   -20.6370
  468.5000     7.8270     0.0139     0.1407    98.6192     2.4444    18.5214    11.7735    13.1136   -20.7681
  469.0000     7.8283     0.0140     0.1397    94.1862     2.4437    17.9156    11.7864    12.4186   -20.7500
  469.5000     7.8295     0.0141     0.1400    92.7057     2.4423    17.5617    11.7179    12.0730   -20.7321
  470.0000     7.8307     0.0142     0.1412    90.4751     2.4409    17.1006    11.5695    12.4373   -21.0128
  470.5000     7.8318     0.0203     0.1417    88.1069     2.4425    16.8839    11.5823    12.5405   -20.9907
  471.0000     7.8330     0.0264     0.1404    86.9489     2.4478    16.9071    11.5951    12.3701   -20.9731
  471.5000     7.8343     0.0385     0.1363    89.9380     2.4531    17.0432    11.6080    12.4654   -20.9554
  472.0000     7.8354     0.0356     0.1345    93.2194     2.4577    17.1805    11.7041    12.4749   -20.9378
  472.5000     7.8367     0.0312     0.1404    94.1269     2.4510    17.6824    11.8802    12.6762   -20.6225
  473.0000     7.8380     0.0253     0.1452    94.7378     2.4398    18.0734    12.0589    13.4311   -20.3072
  473.5000     7.8392     0.0194     0.1490    92.6779     2.4316    18.4731    12.4109    14.1655   -20.2896
  474.0000     7.8401     0.0150     0.1511    90.6181     2.4272    18.7512    12.6851    13.2277   -20.2719
  474.5000     7.8413     0.0091     0.1529    90.0415     2.4242    19.2991    12.3523    12.7847   -20.2543
  475.0000     7.8425     0.0048     0.1517    89.4659     2.4261    19.8629    12.0250    13.6197   -20.2366
  475.5000     7.8437     0.0034     0.1483    88.8586     2.4342    19.8847    12.3794    14.3069   -20.2190
  476.0000     7.8385     0.0080     0.1435    86.5375     2.4425    19.3626    13.3731    12.7276   -20.3545
  476.5000     7.8310     0.0141     0.1390    85.0669     2.4494    18.4666    13.7597    13.1859   -20.3325
  477.0000     7.8176     0.0247     0.1354    91.0233     2.4547    18.3593    13.1270    13.8513   -20.3148
  477.5000     7.8037     0.0296     0.1323    95.9367     2.4578    18.7655    12.6945    13.4830   -20.2972
  478.0000     7.7900     0.0234     0.1338    95.2122     2.4571    18.6562    12.2762    12.5035   -20.2795
  478.5000     7.7915     0.0220     0.1359    94.0426     2.4542    18.4031    11.9536    12.0014   -20.2619
  479.0000     7.7926     0.0206     0.1382    93.1698     2.4482    17.9362    11.6405    12.9635   -20.2440
  479.5000     7.7938     0.0222     0.1403    93.0387     2.4423    17.7137    11.3351    13.3352   -20.0774
  480.0000     7.7949     0.0223     0.1424    92.5717     2.4379    17.3686    11.0377    11.9478   -19.9107
  480.5000     7.7961     0.0241     0.1453    90.6231     2.4372    17.1485    10.8192    12.0399   -19.7173
  481.0000     7.7973     0.0285     0.1483    89.0892     2.4313    17.0441    10.6120    13.0026   -19.1275
  481.5000     7.7985     0.0286     0.1525    87.3261     2.4239    17.0675    10.3950    11.5673   -18.5147
  482.0000     7.7997     0.0317     0.1561    84.3761     2.4157    16.9636    10.2735    12.2354   -18.1994
  482.5000     7.7861     0.0348     0.1601    82.1636     2.4083    17.1049    10.2139    12.5017   -17.8841
  483.0000     7.7873     0.0409     0.1674    85.7461     2.3993    17.1237    10.2988    12.5112   -17.4200
  483.5000     7.7733     0.0470     0.1733    87.3911     2.3896    17.2616    10.6731    12.6078   -16.9560
  484.0000     7.7597     0.0422     0.1859    79.1042     2.3685    17.4006    11.2151    12.7051   -16.3431
  484.5000     7.7460     0.0423     0.1954    72.1483     2.3535    17.6626    11.4628    13.0738   -15.5814
  485.0000     7.7475     0.0409     0.2002    73.2048     2.3439    17.8049    11.7974    13.6387   -14.9685
  485.5000     7.7486     0.0410     0.2041    74.2644     2.3397    18.1986    12.2261    14.3270   -14.5044
  486.0000     7.7500     0.0412     0.1992    75.7654     2.3488    18.7303    12.8470    15.4726   -13.8915
  486.5000     7.7512     0.0397     0.1977    78.7501     2.3519    20.2350    14.1693    17.0607   -13.4274
  487.0000     7.7524     0.0369     0.1962    80.1028     2.3520    23.9199    15.7363    18.5612   -12.9633
  487.5000     7.7533     0.0370     0.1956    80.2642     2.3528    30.5140    16.8823    19.9194   -12.3505
  488.0000     7.7545     0.0371     0.1955    77.4669     2.3521    35.8218    17.8627    20.6161   -11.7376
  488.5000     7.7557     0.0372     0.1958    74.2201     2.3522    33.6935    21.7055    20.4893   -11.1247
  489.0000     7.7569     0.0374     0.1961    75.1276     2.3515    33.0275    25.4780    19.1328   -10.5118
  489.5000     7.7581     0.0375     0.1963    79.4106     2.3508    32.8457    27.7143    17.8661   -10.1964
  490.0000     7.7593     0.0376     0.1963    79.9101     2.3494    33.1421    28.1313    17.7528   -10.1786
  490.5000     7.7606     0.0377     0.1963    77.5579     2.3495    33.8440    29.1535    17.8930   -10.1607
  491.0000     7.7618     0.0363     0.1933    75.7948     2.3556    33.6549    27.8054    18.7959   -10.1429
  491.5000     7.7629     0.0320     0.1887    73.4383     2.3646    33.2283    29.0777    20.0197   -10.1215
  492.0000     7.7642     0.0321     0.1854    72.2644     2.3671    32.5808    30.0784    20.5976   -10.1038
  492.5000     7.7654     0.0317     0.1872    74.0664     2.3618    30.2242    28.0981    20.9005   -10.2394
  493.0000     7.7666     0.0278     0.1859    74.6773     2.3679    30.6794    27.7347    20.9163   -10.2174
  493.5000     7.7678     0.0264     0.1847    73.6560     2.3687    31.5757    29.1510    20.9320   -10.3529
  494.0000     7.7688     0.0266     0.1875    72.9315     2.3650    32.7240    28.3862    20.8033   -10.3309
  494.5000     7.7859     0.0237     0.1882    73.4184     2.3643    34.3871    26.8869    19.2919   -10.4620
  495.0000     7.8009     0.0208     0.1876    75.3444     2.3637    31.8998    25.8216    18.6494   -10.5976
  495.5000     7.7724     0.0209     0.1870    74.0265     2.3652    30.2137    24.7986    18.4064   -10.7288
  496.0000     7.7736     0.0180     0.1858    73.7427     2.3683    29.8226    23.6518    18.8073   -10.8599
  496.5000     7.7748     0.0151     0.1830    74.9513     2.3729    29.8635    22.8725    19.6209   -10.8378
  497.0000     7.7760     0.0153     0.1791    76.6007     2.3775    29.8963    21.9663    19.7712   -10.8202
  497.5000     7.7771     0.0094     0.1758    79.7338     2.3835    29.9291    21.3900    18.9681   -10.8025
  498.0000     7.7783     0.0095     0.1736    79.6028     2.3881    29.1433    20.4009    18.8640   -10.7849
