~VERSION INFORMATION
 VERS.                2.0:   CWLS LOG ASCII STANDARD - VERSION 2.0
 WRAP.                 NO:   ONE LINE PER DEPTH STEP
~WELL INFORMATION
#MNEM.UNIT      DATA TYPE    INFORMATION
#----------   ------------   ------------------------------
 STRT.F           66.0000:   START DEPTH
 STOP.F          794.0000:   STOP DEPTH
 STEP.F            0.5000:   STEP LENGTH
 NULL.          -999.2500:   NO VALUE
 COMP. LAWRENCE/ALLISON INC:   COMPANY
 WELL.    27-16 SX #35-35:   WELL
 FLD .           NPR NO 3:   FIELD
 LOC .      S35 T39N R78W:   LOCATION
 CNTY.            NATRONA:   COUNTY
 STAT.            WYOMING:   STATE
 CTRY. UNITED STATES OF AMERICA:   COUNTRY
 SRVC.           Gearhart:   SERVICE COMPANY
 DATE.        16-MAY-1986:   LOGDATE
 API .       490251106100:   API NUMBER
~CURVE INFORMATION
#MNEM.UNIT       API CODE    CURVE DESCRIPTION
#----------   ------------   ------------------------------
 DEPT.F                  :   
 GRN .GAPI   42 310 01 00:   GAMMA RAY FROM COMPENSATED NEUTRON LOG
 CNC .DEC    42 890 01 00:   NEUTRON POROSITY LIMESTONE
~PARAMETER INFORMATION
#MNEM.UNIT          VALUE    DESCRIPTION
#----------   ------------   ------------------------------
 PD  .                 GL:   PERMANENT DATUM
 LMF .                 GL:   LOG MEASURED FROM
 DMF .                 GL:   DRILLING MEASURED FROM
 DATE.        16-MAY-1986:   RUN DATE
 RUN .                  1:   RUN NUMBER
 DD  .F               803:   DEPTH DRILLER
 DL  .F             793.5:   DEPTH LOGGER
 BLI .F             793.5:   BOTTOM LOG INTERVAL
 TLI .F                50:   TOP LOG INTERVAL
 BS  .IN             7.87:   BIT SIZE
 BSD .F               803:   BIT SIZE AT DEPTH
 DFT .              WATER:   DRILLING FLUID TYPE
 LUN .               6084:   LOGGING UNIT NUMBER
 LUL .           GILLETTE:   LOGGING UNIT LOCATION
 ENGI.                COX:   RECORDING ENGINEER
 WITN.             STRONG:   WITNESSED BY
 CLNT.            A2DTECH:   CLIENT CODE
 ORIG.           5" PRINT:   ORIGIN OF DATA
 UWI .       490251106100:   UNIQUE WELL ID
 DICO. A2D Technologies, Inc.:   DIGITIZING COMPANY
~OTHER INFORMATION
~A   DEPT       GRN       CNC   
# ...
  309.0000    93.0293     0.2586
  309.5000    94.8576     0.2529
  310.0000    98.5264     0.2450
  310.5000   100.9682     0.2378
  311.0000   102.4898     0.2369
  311.5000   102.7874     0.2485
  312.0000   102.4684     0.2588
  312.5000   103.9870     0.2590
  313.0000   104.5913     0.2733
  313.5000   102.4289     0.2817
  314.0000    99.9627     0.2814
  314.5000    99.0303     0.2780
  315.0000   101.7788     0.2722
  315.5000   103.3221     0.2577
  316.0000   101.4477     0.2435
  316.5000   100.5121     0.2344
  317.0000   103.8835     0.2348
  317.5000   102.9294     0.2363
  318.0000   105.1531     0.2391
  318.5000   107.5888     0.2457
  319.0000   110.0062     0.2591
  319.5000   111.5368     0.2664
  320.0000   113.0037     0.2695
  320.5000   112.9915     0.2671
  321.0000   112.6726     0.2713
  321.5000   112.3537     0.2750
  322.0000   110.5010     0.2774
  322.5000   106.1943     0.2714
  323.0000   103.7282     0.2651
  323.5000   102.4890     0.2745
  324.0000   101.5566     0.3015
  324.5000   101.2376     0.2903
  325.0000   101.2255     0.2724
  325.5000   101.5231     0.2610
  326.0000   101.2011     0.2482
  326.5000   101.1889     0.2567
  327.0000   101.1768     0.2616
  327.5000   101.1646     0.2641
  328.0000   100.8457     0.2486
  328.5000   100.2200     0.2462
  329.0000    99.5943     0.2520
  329.5000    98.6619     0.2736
  330.0000    97.7294     0.2827
  330.5000    97.4105     0.2733
  331.0000    97.7051     0.2611
  331.5000    98.6132     0.2488
  332.0000    99.8282     0.2391
  332.5000    98.8956     0.2313
  333.0000    96.4294     0.2268
  333.5000    94.8805     0.2328
  334.0000    94.8959     0.2574
  334.5000    97.0276     0.2671
  335.0000    99.2024     0.2623
  335.5000   101.3558     0.2514
  336.0000   102.1845     0.2424
  336.5000   101.1932     0.2393
  337.0000    99.0897     0.2400
  337.5000    97.8505     0.2415
  338.0000    97.2248     0.2364
  338.5000    98.4396     0.2331
  339.0000   101.4949     0.2455
  339.5000    98.7220     0.2584
  340.0000    99.9368     0.2561
  340.5000   103.2989     0.2425
  341.0000   104.5167     0.2420
  341.5000   103.5813     0.2495
  342.0000   102.3421     0.2593
  342.5000   100.4894     0.2627
  343.0000    98.3300     0.2612
  343.5000    99.8516     0.2654
  344.0000   103.2136     0.2682
  344.5000   105.0450     0.2634
  345.0000   103.4960     0.2613
  345.5000   101.9501     0.2649
  346.0000   101.3275     0.2701
  346.5000   103.1558     0.2710
  347.0000   102.2203     0.2650
  347.5000   103.1284     0.2538
  348.0000   105.5702     0.2437
  348.5000   108.0120     0.2345
  349.0000   107.3863     0.2375
  349.5000   107.0584     0.2485
  350.0000   109.8159     0.2642
  350.5000   111.0308     0.2585
  351.0000   109.4396     0.2534
  351.5000   107.2577     0.2519
  352.0000   105.7341     0.2577
  352.5000   104.4836     0.2604
  353.0000   105.7522     0.2541
  353.5000   107.2769     0.2423
  354.0000   103.5807     0.2360
  354.5000   100.5010     0.2415
  355.0000    99.8754     0.2494
  355.5000   101.7037     0.2545
  356.0000   103.2283     0.2494
  356.5000   102.2929     0.2490
  357.0000   102.2807     0.2525
  357.5000   102.5784     0.2537
  358.0000   100.4159     0.2489
  358.5000    98.5633     0.2465
  359.0000    98.5511     0.2653
  359.5000   101.6064     0.2783
  360.0000   105.8888     0.2994
  360.5000   109.5576     0.2987
  361.0000   110.4687     0.2796
  361.5000   107.6928     0.2588
  362.0000   106.1469     0.2455
  362.5000   103.3740     0.2531
  363.0000   100.9078     0.2728
  363.5000   102.1227     0.2859
  364.0000   104.8874     0.2935
  364.5000   107.6390     0.2996
  365.0000   108.8651     0.2902
  365.5000   108.7802     0.2772
  366.0000   105.7827     0.2700
  366.5000    98.3657     0.2688
  367.0000    97.1265     0.2652
  367.5000    99.2616     0.2531
  368.0000   102.6237     0.2622
  368.5000   104.4551     0.2840
  369.0000   101.9859     0.2883
  369.5000   102.8940     0.2711
  370.0000   103.8051     0.2556
  370.5000   102.5629     0.2608
  371.0000   101.0170     0.2633
  371.5000   100.0846     0.2624
  372.0000   100.9927     0.2600
  372.5000   102.2075     0.2564
  373.0000   102.8119     0.2534
  373.5000   101.8765     0.2513
  374.0000   101.5576     0.2547
  374.5000   103.0791     0.2603
  375.0000   103.9872     0.2664
  375.5000   104.3221     0.2769
  376.0000   103.0446     0.2802
  376.5000   100.2698     0.2808
  377.0000    98.7239     0.2894
  377.5000    98.7117     0.3103
  378.0000   100.5725     0.3155
  378.5000   103.3434     0.3052
  379.0000   106.0757     0.2907
  379.5000   106.3318     0.2789
  380.0000   105.3963     0.2819
  380.5000   105.0805     0.2959
  381.0000   106.2953     0.2929
  381.5000   102.9059     0.2799
  382.0000    99.8262     0.2607
  382.5000   100.1208     0.2497
  383.0000   101.0289     0.2421
  383.5000   102.5505     0.2412
  384.0000   102.2316     0.2412
  384.5000   100.0722     0.2425
  385.0000    98.8330     0.2471
  385.5000    99.7411     0.2501
  386.0000   101.2627     0.2529
  386.5000   100.6371     0.2553
  387.0000    98.4777     0.2563
  387.5000    96.6250     0.2535
  388.0000    96.6128     0.2470
  388.5000    98.7479     0.2416
  389.0000   100.2695     0.2367
  389.5000   100.2894     0.2325
  390.0000    98.4047     0.2289
  390.5000    95.9386     0.2280
  391.0000    92.8549     0.2313
  391.5000    91.2995     0.2259
  392.0000    89.4112     0.2217
  392.5000    87.8783     0.2284
  393.0000    87.5956     0.2311
  393.5000    88.9263     0.2306
  394.0000    91.8627     0.2242
  394.5000    93.3873     0.2297
  395.0000    92.4519     0.2352
  395.5000    89.6790     0.2334
  396.0000    89.9736     0.2261
  396.5000    91.1884     0.2365
  397.0000    93.6302     0.2495
  397.5000    95.4586     0.2512
  398.0000    91.7654     0.2450
  398.5000    90.5263     0.2429
  399.0000    94.5018     0.2527
  399.5000    96.6369     0.2669
  400.0000    95.0934     0.2715
  400.5000    92.9397     0.2690
  401.0000    94.4658     0.2570
  401.5000    96.3002     0.2451
  402.0000    97.8279     0.2331
  402.5000    99.6623     0.2283
  403.0000    98.1225     0.2423
  403.5000    95.9691     0.2529
  404.0000    95.3495     0.2562
  404.5000    95.3435     0.2554
  405.0000    95.0306     0.2560
  405.5000    95.0245     0.2554
  406.0000    95.0184     0.2485
  406.5000    95.0469     0.2394
  407.0000    98.1004     0.2304
  407.5000    98.6812     0.2258
  408.0000    96.7894     0.2367
  408.5000    95.9079     0.2431
  409.0000    95.5939     0.2419
  409.5000    94.0540     0.2407
  410.0000    92.5142     0.2544
  410.5000    90.6676     0.2716
  411.0000    90.0481     0.2747
  411.5000    89.7352     0.2608
  412.0000    90.0374     0.2513
  412.5000    92.1770     0.2396
  413.0000    94.3182     0.2360
  413.5000    95.2339     0.2385
  414.0000    90.9318     0.2346
  414.5000    87.5514     0.2282
  415.0000    86.3184     0.2301
  415.5000    86.6190     0.2362
  416.0000    87.5332     0.2416
  416.5000    88.1421     0.2444
  417.0000    89.3615     0.2396
  417.5000    91.8094     0.2407
  418.0000    95.4843     0.2548
  418.5000   100.0794     0.2640
  419.0000   100.2515     0.2731
  419.5000    95.4660     0.2822
  420.0000    91.7789     0.2870
  420.5000    89.6256     0.2808
  421.0000    89.0060     0.2729
  421.5000    88.0797     0.2651
  422.0000    88.3803     0.2572
  422.5000    90.5319     0.2522
  423.0000    92.6770     0.2637
  423.5000    93.5768     0.2720
  424.0000    92.9244     0.2729
  424.5000    92.3376     0.2729
  425.0000    93.3539     0.2681
  425.5000    95.3914     0.2596
  426.0000    97.2258     0.2485
  426.5000    98.7535     0.2424
  427.0000   100.2811     0.2364
  427.5000   100.8901     0.2328
  428.0000    99.3487     0.2319
  428.5000    97.1954     0.2310
  429.0000    95.6555     0.2295
  429.5000    95.3427     0.2283
  430.0000    97.7906     0.2477
