~VERSION INFORMATION
 VERS.                2.0:   CWLS LOG ASCII STANDARD - VERSION 2.0
 WRAP.                 NO:   ONE LINE PER DEPTH STEP
~WELL INFORMATION
#MNEM.UNIT      DATA TYPE    INFORMATION
#----------   ------------   ------------------------------
 STRT.F           30.0000:   START DEPTH
 STOP.F         3375.5000:   STOP DEPTH
 STEP.F            0.5000:   STEP LENGTH
 NULL.          -999.2500:   NO VALUE
 COMP.       INTEX OIL CO:   COMPANY
 WELL.   NPR ##3 57-SX-34:   WELL
 FLD .             TEAPOT:   FIELD
 LOC .      S34 T39N R78W:   LOCATION
 CNTY.            NATRONA:   COUNTY
 STAT.            WYOMING:   STATE
 CTRY. UNITED STATES OF AMERICA:   COUNTRY
 SRVC.       Schlumberger:   SERVICE COMPANY
 DATE.        12-AUG-1967:   LOGDATE
 API .       490251023200:   API NUMBER
~CURVE INFORMATION
#MNEM.UNIT       API CODE    CURVE DESCRIPTION
#----------   ------------   ------------------------------
 DEPT.F                  :   
 SPR .MV     07 010 01 00:   SPONTANEOUS POTENTIAL
 ILD .OHMM   07 120 46 00:   INDUCTION LOG DEEP
 ASN .OHMM   05 041 16 00:   AMPLIFIED SHORT NORMAL 16"
 CILD.MMHO   07 110 46 00:   CONDUCTIVITY INDUCTION LOG DEEP
 LL8 .OHMM   07 220 08 00:   LATEROLOG-8 RES.
 ILM .OHMM   07 120 44 00:   INDUCTION LOG MEDIUM
 CALD.IN     45 280 60 00:   CALIPER
 GRD .GAPI   45 310 01 00:   GAMMA RAY FROM DENSITY LOG
 RHOB.G/C3   45 350 01 00:   BULK DENSITY
 DPHI.DEC    45 890 12 00:   DENSITY POROSITY SANDSTONE
 CORR.G/C3   45 356 01 00:   DENSITY CORRECTION
~PARAMETER INFORMATION
#MNEM.UNIT          VALUE    DESCRIPTION
#----------   ------------   ------------------------------
 PD  .                 GL:   PERMANENT DATUM
 EPD .F              5084:   ELEVATION PERMANENT DATUM
 LMF .                 KB:   LOG MEASURED FROM
 DAPD.F                12:   FEET ABOVE PERMANENT DATUM
 DMF .                 KB:   DRILLING MEASURED FROM
 EKB .F              5096:   KELLING BUSHING
 EGL .F              5084:   GROUND LEVEL
 DATE.            8-12-67:   RUN DATE
 RUN .                  2:   RUN NUMBER
 DD  .F              3380:   DEPTH DRILLER
 DL  .F              3371:   DEPTH LOGGER
 BLI .F              3368:   BOTTOM LOG INTERVAL
 TLI .F               630:   TOP LOG INTERVAL
 CS  .IN            10.75:   CASING SIZE
 CBD .F               643:   CASING BOTTOM DRILLER
 BS  .IN            9.875:   BIT SIZE
 BSD .F              3380:   BIT SIZE AT DEPTH
 DFT .               CHEM:   DRILLING FLUID TYPE
 DFD .                9.4:   DRILLING FLUID DENSITY
 DFV .                 48:   DRILLING FLUID VISCOSITY
 DFPH.                8.5:   DRILLING FLUID PH
 DFL .                3.6:   DRILLING FLUID LOSS
 MSS .          FLOW LINE:   MUD SAMPLE SOURCE
 RMS .OHMM           2.81:   RESISTIVITY MUD SAMPLE
 MST .F                88:   MUD SAMPLE TEMPERATURE
 RMF .OHMM            1.7:   RESISTIVITY MUD FILTRATE SAMPLE
 MFST.F                86:   MUD FILTRATE SAMPLE TEMPERATURE
 MFSS.                  M:   MUD FILTRATE SAMPLE SOURCE
 RMB .OHMM           2.03:   RESISTIVITY MUD AT BHT
 BHT .F               122:   BOTTOM HOLE TEMPERATURE
 TCS .HRS             2.5:   TIME CURCULATED STOPPED
 MRT .F               122:   MAXIMUM RECORDED TEMPERATURE
 LUN .               7030:   LOGGING UNIT NUMBER
 LUL .               CSPR:   LOGGING UNIT LOCATION
 ENGI.             SCHODE:   RECORDING ENGINEER
 WITN.                MAY:   WITNESSED BY
 CLNT.            A2DTECH:   CLIENT CODE
 ORIG.   1" 2.5" 5" PRINT:   ORIGIN OF DATA
 UWI .       490251023200:   UNIQUE WELL ID
 DICO. A2D Technologies, Inc.:   DIGITIZING COMPANY
~OTHER INFORMATION
~A   DEPT      SPR        ILD        ASN       CILD        LL8        ILM       CALD         GRD      RHOB       DPHI       CORR   
# ...
 1189.0000   -37.1032     6.9863  -999.2500  -999.2500     8.0010     7.7651    12.3291    83.3043     2.5218     0.0774     0.0288
 1189.5000   -37.1032     6.9862  -999.2500  -999.2500     7.9721     7.7190    12.3231    81.1067     2.5127     0.0832     0.0246
 1190.0000   -37.1032     6.9861  -999.2500  -999.2500     7.9433     7.6732    12.3172    82.0103     2.5050     0.0870     0.0208
 1190.5000   -37.1032     6.9859  -999.2500  -999.2500     7.9146     7.6276    12.3113    83.9795     2.4993     0.0893     0.0167
 1191.0000   -37.1032     6.9862  -999.2500  -999.2500     7.8860     7.5823    12.3054    86.1489     2.4997     0.0917     0.0158
 1191.5000   -37.1032     6.9869  -999.2500  -999.2500     7.8575     7.5373    12.2995    86.9908     2.5156     0.0830     0.0174
 1192.0000   -37.1032     6.9713  -999.2500  -999.2500     7.8290     7.4925    12.2936    87.4678     2.5329     0.0737     0.0185
 1192.5000   -37.1032     6.9317  -999.2500  -999.2500     7.8005     7.4480    12.2876    87.9413     2.5430     0.0636     0.0199
 1193.0000   -37.1032     6.8930  -999.2500  -999.2500     7.7723     7.4038    12.2817    88.4587     2.5352     0.0679     0.0214
 1193.5000   -37.1033     6.8549  -999.2500  -999.2500     7.7446     7.3598    12.2761    88.9301     2.5319     0.0720     0.0219
 1194.0000   -37.1030     6.8167  -999.2500  -999.2500     7.7168     7.3162    12.2662    89.5584     2.5394     0.0681     0.0294
 1194.5000   -37.1038     6.7787  -999.2500  -999.2500     7.6880     7.2727    12.2474    90.4714     2.5284     0.0707     0.0355
 1195.0000   -37.1028     6.7410  -999.2500  -999.2500     7.6505     7.1913    12.2290    91.3695     2.5300     0.0730     0.0325
 1195.5000   -37.1006     6.7036  -999.2500  -999.2500     7.6724     7.0325    12.2103    92.2923     2.5353     0.0665     0.0278
 1196.0000   -37.0603     6.6662  -999.2500  -999.2500     7.7215     6.8610    12.1917    93.1805     2.5325     0.0688     0.0228
 1196.5000   -37.0222     6.6291  -999.2500  -999.2500     7.7868     6.7380    12.1732    94.0360     2.5246     0.0768     0.0240
 1197.0000   -36.9814     6.5922  -999.2500  -999.2500     7.7162     6.7003    12.1542    93.7698     2.5256     0.0737     0.0307
 1197.5000   -36.9432     6.5555  -999.2500  -999.2500     7.6135     6.6658    12.1364    93.2528     2.5357     0.0690     0.0369
 1198.0000   -36.9035     6.5190  -999.2500  -999.2500     7.5121     6.6314    12.1157    93.5134     2.5491     0.0629     0.0430
 1198.5000   -36.8609     6.4730  -999.2500  -999.2500     7.4122     6.5971    12.1146    93.9960     2.5697     0.0461     0.0491
 1199.0000   -36.8321     6.4151  -999.2500  -999.2500     7.3757     6.5631    12.1112    94.3566     2.5555     0.0542     0.0560
 1199.5000   -36.7749     6.3575  -999.2500  -999.2500     7.3547     6.5292    12.1065    94.9698     2.5354     0.0673     0.0553
 1200.0000   -36.7467     6.3004  -999.2500  -999.2500     7.3293     6.4955    12.1015    92.5934     2.5326     0.0804     0.0474
 1200.5000   -36.7837     6.2439  -999.2500  -999.2500     7.3039     6.4620    12.0968    87.6058     2.5244     0.0823     0.0403
 1201.0000   -37.1445     6.1879  -999.2500  -999.2500     7.2787     6.4286    12.0920    89.6350     2.5165     0.0815     0.0331
 1201.5000   -37.0858     6.1546  -999.2500  -999.2500     7.2435     6.3955    12.0872    87.9760     2.5093     0.0871     0.0258
 1202.0000   -37.1072     6.1547  -999.2500  -999.2500     7.2642     6.3822    12.0824    85.1894     2.5029     0.0902     0.0187
 1202.5000   -37.1051     6.1550  -999.2500  -999.2500     7.2989     6.4000    12.0776    84.5929     2.5033     0.0882     0.0108
 1203.0000   -37.1007     6.1552  -999.2500  -999.2500     7.3337     6.4223    12.0728    88.2719     2.5076     0.0873     0.0104
 1203.5000   -37.1045     6.1556  -999.2500  -999.2500     7.3686     6.4440    12.0680    88.3622     2.5225     0.0782     0.0196
 1204.0000   -37.1030     6.1556  -999.2500  -999.2500     7.4038     6.4664    12.0632    86.8895     2.5381     0.0665     0.0286
 1204.5000   -37.1032     6.2021  -999.2500  -999.2500     7.4391     6.4888    12.0584    85.0566     2.5416     0.0648     0.0318
 1205.0000   -37.1032     6.2608  -999.2500  -999.2500     7.4746     6.5353    12.0536    85.6478     2.5385     0.0644     0.0286
 1205.5000   -37.1032     6.3200  -999.2500  -999.2500     7.5103     6.5985    12.0489    88.1471     2.5419     0.0635     0.0248
 1206.0000   -37.1032     6.3798  -999.2500  -999.2500     7.5409     6.6623    12.0440    90.4269     2.5440     0.0664     0.0217
 1206.5000   -37.1032     6.4402  -999.2500  -999.2500     7.5922     6.7266    12.0392    91.6400     2.5371     0.0694     0.0381
 1207.0000   -37.1032     6.5012  -999.2500  -999.2500     7.6438     6.7916    12.0355    88.4547     2.5303     0.0720     0.0583
 1207.5000   -37.1031     6.5627  -999.2500  -999.2500     7.6956     6.8572    12.0355    85.4357     2.5322     0.0720     0.0481
 1208.0000   -37.1031     6.6248  -999.2500  -999.2500     7.7482     6.9233    12.0354    83.2583     2.5397     0.0673     0.0411
 1208.5000   -37.1033     6.6875  -999.2500  -999.2500     7.8008     6.9900    12.0354    85.9762     2.5476     0.0638     0.0367
 1209.0000   -37.1029     6.7508  -999.2500  -999.2500     7.8540     7.0574    12.0354    87.3029     2.5463     0.0653     0.0354
 1209.5000   -37.1033     6.8146  -999.2500  -999.2500     7.9083     7.1254    12.0354    84.3525     2.5442     0.0639     0.0309
 1210.0000   -37.1046     6.8791  -999.2500  -999.2500     7.9314     7.1940    12.0354    81.8012     2.5422     0.0570     0.0260
 1210.5000   -37.1249     6.9442  -999.2500  -999.2500     7.9329     7.2634    12.0355    78.8345     2.5406     0.0603     0.0250
 1211.0000   -37.1431     7.0099  -999.2500  -999.2500     7.9247     7.3334    12.0354    78.9905     2.5500     0.0633     0.0321
 1211.5000   -37.1626     7.0763  -999.2500  -999.2500     7.9289     7.4203    12.0401    78.9309     2.5677     0.0509     0.0369
 1212.0000   -37.1814     7.1432  -999.2500  -999.2500     7.9289     7.5329    12.0465    76.4206     2.5596     0.0621     0.0352
 1212.5000   -37.2004     7.2108  -999.2500  -999.2500     8.7581     7.6473    12.0521    73.9941     2.5300     0.0797     0.0293
 1213.0000   -37.2195     7.2790  -999.2500  -999.2500     9.6739     7.6820    12.0590    71.6182     2.5147     0.0761     0.0277
 1213.5000   -37.2385     7.3479  -999.2500  -999.2500     8.9179     7.7400    12.0652    70.2813     2.5375     0.0696     0.0391
 1214.0000   -37.2575     7.4175  -999.2500  -999.2500     8.0927     7.7986    12.0678    75.2360     2.5209     0.0722     0.0499
 1214.5000   -37.2765     7.4876  -999.2500  -999.2500     8.1246     7.8576    12.1231    79.8567     2.5269     0.0774     0.0547
 1215.0000   -37.2955     7.5585  -999.2500  -999.2500     8.1875     7.9289    12.2518    83.0864     2.5197     0.0807     0.0435
 1215.5000   -37.3145     7.6301  -999.2500  -999.2500     8.2532     7.9660    12.3815    80.0447     2.5320     0.0699     0.0470
 1216.0000   -37.3335     7.7022  -999.2500  -999.2500     8.3186     8.0126    12.4296    80.2585     2.5419     0.0610     0.0503
 1216.5000   -37.3525     7.7749  -999.2500  -999.2500     8.3840     8.0595    12.4189    79.7437     2.5256     0.0760     0.0536
 1217.0000   -37.3715     7.8482  -999.2500  -999.2500     8.4503     8.1067    12.4129    79.3535     2.5470     0.0710     0.0550
 1217.5000   -37.3905     7.9221  -999.2500  -999.2500     8.5183     8.1541    12.4076    79.2877     2.5429     0.0642     0.0367
 1218.0000   -37.4094     7.9968  -999.2500  -999.2500     8.5869     8.2018    12.4006    77.6391     2.5296     0.0713     0.0239
 1218.5000   -37.4285     8.0723  -999.2500  -999.2500     8.6557     8.2498    12.3951    77.6649     2.5319     0.0744     0.0232
 1219.0000   -37.4475     8.1026  -999.2500  -999.2500     8.6792     8.2980    12.3902    78.3362     2.5353     0.0728     0.0266
