~VERSION INFORMATION
 VERS.                2.0:   CWLS LOG ASCII STANDARD - VERSION 2.0
 WRAP.                 NO:   ONE LINE PER DEPTH STEP
~WELL INFORMATION
#MNEM.UNIT      DATA TYPE    INFORMATION
#----------   ------------   ------------------------------
 STRT.F           30.0000:   START DEPTH
 STOP.F          480.0000:   STOP DEPTH
 STEP.F            0.5000:   STEP LENGTH
 NULL.          -999.2500:   NO VALUE
 COMP. FENIX & SCISSON INC:   COMPANY
 WELL.   51-SX-10 #NPR-10:   WELL
 FLD .             TEAPOT:   FIELD
 LOC .      S10 T38N R78W:   LOCATION
 CNTY.            NATRONA:   COUNTY
 STAT.            WYOMING:   STATE
 CTRY. UNITED STATES OF AMERICA:   COUNTRY
 SRVC.              Welex:   SERVICE COMPANY
 DATE.        13-MAR-1977:   LOGDATE
 API .       490251031000:   API NUMBER
~CURVE INFORMATION
#MNEM.UNIT       API CODE    CURVE DESCRIPTION
#----------   ------------   ------------------------------
 DEPT.F                  :   
 SGRD.OHMM   07 220 05 00:   SHALLOW GUARD RESISTIVITY
 ILD .OHMM   07 120 46 00:   INDUCTION LOG DEEP
 ILM .OHMM   07 120 44 00:   INDUCTION LOG MEDIUM
 SPR .MV     07 010 01 00:   SPONTANEOUS POTENTIAL
 RHOB.G/C3   45 350 01 00:   BULK DENSITY
 DPOR.DEC    45 890 12 00:   DENSITY POROSITY SANDSTONE
 CORR.G/C3   45 356 01 00:   DENSITY CORRECTION
 GRD .GAPI   45 310 01 00:   GAMMA RAY FROM DENSITY LOG
 CALD.IN     45 280 60 00:   CALIPER FROM DENSITY LOG
~PARAMETER INFORMATION
#MNEM.UNIT          VALUE    DESCRIPTION
#----------   ------------   ------------------------------
 PD  .                 GL:   PERMANENT DATUM
 EPD .F              5216:   ELEVATION PERMANENT DATUM
 LMF .                 GL:   LOG MEASURED FROM
 DMF .                 GL:   DRILLING MEASURED FROM
 EGL .F              5216:   GROUND LEVEL
 DATE.            3-13-77:   RUN DATE
 RUN .                  1:   RUN NUMBER
 DD  .F               490:   DEPTH DRILLER
 DL  .F               485:   DEPTH LOGGER
 BLI .F               483:   BOTTOM LOG INTERVAL
 TLI .F                35:   TOP LOG INTERVAL
 CS  .IN            8.625:   CASING SIZE
 CBD .F                40:   CASING BOTTOM DRILLER
 CBL .F                36:   CASING BOTTOM LOGGER
 BS  .IN            7.875:   BIT SIZE
 BSD .F               490:   BIT SIZE AT DEPTH
 DFT .            KCL MUD:   DRILLING FLUID TYPE
 DFD .                8.9:   DRILLING FLUID DENSITY
 DFV .                 34:   DRILLING FLUID VISCOSITY
 MSS .            MUD PIT:   MUD SAMPLE SOURCE
 RMS .OHMM            .43:   RESISTIVITY MUD SAMPLE
 MST .F                60:   MUD SAMPLE TEMPERATURE
 RMF .OHMM            .37:   RESISTIVITY MUD FILTRATE SAMPLE
 MFST.F                60:   MUD FILTRATE SAMPLE TEMPERATURE
 RMC .OHMM            .47:   RESISTIVITY MUD CAKE
 MCST.F                60:   MUD CAKE SAMPLE TEMPERATURE
 MFSS.           FANN KIT:   MUD FILTRATE SAMPLE SOURCE
 MCSS.           FANN KIT:   MUD CAKE SAMPLE SOURCE
 RMB .OHMM            .40:   RESISTIVITY MUD AT BHT
 BHT .F                63:   BOTTOM HOLE TEMPERATURE
 TCS .HRS             1.5:   TIME CURCULATED STOPPED
 MRT .F                63:   MAXIMUM RECORDED TEMPERATURE
 LUN .               8611:   LOGGING UNIT NUMBER
 LUL .             CASPER:   LOGGING UNIT LOCATION
 ENGI.               DOAK:   RECORDING ENGINEER
 WITN.         STUEBINGER:   WITNESSED BY
 CLNT.            A2DTECH:   CLIENT CODE
 ORIG.       2", 5" PRINT:   ORIGIN OF DATA
 UWI .       490251031000:   UNIQUE WELL ID
 DICO. A2D Technologies, Inc.:   DIGITIZING COMPANY
~OTHER INFORMATION
~A   DEPT     SGRD        ILD        ILM        SPR       RHOB       DPOR        CORR       GRD       CALD   
# ...
  103.0000    13.6627     9.3551    11.2063   -28.0144     2.4592     0.1128     0.0750   124.8820     7.9131
  103.5000    13.9580     9.5436    11.3292   -27.9662     2.4634     0.1118     0.0750   125.4720     7.9133
  104.0000    14.2803     9.7359    11.4533   -27.9180     2.4576     0.1110     0.0750   125.8360     7.9136
  104.5000    14.3278     9.9320    11.5789   -27.8698     2.4549     0.1095     0.0751   125.5080     7.9139
  105.0000    14.3790    10.1321    11.7058   -27.8216     2.4703     0.1032     0.0772   124.8906     7.9141
  105.5000    14.5828    10.3363    11.9619   -27.7734     2.4832     0.0970     0.0795   123.2339     7.9144
  106.0000    15.0908    10.5445    12.3387   -27.7252     2.4949     0.0908     0.0810   121.6392     7.9147
  106.5000    15.6165    10.7570    12.8721   -27.6776     2.5017     0.0868     0.0826   120.0443     7.9149
  107.0000    16.1605    10.9737    13.4837   -27.6441     2.5044     0.0850     0.0830   118.4422     7.9152
  107.5000    16.8609    11.1948    14.1491   -27.6448     2.5044     0.0868     0.0830   116.4231     7.9155
  108.0000    16.7130    11.3669    14.2322   -27.6447     2.4968     0.0917     0.0830   114.3636     7.9158
  108.5000    16.5526    11.4474    14.3192   -27.6447     2.4887     0.0970     0.0830   112.4311     7.9160
  109.0000    16.6562    11.5277    14.4067   -27.6447     2.4843     0.0990     0.0830   112.2181     7.9163
  109.5000    16.7455    11.6088    14.4948   -27.6447     2.4798     0.1010     0.0830   111.9795     7.9166
  110.0000    16.8352    11.6906    14.5836   -27.6446     2.4752     0.1032     0.0830   111.7537     7.9168
  110.5000    16.9255    11.7729    14.6732   -27.6443     2.4706     0.1052     0.0830   110.3144     7.9171
  111.0000    17.0173    11.8735    14.7625   -27.6407     2.4714     0.1057     0.0841   108.7948     7.9173
  111.5000    16.7096    11.7631    14.8201   -27.8238     2.4766     0.1019     0.0854   107.7216     7.9176
  112.0000    16.4002    11.6255    14.3007   -28.0629     2.4818     0.0981     0.0864   108.5488     7.9179
  112.5000    16.1021    11.4889    13.8794   -28.3032     2.4871     0.0943     0.0875   109.3275     7.9182
  113.0000    16.2882    11.3539    13.6345   -28.5436     2.4905     0.0949     0.0885   110.1042     7.9184
  113.5000    16.4005    11.2206    13.7627   -28.7883     2.4886     0.0969     0.0882   110.8796     7.9187
  114.0000    16.0482    11.0889    13.5510   -28.9573     2.4831     0.0989     0.0869   111.6551     7.9190
  114.5000    15.8061    10.9587    13.2937   -29.1103     2.4792     0.1009     0.0855   112.4306     7.9192
  115.0000    15.2742    10.8301    13.0413   -29.2625     2.4788     0.1029     0.0841   113.2067     7.9195
  115.5000    14.6812    10.7029    12.7937   -29.4150     2.4756     0.1049     0.0833   113.9828     7.9198
  116.0000    14.8112    10.5773    12.5507   -29.5676     2.4708     0.1069     0.0857   114.7495     7.9200
  116.5000    14.9704    10.5311    12.3200   -29.7201     2.4753     0.1045     0.0880   115.3101     7.9203
  117.0000    15.0934    10.5863    12.3200   -29.8727     2.4803     0.0993     0.0903   115.2742     7.9206
  117.5000    14.9026    10.6251    12.3200   -30.0252     2.4853     0.0942     0.0926   114.0000     7.9208
  118.0000    14.8199    10.6640    12.5134   -30.1777     2.4966     0.0848     0.0949   111.4023     7.9211
  118.5000    15.3762    10.7031    12.7832   -30.3303     2.5099     0.0803     0.0972   109.0712     7.9214
  119.0000    15.5599    10.7424    12.7474   -30.4831     2.5133     0.0805     0.0996   109.9244     7.9216
  119.5000    15.6252    10.7817    12.7065   -30.6364     2.5146     0.0798     0.1019   111.2545     7.9219
  120.0000    16.2413    10.8267    12.6648   -30.7639     2.5190     0.0777     0.1042   113.2105     7.9222
  120.5000    17.4950    10.6886    12.4678   -30.8913     2.5238     0.0755     0.1066   115.2096     7.9224
  121.0000    16.5202    10.5306    12.2819   -31.0189     2.5178     0.0776     0.1055   114.7999     7.9227
  121.5000    15.1985    10.3744    12.0997   -31.1466     2.5093     0.0848     0.1036   114.2126     7.9230
  122.0000    13.9824    10.2207    11.9202   -31.2742     2.5008     0.0894     0.1016   113.7449     7.9232
  122.5000    13.3869    10.0694    11.7434   -31.4019     2.4922     0.0940     0.0997   115.2376     7.9235
  123.0000    13.3869     9.9203    11.5692   -31.5295     2.4837     0.0986     0.0978   116.7615     7.9238
  123.5000    13.4843     9.7734    11.5090   -31.6572     2.4752     0.1033     0.0959   117.7175     7.9240
  124.0000    13.8294     9.6286    11.4637   -31.7849     2.4667     0.1058     0.0940   115.9716     7.9243
  124.5000    14.1491     9.4861    11.4186   -31.9125     2.4623     0.1078     0.0920   114.0654     7.9246
  125.0000    13.9739     9.3456    11.3737   -32.0402     2.4644     0.1081     0.0901   112.9865     7.9248
  125.5000    13.7811     9.2072    11.3289   -32.1678     2.4665     0.1080     0.0882   115.5051     7.9251
  126.0000    13.5908     9.0842    11.2844   -32.2955     2.4646     0.1079     0.0863   117.9533     7.9254
  126.5000    13.3869     9.0725    11.2400   -32.4231     2.4622     0.1084     0.0844   118.6750     7.9256
  127.0000    13.6008     9.0607    11.1957   -32.5508     2.4598     0.1112     0.0824   119.1396     7.9259
  127.5000    13.7627     9.0492    11.1517   -32.6785     2.4574     0.1134     0.0805   118.3763     7.9262
  128.0000    13.5197     9.0375    11.0332   -32.8064     2.4553     0.1134     0.0791   116.0190     7.9264
  128.5000    13.3382     9.0259    10.8472   -32.9337     2.4544     0.1134     0.0796   113.7366     7.9267
  129.0000    13.1592     9.0143    10.7284   -33.0407     2.4535     0.1139     0.0802   111.5059     7.9270
  129.5000    12.9018     9.0027    10.8263   -33.0618     2.4526     0.1147     0.0807   111.4292     7.9272
  130.0000    12.9986     8.9911    10.9024   -33.0843     2.4516     0.1154     0.0798   112.7582     7.9275
  130.5000    13.1805     8.9796    10.9784   -33.1070     2.4506     0.1162     0.0768   114.0445     7.9278
  131.0000    13.3650     8.9680    11.0284   -33.1297     2.4437     0.1192     0.0739   115.3383     7.9281
  131.5000    13.6360     8.9565    10.8752   -33.1525     2.4345     0.1228     0.0711   117.5849     7.9283
  132.0000    13.5958     8.9450    10.7436   -33.1750     2.4267     0.1265     0.0710   120.2038     7.9286
  132.5000    13.5088     8.9337    10.6124   -33.1978     2.4238     0.1277     0.0710   122.8166     7.9289
  133.0000    12.5495     8.9238    10.5248   -33.2224     2.4208     0.1275     0.0710   124.7569     7.9291
  133.5000    12.6363     8.8278    10.5055   -33.3432     2.4177     0.1284     0.0710   124.5548     7.9294
  134.0000    12.7913     8.7096    10.4868   -33.6006     2.4146     0.1305     0.0710   121.8812     7.9296
  134.5000    12.9482     8.5930    10.4682   -33.8559     2.4154     0.1313     0.0710   119.1551     7.9299
  135.0000    13.1421     8.4780    10.4495   -34.1118     2.4230     0.1272     0.0732   118.4772     7.9300
  135.5000    12.9650     8.3645    10.4343   -34.3676     2.4329     0.1232     0.0765   119.5009     7.9300
  136.0000    12.7417     8.2525    10.0301   -34.6234     2.4430     0.1192     0.0798   120.6340     7.9300
  136.5000    12.5223     8.1420     9.6354   -34.8793     2.4530     0.1152     0.0832   121.8092     7.9300
  137.0000    11.8907     8.0330     9.2547   -35.1359     2.4543     0.1141     0.0865   122.3100     7.9300
  137.5000    11.0284     7.9255     9.0854   -35.3928     2.4541     0.1146     0.0870   122.6390     7.9300
  138.0000    10.2208     7.8194     8.9193   -35.4295     2.4538     0.1150     0.0864   122.2935     7.9300
  138.5000     9.7697     7.6948     8.9193   -35.4303     2.4536     0.1144     0.0858   121.4012     7.9300
  139.0000    10.6172     7.7159     8.9193   -35.3923     2.4531     0.1138     0.0851   119.3916     7.9300
