~VERSION INFORMATION
 VERS.                2.0:   CWLS LOG ASCII STANDARD - VERSION 2.0
 WRAP.                 NO:   ONE LINE PER DEPTH STEP
~WELL INFORMATION
#MNEM.UNIT      DATA TYPE    INFORMATION
#----------   ------------   ------------------------------
 STRT.F            0.0000:   START DEPTH
 STOP.F          678.0000:   STOP DEPTH
 STEP.F            0.5000:   STEP LENGTH
 NULL.          -999.2500:   NO VALUE
 COMP. FENIX & SCISSON INC:   COMPANY
 WELL. 37-21 SX 11 WO #37-11:   WELL
 FLD .             TEAPOT:   FIELD
 LOC .      S11 T38N R78W:   LOCATION
 CNTY.            NATRONA:   COUNTY
 STAT.            WYOMING:   STATE
 CTRY. UNITED STATES OF AMERICA:   COUNTRY
 SRVC.      Dresser Atlas:   SERVICE COMPANY
 DATE.        14-OCT-1983:   LOGDATE
 API .       490251084300:   API NUMBER
~CURVE INFORMATION
#MNEM.UNIT       API CODE    CURVE DESCRIPTION
#----------   ------------   ------------------------------
 DEPT.F                  :   
 SPR .MV     07 010 01 00:   SPONTANEOUS POTENTIAL
 SFLU.OHMM   07 220 01 00:   SPHERICALLY FOCUSED LOG UNAVERAGED RESISTIVITY
 ILM .OHMM   07 120 44 00:   INDUCTION LOG MEDIUM
 ILD .OHMM   07 120 46 00:   INDUCTION LOG DEEP
 NPHI.DEC    42 890 03 00:   NEUTRON POROSITY SANDSTONE
 DPHI.DEC    45 890 12 00:   DENSITY POROSITY SANDSTONE
 RHOB.G/C3   45 350 01 00:   BULK DENSITY
 CORR.G/C3   45 356 01 00:   DENSITY CORRECTION
 GRD .GAPI   45 310 01 00:   GAMMA RAY FROM DENSITY LOG
 CALD.IN     45 280 60 00:   CALIPER
~PARAMETER INFORMATION
#MNEM.UNIT          VALUE    DESCRIPTION
#----------   ------------   ------------------------------
 PD  .                 GL:   PERMANENT DATUM
 EPD .F              5188:   ELEVATION PERMANENT DATUM
 LMF .                 KB:   LOG MEASURED FROM
 DAPD.F                 5:   FEET ABOVE PERMANENT DATUM
 DMF .                 KB:   DRILLING MEASURED FROM
 EKB .F              5193:   KELLING BUSHING
 EGL .F              5188:   GROUND LEVEL
 DATE.           10-14-83:   RUN DATE
 RUN .                  4:   RUN NUMBER
 DD  .F               629:   DEPTH DRILLER
 DL  .F               630:   DEPTH LOGGER
 BLI .F               624:   BOTTOM LOG INTERVAL
 TLI .F               335:   TOP LOG INTERVAL
 BS  .IN             8.75:   BIT SIZE
 BSD .F               629:   BIT SIZE AT DEPTH
 DFT .          KCL WATER:   DRILLING FLUID TYPE
 LUN .               6307:   LOGGING UNIT NUMBER
 LUL .               GLTE:   LOGGING UNIT LOCATION
 ENGI.            DEYOUNG:   RECORDING ENGINEER
 WITN.            SCHULTE:   WITNESSED BY
 CLNT.            A2DTECH:   CLIENT CODE
 ORIG.       2", 5" PRINT:   ORIGIN OF DATA
 UWI .       490251084300:   UNIQUE WELL ID
 DICO. A2D Technologies, Inc.:   DIGITIZING COMPANY
~OTHER INFORMATION
~A    DEPT     SPR       SFLU        ILM        ILD       NPHI       DPHI       RHOB       CORR        GRD       CALD   
# ...
  603.0000   -29.4021   106.0123    24.9276    28.3167     0.1855     0.0902     2.3641     0.0513    74.4777     9.3062
  603.5000   -29.7058    52.6974    24.8140    26.5004     0.2052     0.1276     2.3420     0.0510    73.4839     9.2726
  604.0000   -30.1052    35.7697    23.8917    25.5264     0.2104     0.1637     2.3343     0.0510    72.5059     9.2388
  604.5000   -30.5079    36.6391    22.9051    24.8983     0.2115     0.1998     2.3343     0.0523    71.5757     9.2249
  605.0000   -30.8329    37.9496    21.9592    24.2895     0.2110     0.2093     2.3338     0.0540    72.4233     9.2193
  605.5000   -30.9151    39.1991    21.0524    23.6949     0.2105     0.2068     2.3345     0.0556    73.3732     9.2136
  606.0000   -30.9999    37.4600    19.9087    23.1145     0.2130     0.2097     2.3378     0.0570    74.3169     9.2079
  606.5000   -31.0853    35.8936    19.9332    22.5483     0.2170     0.2135     2.3354     0.0556    75.2587     9.2051
  607.0000   -31.1695    34.3995    19.9697    21.9960     0.2210     0.2106     2.3292     0.0541    76.1974     9.1986
  607.5000   -31.3133    32.9717    20.0062    21.8134     0.2190     0.2070     2.3155     0.0530    77.1670     9.1913
  608.0000   -31.4862    31.6022    20.0428    21.4320     0.2155     0.2118     2.3246     0.0545    76.6085     9.1841
  608.5000   -31.6574    30.8956    20.0795    21.0749     0.2120     0.2167     2.3383     0.0679    75.4407     9.1769
  609.0000   -31.7177    32.1964    20.1162    20.7251     0.2084     0.2191     2.3492     0.0737    74.2263     9.1695
  609.5000   -31.3239    33.2434    20.1530    20.3813     0.2105     0.2119     2.3594     0.0693    75.0381     9.1670
  610.0000   -30.9420    31.7809    20.1899    20.0431     0.2189     0.2059     2.3668     0.0647    76.8865     9.2015
  610.5000   -30.5569    30.1641    20.2268    19.7106     0.2273     0.1999     2.3699     0.0622    78.8804     9.2363
  611.0000   -30.3890    28.6287    20.2638    19.3836     0.2276     0.1938     2.3652     0.0610    77.5531     9.2651
  611.5000   -30.3210    27.1713    20.3008    19.0620     0.2240     0.1892     2.3660     0.0609    76.1083     9.2586
  612.0000   -30.2558    26.4710    20.3380    18.7457     0.2238     0.1889     2.3557     0.0602    77.6969     9.2489
  612.5000   -30.1824    26.1536    20.3750    18.4347     0.2249     0.1910     2.3458     0.0553    76.3332     9.2391
  613.0000   -29.9929    25.8369    20.4123    18.1289     0.2260     0.1927     2.3578     0.0516    78.1035     9.2295
  613.5000   -29.8055    25.7261    20.4672    17.8281     0.2266     0.1990     2.3676     0.0567    80.2998     9.2341
  614.0000   -29.6184    25.6647    20.1491    17.5329     0.2266     0.2022     2.3635     0.0540    80.3216     9.2635
  614.5000   -29.4319    25.6061    19.6622    17.2388     0.2266     0.1938     2.3708     0.0508    79.3700     9.2927
  615.0000   -29.2933    25.5477    19.1907    17.0236     0.2257     0.1906     2.3834     0.0505    82.3637     9.3219
  615.5000   -29.1561    25.4916    18.7304    16.7532     0.2240     0.1912     2.3923     0.0535    79.3939     9.3510
  616.0000   -29.0186    23.7744    18.2813    16.4890     0.2217     0.1877     2.3932     0.0565    81.0628     9.3798
  616.5000   -28.8810    22.2296    17.8429    16.2291     0.2187     0.1792     2.3986     0.0591    81.2976     9.4078
  617.0000   -28.7434    20.2766    17.5136    15.9733     0.2179     0.1748     2.4043     0.0597    78.6400     9.4221
  617.5000   -28.6058    20.3743    17.5473    15.7214     0.2216     0.1726     2.3917     0.0530    80.0081     9.4235
  618.0000   -28.4682    20.5300    17.3952    15.4736     0.2236     0.1705     2.3803     0.0463    81.5061     9.4243
  618.5000   -28.3306    20.6906    17.2445    15.2296     0.2214     0.1685     2.4044     0.0488    83.0118     9.4251
  619.0000   -28.1928    20.8410    17.0951    14.9895     0.2187     0.1826     2.4239     0.0549    84.4647     9.4259
  619.5000   -28.0559    19.7670    16.5137    14.6510     0.2137     0.1767     2.4355     0.0588    83.8285     9.4267
  620.0000   -27.9164    18.7380    15.7044    14.3565     0.2051     0.1662     2.4398     0.0572    83.0678     9.4276
  620.5000   -28.0324    17.7670    15.2610    14.0680     0.1965     0.1559     2.4348     0.0556    81.8960     9.4284
  621.0000   -28.3690    17.0415    15.2367    13.7852     0.1988     0.1452     2.4328     0.0541    79.8135     9.4292
  621.5000   -28.4713    17.3473    15.2124    13.6133     0.2045     0.1466     2.4313     0.0530    77.7447     9.4300
  622.0000   -28.5247    17.6049    15.1882    13.4587     0.2065     0.1494     2.4258     0.0523    75.8211     9.4309
  622.5000   -28.5755    17.8663    15.1640    13.3074     0.2036     0.1505     2.4207     0.0514    75.1851     9.4317
  623.0000   -28.6270    18.1315    15.1399    13.4298     0.2007     0.1525     2.4174     0.0469    76.6425     9.4325
  623.5000   -28.6786    18.4007    15.1158    13.4164     0.1988     0.1565     2.4059     0.0378    76.9215     9.4333
  624.0000   -28.7303    18.6728    15.0917    13.4312     0.2041     0.1584     2.3853     0.0298    75.7553     9.4341
  624.5000   -28.7827    18.2172    15.0676    13.4298     0.2096     0.1603     2.3811     0.0379    75.4831     9.4350
  625.0000   -28.8372    17.7714    15.0437    13.4298     0.2101     0.1697     2.4041     0.0466    76.5097     9.4358
  625.5000   -28.7056    17.5154    15.0197    13.4298     0.2086     0.1826     2.4112     0.0555    77.5200     9.4366
  626.0000   -28.5570    17.7941    14.9958    13.4298     0.2086     0.1758     2.3979     0.0493    78.5303     9.4375
  626.5000   -28.4079    18.0000    14.9719    13.4298     0.2121     0.1681     2.3817     0.0397    79.5487     9.4383
  627.0000   -28.2593    18.2081    14.9481    13.4298     0.2156     0.1625     2.3793     0.0344    79.6051     9.4391
  627.5000   -28.1105    18.5026    14.9243    13.4298     0.2191     0.1721     2.3819     0.0385    79.1105     9.4399
  628.0000   -27.9627    18.3306    14.9004    13.4298     0.2224     0.1796     2.3858     0.0424    79.9836     9.4408
  628.5000   -27.8569    18.0424    14.8767    13.4298     0.2245     0.1838     2.4012     0.0466    78.4952     9.4416
  629.0000   -27.8807    17.7586    14.8516    13.4305     0.2236     0.1811     2.4106     0.0515    76.3833     9.4431
  629.5000   -27.9017    17.4794    14.7720    13.4298     0.2269     0.1757     2.4160     0.0564    74.9208     9.4448
  630.0000   -27.9226    17.2045    14.6904    13.4298     0.2289     0.1666     2.4179     0.0570    75.5651     9.4465
  630.5000   -27.9435    16.9340    14.6093    13.2071     0.2328     0.1621     2.4082     0.0567    75.6253     9.4483
  631.0000   -27.9643    16.6677    14.5286    13.0359     0.2272     0.1606     2.4017     0.0509    77.3840     9.4501
  631.5000   -27.9852    16.4056    14.4484    12.8668     0.2186     0.1622     2.4032     0.0450    76.7640     9.4518
  632.0000   -28.0061    16.1476    14.3686    12.7000     0.2099     0.1675     2.4123     0.0390    77.6005     9.4536
  632.5000   -28.0278    15.8332    14.3120    12.5961     0.2066     0.1687     2.3996     0.0336    77.8918     9.4553
  633.0000   -28.0539    15.8596    14.2736    12.5688     0.2070     0.1634     2.4070     0.0402    79.3971     9.4571
  633.5000   -27.8284    15.9216    14.2353    12.5210     0.2103     0.1601     2.4185     0.0475    77.6713     9.4588
  634.0000   -27.5585    15.9853    14.1974    12.4734     0.2101     0.1702     2.4278     0.0547    78.5518     9.4606
  634.5000   -27.4904    16.0494    14.0897    12.4260     0.2040     0.1638     2.4353     0.0546    79.7562     9.4623
  635.0000   -27.5329    16.1312    13.9296    12.3670     0.1979     0.1577     2.4401     0.0540    80.4189     9.4641
  635.5000   -27.5779    16.1284    13.9307    12.3675     0.1967     0.1516     2.4403     0.0533    78.7994     9.4658
  636.0000   -27.6222    15.6646    13.9307    12.3357     0.1992     0.1481     2.4448     0.0519    79.1801     9.4676
