~VERSION INFORMATION
 VERS.                2.0:   CWLS LOG ASCII STANDARD - VERSION 2.0
 WRAP.                 NO:   ONE LINE PER DEPTH STEP
~WELL INFORMATION
#MNEM.UNIT      DATA TYPE    INFORMATION
#----------   ------------   ------------------------------
 STRT.F           30.0000:   START DEPTH
 STOP.F          637.0000:   STOP DEPTH
 STEP.F            0.5000:   STEP LENGTH
 NULL.          -999.2500:   NO VALUE
 COMP.    FENIX & SCISSON:   COMPANY
 WELL.        NPR #82-S-3:   WELL
 FLD .             TEAPOT:   FIELD
 LOC .       S3 T38N R78W:   LOCATION
 CNTY.            NATRONA:   COUNTY
 STAT.            WYOMING:   STATE
 CTRY. UNITED STATES OF AMERICA:   COUNTRY
 SRVC.              Welex:   SERVICE COMPANY
 DATE.        08-MAY-1977:   LOGDATE
 API .       490251035100:   API NUMBER
~CURVE INFORMATION
#MNEM.UNIT       API CODE    CURVE DESCRIPTION
#----------   ------------   ------------------------------
 DEPT.F                  :   
 SPR .MV     07 010 01 00:   SPONTANEOUS POTENTIAL FROM RES.
 ILD .OHMM   07 120 46 00:   INDUCTION LOG DEEP
 ILM .OHMM   07 120 44 00:   INDUCTION LOG MEDIUM
 SGRD.OHMM   07 220 05 00:   SHALLOW GUARD RESISTIVITY
 GRD .GAPI   45 310 01 00:   GAMMA RAY FROM DENSITY LOG
 CALD.IN     45 280 60 00:   CALIPER FROM DENSITY LOG
 CORR.G/C3   45 356 01 00:   DENSITY CORRECTION
 RHOB.G/C3   45 350 01 00:   BULK DENSITY
 DPHI.DEC    45 890 12 00:   DENSITY POROSITY SANDSTONE
~PARAMETER INFORMATION
#MNEM.UNIT          VALUE    DESCRIPTION
#----------   ------------   ------------------------------
 PD  .                 GL:   PERMANENT DATUM
 EPD .F              5100:   ELEVATION PERMANENT DATUM
 LMF .                 GL:   LOG MEASURED FROM
 DMF .                 GL:   DRILLING MEASURED FROM
 EGL .F              5100:   GROUND LEVEL
 DATE.        08-MAY-1977:   RUN DATE
 RUN .                  1:   RUN NUMBER
 DD  .F               635:   DEPTH DRILLER
 DL  .F               640:   DEPTH LOGGER
 BLI .F               638:   BOTTOM LOG INTERVAL
 TLI .F                30:   TOP LOG INTERVAL
 CS  .IN            8.625:   CASING SIZE
 CBD .F                40:   CASING BOTTOM DRILLER
 CBL .F                38:   CASING BOTTOM LOGGER
 BS  .IN            7.875:   BIT SIZE
 BSD .F               635:   BIT SIZE AT DEPTH
 DFT .            KCL MUD:   DRILLING FLUID TYPE
 DFD .                8.8:   DRILLING FLUID DENSITY
 DFV .                 32:   DRILLING FLUID VISCOSITY
 DFPH.                7.5:   DRILLING FLUID PH
 MSS .           FLOWLINE:   MUD SAMPLE SOURCE
 RMS .OHMM            .25:   RESISTIVITY MUD SAMPLE
 MST .F                80:   MUD SAMPLE TEMPERATURE
 RMF .OHMM            .22:   RESISTIVITY MUD FILTRATE SAMPLE
 MFST.F                80:   MUD FILTRATE SAMPLE TEMPERATURE
 RMC .OHMM            .31:   RESISTIVITY MUD CAKE
 MCST.F                80:   MUD CAKE SAMPLE TEMPERATURE
 MFSS.               MEAS:   MUD FILTRATE SAMPLE SOURCE
 MCSS.               MEAS:   MUD CAKE SAMPLE SOURCE
 RMB .OHMM            .23:   RESISTIVITY MUD AT BHT
 BHT .F                87:   BOTTOM HOLE TEMPERATURE
 TCS .HRS            0130:   TIME CURCULATED STOPPED
 MRT .F                87:   MAXIMUM RECORDED TEMPERATURE
 LUN .               8611:   LOGGING UNIT NUMBER
 LUL .             CASPER:   LOGGING UNIT LOCATION
 ENGI.            C. DOAK:   RECORDING ENGINEER
 WITN.            R. LYON:   WITNESSED BY
 CLNT.            A2DTECH:   CLIENT CODE
 ORIG.           5" PRINT:   ORIGIN OF DATA
 UWI .       490251035100:   UNIQUE WELL ID
 DICO. A2D Technologies, Inc.:   DIGITIZING COMPANY
~OTHER INFORMATION
~A   DEPT      SPR        ILD        ILM       SGRD         GRD      CALD        CORR        RHOB     DPHI   
# ...
  614.0000   -37.3945     9.9617    12.1641    14.3005   117.4624     7.9585     0.0268     2.5010     0.1058
  614.5000   -37.3724     9.9688    12.2570    14.3088   121.6415     7.9733     0.0283     2.5003     0.1078
  615.0000   -37.3502     9.9745    12.6067    14.4160   123.7372     7.9733     0.0314     2.5004     0.1047
  615.5000   -37.4816     9.9103    12.4414    14.7258   125.0888     7.9733     0.0345     2.5034     0.1016
  616.0000   -37.4539     9.8671    12.4485    15.1462   121.8274     7.9733     0.0346     2.5080     0.0976
  616.5000   -37.4318     9.9021    12.2835    14.9452   117.8219     7.9733     0.0347     2.5140     0.0952
  617.0000   -37.4096     9.9371    12.1224    15.2685   116.0332     7.9733     0.0348     2.5185     0.0916
  617.5000   -37.5410     9.9722    11.8014    15.0659    94.6536     7.9733     0.0364     2.5253     0.0904
  618.0000   -37.6668    10.0084    11.5667    14.6646    50.0000     7.9733     0.0380     2.5335     0.0862
  618.5000   -37.7926     9.9452    11.4150    14.6752    54.1113     7.9733     0.0396     2.5284     0.0889
  619.0000   -37.7649     9.8826    11.5005    14.6836    76.9816     7.9585     0.0398     2.5239     0.0916
  619.5000   -37.8963     9.6862    11.8286    14.0967    93.9813     7.9585     0.0413     2.5173     0.0931
  620.0000   -37.8686     9.4935    11.3562    13.4403    99.6028     7.9585     0.0399     2.5098     0.0946
  620.5000   -37.8465     9.1773    11.2057    13.8241    98.6864     7.9585     0.0400     2.5039     0.0994
  621.0000   -37.9778     9.1699    11.3693    13.9257    98.5859     7.9585     0.0401     2.5241     0.0910
  621.5000   -37.9501     9.6480    10.9907    13.4635    99.1096     7.9436     0.0402     2.5279     0.0892
  622.0000   -38.0759     9.0673    10.5517    13.1936   101.6799     7.9436     0.0403     2.5324     0.0874
  622.5000   -38.0538     8.7654    10.6308    13.1105   103.4351     7.9288     0.0434     2.5392     0.0848
  623.0000   -38.0317     8.4735    10.9341    13.2107   104.6678     7.9288     0.0600     2.5460     0.0821
  623.5000   -38.0096     8.0792    11.0160    13.1275   104.7489     7.9139     0.0676     2.5513     0.0803
  624.0000   -37.9874     7.8100    10.7969    13.1351   103.8715     7.9139     0.0752     2.5498     0.0815
  624.5000   -37.6694     7.6021    10.5806    13.1426   102.8422     7.9139     0.0753     2.5402     0.0868
  625.0000   -37.3515     7.3998    11.0351    13.1502   101.6641     7.9139     0.0723     2.5268     0.0898
  625.5000   -36.5897     7.1043    11.0414    13.0674   100.7805     7.9139     0.0695     2.5186     0.0925
  626.0000   -35.8279     6.8677    10.8218    12.8959   100.0519     7.9288     0.0666     2.5164     0.0946
  626.5000   -34.6224     6.8244    10.5337    12.3804    99.6148     7.9288     0.0682     2.5150     0.0943
  627.0000   -32.5292     6.8283     9.9747    11.0176   100.3743     7.9288     0.0683     2.5150     0.0940
  627.5000   -29.6964     6.8323     9.0628     9.8048   102.0236     7.9139     0.0684     2.5136     0.0958
  628.0000   -24.2009     7.1247     9.1938    10.0847   103.2264     7.9139     0.0640     2.5076     0.0997
  628.5000   -15.3031     8.2953     9.8552    12.5812   104.5781     7.9139     0.0626     2.5017     0.1042
  629.0000    -7.2928     9.9281    10.7107    13.3943   105.6321     7.8991     0.0612     2.5003     0.1051
  629.5000    -1.0576    13.0854    11.8019    14.0646   107.7278     7.8843     0.0613     2.5041     0.1036
  630.0000    -0.2959    14.6186    12.6508    14.4662   109.3771     7.8694     0.0599     2.5078     0.1036
  630.5000    -0.1257    15.1395    13.6546    14.8792   109.5382     7.8546     0.0600     2.5057     0.1054
  631.0000     0.0000    15.3584    16.9150    15.4099   109.3987     7.8238     0.0616     2.5011     0.1069
  631.5000     0.0000    15.2617    20.1056    15.6328   109.2623     7.7804     0.0632     2.4990     0.1078
  632.0000     0.0000    14.7467    19.9762    14.8018   109.2777     7.7507     0.0678     2.5023     0.1036
  632.5000     0.0000    14.4599  -999.2500    14.3064   109.2901     7.7211     0.0783     2.5100     0.1000
  633.0000     0.0000    15.1866  -999.2500    15.2331   110.4929     7.6172     0.0979     2.5309     0.0851
  633.5000     0.0000    15.1917  -999.2500    15.4513   113.4815     7.5134     0.1100     2.5530     0.0800
  634.0000     0.0000    15.0960  -999.2500    14.8359   115.2796     7.3798     0.1385     2.5411     0.0886
  634.5000     0.0000    15.6340  -999.2500    15.4713   116.0360     7.2463     0.1446     2.5173     0.0958
  635.0000    -0.2225    15.3172  -999.2500    15.1633   118.2805     7.0979     0.1447     2.5091     0.1006
  635.5000    -0.1997    14.9090  -999.2500    14.5552   119.7810     6.6231     0.1433     2.5002     0.1066
  636.0000    -0.1727    14.2231  -999.2500    14.1695   102.3416     6.0000     0.1449     2.5002     0.1066
  636.5000  -999.2500  -999.2500  -999.2500  -999.2500    99.4603     6.0000     0.1465     2.5025     0.1054
  637.0000  -999.2500  -999.2500  -999.2500  -999.2500    96.5790     6.0000     0.1511     2.5063     0.1030
