~VERSION INFORMATION
 VERS.                2.0:   CWLS LOG ASCII STANDARD - VERSION 2.0
 WRAP.                 NO:   ONE LINE PER DEPTH STEP
~WELL INFORMATION
#MNEM.UNIT      DATA TYPE    INFORMATION
#----------   ------------   ------------------------------
 STRT.F          110.5000:   START DEPTH
 STOP.F         1944.0000:   STOP DEPTH
 STEP.F            0.5000:   STEP LENGTH
 NULL.          -999.2500:   NO VALUE
 COMP.    FENIX & SCISSON:   COMPANY
 WELL.   NPR 3 SHX #34-10:   WELL
 FLD .             TEAPOT:   FIELD
 LOC .      S10 T38N R78W:   LOCATION
 CNTY.            NATRONA:   COUNTY
 STAT.            WYOMING:   STATE
 CTRY. UNITED STATES OF AMERICA:   COUNTRY
 SRVC.            Unknown:   SERVICE COMPANY
 DATE.        14-APR-1978:   LOGDATE
 API .       490251061800:   API NUMBER
~CURVE INFORMATION
#MNEM.UNIT       API CODE    CURVE DESCRIPTION
#----------   ------------   ------------------------------
 DEPT.F                  :   
 ILD .OHMM   05 120 46 00:   INDUCTION LOG DEEP
 CILD.MMHO   05 110 00 00:   CONDUCTIVITY INDUCTION LOG
 NPHI.DEC    42 890 01 00:   NEUTRON POROSITY LIMESTONE
 GRD .GAPI   45 310 01 00:   GAMMA RAY FROM DENSITY LOG
~PARAMETER INFORMATION
#MNEM.UNIT          VALUE    DESCRIPTION
#----------   ------------   ------------------------------
 PD  .                 GL:   PERMANENT DATUM
 EPD .F              5244:   ELEVATION PERMANENT DATUM
 LMF .                 KB:   LOG MEASURED FROM
 DMF .                 KB:   DRILLING MEASURED FROM
 EKB .F              5252:   KELLING BUSHING
 EGL .F              5244:   GROUND LEVEL
 DATE.          4-14-1978:   RUN DATE
 RUN .                  1:   RUN NUMBER
 DD  .F              1953:   DEPTH DRILLER
 DL  .F              1950:   DEPTH LOGGER
 BLI .F              1944:   BOTTOM LOG INTERVAL
 TLI .F               715:   TOP LOG INTERVAL
 CS  .IN            9.625:   CASING SIZE
 CBD .F               708:   CASING BOTTOM DRILLER
 CBL .F               712:   CASING BOTTOM LOGGER
 BS  .IN             8.75:   BIT SIZE
 BSD .F              1953:   BIT SIZE AT DEPTH
 DFT .                OIL:   DRILLING FLUID TYPE
 TCS .HRS               5:   TIME CURCULATED STOPPED
 LUN .               2958:   LOGGING UNIT NUMBER
 LUL .               CASP:   LOGGING UNIT LOCATION
 ENGI.             MILLER:   RECORDING ENGINEER
 CLNT.            A2DTECH:   CLIENT CODE
 ORIG.           5" PRINT:   ORIGIN OF DATA
 UWI .       490251061800:   UNIQUE WELL ID
 DICO. A2D Technologies, Inc.:   DIGITIZING COMPANY
~OTHER INFORMATION
~A   DEPT      ILD       CILD       NPHI        GRD   
# ...
  183.5000  -999.2500  -999.2500     0.2041    56.6209
  184.0000  -999.2500  -999.2500     0.2045    55.6843
  184.5000  -999.2500  -999.2500     0.2060    55.1521
  185.0000  -999.2500  -999.2500     0.2076    55.1935
  185.5000  -999.2500  -999.2500     0.2089    55.3339
  186.0000  -999.2500  -999.2500     0.2081    55.4679
  186.5000  -999.2500  -999.2500     0.2002    55.5232
  187.0000  -999.2500  -999.2500     0.1891    55.3871
  187.5000  -999.2500  -999.2500     0.1792    55.2543
  188.0000  -999.2500  -999.2500     0.1920    55.1199
  188.5000  -999.2500  -999.2500     0.2094    54.9844
  189.0000  -999.2500  -999.2500     0.2097    55.1626
  189.5000  -999.2500  -999.2500     0.2035    56.3897
  190.0000  -999.2500  -999.2500     0.2025    57.6782
  190.5000  -999.2500  -999.2500     0.2102    59.7761
  191.0000  -999.2500  -999.2500     0.2178    62.3293
  191.5000  -999.2500  -999.2500     0.2278    63.3190
  192.0000  -999.2500  -999.2500     0.2203    63.5271
  192.5000  -999.2500  -999.2500     0.2170    64.1980
  193.0000  -999.2500  -999.2500     0.2177    65.0597
  193.5000  -999.2500  -999.2500     0.2370    65.9317
  194.0000  -999.2500  -999.2500     0.2645    66.8076
  194.5000  -999.2500  -999.2500     0.2814    67.1611
  195.0000  -999.2500  -999.2500     0.2544    67.0993
  195.5000  -999.2500  -999.2500     0.2576    66.9741
  196.0000  -999.2500  -999.2500     0.2511    65.3964
  196.5000  -999.2500  -999.2500     0.2444    63.7068
  197.0000  -999.2500  -999.2500     0.2431    63.6430
  197.5000  -999.2500  -999.2500     0.2562    65.1920
  198.0000  -999.2500  -999.2500     0.2660    66.4489
  198.5000  -999.2500  -999.2500     0.2512    65.1214
  199.0000  -999.2500  -999.2500     0.2370    63.1837
  199.5000  -999.2500  -999.2500     0.2352    61.2176
  200.0000  -999.2500  -999.2500     0.2346    59.2601
  200.5000  -999.2500  -999.2500     0.2419    57.4720
  201.0000  -999.2500  -999.2500     0.2463    57.3424
  201.5000  -999.2500  -999.2500     0.2455    57.3056
  202.0000  -999.2500  -999.2500     0.2368    57.2719
  202.5000  -999.2500  -999.2500     0.2280    57.2367
  203.0000  -999.2500  -999.2500     0.2265    57.2014
  203.5000  -999.2500  -999.2500     0.2289    57.1660
  204.0000  -999.2500  -999.2500     0.2314    57.1306
  204.5000  -999.2500  -999.2500     0.2246    57.0952
  205.0000  -999.2500  -999.2500     0.2104    57.0597
  205.5000  -999.2500  -999.2500     0.2061    57.0240
  206.0000  -999.2500  -999.2500     0.2061    56.9869
  206.5000  -999.2500  -999.2500     0.2061    56.9445
  207.0000  -999.2500  -999.2500     0.2084    57.8310
  207.5000  -999.2500  -999.2500     0.2150    58.8613
  208.0000  -999.2500  -999.2500     0.2229    59.5813
  208.5000  -999.2500  -999.2500     0.2246    59.6368
  209.0000  -999.2500  -999.2500     0.1984    59.8121
  209.5000  -999.2500  -999.2500     0.1893    60.8466
  210.0000  -999.2500  -999.2500     0.2093    61.8837
  210.5000  -999.2500  -999.2500     0.2184    62.8204
  211.0000  -999.2500  -999.2500     0.2101    62.5862
  211.5000  -999.2500  -999.2500     0.2120    62.1146
  212.0000  -999.2500  -999.2500     0.2222    59.7240
  212.5000  -999.2500  -999.2500     0.2312    57.9880
  213.0000  -999.2500  -999.2500     0.2306    58.2288
  213.5000  -999.2500  -999.2500     0.2239    58.4296
  214.0000  -999.2500  -999.2500     0.2146    58.6269
  214.5000  -999.2500  -999.2500     0.2130    58.8331
  215.0000  -999.2500  -999.2500     0.2025    59.4039
  215.5000  -999.2500  -999.2500     0.2071    61.1829
  216.0000  -999.2500  -999.2500     0.2148    62.6462
  216.5000  -999.2500  -999.2500     0.2177    62.7164
  217.0000  -999.2500  -999.2500     0.2225    62.8177
  217.5000  -999.2500  -999.2500     0.2244    62.9218
  218.0000  -999.2500  -999.2500     0.2278    63.0263
  218.5000  -999.2500  -999.2500     0.2287    63.1328
  219.0000  -999.2500  -999.2500     0.2251    63.1948
  219.5000  -999.2500  -999.2500     0.2216    63.1709
  220.0000  -999.2500  -999.2500     0.2202    61.8042
  220.5000  -999.2500  -999.2500     0.2190    60.1483
  221.0000  -999.2500  -999.2500     0.2138    59.6736
  221.5000  -999.2500  -999.2500     0.2131    59.2725
  222.0000  -999.2500  -999.2500     0.2033    57.9475
  222.5000  -999.2500  -999.2500     0.1922    57.1594
  223.0000  -999.2500  -999.2500     0.1860    57.1492
  223.5000  -999.2500  -999.2500     0.1828    57.8861
  224.0000  -999.2500  -999.2500     0.1705    60.8644
  224.5000  -999.2500  -999.2500     0.1557    63.8091
  225.0000  -999.2500  -999.2500     0.1452    64.7386
  225.5000  -999.2500  -999.2500     0.1812    63.3850
  226.0000  -999.2500  -999.2500     0.2092    62.6073
  226.5000  -999.2500  -999.2500     0.2372    62.2612
  227.0000  -999.2500  -999.2500     0.2536    61.5275
  227.5000  -999.2500  -999.2500     0.2385    60.7129
  228.0000  -999.2500  -999.2500     0.2358    59.1695
  228.5000  -999.2500  -999.2500     0.2375    57.6525
  229.0000  -999.2500  -999.2500     0.2393    57.1502
  229.5000  -999.2500  -999.2500     0.2474    56.8692
  230.0000  -999.2500  -999.2500     0.2503    56.5946
  230.5000  -999.2500  -999.2500     0.2556    56.6479
  231.0000  -999.2500  -999.2500     0.2987    58.8489
  231.5000  -999.2500  -999.2500     0.2829    60.6290
  232.0000  -999.2500  -999.2500     0.3009    60.6313
  232.5000  -999.2500  -999.2500     0.2697    58.9168
  233.0000  -999.2500  -999.2500     0.2873    57.5548
  233.5000  -999.2500  -999.2500     0.2648    57.5625
  234.0000  -999.2500  -999.2500     0.2466    57.5677
  234.5000  -999.2500  -999.2500     0.2566    58.3520
  235.0000  -999.2500  -999.2500     0.2644    61.9758
  235.5000  -999.2500  -999.2500     0.2529    64.6682
  236.0000  -999.2500  -999.2500     0.2491    64.2399
  236.5000  -999.2500  -999.2500     0.2555    60.5058
  237.0000  -999.2500  -999.2500     0.2526    57.0361
  237.5000  -999.2500  -999.2500     0.2612    56.8016
  238.0000  -999.2500  -999.2500     0.2299    56.7773
  238.5000  -999.2500  -999.2500     0.2238    58.4525
  239.0000  -999.2500  -999.2500     0.2298    59.8578
  239.5000  -999.2500  -999.2500     0.2476    60.1066
  240.0000  -999.2500  -999.2500     0.2616    58.5370
  240.5000  -999.2500  -999.2500     0.2371    56.9070
  241.0000  -999.2500  -999.2500     0.2371    56.5968
  241.5000  -999.2500  -999.2500     0.2721    56.6359
  242.0000  -999.2500  -999.2500     0.2636    56.6830
  242.5000  -999.2500  -999.2500     0.2789    56.7261
  243.0000  -999.2500  -999.2500     0.2785    56.7687
  243.5000  -999.2500  -999.2500     0.2603    56.8113
  244.0000  -999.2500  -999.2500     0.2521    56.8533
  244.5000  -999.2500  -999.2500     0.2636    56.8942
  245.0000  -999.2500  -999.2500     0.2366    56.9437
  245.5000  -999.2500  -999.2500     0.2254    57.3329
  246.0000  -999.2500  -999.2500     0.2405    58.5192
  246.5000  -999.2500  -999.2500     0.2528    58.4004
  247.0000  -999.2500  -999.2500     0.2528    57.4709
  247.5000  -999.2500  -999.2500     0.2234    56.5254
  248.0000  -999.2500  -999.2500     0.2241    55.5754
  248.5000  -999.2500  -999.2500     0.2337    55.1670
  249.0000  -999.2500  -999.2500     0.2376    55.4101
  249.5000  -999.2500  -999.2500     0.2379    56.4842
  250.0000  -999.2500  -999.2500     0.2537    57.5925
  250.5000  -999.2500  -999.2500     0.2620    58.7216
  251.0000  -999.2500  -999.2500     0.2510    58.9220
  251.5000  -999.2500  -999.2500     0.2328    58.1414
  252.0000  -999.2500  -999.2500     0.2266    57.3355
  252.5000  -999.2500  -999.2500     0.2352    56.7550
  253.0000  -999.2500  -999.2500     0.2432    56.7597
  253.5000  -999.2500  -999.2500     0.2459    56.7938
  254.0000  -999.2500  -999.2500     0.2499    57.8082
  254.5000  -999.2500  -999.2500     0.2524    58.8450
  255.0000  -999.2500  -999.2500     0.2602    59.4099
  255.5000  -999.2500  -999.2500     0.2755    59.4091
  256.0000  -999.2500  -999.2500     0.2908    58.1081
