~VERSION INFORMATION
 VERS.                2.0:   CWLS LOG ASCII STANDARD - VERSION 2.0
 WRAP.                 NO:   ONE LINE PER DEPTH STEP
~WELL INFORMATION
#MNEM.UNIT      DATA TYPE    INFORMATION
#----------   ------------   ------------------------------
 STRT.F            8.0000:   START DEPTH
 STOP.F          513.0000:   STOP DEPTH
 STEP.F            0.5000:   STEP LENGTH
 NULL.          -999.2500:   NO VALUE
 COMP. LAWRENCE-ALLISON &AS:   COMPANY
 WELL. NPR 3 #51-63SX10UP3:   WELL
 FLD .             TEAPOT:   FIELD
 LOC .      S10 T38N R78W:   LOCATION
 CNTY.            NATRONA:   COUNTY
 STAT.            WYOMING:   STATE
 CTRY. UNITED STATES OF AMERICA:   COUNTRY
 SRVC.      Dresser Atlas:   SERVICE COMPANY
 DATE.        09-DEC-1984:   LOGDATE
 API .       490251099400:   API NUMBER
~CURVE INFORMATION
#MNEM.UNIT       API CODE    CURVE DESCRIPTION
#----------   ------------   ------------------------------
 DEPT.F                  :   
 RFOC.OHMM   07 220 01 00:   RESISTIVITY FOCUSED LOG
 RILD.OHMM   07 120 46 00:   INDUCTION LOG DEEP RESISTIVITY
 RILM.OHMM   07 120 44 00:   RESITIVITY LONG MEDIUM
 SPR .MV     07 010 01 00:   SPONTANEOUS POTENTIAL
 CALD.IN     45 280 60 00:   CALIPER FROM DENSITY LOG
 CORR.none               :   
 DEN .G/C3   45 350 01 00:   COMPENSATED BULK DENSTIY
 GRD .GAPI   45 310 01 00:   GAMMA RAY FROM DENSITY LOG
 PORD.DEC    45 890 12 00:   POROSITY DENSITY SANDSTONE
 CNC .DEC    42 890 03 00:   NEUTRON POROSITY SANDSTONE
~PARAMETER INFORMATION
#MNEM.UNIT          VALUE    DESCRIPTION
#----------   ------------   ------------------------------
 PD  .                 GL:   PERMANENT DATUM
 EPD .F              5162:   ELEVATION PERMANENT DATUM
 LMF .                 GL:   LOG MEASURED FROM
 DMF .                 GL:   DRILLING MEASURED FROM
 EGL .F              5162:   GROUND LEVEL
 DATE.        09-DEC-1984:   RUN DATE
 RUN .                  1:   RUN NUMBER
 DD  .F               510:   DEPTH DRILLER
 DL  .F               515:   DEPTH LOGGER
 BLI .F               513:   BOTTOM LOG INTERVAL
 TLI .F                20:   TOP LOG INTERVAL
 CS  .IN            8.625:   CASING SIZE
 CBD .F                20:   CASING BOTTOM DRILLER
 CBL .F                20:   CASING BOTTOM LOGGER
 BS  .IN            7.875:   BIT SIZE
 BSD .F               510:   BIT SIZE AT DEPTH
 DFT .          KCL-WATER:   DRILLING FLUID TYPE
 MSS .            MUDTANK:   MUD SAMPLE SOURCE
 RMS .OHMM           0.41:   RESISTIVITY MUD SAMPLE
 MST .F                45:   MUD SAMPLE TEMPERATURE
 RMF .OHMM           0.31:   RESISTIVITY MUD FILTRATE SAMPLE
 MFST.F                45:   MUD FILTRATE SAMPLE TEMPERATURE
 RMC .OHMM           0.51:   RESISTIVITY MUD CAKE
 MCST.F                45:   MUD CAKE SAMPLE TEMPERATURE
 MFSS.               CALC:   MUD FILTRATE SAMPLE SOURCE
 MCSS.               CALC:   MUD CAKE SAMPLE SOURCE
 RMB .OHMM           0.22:   RESISTIVITY MUD AT BHT
 BHT .F                85:   BOTTOM HOLE TEMPERATURE
 TCS .HRS               2:   TIME CURCULATED STOPPED
 MRT .F               100:   MAXIMUM RECORDED TEMPERATURE
 LUN .               6270:   LOGGING UNIT NUMBER
 LUL .                 FM:   LOGGING UNIT LOCATION
 ENGI.          E. GOVETT:   RECORDING ENGINEER
 WITN.              LUERS:   WITNESSED BY
 CLNT.            A2DTECH:   CLIENT CODE
 ORIG.           5" PRINT:   ORIGIN OF DATA
 UWI .       490251099400:   UNIQUE WELL ID
 DICO. A2D Technologies, Inc.:   DIGITIZING COMPANY
~OTHER INFORMATION
~A    DEPT    RFOC       RILD       RILM        SPR       CALD       CORR        DEN        GRD       PORD          CNC 
# ...
  410.0000    13.8466    10.7991    11.3424   -40.2223     8.0481     0.0350     2.5027    97.0518     0.1008     0.2402
  410.5000    14.3442    10.9557    11.3498   -40.4241     8.0474     0.0152     2.4943    92.9872     0.1066     0.2460
  411.0000    14.7567    11.1145    11.5162   -40.7169     8.0466     0.0076     2.4897    90.5767     0.1127     0.2490
  411.5000    14.9715    11.1975    11.6850   -41.0350     8.0459     0.0046     2.4858    89.8204     0.1154     0.2469
  412.0000    15.0843    11.2028    11.9435   -41.2245     8.0452     0.0122     2.4881    89.9664     0.1157     0.2366
  412.5000    15.1979    11.2082    12.2093   -41.3636     8.0444     0.0258     2.4934    90.7138     0.1130     0.2302
  413.0000    15.3141    11.2919    12.4656   -41.5027     8.0437     0.0304     2.4971    90.4086     0.1099     0.2415
  413.5000    15.5369    11.2973    12.7365   -41.4908     8.0429     0.0212     2.5002    89.9531     0.1072     0.2467
  414.0000    15.7630    11.3816    13.0134   -41.6323     8.0573     0.0167     2.5031    90.7005     0.1054     0.2491
  414.5000    15.6603    11.5467    13.1126   -41.6204     8.0565     0.0151     2.5053    97.6134     0.1042     0.2509
  415.0000    15.6710    11.7141    12.8483   -41.4624     8.0587     0.0181     2.5129   127.2330     0.1021     0.2555
  415.5000    15.5688    11.8839    12.5061   -41.4529     8.0700     0.0242     2.5220   143.5265     0.0994     0.2568
  416.0000    15.6881    12.1438    12.1710   -41.2948     8.0692     0.0212     2.5188   187.0148     0.0948     0.2492
  416.5000    15.6966    12.4498    11.6814   -41.2853     8.0750     0.0135     2.5113   197.1446     0.0974     0.2377
  417.0000    15.5514    12.7717    11.2115   -41.1272     8.0828     0.0150     2.5036   175.3345     0.1020     0.2373
  417.5000    15.2827    13.1263    10.8356   -41.1178     8.0821     0.0302     2.4975   143.9015     0.1076     0.2489
  418.0000    14.9757    13.4095    10.4722   -41.4056     8.0813     0.0409     2.4922   115.2986     0.1113     0.2520
  418.5000    14.7723    13.6039    10.1917   -41.5446     8.0760     0.0484     2.4914    97.8750     0.1137     0.2511
  419.0000    14.5751    13.8012     9.9148   -41.6919     8.0647     0.0530     2.4991    95.4668     0.1125     0.2483
  419.5000    14.3875    13.9025     9.7795   -41.8227     8.0640     0.0499     2.5057    92.7556     0.1067     0.2523
  420.0000    14.2956    13.3697     9.5938   -41.8109     8.0482     0.0483     2.4966    90.6460     0.1052     0.2587
  420.5000    14.4052    12.9349     9.5320   -41.8014     8.0323     0.0453     2.4905    89.7393     0.1095     0.2575
  421.0000    14.7168    12.4576     9.8087   -41.7919     8.0154     0.0468     2.4859    90.1860     0.1140     0.2554
  421.5000    15.0351    12.1215    10.0918   -41.6338     8.0008     0.0498     2.4813    91.6853     0.1177     0.2600
  422.0000    15.2539    11.7945    10.3112   -41.6243     7.9999     0.0529     2.4782    93.0343     0.1202     0.2628
  422.5000    15.0515    11.6358    10.4623   -41.3177     7.9841     0.0589     2.4759    94.3832     0.1226     0.2618
  423.0000    14.7489    11.4023    10.4691   -41.3082     7.9833     0.0665     2.4751    94.6797     0.1229     0.2576
  423.5000    14.4524    11.0947    10.4759   -41.1501     8.0127     0.0513     2.4743    93.9232     0.1229     0.2570
  424.0000    14.0638    10.8708    10.4827   -41.2892     8.0272     0.0361     2.4727    93.1669     0.1229     0.2594
  424.5000    13.7811    10.7258    10.4895   -41.4283     8.0494     0.0255     2.4712    94.7339     0.1238     0.2588
  425.0000    13.5040    10.5093    10.4234   -41.7162     8.0558     0.0194     2.4704    98.6968     0.1250     0.2543
  425.5000    13.2260    10.4034    10.2863   -41.8551     8.0549     0.0131     2.4711   100.6724     0.1254     0.2485
  426.0000    12.9666    10.3023    10.2217   -42.2914     8.0542     0.0057     2.4764    99.9150     0.1220     0.2495
  426.5000    12.7076    10.2356    10.2284   -42.4305     8.0535     0.0072     2.4809    99.1587     0.1193     0.2571
  427.0000    12.6265    10.2406    10.0937   -42.5696     8.0527     0.0254     2.4816    98.7032     0.1187     0.2647
  427.5000    12.6334    10.1745     9.9624   -42.5577     8.0520     0.0345     2.4816    98.5495     0.1187     0.2694
  428.0000    12.6403    10.2516     9.8982   -42.6992     8.0663     0.0269     2.4838    99.7470     0.1169     0.2744
  428.5000    12.3845    10.3282     9.7018   -42.8383     8.0655     0.0208     2.4899   101.0959     0.1130     0.2790
  429.0000    12.1372    10.3331     9.6393   -42.8264     8.0648     0.0177     2.4982   102.4449     0.1084     0.2833
  429.5000    11.9745    10.2664     9.6464   -42.9679     8.0640     0.0268     2.5080   102.9133     0.1030     0.2860
  430.0000    11.8173    10.1295     9.6534   -42.9560     8.0783     0.0405     2.5180   102.2856     0.0975     0.2836
  430.5000    11.7402    10.0629     9.6596   -42.9466     8.0776     0.0557     2.5263   101.8301     0.0930     0.2703
  431.0000    11.6667     9.9979     9.6659   -42.9376     8.0767     0.0664     2.5200   102.1393     0.0909     0.2609
  431.5000    11.6732     9.9644     9.6049   -42.9276     8.0610     0.0617     2.5071   102.5731     0.0997     0.2542
  432.0000    11.6818     9.9381     9.6114   -42.9183     8.0602     0.0541     2.4972   102.5676     0.1121     0.2545
  432.5000    11.7677     9.8752     9.4848   -42.9086     8.0537     0.0510     2.4926   102.7135     0.1146     0.2576
  433.0000    11.8563     9.8799     9.3560   -43.0477     8.0436     0.0495     2.5009   103.4610     0.1109     0.2684
  433.5000    12.0302     9.8160     9.2367   -43.0379     8.0278     0.0343     2.5062   104.8099     0.1049     0.2758
  434.0000    12.1208     9.6852     9.1151   -43.1773     8.0120     0.0221     2.5069   103.9033     0.1037     0.2701
  434.5000    12.2972     9.5889     8.9951   -43.3164     8.0113     0.0236     2.5099   102.0943     0.1025     0.2616
  435.0000    12.3039     9.4242     8.8767   -43.4555     8.0105     0.0282     2.5137    99.6839     0.1006     0.2558
  435.5000    12.0566     9.2306     8.7612   -43.4436     8.0096     0.0251     2.5144    98.6268     0.0985     0.2525
  436.0000    11.8966     9.0410     8.7048   -43.5851     8.0090     0.0235     2.5104    98.1713     0.1004     0.2507
  436.5000    11.8190     8.8086     8.7118   -43.7242     8.0082     0.0273     2.5082    97.7157     0.1022     0.2498
  437.0000    11.8271     8.6308     8.8395   -44.0095     8.0075     0.0478     2.5074    97.5609     0.1028     0.2483
  437.5000    11.4293     8.4566     8.9691   -44.1486     8.0068     0.0615     2.5074   100.6391     0.1028     0.2471
  438.0000    11.0450     8.2850     8.9749   -44.2278     8.0059     0.0706     2.5066   103.9639     0.1031     0.2523
  438.5000    10.7479     8.1178     8.9807   -44.4272     8.0053     0.0782     2.5035   101.9074     0.1040     0.2781
  439.0000    10.5319     7.9549     8.9242   -44.7147     8.0045     0.0660     2.4997    99.7977     0.1053     0.2809
  439.5000    10.4646     7.9026     8.8682   -45.2994     8.0037     0.0523     2.4959    99.6440     0.1071     0.2738
  440.0000    10.4718     7.7981     8.8741   -45.5871     8.0030     0.0508     2.4920   100.2400     0.1095     0.2675
  440.5000    10.4775     7.7477     8.8183   -45.7464     8.0022     0.0402     2.4890   101.1378     0.1126     0.2873
  441.0000    10.4823     7.6968     8.8254   -46.1625     8.0015     0.0204     2.4820   102.6372     0.1165     0.2900
  441.5000    10.4890     7.6480     8.7700   -46.2992     8.0008     0.0172     2.4759   104.8884     0.1205     0.2922
  442.0000    10.4947     7.4937     8.5945   -46.5869     8.0000     0.0128     2.4736   107.4404     0.1227     0.2993
  442.5000    10.5004     7.2915     8.0786   -47.0232     7.9992     0.0097     2.4820   105.4810     0.1199     0.3065
  443.0000    10.3611     7.0457     7.5936   -47.4594     7.9984     0.0188     2.4812   102.1683     0.1196     0.3116
