~VERSION INFORMATION
 VERS.                2.0:   CWLS LOG ASCII STANDARD - VERSION 2.0
 WRAP.                 NO:   ONE LINE PER DEPTH STEP
~WELL INFORMATION
#MNEM.UNIT      DATA TYPE    INFORMATION
#----------   ------------   ------------------------------
 STRT.F            0.5000:   START DEPTH
 STOP.F         2271.5000:   STOP DEPTH
 STEP.F            0.5000:   STEP LENGTH
 NULL.          -999.2500:   NO VALUE
 COMP. BROWN JOHN E&C INC:   COMPANY
 WELL. NPR 3 STX-11 #27-11:   WELL
 FLD .             TEAPOT:   FIELD
 LOC .      S11 T38N R78W:   LOCATION
 CNTY.            NATRONA:   COUNTY
 STAT.            WYOMING:   STATE
 CTRY. UNITED STATES OF AMERICA:   COUNTRY
 SRVC.      Dresser Atlas:   SERVICE COMPANY
 DATE.        20-JAN-1993:   LOGDATE
 API .       490251108500:   API NUMBER
~CURVE INFORMATION
#MNEM.UNIT       API CODE    CURVE DESCRIPTION
#----------   ------------   ------------------------------
 DEPT.F                  :   
 ILD .OHMM   07 120 46 00:   INDUCTION LOG DEEP
 ILM .OHMM   07 120 44 00:   INDUCTION LOG MEDIUM
 GRR .GAPI   07 310 01 00:   GAMMA RAY FROM RES. LOG.
~PARAMETER INFORMATION
#MNEM.UNIT          VALUE    DESCRIPTION
#----------   ------------   ------------------------------
 PD  .                 GL:   PERMANENT DATUM
 EPD .F              5187:   ELEVATION PERMANENT DATUM
 LMF .                 KB:   LOG MEASURED FROM
 DAPD.F                12:   FEET ABOVE PERMANENT DATUM
 DMF .                 KB:   DRILLING MEASURED FROM
 EKB .F            5198.8:   KELLING BUSHING
 EDF .F            5197.8:   DRILLING FLOOR
 EGL .F              5187:   GROUND LEVEL
 DATE.            1-20-93:   RUN DATE
 RUN .                  1:   RUN NUMBER
 DD  .F              2279:   DEPTH DRILLER
 DL  .F              2279:   DEPTH LOGGER
 BLI .F              2271:   BOTTOM LOG INTERVAL
 TLI .F               692:   TOP LOG INTERVAL
 CS  .IN            8.625:   CASING SIZE
 CBD .F               689:   CASING BOTTOM DRILLER
 CBL .F               692:   CASING BOTTOM LOGGER
 BS  .IN            7.875:   BIT SIZE
 BSD .F              2279:   BIT SIZE AT DEPTH
 DFT .                OIL:   DRILLING FLUID TYPE
 BHT .F                92:   BOTTOM HOLE TEMPERATURE
 TCS .HRS               2:   TIME CURCULATED STOPPED
 MRT .F                92:   MAXIMUM RECORDED TEMPERATURE
 LUN .            HL-6274:   LOGGING UNIT NUMBER
 LUL .             CASPER:   LOGGING UNIT LOCATION
 ENGI.             RAUTIO:   RECORDING ENGINEER
 WITN.             STRONG:   WITNESSED BY
 CLNT.            A2DTECH:   CLIENT CODE
 ORIG.  2", 5", 20" PRINT:   ORIGIN OF DATA
 UWI .       490251108500:   UNIQUE WELL ID
 DICO. A2D Technologies, Inc.:   DIGITIZING COMPANY
~OTHER INFORMATION
~A    DEPT     ILD        ILM         GRR  
# ...
 2093.5000     8.4728     8.3613   146.7118
 2094.0000     8.4829     8.3613   147.4786
 2094.5000     8.4930     8.3613   148.1843
 2095.0000     8.5032     8.3613   152.1763
 2095.5000     8.5131     8.3613   154.9545
 2096.0000     8.5363     8.3613   152.3969
 2096.5000     8.5669     8.3613   149.2671
 2097.0000     8.5960     8.3613   150.0500
 2097.5000     8.5713     8.3613   151.9713
 2098.0000     8.5479     8.3613   153.8604
 2098.5000     8.5244     8.3613   155.2392
 2099.0000     8.5172     8.3613   152.7281
 2099.5000     8.5366     8.3613   148.3238
 2100.0000     8.5498     8.3613   143.6923
 2100.5000     8.5629     8.3613   144.0113
 2101.0000     8.5762     8.3614   145.0754
 2101.5000     8.5953     8.3611   146.3136
 2102.0000     8.5860     8.3395   147.5278
 2102.5000     8.5661     8.3153   148.2771
 2103.0000     8.5464     8.2914   147.7722
 2103.5000     8.5267     8.2391   148.2988
 2104.0000     8.4689     8.1758   150.6512
 2104.5000     8.3762     8.1131   153.0844
 2105.0000     8.2845     8.0508   152.5153
 2105.5000     8.1938     7.9891   150.1387
 2106.0000     8.1041     7.9112   147.7986
 2106.5000     8.0153     7.9266   145.4621
 2107.0000     7.9274     7.9479   143.1563
 2107.5000     7.8411     7.9697   141.5396
 2108.0000     7.7667     7.9984   141.5720
 2108.5000     7.8136     8.0416   141.5873
 2109.0000     7.8557     8.0849   140.5349
 2109.5000     7.8981     8.1285   139.1411
 2110.0000     7.9406     8.1723   137.9418
 2110.5000     7.9834     8.2164   139.4890
 2111.0000     8.0265     8.2607   141.1947
 2111.5000     8.0701     8.3052   141.7636
 2112.0000     8.1327     8.3610   142.0361
 2112.5000     8.0821     8.2892   142.2835
 2113.0000     7.9886     8.1936   143.5771
 2113.5000     7.9053     8.1173   145.1898
 2114.0000     7.8688     8.0733   147.8681
 2114.5000     7.8325     8.0295   150.6712
 2115.0000     7.7964     7.9838   149.8408
 2115.5000     7.7662     7.9952   148.5321
 2116.0000     7.8191     8.0102   148.7326
 2116.5000     7.8744     8.0251   150.9530
 2117.0000     7.9302     8.0399   153.7563
 2117.5000     7.9863     8.0545   156.5852
 2118.0000     8.0428     8.1159   160.3300
 2118.5000     8.0997     8.1913   164.3570
 2119.0000     8.1571     8.2674   168.4094
 2119.5000     8.2148     8.3442   172.3865
 2120.0000     8.2729     8.4217   171.0328
 2120.5000     8.3314     8.4999   169.1071
 2121.0000     8.3905     8.5789   167.1838
 2121.5000     8.4621     8.6586   165.3182
 2122.0000     8.5888     8.7390   165.3616
 2122.5000     8.7174     8.8848   166.7333
 2123.0000     8.8479     9.0506   167.9399
 2123.5000     8.9804     9.2195   164.4986
 2124.0000     9.1149     9.3916   159.2880
 2124.5000     9.2240     9.5017   154.0589
 2125.0000     9.3159     9.5964   151.2659
 2125.5000     9.4093     9.6917   151.2083
 2126.0000     9.4282     9.6917   152.0018
 2126.5000     9.2074     9.4271   154.0014
 2127.0000     8.7114     8.9986   154.3849
 2127.5000     8.2857     8.5897   152.1619
 2128.0000     8.2607     8.5012   152.7794
 2128.5000     8.2313     8.4804   157.7873
 2129.0000     8.2058     8.4609   159.3970
 2129.5000     8.1937     8.4411   158.8978
 2130.0000     8.1817     8.4213   159.7983
 2130.5000     8.1697     8.4015   160.9642
 2131.0000     8.1577     8.3818   161.9115
 2131.5000     8.1458     8.3621   162.5316
 2132.0000     8.1338     8.3424   163.1736
 2132.5000     8.1219     8.3229   162.7159
 2133.0000     8.1100     8.3033   161.9563
 2133.5000     8.0981     8.2838   159.0316
 2134.0000     8.0862     8.2643   156.0754
 2134.5000     8.0743     8.2450   153.1288
 2135.0000     8.0623     8.2256   150.1836
 2135.5000     8.0408     8.2063   147.2613
 2136.0000     8.0136     8.1870   147.1555
 2136.5000     7.9866     8.1678   148.9407
 2137.0000     7.9596     8.1486   150.7103
 2137.5000     7.9327     8.1295   152.4825
 2138.0000     7.9060     8.1104   154.2505
 2138.5000     7.8793     8.0913   155.3171
 2139.0000     7.8541     8.0723   155.5160
 2139.5000     7.7484     7.9719   155.1875
 2140.0000     7.5554     7.6453   151.6708
 2140.5000     7.3672     7.3321   148.2701
 2141.0000     7.1838     7.0317   140.7650
 2141.5000     7.0165     6.7622   132.8306
 2142.0000     7.2509     7.0747   124.8203
 2142.5000     7.4778     7.3810   122.2432
 2143.0000     7.6233     7.7003   129.3317
 2143.5000     7.7277     8.0359   135.1744
 2144.0000     7.8335     8.4024   135.7304
 2144.5000     8.0560     8.8621   134.3180
 2145.0000     8.6013     9.3429   136.2235
 2145.5000     9.1835     9.8499   139.4619
 2146.0000     9.8052    10.3844   141.1060
 2146.5000    10.4690    10.9479   138.9817
 2147.0000    10.9525    11.2616   136.9858
 2147.5000    11.2047    11.4551   135.8188
 2148.0000    11.3751    11.6519   139.9114
 2148.5000    11.5323    11.8521   146.3246
 2149.0000    11.6636    11.8969   152.7123
 2149.5000    11.7929    11.9231   157.9219
 2150.0000    11.9236    11.9494   160.0377
 2150.5000    12.0939    11.9837   159.9076
 2151.0000    12.0210    11.8769   158.5594
 2151.5000    11.9187    11.7274   157.2046
 2152.0000    11.8164    11.5797   155.8416
 2152.5000    11.7152    11.4340   154.4513
 2153.0000    11.6150    11.3380   154.4088
 2153.5000    11.5492    11.3973   157.7722
 2154.0000    11.6265    11.4610   181.4150
 2154.5000    11.6844    11.5250   200.9474
 2155.0000    11.7427    11.5894   219.9372
 2155.5000    11.8012    11.6563   208.2924
 2156.0000    11.8598    11.9147   184.9936
 2156.5000    11.9209    12.2599   172.4693
 2157.0000    11.9835    12.6154   163.2298
 2157.5000    12.4675    12.9819   155.2803
 2158.0000    12.9793    13.3575   150.9803
 2158.5000    13.5111    13.5133   149.8975
 2159.0000    13.4147    13.1783   149.1621
 2159.5000    13.3193    12.9456   143.7042
 2160.0000    13.1255    12.6598   136.0779
 2160.5000    12.7995    12.3700   128.8572
 2161.0000    12.4817    12.0843   130.1393
 2161.5000    12.1718    11.7468   138.9818
 2162.0000    11.8695    11.2110   145.8307
 2162.5000    11.4855    10.7807   145.5209
 2163.0000    11.0667    10.4652   140.3441
 2163.5000    10.6633    10.0562   136.1194
 2164.0000    10.4101    10.1280   132.9995
 2164.5000    10.3497    10.2370   134.5999
 2165.0000    10.2921    10.3385   136.7911
 2165.5000    10.2460    10.7409   139.6853
 2166.0000    10.6649    11.1275   145.1964
 2166.5000    11.0684    11.5281   150.5482
 2167.0000    11.4872    11.9835   152.8568
 2167.5000    11.8735    11.9835   151.2441
 2168.0000    11.4649    11.6871   149.8597
 2168.5000    11.1086    11.3700   148.7339
 2169.0000    10.7634    11.0615   146.9719
 2169.5000    10.4290    10.7613   143.6736
 2170.0000    10.1276    10.4693   141.2536
 2170.5000     9.8733    10.2804   139.0654
 2171.0000     9.6027    10.1132   140.5137
 2171.5000     9.5234     9.9481   142.3927
 2172.0000     9.4409     9.7803   142.3848
 2172.5000     9.3405     9.9149   141.9636
 2173.0000     9.5281    10.0918   141.9620
 2173.5000     9.7771    10.2718   141.5668
 2174.0000    10.0325    10.5261   140.4524
 2174.5000    10.2435    10.4183   138.9740
 2175.0000    10.0975    10.3591   133.9812
 2175.5000    10.0456    10.3064   125.7969
 2176.0000     9.9939    10.2435   123.0004
 2176.5000     9.9638    10.2663   124.6554
 2177.0000    10.0432    10.2943   126.5742
 2177.5000    10.1001    10.3225   128.5042
 2178.0000    10.1571    10.3934   130.4356
 2178.5000    10.2144    10.5211   130.4385
 2179.0000    10.2721    10.6504   128.8613
 2179.5000    10.3300    10.8267   127.1616
 2180.0000    10.3385    10.7891   132.1599
 2180.5000    10.3385    10.7320   137.3947
 2181.0000    10.3385    10.6752   142.7264
 2181.5000    10.3382    10.6187   144.0554
 2182.0000    10.3377    10.5626   142.7535
 2182.5000    10.4013    10.5072   140.1969
 2183.0000    10.4343    10.4505   136.5940
 2183.5000    10.1256    10.3382   132.8288
 2184.0000     9.9240    10.1195   131.8748
