~VERSION INFORMATION
 VERS.                2.0:   CWLS LOG ASCII STANDARD - VERSION 2.0
 WRAP.                 NO:   ONE LINE PER DEPTH STEP
~WELL INFORMATION
#MNEM.UNIT      DATA TYPE    INFORMATION
#----------   ------------   ------------------------------
 STRT.F            0.0000:   START DEPTH
 STOP.F         1027.0000:   STOP DEPTH
 STEP.F            0.1000:   STEP LENGTH
 NULL.          -999.2500:   NO VALUE
 COMP.       F D SERV INC:   COMPANY
 WELL.   77-1 X 27 #77-27:   WELL
 FLD .             TEAPOT:   FIELD
 LOC .      S27 T39N R78W:   LOCATION
 CNTY.            NATRONA:   COUNTY
 STAT.            WYOMING:   STATE
 CTRY. UNITED STATES OF AMERICA:   COUNTRY
 SRVC.      Western Atlas:   SERVICE COMPANY
 DATE.        04-NOV-1991:   LOGDATE
 API .       490252248600:   API NUMBER
~CURVE INFORMATION
#MNEM.UNIT       API CODE    CURVE DESCRIPTION
#----------   ------------   ------------------------------
 DEPT.F                  :   
 GRR .GAPI   07 310 01 00:   GAMMA RAY
 RILD.OHMM   07 120 46 00:   INDUCTION LOG DEEP RESISTIVITY
 RFOC.OHMM   07 220 04 00:   RESISTIVITY FOCUSED LOG
 RILM.OHMM   07 120 44 00:   INDUCTION LOG MEDIUM RESISTIVITY
 SPR .MV     07 010 01 00:   SPONTANEOUS POTENTIAL
~PARAMETER INFORMATION
#MNEM.UNIT          VALUE    DESCRIPTION
#----------   ------------   ------------------------------
 PD  .                 GL:   PERMANENT DATUM
 EPD .F              5077:   ELEVATION PERMANENT DATUM
 LMF .                 KB:   LOG MEASURED FROM
 DAPD.F                10:   FEET ABOVE PERMANENT DATUM
 DMF .                 KB:   DRILLING MEASURED FROM
 EKB .F              5087:   KELLING BUSHING
 EDF .F              5086:   DRILLING FLOOR
 EGL .F              5077:   GROUND LEVEL
 DATE.        04-NOV-1991:   RUN DATE
 RUN .                  1:   RUN NUMBER
 DD  .F              1030:   DEPTH DRILLER
 DL  .F              1030:   DEPTH LOGGER
 BLI .F              1027:   BOTTOM LOG INTERVAL
 CS  .IN            9.625:   CASING SIZE
 CBD .F                50:   CASING BOTTOM DRILLER
 CBL .F                52:   CASING BOTTOM LOGGER
 BS  .IN             8.75:   BIT SIZE
 BSD .F              1030:   BIT SIZE AT DEPTH
 DFT .          KCL WATER:   DRILLING FLUID TYPE
 MSS .           FLOWLINE:   MUD SAMPLE SOURCE
 RMS .OHMM            .24:   RESISTIVITY MUD SAMPLE
 MST .F                72:   MUD SAMPLE TEMPERATURE
 RMB .OHMM            .19:   RESISTIVITY MUD AT BHT
 BHT .F                90:   BOTTOM HOLE TEMPERATURE
 TCS .HRS               2:   TIME CURCULATED STOPPED
 MRT .F                90:   MAXIMUM RECORDED TEMPERATURE
 LUN .            HL-6274:   LOGGING UNIT NUMBER
 LUL .             CASPER:   LOGGING UNIT LOCATION
 ENGI.             RAUTIO:   RECORDING ENGINEER
 WITN.             STRONG:   WITNESSED BY
 CLNT.            A2DTECH:   CLIENT CODE
 ORIG.           5" PRINT:   ORIGIN OF DATA
 UWI .       490252248600:   UNIQUE WELL ID
 DICO. A2D Technologies, Inc.:   DIGITIZING COMPANY
~OTHER INFORMATION
~A    DEPT      GRR      RILD       RFOC       RILM        SPR   
# ...
 1012.6000  -999.2500     6.2101     7.2655     6.4297   -30.6428
 1012.7000  -999.2500     6.2374     7.4739     6.4765   -30.7269
 1012.8000  -999.2500     6.2384     7.6801     6.5352   -30.7922
 1012.9000  -999.2500     6.3101     7.7870     6.5726   -30.8550
 1013.0000  -999.2500     6.3535     7.9213     6.6107   -31.0912
 1013.1000  -999.2500     6.4113     8.0578     6.6858   -31.0912
 1013.2000  -999.2500     6.4848     8.1820     6.7328   -31.1929
 1013.3000  -999.2500     6.5534     8.2317     6.7714   -31.3159
 1013.4000  -999.2500     6.5933     8.3202     6.8508   -31.3901
 1013.5000  -999.2500     6.6643     8.3466     7.0036   -31.3901
 1013.6000  -999.2500     6.7690     8.3948     7.1352   -31.3901
 1013.7000  -999.2500     6.8859     8.4771     7.2479   -31.6282
 1013.8000  -999.2500     6.9929     8.5255     7.3437   -31.6891
 1013.9000  -999.2500     7.0762     8.5814     7.4281   -31.6891
 1014.0000  -999.2500     7.2154     8.5814     7.5134   -31.7289
 1014.1000  -999.2500     7.3230     8.6126     7.5996   -31.8520
 1014.2000  -999.2500     7.4219     8.6618     7.7013   -31.9880
 1014.3000  -999.2500     7.4885     8.7013     7.7754   -31.9880
 1014.4000  -999.2500     7.5407     8.7013     7.8648   -31.9880
 1014.5000  -999.2500     7.6272     8.7013     7.9551   -31.9880
 1014.6000  -999.2500     7.7149     8.7395     8.0465   -31.9880
 1014.7000  -999.2500     7.8035     8.7619     8.1410   -31.9880
 1014.8000  -999.2500     7.8931     8.7619     8.1866   -31.9880
 1014.9000  -999.2500     8.0002     8.7677     8.1977   -31.9880
 1015.0000  -999.2500     8.1315     8.8228     8.2234   -31.9880
 1015.1000  -999.2500     8.2317     8.8228     8.2548   -31.9397
 1015.2000  -999.2500     8.3194     8.8228     8.2548   -31.8386
 1015.3000  -999.2500     8.3807     8.8463     8.2548   -31.8386
 1015.4000  -999.2500     8.4769     8.8842     8.2548   -31.8386
 1015.5000  -999.2500     8.5953     8.8858     8.2548   -31.7464
 1015.6000  -999.2500     8.6444     8.9461     8.2548   -31.6891
 1015.7000  -999.2500     8.7013     8.9047     8.2427   -31.6891
 1015.8000  -999.2500     8.7865     8.8842     8.1977   -31.6891
 1015.9000  -999.2500     8.8874     8.8842     8.1977   -31.6891
 1016.0000  -999.2500     8.9461     8.8842     8.1591   -31.5795
 1016.1000  -999.2500     8.9461     8.8842     8.1126   -31.4564
 1016.2000  -999.2500     8.9461     8.8842     8.0847   -31.3901
 1016.3000  -999.2500     8.9461     8.8842     8.0847   -31.3901
 1016.4000  -999.2500     8.9461     8.8842     8.0847   -31.3901
 1016.5000  -999.2500     8.9461     8.8842     8.0847   -31.3901
 1016.6000  -999.2500     8.9461     8.8842     8.0847   -31.4908
 1016.7000  -999.2500     8.9461     8.8842     8.0847   -31.6138
 1016.8000  -999.2500     8.9461     8.8842     8.0847   -31.7847
 1016.9000  -999.2500     8.9461     8.8842     7.9596   -31.9880
 1017.0000  -999.2500     8.9461     8.8842     7.9594   -31.9880
 1017.1000  -999.2500     8.9461     8.8842     7.9591   -32.2242
 1017.2000  -999.2500     8.9461     8.8842     7.9588   -32.3787
 1017.3000  -999.2500     8.9461     8.8842     7.9693   -32.5018
 1017.4000  -999.2500     8.9461     8.8842     8.0144   -32.6637
 1017.5000  -999.2500     8.9461     8.9126     8.0598   -32.8974
 1017.6000  -999.2500     8.9461     8.9461     8.1425   -33.0344
 1017.7000  -999.2500     8.9461     8.9461     8.2082   -33.1435
 1017.8000  -999.2500     8.9461     8.9461     8.2887   -33.2666
 1017.9000  -999.2500     8.9461     8.9461     8.4308   -33.3896
 1018.0000  -999.2500     8.9461     8.9461     8.5874   -33.5127
 1018.1000  -999.2500  -999.2500     8.9703     8.6775  -999.2500
 1018.2000  -999.2500  -999.2500     9.0083     8.8117  -999.2500
 1018.3000  -999.2500  -999.2500     9.0103     8.9138  -999.2500
 1018.4000  -999.2500  -999.2500     9.0710     8.9777  -999.2500
 1018.5000  -999.2500  -999.2500     9.0710     9.0821  -999.2500
 1018.6000  -999.2500  -999.2500     9.0710     9.2662  -999.2500
 1018.7000  -999.2500  -999.2500     9.0710     9.4414  -999.2500
 1018.8000  -999.2500  -999.2500     9.0710     9.6250  -999.2500
 1018.9000  -999.2500  -999.2500     9.0710     9.8336  -999.2500
 1019.0000  -999.2500  -999.2500     9.0710    10.1164  -999.2500
 1019.1000  -999.2500  -999.2500     9.0710    10.4239  -999.2500
 1019.2000  -999.2500  -999.2500     9.0443    10.7080  -999.2500
 1019.3000  -999.2500  -999.2500     9.0083    11.0169  -999.2500
 1019.4000  -999.2500  -999.2500     9.0040    11.3343  -999.2500
 1019.5000  -999.2500  -999.2500     8.9461    11.6411  -999.2500
 1019.6000  -999.2500  -999.2500     8.9461    11.8990  -999.2500
 1019.7000  -999.2500  -999.2500     8.9461    12.0557  -999.2500
 1019.8000  -999.2500  -999.2500     8.9240    12.1721  -999.2500
 1019.9000  -999.2500  -999.2500     8.8733    12.3110  -999.2500
 1020.0000  -999.2500  -999.2500     8.8228    12.4224  -999.2500
 1020.1000  -999.2500  -999.2500     8.8228    12.4795  -999.2500
 1020.2000  -999.2500  -999.2500     8.7836    12.4790  -999.2500
 1020.3000  -999.2500  -999.2500     8.7337    12.3422  -999.2500
 1020.4000  -999.2500  -999.2500     8.6841    12.1509  -999.2500
 1020.5000  -999.2500  -999.2500     8.6412    11.9096  -999.2500
 1020.6000  -999.2500  -999.2500     8.6412    11.6410  -999.2500
 1020.7000  -999.2500  -999.2500     8.5963    11.3726  -999.2500
 1020.8000  -999.2500  -999.2500     8.5814    11.0121  -999.2500
 1020.9000  -999.2500  -999.2500     8.6050    10.6916  -999.2500
 1021.0000  -999.2500  -999.2500     8.6412    10.3706  -999.2500
 1021.1000  -999.2500  -999.2500     8.6435    10.1037  -999.2500
 1021.2000  -999.2500  -999.2500     8.7013     9.8757  -999.2500
 1021.3000  -999.2500  -999.2500     8.7013     9.6509  -999.2500
 1021.4000  -999.2500  -999.2500     8.7013     9.4890  -999.2500
 1021.5000  -999.2500  -999.2500     8.7210     9.3691  -999.2500
 1021.6000  -999.2500  -999.2500     8.7708     9.2628  -999.2500
 1021.7000  -999.2500  -999.2500     8.8228     9.1749  -999.2500
 1021.8000  -999.2500  -999.2500     8.8228     9.1167  -999.2500
 1021.9000  -999.2500  -999.2500     8.8604     9.0024  -999.2500
 1022.0000  -999.2500  -999.2500     8.8842     8.9565  -999.2500
 1022.1000  -999.2500  -999.2500     8.8842     8.9054  -999.2500
 1022.2000  -999.2500  -999.2500     8.8842     8.8775  -999.2500
 1022.3000  -999.2500  -999.2500     8.8842     8.8891  -999.2500
 1022.4000  -999.2500  -999.2500     8.8842     8.9386  -999.2500
 1022.5000  -999.2500  -999.2500     8.8842     8.9383  -999.2500
 1022.6000  -999.2500  -999.2500     8.8842     8.9380  -999.2500
 1022.7000  -999.2500  -999.2500     8.8842     8.9377  -999.2500
 1022.8000  -999.2500  -999.2500     8.8842     8.9556  -999.2500
 1022.9000  -999.2500  -999.2500     8.8842     8.9993  -999.2500
 1023.0000  -999.2500  -999.2500     8.8842     8.9989  -999.2500
 1023.1000  -999.2500  -999.2500     8.8842     9.0458  -999.2500
 1023.2000  -999.2500  -999.2500     8.8842     9.0610  -999.2500
 1023.3000  -999.2500  -999.2500     8.8842     9.0607  -999.2500
 1023.4000  -999.2500  -999.2500     8.8842     9.0603  -999.2500
 1023.5000  -999.2500  -999.2500     8.8377     9.0600  -999.2500
 1023.6000  -999.2500  -999.2500     8.8228     9.0597  -999.2500
 1023.7000  -999.2500  -999.2500     8.7983     9.0594  -999.2500
 1023.8000  -999.2500  -999.2500     8.7483     9.0282  -999.2500
 1023.9000  -999.2500  -999.2500     8.6959     8.9962  -999.2500
 1024.0000  -999.2500  -999.2500     8.5814     8.9958  -999.2500
 1024.1000  -999.2500  -999.2500     8.5406     8.9955  -999.2500
 1024.2000  -999.2500  -999.2500     8.4921     8.9952  -999.2500
 1024.3000  -999.2500  -999.2500     8.4246     8.9949  -999.2500
 1024.4000  -999.2500  -999.2500     8.3378     8.9946  -999.2500
 1024.5000  -999.2500  -999.2500     8.2890     8.9943  -999.2500
 1024.6000  -999.2500  -999.2500     8.2890     8.9940  -999.2500
 1024.7000  -999.2500  -999.2500     8.2890     8.9936  -999.2500
