~VERSION INFORMATION
 VERS.                2.0:   CWLS LOG ASCII STANDARD - VERSION 2.0
 WRAP.                 NO:   ONE LINE PER DEPTH STEP
~WELL INFORMATION
#MNEM.UNIT      DATA TYPE    INFORMATION
#----------   ------------   ------------------------------
 STRT.F           80.0000:   START DEPTH
 STOP.F         1056.0000:   STOP DEPTH
 STEP.F            0.5000:   STEP LENGTH
 NULL.          -999.2500:   NO VALUE
 COMP. U S NAVY-INTEX OIL:   COMPANY
 WELL.      NPR 3 #68-S-2:   WELL
 FLD .        TEAPOT DOME:   FIELD
 LOC .       S2 T38N R78W:   LOCATION
 CNTY.            NATRONA:   COUNTY
 STAT.            WYOMING:   STATE
 CTRY. UNITED STATES OF AMERICA:   COUNTRY
 SRVC.       Schlumberger:   SERVICE COMPANY
 DATE.        21-JUL-1964:   LOGDATE
 API .       490250638800:   API NUMBER
~CURVE INFORMATION
#MNEM.UNIT       API CODE    CURVE DESCRIPTION
#----------   ------------   ------------------------------
 DEPT.F                  :   
 SPR .MV     05 010 01 00:   SPONTANEOUS POTENTIAL FROM RES.
 ASN .OHMM   05 041 16 00:   AMPLIFIED SHORT NORMAL 16"
 ILD .OHMM   05 120 46 00:   INDUCTION LOG DEEP
 CILD.MMHO   05 110 46 00:   CONDUCTIVITY INDUCTION LOG DEEP
 GR  .GAPI   30 310 01 00:   GAMMA RAY
 CALS.IN     60 280 50 00:   CALIPER FROM SONIC LOG
 DT  .US/F   60 520 00 00:   INTERVAL TRANSIT TIME
~PARAMETER INFORMATION
#MNEM.UNIT          VALUE    DESCRIPTION
#----------   ------------   ------------------------------
 PD  .                 GL:   PERMANENT DATUM
 EPD .F              5201:   ELEVATION PERMANENT DATUM
 LMF .                 KB:   LOG MEASURED FROM
 DAPD.F                 5:   FEET ABOVE PERMANENT DATUM
 DMF .                 KB:   DRILLING MEASURED FROM
 EKB .F              5206:   KELLING BUSHING
 EGL .F              5201:   GROUND LEVEL
 DATE.          8-12-1964:   RUN DATE
 RUN .                  1:   RUN NUMBER
 DD  .F              1055:   DEPTH DRILLER
 DL  .F              1057:   DEPTH LOGGER
 BLI .F              1055:   BOTTOM LOG INTERVAL
 TLI .F               450:   TOP LOG INTERVAL
 CS  .IN              4.5:   CASING SIZE
 BS  .IN             6.75:   BIT SIZE
 DFT .            GEL OIL:   DRILLING FLUID TYPE
 DFD .                9.3:   DRILLING FLUID DENSITY
 DFV .                 48:   DRILLING FLUID VISCOSITY
 DFPH.                 10:   DRILLING FLUID PH
 DFL .                 10:   DRILLING FLUID LOSS
 MSS .           FLOWLINE:   MUD SAMPLE SOURCE
 RMS .OHMM           1.07:   RESISTIVITY MUD SAMPLE
 MST .F                95:   MUD SAMPLE TEMPERATURE
 RMF .OHMM            .67:   RESISTIVITY MUD FILTRATE SAMPLE
 MFST.F                95:   MUD FILTRATE SAMPLE TEMPERATURE
 RMC .OHMM           1.44:   RESISTIVITY MUD CAKE
 MCST.F                95:   MUD CAKE SAMPLE TEMPERATURE
 MFSS.                 FP:   MUD FILTRATE SAMPLE SOURCE
 MCSS.                 FP:   MUD CAKE SAMPLE SOURCE
 TCS .HRS               1:   TIME CURCULATED STOPPED
 LUN .               4507:   LOGGING UNIT NUMBER
 LUL .               CSPR:   LOGGING UNIT LOCATION
 ENGI.             DANNER:   RECORDING ENGINEER
 WITN.         JORGENESEN:   WITNESSED BY
 CLNT.            A2DTECH:   CLIENT CODE
 ORIG.           2" PRINT:   ORIGIN OF DATA
 UWI .       490250638800:   UNIQUE WELL ID
 DICO. A2D Technologies, Inc.:   DIGITIZING COMPANY
~OTHER INFORMATION
~A   DEPT      SPR          ASN        ILD      CILD        GR       CALS         DT   
# ...
  580.5000   -33.7391     6.8307     5.7737   181.4063    61.9059     6.6186   106.4233
  581.0000   -33.6607     6.9209     5.8189   177.2241    61.1952     6.6337   105.7999
  581.5000   -33.4220     7.0546     5.9605   175.0223    64.1373     6.6500   105.0458
  582.0000   -33.1383     7.2060     5.9840   171.2647    65.0730     6.6787   104.3668
  582.5000   -33.1371     7.3721     6.1116   168.6381    68.8900     6.6952   103.9135
  583.0000   -32.9865     7.5392     6.2240   165.8958    71.7604     6.7104   103.6105
  583.5000   -32.9143     7.5963     6.3440   162.3244    70.6898     6.7238   103.3826
  584.0000   -32.6855     7.6396     6.4132   161.1408    69.4008     6.7091   103.1548
  584.5000   -32.6840     7.7315     6.4139   159.3413    74.1713     6.7092   102.8518
  585.0000   -32.5335     7.8284     6.4147   159.3378    72.8211     6.7094   102.4736
  585.5000   -32.5319     7.8367     6.3406   160.1365    67.3871     6.7116   102.0954
  586.0000   -32.5306     7.7968     6.2624   161.3194    67.9165     6.7246   101.7172
  586.5000   -32.5328     7.7540     6.1440   162.9018    63.4012     6.7098   101.4894
  587.0000   -32.6766     7.6873     6.0254   165.2750    63.6933     6.6778   102.0135
  587.5000   -32.5261     7.5781     5.8945   167.1007    64.1952     6.6331   102.7631
  588.0000   -32.6734     7.4429     5.8204   168.3234    62.2593     6.6060   103.5127
  588.5000   -32.6721     7.3287     5.7462   170.2107    65.6863     6.6061   104.1120
  589.0000   -32.6706     7.2944     5.7470   172.3190    68.5215     6.6063   104.7864
  589.5000   -32.6692     7.2682     5.7478   174.1849    64.0521     6.6242   105.4609
  590.0000   -32.6925     7.2468     5.8234   175.2482    65.3952     6.6513   105.4636
  590.5000   -32.8152     7.2081     5.8535   175.6660    65.5457     6.6813   105.3812
  591.0000   -32.8658     7.1843     5.9746   173.9907    68.9750     6.6665   105.4541
  591.5000   -32.9613     7.1638     6.1684   170.8695    69.7212     6.6815   105.3767
  592.0000   -32.9598     7.2240     6.2884   167.4698    67.9347     6.7115   105.0737
  592.5000   -33.1074     7.3753     6.4260   164.6268    64.5085     6.7266   104.1691
  593.0000   -33.1055     7.6145     6.5554   161.5034    59.7410     6.7267   103.1143
  593.5000   -33.1043     7.8060     6.7268   157.9389    58.9969     6.7269   102.3601
  594.0000   -33.1027     7.9737     6.7276   155.1191    67.4936     6.7270   101.3804
  594.5000   -33.1014     8.0943     6.8032   150.3381    70.0286     6.7272   100.6263
  595.0000   -33.2490     8.2189     6.8040   147.5322    71.9675     6.7273   100.2481
  595.5000   -33.2474     8.3945     6.8047   146.6108    68.0942     6.6976   100.4737
  596.0000   -33.2459     8.5404     6.8054   147.4603    61.2402     6.6829    99.8677
  596.5000   -33.2443     8.5597     6.7313   150.0809    60.1981     6.6830    99.0383
  597.0000   -33.2429     8.5149     6.5664   154.7837    63.4787     6.6682    99.1865
  597.5000   -33.2415     8.3563     6.3587   158.0789    64.3743     6.6535    99.8609
  598.0000   -33.2399     8.1553     6.1657   161.4731    61.2462     6.6537   101.0617
  598.5000   -33.2385     7.9615     5.9110   165.6696    58.5647     6.6389   102.2624
  599.0000   -33.2368     7.7186     5.8009   169.3327    62.1433     6.6092   103.0872
  599.5000   -33.2355     7.4811     5.7627   173.3662    75.1105     6.5647   103.6865
  600.0000   -33.2340     7.3583     5.7749   175.2486    69.4078     6.5350   103.8346
  600.5000   -33.2796     7.3442     5.8027   173.5865    66.4724     6.5799   103.8337
  601.0000   -33.3252     7.3316     5.8305   171.9244    71.6974     6.2945   103.6074
  601.5000   -33.3783     7.4068     5.9213   170.2185    71.0868     6.1471   103.0051
  602.0000   -33.5261     7.5022     6.0404   167.3795    64.5443     6.1332   101.8766
  602.5000   -33.5245     7.6020     6.1595   164.5281    63.9543     6.3495   100.2969
  603.0000   -33.4516     7.7076     6.2897   161.4130    62.3070     6.5508    99.6194
  603.5000   -33.2146     7.8357     6.3978   158.5019    59.1828     6.5510    99.3931
  604.0000   -32.9776     7.9682     6.4421   155.3870    57.8599     6.5833    99.2420
  604.5000   -32.7407     8.0603     6.5613   153.0158    61.2008     6.6285    99.0157
  605.0000   -32.4737     8.0825     6.6055   151.5501    68.3663     6.6707    98.8648
  605.5000   -32.2668     8.0611     6.7407   150.2149    72.1803     6.7006   101.6458
  606.0000   -32.1728     8.0378     6.7410   149.4642    71.0639     6.7306   102.3217
  606.5000   -32.0224     8.0561     6.8163   149.4568    63.6624     6.7307   102.6217
  607.0000   -32.1700     8.1066     6.8575   149.0253    61.4427     6.7309   103.1473
  607.5000   -32.3172     8.1732     6.8918   148.6987    59.8212     6.7310   103.2971
  608.0000   -32.4652     8.2291     6.8923   149.4345    61.6615     6.7312   102.8450
  608.5000   -32.4634     8.2784     6.8926   149.6765    62.5201     6.7313   103.2954
  609.0000   -32.6766     8.3094     6.8181   150.9074    62.8764     6.7165   103.3701
  609.5000   -32.7615     8.3387     6.7826   152.3884    69.6181     6.7018   102.8428
  610.0000   -32.9061     8.3838     6.7440   153.9435    68.5233     6.6722   102.2405
  610.5000   -32.9046     8.4139     6.7444   155.3482    64.9778     6.6574   102.0894
  611.0000   -33.0519     8.3541     6.6699   156.4980    63.1276     6.6874   102.3142
  611.5000   -33.0507     8.2970     6.5955   158.3104    59.8647     6.6875   102.6142
  612.0000   -32.9001     8.2153     6.5210   158.6410    58.6765     6.6727   103.5158
  612.5000   -32.8987     8.0585     6.4465   159.8462    67.1384     6.6431   104.1917
  613.0000   -32.7481     7.9192     6.4029   161.2648    70.1610     6.6432   104.0406
  613.5000   -32.6483     7.8002     6.3594   162.1640    70.1654     6.6284   103.8895
  614.0000   -32.5604     7.7553     6.2979   163.4812    70.0860     6.6286   103.8135
  614.5000   -32.4454     7.7555     6.2234   163.7686    68.2368     6.6288   103.7376
  615.0000   -32.3845     7.7407     6.2238   164.2113    71.3265     6.6140   104.2631
  615.5000   -32.1445     7.7388     6.2242   164.2039    74.8032     6.5992   104.8639
  616.0000   -32.0596     7.7110     6.2245   164.1965    72.1251     6.6292   105.2391
  616.5000   -31.8436     7.6720     6.2250   163.4438    72.5766     6.6592   104.9376
  617.0000   -31.8418     7.6513     6.2253   162.6934    70.6437     6.6891   104.3334
  617.5000   -31.9899     7.6956     6.3006   162.6857    74.9701     6.7191   103.8809
  618.0000   -32.1370     7.7424     6.3009   161.9345    69.9075     6.7341   103.6531
  618.5000   -32.1356     7.7663     6.3761   161.1830    67.3073     6.6896   103.3557
  619.0000   -32.2832     7.7903     6.3765   161.1741    58.5694     6.6748   103.2045
  619.5000   -32.3741     7.8320     6.4517   160.2171    60.6866     6.6451   103.2960
  620.0000   -32.4294     7.8590     6.4521   158.9279    64.3619     6.6304   104.5113
  620.5000   -32.4275     7.8922     6.4525   158.5827    67.3490     6.6157   104.6309
  621.0000   -32.4262     7.8538     6.4529   158.1696    69.7852     6.6307   104.0908
  621.5000   -32.4247     7.8025     6.4532   158.1622    68.1504     6.6458   103.8023
  622.0000   -32.5723     7.8927     6.4536   158.1548    70.3510     6.6608   103.9519
  622.5000   -32.5708     8.0176     6.4540   158.1464    71.9075     6.6759   103.5750
  623.0000   -32.4680     8.0279     6.4783   158.1399    77.6426     6.6760   102.8224
  623.5000   -32.4188     8.0056     6.5296   158.1324    81.8791     6.6762   103.0472
  624.0000   -32.4171     7.9982     6.5299   156.9543    72.1965     6.6912   103.5728
  624.5000   -32.4158     8.0333     6.5303   155.0210    71.6081     6.6914   103.5721
  625.0000   -32.4143     8.1034     6.5806   152.9006    67.1138     6.7064   103.5713
  625.5000   -32.3264     8.2835     6.6249   151.6469    65.8016     6.7218   103.4954
