~VERSION INFORMATION
 VERS.                2.0:   CWLS LOG ASCII STANDARD - VERSION 2.0
 WRAP.                 NO:   ONE LINE PER DEPTH STEP
~WELL INFORMATION
#MNEM.UNIT      DATA TYPE    INFORMATION
#----------   ------------   ------------------------------
 STRT.F          690.5000:   START DEPTH
 STOP.F         2366.0000:   STOP DEPTH
 STEP.F            0.5000:   STEP LENGTH
 NULL.          -999.2500:   NO VALUE
 COMP. LAWRENCE/ALLISON INC:   COMPANY
 WELL.  NPR 3 #26SHX10-10:   WELL
 FLD .             TEAPOT:   FIELD
 LOC .      S10 T38N R78W:   LOCATION
 CNTY.            NATRONA:   COUNTY
 STAT.            WYOMING:   STATE
 CTRY. UNITED STATES OF AMERICA:   COUNTRY
 SRVC.            Unknown:   SERVICE COMPANY
 DATE.        30-DEC-1992:   LOGDATE
 API .       490251113600:   API NUMBER
~CURVE INFORMATION
#MNEM.UNIT       API CODE    CURVE DESCRIPTION
#----------   ------------   ------------------------------
 DEPT.F                  :   
 ROP .MIN/FT 91 810 01 00:   RATE OF DRILLING PENETRATION
 TGAS.UNITS  91 830 01 00:   TOTAL GAS FROM HOTWIRE
~PARAMETER INFORMATION
#MNEM.UNIT          VALUE    DESCRIPTION
#----------   ------------   ------------------------------
 EKB .F              5235:   KELLING BUSHING
 EGL .F              5225:   GROUND LEVEL
 DATE.           12-30-92:   RUN DATE
 DD  .F              2365:   DEPTH DRILLER
 BLI .F              2360:   BOTTOM LOG INTERVAL
 TLI .F              2160:   TOP LOG INTERVAL
 CS  .IN            8.625:   CASING SIZE
 CBD .F               675:   CASING BOTTOM DRILLER
 TCS .HRS            0200:   TIME CURCULATED STOPPED
 TLAB.HRS            1700:   TIME LOGGER AT BOTTOM
 ENGI.               HUSK:   RECORDING ENGINEER
 WITN.              TOWER:   WITNESSED BY
 CLNT.            A2DTECH:   CLIENT CODE
 ORIG.           5" PRINT:   ORIGIN OF DATA
 UWI .       490251113600:   UNIQUE WELL ID
 DICO. A2D Technologies, Inc.:   DIGITIZING COMPANY
~OTHER INFORMATION
~A   DEPT      ROP         TGAS 
# ...
 1541.0000     1.8366    38.6108
 1541.5000     1.8476    39.7003
 1542.0000     1.8481    39.7311
 1542.5000     1.8381    39.7618
 1543.0000     1.8280    39.7925
 1543.5000     1.8287    39.8232
 1544.0000     1.8081    39.8541
 1544.5000     1.7980    39.8859
 1545.0000     1.8513    39.9230
 1545.5000     1.8940    39.9537
 1546.0000     1.9800    39.9845
 1546.5000     2.0110    40.0152
 1547.0000     1.9589    40.0459
 1547.5000     1.8540    40.0766
 1548.0000     1.8334    40.1082
 1548.5000     1.8022    40.1457
 1549.0000     1.7921    40.1764
 1549.5000     1.7716    41.2660
 1550.0000     1.7781    41.2916
 1550.5000     1.8159    41.2375
 1551.0000     1.9268    41.1875
 1551.5000     1.9957    41.1374
 1552.0000     1.9963    41.0874
 1552.5000     1.9651    41.0374
 1553.0000     1.9448    40.9873
 1553.5000     1.9136    40.9373
 1554.0000     1.8511    40.8873
 1554.5000     1.7990    40.8372
 1555.0000     1.7469    40.7872
 1555.5000     1.6525    40.7372
 1556.0000     1.5790    40.6871
 1556.5000     1.5853    40.6371
 1557.0000     1.7284    40.5871
 1557.5000     1.7923    40.5370
 1558.0000     1.7507    40.4870
 1558.5000     1.4876    40.4368
 1559.0000     1.3300    40.4877
 1559.5000     1.2779    40.5388
 1560.0000     1.2678    40.5900
 1560.5000     1.2580    40.6411
 1561.0000     1.2587    40.6922
 1561.5000     1.2593    40.7434
 1562.0000     1.2599    40.7945
 1562.5000     1.2607    40.8457
 1563.0000     1.2613    40.8968
 1563.5000     1.2619    40.9479
 1564.0000     1.2625    40.9991
 1564.5000     1.2631    41.0502
 1565.0000     1.2743    41.1013
 1565.5000     1.2855    41.1525
 1566.0000     1.2755    41.2036
 1566.5000     1.2656    41.2547
 1567.0000     1.2557    41.3059
 1567.5000     1.2563    41.3570
 1568.0000     1.2571    41.4082
 1568.5000     1.2470    41.4593
 1569.0000     1.2583    41.5104
 1569.5000     1.2906    41.5616
 1570.0000     1.3861    41.6127
 1570.5000     1.5450    41.6638
 1571.0000     1.6616    41.7150
 1571.5000     1.7572    41.7661
 1572.0000     1.8000    41.8172
 1572.5000     1.8217    41.8684
 1573.0000     1.8118    41.9195
 1573.5000     1.7704    41.9706
 1574.0000     1.7288    42.0218
 1574.5000     1.6978    42.0729
 1575.0000     1.6456    42.1241
 1575.5000     1.5724    42.1752
 1576.0000     1.5623    42.2263
 1576.5000     1.5420    42.2775
 1577.0000     1.5426    42.3286
 1577.5000     1.5433    42.3797
 1578.0000     1.5654    42.4309
 1578.5000     1.6225    42.4820
 1579.0000     1.7140    42.5331
 1579.5000     1.8201    42.5843
 1580.0000     1.9474    42.6354
 1580.5000     2.0006    42.6866
 1581.0000     1.8747    42.7377
 1581.5000     1.8121    42.7928
 1582.0000     1.7914    42.8346
 1582.5000     1.7922    42.8799
 1583.0000     1.7823    42.9252
 1583.5000     1.7829    42.9705
 1584.0000     1.7835    43.0158
 1584.5000     1.7843    43.0612
 1585.0000     1.7849    43.1065
 1585.5000     1.7855    43.1518
 1586.0000     1.7862    43.1971
 1586.5000     1.7868    43.2424
 1587.0000     1.7874    43.2877
 1587.5000     1.7880    43.3331
 1588.0000     1.8308    43.3784
 1588.5000     1.8736    43.4237
 1589.0000     1.9272    43.4690
 1589.5000     2.0026    43.5143
 1590.0000     2.0232    43.5596
 1590.5000     1.7497    43.6049
 1591.0000     1.6237    43.6503
 1591.5000     1.5505    43.6956
 1592.0000     1.5404    43.7409
 1592.5000     1.5412    43.7862
 1593.0000     1.5524    43.8315
 1593.5000     1.5741    43.8768
 1594.0000     1.5747    43.9221
 1594.5000     1.5118    43.9675
 1595.0000     1.4272    44.0128
 1595.5000     1.3552    44.0581
 1596.0000     1.3136    44.1034
 1596.5000     1.2930    44.1487
 1597.0000     1.2938    44.1940
 1597.5000     1.2944    44.2393
 1598.0000     1.3055    44.2847
 1598.5000     1.3800    44.3300
 1599.0000     1.4967    44.3753
 1599.5000     1.6450    44.4206
 1600.0000     1.7932    44.4757
 1600.5000     1.7705    44.5813
 1601.0000     1.6449    44.6868
 1601.5000     1.5602    44.7924
 1602.0000     1.5493    44.8980
 1602.5000     1.5490    45.0036
 1603.0000     1.5382    45.1091
 1603.5000     1.5379    45.2147
 1604.0000     1.5376    45.3203
 1604.5000     1.5478    45.4259
 1605.0000     1.5474    45.5314
 1605.5000     1.5471    45.6370
 1606.0000     1.5784    45.7426
 1606.5000     1.6414    45.8482
 1607.0000     1.7255    45.9537
 1607.5000     1.8096    46.0593
 1608.0000     1.8304    46.1649
 1608.5000     1.8301    46.2301
 1609.0000     1.8297    46.2042
 1609.5000     1.8294    46.1834
 1610.0000     1.8291    45.1038
 1610.5000     1.8182    44.0242
 1611.0000     1.8179    44.0035
 1611.5000     1.8176    42.9239
 1612.0000     1.8173    42.9031
 1612.5000     1.8064    42.8824
 1613.0000     1.8061    42.8612
 1613.5000     1.8058    42.8400
 1614.0000     1.8371    43.8789
 1614.5000     1.8895    43.8529
 1615.0000     1.9736    43.8322
 1615.5000     2.0260    43.8114
 1616.0000     2.0468    43.7907
 1616.5000     2.0254    43.7699
 1617.0000     2.0250    43.7491
 1617.5000     2.0247    43.7284
 1618.0000     2.0455    43.7076
 1618.5000     2.1296    43.6869
 1619.0000     2.2242    43.6659
 1619.5000     2.2872    42.5859
 1620.0000     2.3080    40.4429
 1620.5000     2.3077    40.4221
 1621.0000     2.3073    40.4014
 1621.5000     2.3387    39.3218
 1622.0000     2.3384    39.3010
 1622.5000     2.2009    38.2215
 1623.0000     1.8842    38.2007
 1623.5000     1.5779    38.1799
 1624.0000     1.4089    38.1592
 1624.5000     1.3764    38.1384
 1625.0000     1.3537    38.1176
 1625.5000     1.3235    38.0965
 1626.0000     1.3126    38.0753
 1626.5000     1.3018    38.0502
 1627.0000     1.2909    38.0294
 1627.5000     1.3012    38.0087
 1628.0000     1.3641    37.9879
 1628.5000     1.4175    37.9671
 1629.0000     1.5785    39.0104
 1629.5000     1.8167    38.9844
 1630.0000     1.7953    34.7284
 1630.5000     1.7212    26.2370
 1631.0000     1.6259    22.3330
 1631.5000     1.5623    14.9862
 1632.0000     1.6253    12.9118
 1632.5000     1.7523    19.3296
 1633.0000     1.8823    27.8521
 1633.5000     1.9935    35.3157
 1634.0000     2.0249    36.7783
 1634.5000     2.0245    34.3694
 1635.0000     2.0242    30.1860
 1635.5000     2.0239    24.9438
 1636.0000     2.0236    20.7604
 1636.5000     2.0233    15.5182
 1637.0000     2.0230    17.6877
 1637.5000     2.0226    24.0926
 1638.0000     2.0118    31.5562
 1638.5000     2.0115    36.9022
 1639.0000     2.0112    38.0043
 1639.5000     2.0108    31.7163
 1640.0000     2.0000    26.4741
 1640.5000     1.9997    20.1730
 1641.0000     1.9994    14.9308
 1641.5000     1.9990    14.9827
 1642.0000     1.9987    24.7356
 1642.5000     1.9984    33.0882
 1643.0000     1.9981    32.0926
 1643.5000     1.9978    27.9092
 1644.0000     1.9975    23.7258
 1644.5000     1.9972    20.6012
 1645.0000     1.9968    19.5943
 1645.5000     1.9965    24.9403
 1646.0000     1.9962    31.3452
 1646.5000     1.9958    32.4429
 1647.0000     1.9955    24.0372
 1647.5000     1.9952    18.7950
 1648.0000     1.9949    18.8469
 1648.5000     2.0052    20.0580
 1649.0000     1.9943    25.4894
 1649.5000     1.9939    29.6038
 1650.0000     1.9851    29.6557
 1650.5000     1.8881    28.6488
 1651.0000     1.8141    28.7007
 1651.5000     1.6558    27.6808
 1652.0000     1.4930    25.6150
 1652.5000     1.4657    24.6081
 1653.0000     1.8008    23.6012
 1653.5000     2.2065    21.5471
 1654.0000     2.5425    19.4827
 1654.5000     2.4252    17.3607
 1655.0000     2.2873    15.3512
 1655.5000     2.1464    15.4161
 1656.0000     1.9782    14.3962
 1656.5000     1.8973    14.4611
 1657.0000     1.8234    14.5130
 1657.5000     1.7706    14.5649
 1658.0000     1.7704    14.6168
 1658.5000     1.7809    15.7275
 1659.0000     1.8546    14.7076
 1659.5000     1.9284    14.7725
 1660.0000     1.9810    14.8244
 1660.5000     1.9915    14.8902
 1661.0000     1.9913    15.9882
 1661.5000     1.9807    16.0412
 1662.0000     1.9911    16.1038
