~VERSION INFORMATION
 VERS.                2.0:   CWLS LOG ASCII STANDARD - VERSION 2.0
 WRAP.                 NO:   ONE LINE PER DEPTH STEP
~WELL INFORMATION
#MNEM.UNIT      DATA TYPE    INFORMATION
#----------   ------------   ------------------------------
 STRT.F           28.0000:   START DEPTH
 STOP.F          884.0000:   STOP DEPTH
 STEP.F            0.5000:   STEP LENGTH
 NULL.          -999.2500:   NO VALUE
 COMP. U S NAVY-INTEX OIL:   COMPANY
 WELL. NPR 3 TEAPOT DOM #43-SX-2:   WELL
 FLD .             TEAPOT:   FIELD
 LOC .       S2 T38N R78W:   LOCATION
 CNTY.            NATRONA:   COUNTY
 STAT.            WYOMING:   STATE
 CTRY. UNITED STATES OF AMERICA:   COUNTRY
 SRVC.       Schlumberger:   SERVICE COMPANY
 DATE.        19-JUL-1963:   LOGDATE
 API .       490250967900:   API NUMBER
~CURVE INFORMATION
#MNEM.UNIT       API CODE    CURVE DESCRIPTION
#----------   ------------   ------------------------------
 DEPT.F                  :   
 ASN .OHMM   05 041 16 00:   AMPLIFIED SHORT NORMAL 16"
 CILD.MMHO   05 110 46 00:   CONDUCTIVITY INDUCTION LOG DEEP
 ILD .OHMM   05 120 46 00:   INDUCTION LOG DEEP
 SPR .MV     05 010 01 00:   SPONTANEOUS POTENTIAL FROM RES.
 GR  .GAPI   30 310 01 00:   GAMMA RAY
~PARAMETER INFORMATION
#MNEM.UNIT          VALUE    DESCRIPTION
#----------   ------------   ------------------------------
 LMF .                 KB:   LOG MEASURED FROM
 DMF .                 KB:   DRILLING MEASURED FROM
 EKB .F              5151:   KELLING BUSHING
 EGL .F              5146:   GROUND LEVEL
 DATE.        19-JUL-1963:   RUN DATE
 RUN .                  1:   RUN NUMBER
 DD  .F               881:   DEPTH DRILLER
 DL  .F               885:   DEPTH LOGGER
 BLI .F               884:   BOTTOM LOG INTERVAL
 TLI .F                30:   TOP LOG INTERVAL
 CS  .IN            8.625:   CASING SIZE
 CBD .F                12:   CASING BOTTOM DRILLER
 BS  .IN             6.75:   BIT SIZE
 BSD .F               881:   BIT SIZE AT DEPTH
 DFT .           GEL- OIL:   DRILLING FLUID TYPE
 DFD .                9.6:   DRILLING FLUID DENSITY
 DFV .                 39:   DRILLING FLUID VISCOSITY
 DFPH.                8.5:   DRILLING FLUID PH
 DFL .                4.4:   DRILLING FLUID LOSS
 RMS .OHMM           2.58:   RESISTIVITY MUD SAMPLE
 MST .F                72:   MUD SAMPLE TEMPERATURE
 RMF .OHMM           2.26:   RESISTIVITY MUD FILTRATE SAMPLE
 MFST.F                72:   MUD FILTRATE SAMPLE TEMPERATURE
 TCS .HRS               3:   TIME CURCULATED STOPPED
 LUN .               4507:   LOGGING UNIT NUMBER
 LUL .             CASPER:   LOGGING UNIT LOCATION
 ENGI.            WINKLER:   RECORDING ENGINEER
 WITN.          JORGENSEN:   WITNESSED BY
 CLNT.            A2DTECH:   CLIENT CODE
 ORIG.      2.5" 5" PRINT:   ORIGIN OF DATA
 UWI .       490250967900:   UNIQUE WELL ID
 DICO. A2D Technologies, Inc.:   DIGITIZING COMPANY
~OTHER INFORMATION
~A   DEPT      ASN         CILD       ILD       SPR         GR   
# ...
  821.0000    15.4300    68.2419    14.1786   -37.5624  -999.2500
  821.5000    15.3429    67.7931    14.1771   -37.5593  -999.2500
  822.0000    15.3414    66.2263    14.3273   -37.5562  -999.2500
  822.5000    15.3399    65.1663    14.6287   -37.5532  -999.2500
  823.0000    15.3381    64.2898    14.7788   -37.8545  -999.2500
  823.5000    15.3366    63.6253    15.0803   -37.9514  -999.2500
  824.0000    15.3351    63.6171    15.0788   -38.2695  -999.2500
  824.5000    15.1826    63.6088    15.0596   -38.8916  -999.2500
  825.0000    15.0301    63.6005    14.7475   -39.9695  -999.2500
  825.5000    15.0286    63.5922    14.4353   -38.9857  -999.2500
  826.0000    14.7250    63.5839    14.1636   -37.2274  -999.2500
  826.5000    14.5725    65.1000    13.9626   -36.9205  -999.2500
  827.0000    14.4149    66.7174    13.7061   -36.6136  -999.2500
  827.5000    14.1163    68.1322    13.5530   -36.3067  -999.2500
  828.0000    13.9436    69.6483    13.4808   -35.6958  -999.2500
  828.5000    13.8112    69.9443    13.2470   -35.3889  -999.2500
  829.0000    13.6586    71.1562    13.0939   -34.7780  -999.2500
  829.5000    13.5060    71.1467    12.9406   -34.4681  -999.2500
  830.0000    13.3535    71.1382    12.7876   -34.1438  -999.2500
  830.5000    13.3520    71.7055    12.6346   -34.1613  -999.2500
  831.0000    13.3505    72.6457    12.4816   -34.2128  -999.2500
  831.5000    13.3489    73.3486    12.4802   -34.4593  -999.2500
  832.0000    13.3474    74.1531    12.4787   -34.4559  -999.2500
  832.5000    13.2578    74.1446    12.4772   -34.4529  -999.2500
  833.0000    13.1931    75.6606    12.4757   -34.7544  -999.2500
  833.5000    13.1916    75.6506    12.4742   -34.7508  -999.2500
  834.0000    13.1901    75.6423    12.4727   -34.7477  -999.2500
  834.5000    13.1887    75.6341    12.4712   -34.2655  -999.2500
  835.0000    13.1872    75.6258    12.3182   -32.9174  -999.2500
  835.5000    13.0347    75.6175    12.3167   -32.3065  -999.2500
  836.0000    13.0332    75.6092    12.3152   -31.6957  -999.2500
  836.5000    13.0317    75.6009    12.3136   -31.6927  -999.2500
  837.0000    13.0302    77.1170    12.3121   -31.6898  -999.2500
  837.5000    13.0287    78.6331    12.3106   -31.6868  -999.2500
  838.0000    12.8761    80.2168    12.3091   -31.6839  -999.2500
  838.5000    12.8746    81.6653    12.3076   -31.6899  -999.2500
  839.0000    12.8731    81.8597    12.3061   -31.9819  -999.2500
  839.5000    12.8288    83.1732    12.3043   -31.9787  -999.2500
  840.0000    12.7190    83.1640    12.3028   -31.9757  -999.2500
  840.5000    12.7175    83.1555    12.3013   -31.9726  -999.2500
  841.0000    12.7160    83.1470    12.2998   -31.9696  -999.2500
  841.5000    12.5634    83.1385    12.2983   -31.9666  -999.2500
  842.0000    12.5619    83.1301    12.1454   -31.6596  -999.2500
  842.5000    12.5604    83.1216    11.9924   -31.2057  -999.2500
  843.0000    12.5586    83.1131    11.8394   -30.8814  -999.2500
  843.5000    12.5572    83.1047    11.8379   -30.4341  -999.2500
  844.0000    12.5557    83.0962    11.6848   -30.1271  -999.2500
  844.5000    12.5542    83.0862    11.6657   -29.8202  -999.2500
  845.0000    12.5527    83.0779    11.5051   -29.8173  -999.2500
  845.5000    12.4002    83.0696    11.3773   -29.8143  -999.2500
  846.0000    12.3987    83.0613    11.3758   -29.8114  -999.2500
  846.5000    12.2462    83.0530    11.3742   -29.5045  -999.2500
  847.0000    12.2447    83.0447    11.3727   -28.8936  -999.2500
  847.5000    12.2432    83.0365    11.3712   -28.5714  -999.2500
  848.0000    12.2417    83.0282    11.3697   -27.6394  -999.2500
  848.5000    12.2402    83.0199    11.4465   -27.3647  -999.2500
  849.0000    12.2387    81.4871    11.4323   -27.3617  -999.2500
  849.5000    12.2372    81.4787    11.3649   -27.6630  -999.2500
  850.0000    12.3870    81.4702    11.5152   -27.9640  -999.2500
  850.5000    12.3852    81.4617    11.3619   -28.2650  -999.2500
  851.0000    12.3837    81.4532    11.3604   -28.5653  -999.2500
  851.5000    12.3822    81.4448    11.3590   -28.7153  -999.2500
  852.0000    12.3807    81.4363    11.3575   -29.0335  -999.2500
  852.5000    12.3792    81.4278    11.3560   -29.1641  -999.2500
  853.0000    12.2263    81.9953    11.3545   -29.1606  -999.2500
  853.5000    12.2248    82.9353    11.3530   -29.1577  -999.2500
  854.0000    12.2234    82.9268    11.3515   -28.8507  -999.2500
  854.5000    12.0708    82.9184    11.3500   -28.5438  -999.2500
  855.0000    12.0694    82.9099    11.3485   -28.2369  -999.2500
  855.5000    11.9168    84.4258    11.3470   -27.9300  -999.2500
  856.0000    11.9154    85.9403    11.3051   -27.6191  -999.2500
  856.5000    11.9139    85.9320    11.1924   -27.3161  -999.2500
  857.0000    11.9124    87.4481    11.1353   -27.2746  -999.2500
  857.5000    11.9235    87.4398    11.0379   -27.0061  -999.2500
  858.0000    12.0605    87.4315    11.0364   -26.6991  -999.2500
  858.5000    11.9079    87.4232    11.0348   -26.6960  -999.2500
  859.0000    11.9063    88.9397    10.7960   -26.6930  -999.2500
  859.5000    11.9476    87.4067    10.5770   -26.6900  -999.2500
  860.0000    12.0546    87.3984    10.5755   -26.9909  -999.2500
  860.5000    12.0529    87.4576    10.7258   -27.2918  -999.2500
  861.0000    12.0514    88.9062    10.7241   -27.4650  -999.2500
  861.5000    12.1229    87.3730    10.7226   -27.8931  -999.2500
  862.0000    12.2800    87.0936    10.7211   -27.8901  -999.2500
  862.5000    12.5881    85.4928    10.8712   -28.1911  -999.2500
  863.0000    13.1025    82.7744    11.0212   -28.1882  -999.2500
  863.5000    13.5541    80.7675    11.4869   -28.1852  -999.2500
  864.0000    14.1569    77.6422    12.8767   -28.4863  -999.2500
  864.5000    15.5149    74.5174    13.7969   -28.4832  -999.2500
  865.0000    16.8730    69.8678    15.5354   -28.7943  -999.2500
  865.5000    17.9289    64.4732    17.2056   -29.7752  -999.2500
  866.0000    18.8338    59.7561    18.5980   -32.0850  -999.2500
  866.5000    20.3429    53.5147    20.2379   -35.2867  -999.2500
  867.0000    22.6324    44.5953    23.0797   -37.5870  -999.2500
  867.5000    24.2044    40.0139    25.7552   -37.8880  -999.2500
  868.0000    27.4482    35.4324    27.6525   -37.5805  -999.2500
  868.5000    29.6493    33.8997    28.0475   -36.5777  -999.2500
  869.0000    33.3515    32.3671    27.4980   -34.8469  -999.2500
  869.5000    34.8356    30.8344    26.6073   -34.3668  -999.2500
  870.0000    31.9637    32.3505    25.6967   -34.5283  -999.2500
  870.5000    30.1973    33.8666    24.9377   -34.8293  -999.2500
  871.0000    27.7666    36.9071    22.9665   -35.4342  -999.2500
  871.5000    25.8489    40.0152    21.6014   -35.7352  -999.2500
  872.0000    25.0795    44.5125    20.3878   -36.3402  -999.2500
  872.5000    24.6803    46.0286    19.6287   -36.6412  -999.2500
  873.0000    24.0994    46.0196    19.3242   -36.6382  -999.2500
  873.5000    23.6448    47.5364    19.0197   -36.6353  -999.2500
  874.0000    23.1901    47.5271    19.0182   -36.9362  -999.2500
  874.5000    22.7355    47.5186    18.8652   -36.5957  -999.2500
  875.0000    21.5256    49.0359    18.6869   -35.9676  -999.2500
  875.5000    20.4667    49.0261    18.3748   -35.3394  -999.2500
  876.0000    21.0695    49.0176    17.9111   -34.7964  -999.2500
  876.5000    20.9169    49.0091    17.7505   -34.8956  -999.2500
  877.0000    20.4572    49.0007    17.6455   -35.0948  -999.2500
  877.5000    19.9950    50.5166    17.6439   -34.9544  -999.2500
  878.0000    19.6253    50.5065    17.6424   -34.6302  -999.2500
  878.5000    18.6907    50.4997    17.6409   -34.0020  -999.2500
  879.0000    18.2916    50.4912    17.6394   -33.2578  -999.2500
  879.5000    18.1259    50.4816    17.7891   -32.6469  -999.2500
  880.0000    17.9601    51.9977    17.7876   -32.0361  -999.2500
  880.5000    17.7944    51.9894    17.7862   -32.6410  -999.2500
  881.0000    17.6479    51.9812    17.7847   -33.5499  -999.2500
  881.5000    17.6479    51.9729    17.9348   -34.1550  -999.2500
