~VERSION INFORMATION
 VERS.                2.0:   CWLS LOG ASCII STANDARD - VERSION 2.0
 WRAP.                 NO:   ONE LINE PER DEPTH STEP
~WELL INFORMATION
#MNEM.UNIT      DATA TYPE    INFORMATION
#----------   ------------   ------------------------------
 STRT.F           83.0000:   START DEPTH
 STOP.F         3044.0000:   STOP DEPTH
 STEP.F            0.5000:   STEP LENGTH
 NULL.          -999.2500:   NO VALUE
 COMP.   TESORO PETROLEUM:   COMPANY
 WELL.  NPR # 3  AX #81-4:   WELL
 FLD .        TEAPOT DOME:   FIELD
 LOC .       S4 T38N R78W:   LOCATION
 CNTY.            NATRONA:   COUNTY
 STAT.            WYOMING:   STATE
 CTRY. UNITED STATES OF AMERICA:   COUNTRY
 SRVC.       Schlumberger:   SERVICE COMPANY
 DATE.        31-JUL-1969:   LOGDATE
 API .       490251002700:   API NUMBER
~CURVE INFORMATION
#MNEM.UNIT       API CODE    CURVE DESCRIPTION
#----------   ------------   ------------------------------
 DEPT.F                  :   
 CILD.MMHO   05 110 46 00:   CONDUCTIVITY INDUCTION LOG DEEP
 ILD .OHMM   05 120 46 00:   INDUCTION LOG DEEP
 SN  .OHMM   05 040 16 00:   SHORT NORMAL 16"
 SPR .MV     05 010 01 00:   SPONTANEOUS POTENTIAL FROM RES.
 CALD.IN     45 280 60 00:   CALIPER FROM DENSITY
 DPHI.DEC    45 890 12 00:   DENSITY POROSITY SANDSTONE
 GRD .GAPI   45 310 01 00:   GAMMA RAY FROM DENSITY LOG
 RHOB.G/C3   45 350 01 00:   BULK DENSITY
 DRHO.G/C3   45 356 01 00:   DENSITY CORRECTION
~PARAMETER INFORMATION
#MNEM.UNIT          VALUE    DESCRIPTION
#----------   ------------   ------------------------------
 PD  .                 GL:   PERMANENT DATUM
 EPD .F              5170:   ELEVATION PERMANENT DATUM
 LMF .                 KB:   LOG MEASURED FROM
 DAPD.F                13:   FEET ABOVE PERMANENT DATUM
 DMF .                 KB:   DRILLING MEASURED FROM
 EKB .F              5183:   KELLING BUSHING
 EGL .F              5170:   GROUND LEVEL
 DATE.            7-31-69:   RUN DATE
 RUN .                  2:   RUN NUMBER
 DD  .F              3047:   DEPTH DRILLER
 DL  .F              3044:   DEPTH LOGGER
 BLI .F              3043:   BOTTOM LOG INTERVAL
 TLI .F               626:   TOP LOG INTERVAL
 CS  .IN            10.75:   CASING SIZE
 CBD .F               625:   CASING BOTTOM DRILLER
 CBL .F               626:   CASING BOTTOM LOGGER
 BS  .IN             6.25:   BIT SIZE
 BSD .F              3047:   BIT SIZE AT DEPTH
 DFT .      FRESH GEL MUD:   DRILLING FLUID TYPE
 DFD .                9.7:   DRILLING FLUID DENSITY
 DFV .                 50:   DRILLING FLUID VISCOSITY
 DFPH.                9.5:   DRILLING FLUID PH
 DFL .                  8:   DRILLING FLUID LOSS
 MSS .          FLOW LINE:   MUD SAMPLE SOURCE
 RMS .OHMM           1.35:   RESISTIVITY MUD SAMPLE
 MST .F                74:   MUD SAMPLE TEMPERATURE
 RMF .OHMM            .81:   RESISTIVITY MUD FILTRATE SAMPLE
 MFST.F                74:   MUD FILTRATE SAMPLE TEMPERATURE
 MFSS.                  M:   MUD FILTRATE SAMPLE SOURCE
 RMB .OHMM            .83:   RESISTIVITY MUD AT BHT
 BHT .F               121:   BOTTOM HOLE TEMPERATURE
 TCS .HRS               4:   TIME CURCULATED STOPPED
 MRT .F               121:   MAXIMUM RECORDED TEMPERATURE
 LUN .               4507:   LOGGING UNIT NUMBER
 LUL .               CSPR:   LOGGING UNIT LOCATION
 ENGI.               MIXA:   RECORDING ENGINEER
 WITN.                MAY:   WITNESSED BY
 CLNT.            A2DTECH:   CLIENT CODE
 ORIG.     1", 2.5" PRINT:   ORIGIN OF DATA
 UWI .       490251002700:   UNIQUE WELL ID
 DICO. A2D Technologies, Inc.:   DIGITIZING COMPANY
~OTHER INFORMATION
~A   DEPT      CILD       ILD         SN        SPR       CALD       DPHI        GRD       RHOB       DRHO   
# ...
 1689.0000   120.6713     8.4556    10.3928   -23.3889     9.4973     0.0407    93.2418     2.5732     0.0338
 1689.5000   122.8140     8.2082    10.2237   -23.3920     9.4682     0.0339    92.6451     2.5749     0.0234
 1690.0000   124.8457     8.1114     9.9377   -23.3951     9.4687     0.0210    93.2533     2.6044     0.0174
 1690.5000   126.1573     7.8909     9.8524   -23.3981     9.4648     0.0325    97.4990     2.6168     0.0144
 1691.0000   127.9475     7.8271     9.6906   -23.4012     9.4396     0.0400   101.1944     2.5983     0.0144
 1691.5000   127.9552     7.6618     9.5289   -23.4043     9.4401     0.0424   102.9090     2.5794     0.0188
 1692.0000   128.7964     7.5697     9.5230   -23.4956     9.4406     0.0417   101.9519     2.5859     0.0238
 1692.5000   130.4076     7.4858     9.5170   -23.7191     9.4410     0.0377    99.9085     2.5887     0.0285
 1693.0000   131.0648     7.3205     9.5109   -23.7222     9.4415     0.0314   100.0638     2.5914     0.0327
 1693.5000   131.0725     7.2485     9.5047   -23.7253     9.4419     0.0249   101.0552     2.6019     0.0377
 1694.0000   131.0802     7.2446     9.4984   -23.7284     9.4424     0.0192   102.5431     2.6139     0.0427
 1694.5000   131.0880     7.2407     9.4922   -23.7315     9.4428     0.0156   102.9458     2.6139     0.0456
 1695.0000   131.0957     7.2368     9.4860   -23.7346     9.4433     0.0288   103.2154     2.6091     0.0476
 1695.5000   131.1048     7.2330     9.4798   -23.7377     9.4437     0.0342   102.3905     2.5996     0.0471
 1696.0000   131.1122     7.2284     9.4735   -23.7407     9.4442     0.0288    98.2654     2.5899     0.0451
 1696.5000   132.6628     7.2247     9.4673   -23.7438     9.4446     0.0294    94.3404     2.5974     0.0434
 1697.0000   132.6703     7.2210     9.4611   -23.7469     9.4451     0.0318    93.3374     2.5899     0.0396
 1697.5000   132.6777     7.2173     9.4548   -23.7506     9.4455     0.0267    93.3434     2.5915     0.0366
 1698.0000   131.1419     7.3684     9.4486   -23.7536     9.4460     0.0240    95.0964     2.5978     0.0336
 1698.5000   130.9978     7.5364     9.4424   -23.7565     9.4465     0.0254    96.2306     2.5982     0.0299
 1699.0000   127.7985     8.0046     9.4361   -23.7595     9.4469     0.0237    98.1818     2.5957     0.0266
 1699.5000   124.5991     8.3238     9.5266   -23.7625     9.4473     0.0147    98.7899     2.6101     0.0249
 1700.0000   121.3992     8.6172     9.6833   -23.7654     9.4478     0.0190    98.7957     2.6087     0.0261
 1700.5000   118.1997     8.8073     9.8399   -23.7685     9.4183     0.0338    93.3797     2.5909     0.0291
 1701.0000   114.6217     9.0480     9.9966   -23.7716     9.4188     0.0336    89.1611     2.5890     0.0331
 1701.5000   110.2573     9.0441    10.3384   -23.7747     9.4193     0.0279    88.5719     2.5953     0.0380
 1702.0000   107.0578     9.0402    10.4882   -23.7264     9.4089     0.0269    91.3146     2.5996     0.0430
 1702.5000   104.4174     9.0364    10.7938   -23.4716     9.3604     0.0293    94.6642     2.5927     0.0477
 1703.0000   103.4414     9.0325    10.9436   -23.4753     9.3609     0.0336    98.2277     2.5818     0.0514
 1703.5000   105.4902     9.0286    10.9159   -23.4784     9.3613     0.0330    96.5697     2.5885     0.0544
 1704.0000   109.5682     8.8659    10.7508   -23.4815     9.3284     0.0259    93.6025     2.6080     0.0564
 1704.5000   111.9819     8.7113    10.5857   -23.3688     9.3284     0.0171    94.6589     2.6215     0.0589
 1705.0000   113.5931     8.7074    10.4206   -23.1790     9.3284     0.0128    95.8434     2.6201     0.0603
 1705.5000   115.2043     8.7036    10.3411   -23.0406     9.3284     0.0204    94.7802     2.6158     0.0601
 1706.0000   115.8333     8.6997    10.3396   -22.8765     9.3284     0.0292    93.7420     2.6027     0.0588
 1706.5000   116.8839     8.6958    10.3380   -22.8395     9.3284     0.0316    96.0048     2.5931     0.0558
 1707.0000   118.4954     8.6919    10.4455   -22.8395     9.3284     0.0269   102.2754     2.5976     0.0528
 1707.5000   118.9429     8.6874    10.4907   -22.8395     9.3284     0.0235   107.0430     2.6068     0.0483
 1708.0000   118.9521     8.6837    10.6446   -22.8395     9.3477     0.0218   107.9277     2.6127     0.0434
 1708.5000   118.9596     8.6800    10.6431   -22.8395     9.3582     0.0225   106.1715     2.6055     0.0389
 1709.0000   118.9670     8.6763    10.6416   -22.8395     9.3582     0.0262   105.0608     2.5987     0.0364
 1709.5000   120.3704     8.7609    10.4844   -22.8395     9.3582     0.0249   103.7299     2.6082     0.0349
 1710.0000   119.3930     8.4520    10.0156   -22.8395     9.3582     0.0314   105.5429     2.6082     0.0339
 1710.5000   118.8272     8.2930     9.6947   -22.8395     9.3582     0.0290   107.3559     2.5978     0.0348
 1711.0000   119.9539     8.1187     9.5296   -22.8395     9.3881     0.0296   110.3737     2.5903     0.0368
 1711.5000   120.3704     7.8350     9.3645   -22.8395     9.3881     0.0362   112.7892     2.5858     0.0381
 1712.0000   123.4568     7.8080     9.1994   -22.8395     9.3897     0.0374   112.7952     2.5877     0.0393
 1712.5000   126.5432     7.6464     9.0732   -22.8395     9.4179     0.0345   112.5941     2.5925     0.0423
 1713.0000   129.6296     7.5279     9.0249   -22.8395     9.4179     0.0296   110.6085     2.5963     0.0452
 1713.5000   132.7160     7.4779     8.8598   -22.8395     9.4241     0.0300   107.8356     2.5949     0.0504
 1714.0000   134.2901     7.3163     8.7570   -22.8395     9.4478     0.0314   104.9879     2.5908     0.0567
 1714.5000   135.8025     7.2206     8.6854   -22.8395     9.4478     0.0281   105.9163     2.5962     0.0634
 1715.0000   135.8025     7.1478     8.5981   -22.8395     9.4478     0.0235   108.0120     2.6039     0.0721
 1715.5000   135.8025     7.0673     8.5966   -22.8395     9.4478     0.0264   107.0493     2.5977     0.0840
 1716.0000   135.8025     7.0681     8.5950   -22.7057     9.4478     0.0336   103.7175     2.5912     0.0899
 1716.5000   135.8025     7.0689     8.6947   -22.5309     9.4478     0.0339   101.4036     2.5919     0.0795
 1717.0000   135.8025     7.0697     8.7477   -22.5309     9.4645     0.0386   102.3960     2.5845     0.0571
 1717.5000   135.8025     7.1820     8.7461   -22.5309     9.4776     0.0380   105.0113     2.5850     0.0392
 1718.0000   135.8025     7.2260     8.7443   -22.5309     9.5172     0.0299   106.2410     2.6038     0.0526
 1718.5000   135.8025     7.2269     8.7428   -22.3200     9.5586     0.0137   105.4163     2.6240     0.0690
 1719.0000   135.8025     7.2277     8.7413   -22.2222     9.5672     0.0078   102.8269     2.6340     0.0759
 1719.5000   135.8025     7.0736     8.7398   -22.2222     9.5672     0.0116   100.6228     2.6265     0.0824
 1720.0000   135.8025     7.0743     8.7383   -22.2222     9.5672     0.0126    98.4347     2.6220     0.0829
 1720.5000   136.8030     7.0727     8.7368   -22.2222     9.5672     0.0102    98.4404     2.6266     0.0764
 1721.0000   136.2705     6.9210     8.7196   -22.2222     9.5672     0.0078    98.4462     2.6281     0.0689
 1721.5000   135.8025     6.9218     8.5545   -22.2222     9.5672     0.0125    99.0544     2.6255     0.0555
 1722.0000   135.8025     6.9226     8.4206   -22.2222     9.5672     0.0169   101.5303     2.6129     0.0485
 1722.5000   135.8025     6.9234     8.4190   -22.2222     9.5672     0.0227   104.0173     2.6014     0.0435
 1723.0000   137.3457     6.8837     8.4174   -22.2222     9.5672     0.0293   105.6981     2.5952     0.0445
 1723.5000   137.3457     6.7701     8.4159   -22.2222     9.5672     0.0254   104.7973     2.5961     0.0512
 1724.0000   138.8889     6.7152     8.4143   -22.2222     9.5672     0.0186   102.9095     2.6129     0.0599
 1724.5000   138.9971     6.6169     8.4128   -22.2222     9.5768     0.0205   101.3405     2.6109     0.0629
 1725.0000   141.9753     6.6176     8.4112   -22.2222     9.5970     0.0302   100.7154     2.5940     0.0509
