~VERSION INFORMATION
 VERS.                2.0:   CWLS LOG ASCII STANDARD - VERSION 2.0
 WRAP.                 NO:   ONE LINE PER DEPTH STEP
~WELL INFORMATION
#MNEM.UNIT      DATA TYPE    INFORMATION
#----------   ------------   ------------------------------
 STRT.F           30.0000:   START DEPTH
 STOP.F         3375.5000:   STOP DEPTH
 STEP.F            0.5000:   STEP LENGTH
 NULL.          -999.2500:   NO VALUE
 COMP.       INTEX OIL CO:   COMPANY
 WELL.   NPR ##3 57-SX-34:   WELL
 FLD .             TEAPOT:   FIELD
 LOC .      S34 T39N R78W:   LOCATION
 CNTY.            NATRONA:   COUNTY
 STAT.            WYOMING:   STATE
 CTRY. UNITED STATES OF AMERICA:   COUNTRY
 SRVC.       Schlumberger:   SERVICE COMPANY
 DATE.        12-AUG-1967:   LOGDATE
 API .       490251023200:   API NUMBER
~CURVE INFORMATION
#MNEM.UNIT       API CODE    CURVE DESCRIPTION
#----------   ------------   ------------------------------
 DEPT.F                  :   
 SPR .MV     07 010 01 00:   SPONTANEOUS POTENTIAL
 ILD .OHMM   07 120 46 00:   INDUCTION LOG DEEP
 ASN .OHMM   05 041 16 00:   AMPLIFIED SHORT NORMAL 16"
 CILD.MMHO   07 110 46 00:   CONDUCTIVITY INDUCTION LOG DEEP
 LL8 .OHMM   07 220 08 00:   LATEROLOG-8 RES.
 ILM .OHMM   07 120 44 00:   INDUCTION LOG MEDIUM
 CALD.IN     45 280 60 00:   CALIPER
 GRD .GAPI   45 310 01 00:   GAMMA RAY FROM DENSITY LOG
 RHOB.G/C3   45 350 01 00:   BULK DENSITY
 DPHI.DEC    45 890 12 00:   DENSITY POROSITY SANDSTONE
 CORR.G/C3   45 356 01 00:   DENSITY CORRECTION
~PARAMETER INFORMATION
#MNEM.UNIT          VALUE    DESCRIPTION
#----------   ------------   ------------------------------
 PD  .                 GL:   PERMANENT DATUM
 EPD .F              5084:   ELEVATION PERMANENT DATUM
 LMF .                 KB:   LOG MEASURED FROM
 DAPD.F                12:   FEET ABOVE PERMANENT DATUM
 DMF .                 KB:   DRILLING MEASURED FROM
 EKB .F              5096:   KELLING BUSHING
 EGL .F              5084:   GROUND LEVEL
 DATE.            8-12-67:   RUN DATE
 RUN .                  2:   RUN NUMBER
 DD  .F              3380:   DEPTH DRILLER
 DL  .F              3371:   DEPTH LOGGER
 BLI .F              3368:   BOTTOM LOG INTERVAL
 TLI .F               630:   TOP LOG INTERVAL
 CS  .IN            10.75:   CASING SIZE
 CBD .F               643:   CASING BOTTOM DRILLER
 BS  .IN            9.875:   BIT SIZE
 BSD .F              3380:   BIT SIZE AT DEPTH
 DFT .               CHEM:   DRILLING FLUID TYPE
 DFD .                9.4:   DRILLING FLUID DENSITY
 DFV .                 48:   DRILLING FLUID VISCOSITY
 DFPH.                8.5:   DRILLING FLUID PH
 DFL .                3.6:   DRILLING FLUID LOSS
 MSS .          FLOW LINE:   MUD SAMPLE SOURCE
 RMS .OHMM           2.81:   RESISTIVITY MUD SAMPLE
 MST .F                88:   MUD SAMPLE TEMPERATURE
 RMF .OHMM            1.7:   RESISTIVITY MUD FILTRATE SAMPLE
 MFST.F                86:   MUD FILTRATE SAMPLE TEMPERATURE
 MFSS.                  M:   MUD FILTRATE SAMPLE SOURCE
 RMB .OHMM           2.03:   RESISTIVITY MUD AT BHT
 BHT .F               122:   BOTTOM HOLE TEMPERATURE
 TCS .HRS             2.5:   TIME CURCULATED STOPPED
 MRT .F               122:   MAXIMUM RECORDED TEMPERATURE
 LUN .               7030:   LOGGING UNIT NUMBER
 LUL .               CSPR:   LOGGING UNIT LOCATION
 ENGI.             SCHODE:   RECORDING ENGINEER
 WITN.                MAY:   WITNESSED BY
 CLNT.            A2DTECH:   CLIENT CODE
 ORIG.   1" 2.5" 5" PRINT:   ORIGIN OF DATA
 UWI .       490251023200:   UNIQUE WELL ID
 DICO. A2D Technologies, Inc.:   DIGITIZING COMPANY
~OTHER INFORMATION
~A   DEPT      SPR        ILD        ASN       CILD        LL8        ILM       CALD         GRD      RHOB       DPHI       CORR   
# ...
 2073.5000   -28.8471     7.9571  -999.2500  -999.2500    10.9793     8.3804    11.3268   109.9340     2.4852     0.1043     0.0124
 2074.0000   -28.7772     7.9292  -999.2500  -999.2500    10.7575     8.3120    11.3268   112.2351     2.4743     0.1080     0.0173
 2074.5000   -28.8276     7.9292  -999.2500  -999.2500    10.5452     8.2225    11.3268   115.6221     2.4630     0.1116     0.0223
 2075.0000   -28.8647     8.0062  -999.2500  -999.2500    10.2307     8.2928    11.3268   119.1654     2.4637     0.1130     0.0157
 2075.5000   -28.9035     8.0834  -999.2500  -999.2500    10.2808     8.4206    11.3268   121.4329     2.4662     0.1111     0.0090
 2076.0000   -28.9441     8.1615  -999.2500  -999.2500    10.5061     8.5474    11.3268   121.7856     2.4612     0.1091     0.0019
 2076.5000   -28.9833     8.2403  -999.2500  -999.2500    10.9397     8.6761    11.3268   122.3631     2.4466     0.1173     0.0037
 2077.0000   -29.0222     8.3199  -999.2500  -999.2500    10.0681     8.8068    11.3268   122.9875     2.4524     0.1175     0.0083
 2077.5000   -29.0631     8.4806  -999.2500  -999.2500    10.2327     8.9394    11.3268   123.4582     2.4573     0.1151     0.0134
 2078.0000   -29.1025     8.7904  -999.2500  -999.2500    10.9347     8.9989    11.3268   124.0465     2.4634     0.1127     0.0186
 2078.5000   -29.1375     9.1115  -999.2500  -999.2500    11.6853     9.3067    11.3268   122.4161     2.4638     0.1106     0.0233
 2079.0000   -29.2649     9.4444  -999.2500  -999.2500    12.4851     9.7336    11.3268   118.8113     2.4590     0.1115     0.0284
 2079.5000   -29.5350     9.7893  -999.2500  -999.2500    13.3356    10.1800    11.3268   114.9672     2.4559     0.1143     0.0228
 2080.0000   -29.8117    10.1469  -999.2500  -999.2500    14.1596    10.6469    11.3268   113.4836     2.4524     0.1170     0.0168
 2080.5000   -30.0686    10.3996  -999.2500  -999.2500    13.8803    11.1353    11.3268   112.6581     2.4488     0.1193     0.0098
 2081.0000   -30.3240    10.3996  -999.2500  -999.2500    12.9181    11.3837    11.3268   112.0230     2.4497     0.1185     0.0094
 2081.5000   -30.0408    10.2119  -999.2500  -999.2500    10.6013    11.0138    11.3268   109.2447     2.4558     0.1155     0.0093
 2082.0000   -29.7244     9.9501  -999.2500  -999.2500     9.0069    10.6894    11.3268   106.7734     2.4628     0.1098     0.0097
 2082.5000   -29.3581     9.6951  -999.2500  -999.2500    10.0044    10.3745    11.3268   107.8377     2.4559     0.1119     0.0158
 2083.0000   -29.1486     9.4466  -999.2500  -999.2500    10.9992    10.0689    11.3268   109.7357     2.4468     0.1166     0.0244
 2083.5000   -29.1725     9.2045  -999.2500  -999.2500    11.6939     9.7724    11.3268   111.4723     2.4377     0.1232     0.0248
 2084.0000   -29.1659     8.9686  -999.2500  -999.2500    11.2930     9.4845    11.3268   113.4005     2.4303     0.1200     0.0204
 2084.5000   -29.1651     8.7388  -999.2500  -999.2500    10.9059     9.2052    11.3268   112.4839     2.4538     0.1145     0.0141
 2085.0000   -29.1674     8.5237  -999.2500  -999.2500    10.3996     8.9340    11.3268   108.4252     2.4646     0.1100     0.0134
 2085.5000   -29.1659     8.4994  -999.2500  -999.2500    10.4991     8.8376    11.3268   105.7199     2.4651     0.1119     0.0298
 2086.0000   -29.1665     8.4614  -999.2500  -999.2500    10.6572     8.8376    11.3268   104.7482     2.4656     0.1110     0.0330
 2086.5000   -29.1667     8.4235  -999.2500  -999.2500    10.7444     8.8376    11.3268   104.3416     2.4743     0.1071     0.0305
 2087.0000   -29.1667     8.3858  -999.2500  -999.2500    10.5708     8.8376    11.3268   104.3250     2.4842     0.1031     0.0278
 2087.5000   -29.1667     8.2831  -999.2500  -999.2500    10.4024     8.8376    11.3268   104.4102     2.4760     0.1041     0.0362
 2088.0000   -29.1667     8.1399  -999.2500  -999.2500    10.2339     8.8376    11.3268   102.6987     2.4680     0.1084     0.0501
 2088.5000   -29.1667     7.9992  -999.2500  -999.2500    10.0661     8.8376    11.3268   101.2234     2.4694     0.1090     0.0461
 2089.0000   -29.1667     7.8609  -999.2500  -999.2500    10.6298     8.7257    11.3268   102.0022     2.4829     0.0988     0.0363
 2089.5000   -29.1666     7.7250  -999.2500  -999.2500    12.0405     8.4371    11.3268   104.9183     2.4992     0.0923     0.0269
 2090.0000   -29.1666     7.5914  -999.2500  -999.2500    11.7744     8.1580    11.3268   102.4325     2.4913     0.1005     0.0178
 2090.5000   -29.1667     7.3757  -999.2500  -999.2500     9.6914     7.9289    11.3268   100.3277     2.4736     0.1088     0.0082
 2091.0000   -29.1663     7.4622  -999.2500  -999.2500     7.2435     7.9289    11.3268    97.1692     2.4553     0.1169     0.0054
 2091.5000   -29.1668     7.7175  -999.2500  -999.2500     8.4997     8.1577    11.3268    91.9577     2.4601     0.1130     0.0078
 2092.0000   -29.1664     7.9814  -999.2500  -999.2500    11.4274     8.5987    11.3268    90.4415     2.4544     0.1183     0.0232
 2092.5000   -29.1648     8.2209  -999.2500  -999.2500    13.1556     9.0635    11.3268    94.9743     2.4228     0.1264     0.0502
 2093.0000   -29.1937     8.8014  -999.2500  -999.2500    12.6883     9.5534    11.3268    99.4895     2.4306     0.1211     0.0322
 2093.5000   -29.2982     9.3537  -999.2500  -999.2500    13.3260    10.0698    11.3268    99.7407     2.4626     0.1069     0.0140
 2094.0000   -29.4007     9.9407  -999.2500  -999.2500    14.1424    10.6142    11.3268    98.3165     2.4918     0.0862     0.0263
 2094.5000   -29.5053    10.5674  -999.2500  -999.2500    14.4110    11.1879    11.3268    96.8064     2.4829     0.0960     0.0448
 2095.0000   -29.6090    11.2295  -999.2500  -999.2500    14.3983    11.7927    11.3268    96.4732     2.4717     0.1095     0.0515
 2095.5000   -29.7140    11.8045  -999.2500  -999.2500    14.4028    12.4302    11.3268    97.4669     2.4572     0.1130     0.0439
 2096.0000   -29.8159    11.8038  -999.2500  -999.2500    14.5157    12.9198    11.3268    98.5302     2.4489     0.1147     0.0309
 2096.5000   -29.9209    11.8034  -999.2500  -999.2500    14.9573    12.8782    11.3268   100.7788     2.4475     0.1161     0.0186
 2097.0000   -30.0036    11.8029  -999.2500  -999.2500    15.4800    12.8302    11.3268   105.5612     2.4616     0.1133     0.0110
 2097.5000   -30.1717    11.8025  -999.2500  -999.2500    14.3964    12.7823    11.3268   109.8331     2.4791     0.1028     0.0195
 2098.0000   -30.3409    11.8019  -999.2500  -999.2500    14.5329    12.7346    11.3268   111.9491     2.4647     0.1090     0.0376
 2098.5000   -30.5142    11.8029  -999.2500  -999.2500    15.0999    12.6883    11.3268   113.9567     2.4491     0.1185     0.0455
 2099.0000   -30.6855    11.8029  -999.2500  -999.2500    16.0508    12.6883    11.3268   116.0115     2.4340     0.1279     0.0424
 2099.5000   -30.8575    11.9123  -999.2500  -999.2500    15.5841    12.9198    11.3268   116.9371     2.4203     0.1335     0.0363
 2100.0000   -31.0281    12.1824  -999.2500  -999.2500    14.5050    12.9198    11.3268   114.5627     2.4416     0.1218     0.0431
 2100.5000   -31.2036    12.4587  -999.2500  -999.2500    13.8890    13.5619    11.3268   111.3332     2.4633     0.1103     0.0624
 2101.0000   -31.3699    12.7412  -999.2500  -999.2500    14.7715    14.1204    11.3268   108.3885     2.4856     0.0917     0.0800
 2101.5000   -31.5385    13.0301  -999.2500  -999.2500    16.4009    14.7020    11.3268   105.2067     2.5065     0.0984     0.0989
 2102.0000   -31.5489    13.1556  -999.2500  -999.2500    17.8903    15.2033    11.3268   102.1272     2.4795     0.1155     0.1086
 2102.5000   -31.5440    13.1556  -999.2500  -999.2500    17.8903    15.5010    11.3268   100.5798     2.4214     0.1326     0.0910
 2103.0000   -31.5473    13.1556  -999.2500  -999.2500    17.8903    15.1371    11.3268   104.0460     2.4185     0.1398     0.0574
 2103.5000   -31.1260    13.1556  -999.2500  -999.2500    17.4336    14.5050    11.3268   100.8137     2.4196     0.1398     0.0236
