~VERSION INFORMATION
 VERS.                2.0:   CWLS LOG ASCII STANDARD - VERSION 2.0
 WRAP.                 NO:   ONE LINE PER DEPTH STEP
~WELL INFORMATION
#MNEM.UNIT      DATA TYPE    INFORMATION
#----------   ------------   ------------------------------
 STRT.F          520.5000:   START DEPTH
 STOP.F         3119.5000:   STOP DEPTH
 STEP.F            0.5000:   STEP LENGTH
 NULL.          -999.2500:   NO VALUE
 COMP.   FLUOR DANIEL INC:   COMPANY
 WELL. NAVAL PETROLEUM RESERVE 3 X-10 #52-10:   WELL
 FLD .            WILDCAT:   FIELD
 LOC .      S10 T38N R78W:   LOCATION
 CNTY.            NATRONA:   COUNTY
 STAT.            WYOMING:   STATE
 CTRY. UNITED STATES OF AMERICA:   COUNTRY
 SRVC.            Unknown:   SERVICE COMPANY
 DATE.        16-AUG-1995:   LOGDATE
 API .       490252275200:   API NUMBER
~CURVE INFORMATION
#MNEM.UNIT       API CODE    CURVE DESCRIPTION
#----------   ------------   ------------------------------
 DEPT.F                  :   
 ROP .MIN/FT 91 810 01 00:   RAT OF DRILLING PENETRATION
 TGAS.UNITS  91 830 01 00:   TOTAL GAS FROM HOTWIRE
~PARAMETER INFORMATION
#MNEM.UNIT          VALUE    DESCRIPTION
#----------   ------------   ------------------------------
 EKB .F              5206:   KELLING BUSHING
 EGL .F              5196:   GROUND LEVEL
 DATE.            8-16-95:   RUN DATE
 DD  .F              3120:   DEPTH DRILLER
 CS  .IN            9.625:   CASING SIZE
 CBD .F               508:   CASING BOTTOM DRILLER
 BS  .IN             8.75:   BIT SIZE
 BSD .F              3120:   BIT SIZE AT DEPTH
 ENGI.               HUSK:   RECORDING ENGINEER
 WITN.              TOWER:   WITNESSED BY
 CLNT.            A2DTECH:   CLIENT CODE
 ORIG.           5" PRINT:   ORIGIN OF DATA
 UWI .       490252275200:   UNIQUE WELL ID
 DICO. A2D Technologies, Inc.:   DIGITIZING COMPANY
~OTHER INFORMATION
~A   DEPT        ROP     TGAS   
# ...
 1006.5000     0.3620    23.7426
 1007.0000     0.3614    23.7405
 1007.5000     0.3607    23.7384
 1008.0000     0.3601    23.7364
 1008.5000     0.3594    23.7343
 1009.0000     0.3588    23.7322
 1009.5000     0.3581    23.7302
 1010.0000     0.3575    23.7281
 1010.5000     0.3568    23.7260
 1011.0000     0.3562    23.7240
 1011.5000     0.3555    23.7219
 1012.0000     0.3547    23.7198
 1012.5000     0.3541    23.7177
 1013.0000     0.3534    23.7157
 1013.5000     0.3528    23.7136
 1014.0000     0.3522    23.7115
 1014.5000     0.3515    23.7095
 1015.0000     0.3616    23.7074
 1015.5000     0.3608    23.7053
 1016.0000     0.3602    23.7033
 1016.5000     0.3595    23.7012
 1017.0000     0.3588    23.6991
 1017.5000     0.3688    23.6971
 1018.0000     0.3680    23.6950
 1018.5000     0.3781    23.6929
 1019.0000     0.3773    23.6908
 1019.5000     0.3874    23.6888
 1020.0000     0.3866    23.6867
 1020.5000     0.3860    23.6846
 1021.0000     0.3853    23.6826
 1021.5000     0.3847    23.6805
 1022.0000     0.3840    23.6784
 1022.5000     0.3833    23.6764
 1023.0000     0.3826    23.6743
 1023.5000     0.3819    23.6722
 1024.0000     0.3920    23.6702
 1024.5000     0.3912    23.6681
 1025.0000     0.3906    23.6660
 1025.5000     0.3899    23.6640
 1026.0000     0.3893    23.6619
 1026.5000     0.3992    23.6598
 1027.0000     0.3986    23.6577
 1027.5000     0.3979    23.6557
 1028.0000     0.4079    23.6536
 1028.5000     0.4071    23.6515
 1029.0000     0.4064    23.6495
 1029.5000     0.4165    23.6474
 1030.0000     0.4157    23.6453
 1030.5000     0.4151    23.6433
 1031.0000     0.4144    23.6412
 1031.5000     0.4138    23.6391
 1032.0000     0.4131    23.6371
 1032.5000     0.4125    23.6350
 1033.0000     0.4118    23.6329
 1033.5000     0.4111    23.6309
 1034.0000     0.4104    23.6288
 1034.5000     0.4097    23.6267
 1035.0000     0.4091    23.6246
 1035.5000     0.4084    23.6226
 1036.0000     0.4078    23.6205
 1036.5000     0.4071    23.6184
 1037.0000     0.4065    23.6164
 1037.5000     0.4058    23.6143
 1038.0000     0.4052    23.6122
 1038.5000     0.4045    23.6102
 1039.0000     0.4039    23.6081
 1039.5000     0.4031    23.6060
 1040.0000     0.3601    23.6040
 1040.5000     0.3597    23.6019
 1041.0000     0.3594    23.5998
 1041.5000     0.3590    23.5977
 1042.0000     0.3586    23.5957
 1042.5000     0.3566    23.5936
 1043.0000     0.3471    23.5915
 1043.5000     0.3467    23.5895
 1044.0000     0.3570    23.5874
 1044.5000     0.3565    23.5853
 1045.0000     0.3562    23.5833
 1045.5000     0.3558    23.5812
 1046.0000     0.3554    23.5791
 1046.5000     0.3550    23.5771
 1047.0000     0.3546    23.5750
 1047.5000     0.3542    23.5729
 1048.0000     0.3537    23.5709
 1048.5000     0.3533    23.5688
 1049.0000     0.3530    23.5667
 1049.5000     0.3526    23.5646
 1050.0000     0.3522    23.5626
 1050.5000     0.3518    23.5605
 1051.0000     0.3514    23.5584
 1051.5000     0.3510    23.5564
 1052.0000     0.3506    23.5543
 1052.5000     0.3502    23.5522
 1053.0000     0.3498    23.5502
 1053.5000     0.3601    23.5481
 1054.0000     0.3596    23.5460
 1054.5000     0.3592    23.5440
 1055.0000     0.3588    23.5419
 1055.5000     0.3584    23.5398
 1056.0000     0.3580    23.5378
 1056.5000     0.3576    23.5357
 1057.0000     0.3572    23.5336
 1057.5000     0.3569    23.5315
 1058.0000     0.3565    23.5295
 1058.5000     0.3560    23.5274
 1059.0000     0.3556    23.5253
 1059.5000     0.3552    23.5233
 1060.0000     0.3548    23.5212
 1060.5000     0.3651    23.5191
 1061.0000     0.3646    23.5171
 1061.5000     0.3749    23.5150
 1062.0000     0.3745    23.5129
 1062.5000     0.3847    23.5109
 1063.0000     0.3843    23.5088
 1063.5000     0.3839    23.5067
 1064.0000     0.3834    23.5047
 1064.5000     0.3830    23.5026
 1065.0000     0.3826    23.5005
 1065.5000     0.3822    23.4984
 1066.0000     0.3819    23.4964
 1066.5000     0.3815    23.4943
 1067.0000     0.3811    23.4922
 1067.5000     0.3807    23.4902
 1068.0000     0.3803    23.4881
 1068.5000     0.3799    23.4860
 1069.0000     0.3794    23.4840
 1069.5000     0.3790    23.4819
 1070.0000     0.3893    23.4798
 1070.5000     0.3889    23.4778
 1071.0000     0.3885    23.4757
 1071.5000     0.3988    23.4736
 1072.0000     0.4089    23.4715
 1072.5000     0.4085    23.4695
 1073.0000     0.4081    23.4674
 1073.5000     0.4183    23.4653
 1074.0000     0.4178    23.4633
 1074.5000     0.4174    23.4612
 1075.0000     0.4170    23.4591
 1075.5000     0.4167    27.6283
 1076.0000     0.4163    33.5289
 1076.5000     0.4266    38.3899
 1077.0000     0.4261    42.5648
 1077.5000     0.4257    44.6843
 1078.0000     0.4253    43.1583
 1078.5000     0.4143    41.0022
 1079.0000     0.4139    39.5736
 1079.5000     0.4135    38.2750
 1080.0000     0.4025    37.6274
 1080.5000     0.4020    37.1988
 1081.0000     0.4122    37.1165
 1081.5000     0.4327    36.6993
 1082.0000     0.4322    36.4933
 1082.5000     0.4316    36.2872
 1083.0000     0.4311    36.2935
 1083.5000     0.4306    36.2997
 1084.0000     0.4301    36.3059
 1084.5000     0.4295    35.8876
 1085.0000     0.4290    35.8938
 1085.5000     0.4284    35.8785
 1086.0000     0.4279    35.8634
 1086.5000     0.4274    35.8484
 1087.0000     0.4269    35.8333
 1087.5000     0.4264    35.8182
 1088.0000     0.4257    35.8031
 1088.5000     0.4253    35.7880
 1089.0000     0.4353    35.7729
 1089.5000     0.4348    35.7579
 1090.0000     0.4343    35.7428
 1090.5000     0.4338    35.7277
 1091.0000     0.4332    35.7126
 1091.5000     0.4327    35.6975
 1092.0000     0.4216    35.6825
 1092.5000     0.4211    35.6674
 1093.0000     0.4205    35.6523
 1093.5000     0.4199    35.6372
 1094.0000     0.4194    35.6221
 1094.5000     0.4189    35.6070
 1095.0000     0.4184    35.5920
 1095.5000     0.4178    35.5769
 1096.0000     0.4174    35.5618
 1096.5000     0.4167    35.5467
 1097.0000     0.4162    35.5316
 1097.5000     0.4157    35.5166
 1098.0000     0.4152    35.5015
 1098.5000     0.4147    35.4864
 1099.0000     0.4036    35.4713
 1099.5000     0.4030    35.4562
 1100.0000     0.3919    36.7220
 1100.5000     0.3914    34.8158
 1101.0000     0.3909    35.2445
 1101.5000     0.3904    35.6732
 1102.0000     0.3897    36.1019
 1102.5000     0.3786    36.1110
 1103.0000     0.3781    36.3225
 1103.5000     0.3776    36.1144
 1104.0000     0.3877    36.1189
 1104.5000     0.3872    36.1231
 1105.0000     0.3866    36.1274
 1105.5000     0.3861    36.1316
 1106.0000     0.3855    36.1723
 1106.5000     0.3850    36.3524
 1107.0000     0.3845    36.4021
 1107.5000     0.3839    36.5710
 1108.0000     0.3834    36.5661
 1108.5000     0.3829    36.5612
 1109.0000     0.3824    36.5563
 1109.5000     0.3819    36.5514
 1110.0000     0.3920    36.5465
 1110.5000     0.3913    36.5415
 1111.0000     0.3908    36.5366
 1111.5000     0.3903    36.5317
 1112.0000     0.3898    36.5268
 1112.5000     0.3893    36.5219
 1113.0000     0.3888    36.5170
 1113.5000     0.3882    36.5121
 1114.0000     0.3877    36.5072
 1114.5000     0.3871    36.5023
 1115.0000     0.3866    36.4974
 1115.5000     0.3861    36.4924
 1116.0000     0.3855    36.4875
 1116.5000     0.3850    36.4826
 1117.0000     0.3845    36.4777
 1117.5000     0.3840    36.4728
 1118.0000     0.3835    36.4679
 1118.5000     0.3829    36.4630
 1119.0000     0.3823    36.4581
 1119.5000     0.3712    36.4532
 1120.0000     0.3496    36.4482
 1120.5000     0.3387    36.4433
 1121.0000     0.3384    36.4384
 1121.5000     0.3276    36.4335
 1122.0000     0.3164    36.4286
 1122.5000     0.3059    36.4237
 1123.0000     0.2950    36.4188
 1123.5000     0.2947    36.4139
 1124.0000     0.2945    36.4090
 1124.5000     0.2942    36.4041
 1125.0000     0.2939    36.3991
 1125.5000     0.2937    36.3942
 1126.0000     0.2934    36.3893
 1126.5000     0.3038    36.3844
 1127.0000     0.3035    36.3795
 1127.5000     0.3032    36.3746
