~VERSION INFORMATION
 VERS.                2.0:   CWLS LOG ASCII STANDARD - VERSION 2.0
 WRAP.                 NO:   ONE LINE PER DEPTH STEP
~WELL INFORMATION
#MNEM.UNIT      DATA TYPE    INFORMATION
#----------   ------------   ------------------------------
 STRT.F          588.0000:   START DEPTH
 STOP.F         1583.5000:   STOP DEPTH
 STEP.F            0.5000:   STEP LENGTH
 NULL.          -999.2500:   NO VALUE
 COMP.   FENIX & SCISSONS:   COMPANY
 WELL.   NPR 3 #23STX1-11:   WELL
 FLD .             TEAPOT:   FIELD
 LOC .      S11 T38N R78W:   LOCATION
 CNTY.            NATRONA:   COUNTY
 STAT.            WYOMING:   STATE
 CTRY. UNITED STATES OF AMERICA:   COUNTRY
 SRVC.            Unknown:   SERVICE COMPANY
 DATE.        15-JUN-1979:   LOGDATE
 API .       490251078300:   API NUMBER
~CURVE INFORMATION
#MNEM.UNIT       API CODE    CURVE DESCRIPTION
#----------   ------------   ------------------------------
 DEPT.F                  :   
 RHOB.G/C3   45 350 01 00:   BULK DENSITY
 DPHI.DEC    45 890 10 00:   DENSITY POROSITY LIMESTONE
 CORR.G/C3   45 356 01 00:   DENSITY CORRECTION
 GRD .GAPI   45 310 01 00:   GAMMA RAY FROM DENSITY LOG
 CALD.IN     45 280 60 00:   CALIPER FROM DENSITY LOG
~PARAMETER INFORMATION
#MNEM.UNIT          VALUE    DESCRIPTION
#----------   ------------   ------------------------------
 PD  .                 GL:   PERMANENT DATUM
 EPD .F              5168:   ELEVATION PERMANENT DATUM
 LMF .                 KB:   LOG MEASURED FROM
 DAPD.F                10:   FEET ABOVE PERMANENT DATUM
 DMF .                 KB:   DRILLING MEASURED FROM
 EKB .F              5178:   KELLING BUSHING
 EGL .F              5168:   GROUND LEVEL
 DATE.            6-15-79:   RUN DATE
 RUN .                  1:   RUN NUMBER
 DD  .F              1580:   DEPTH DRILLER
 DL  .F              1580:   DEPTH LOGGER
 BLI .F              1578:   BOTTOM LOG INTERVAL
 TLI .F               680:   TOP LOG INTERVAL
 CS  .IN            9.625:   CASING SIZE
 CBD .F               660:   CASING BOTTOM DRILLER
 CBL .F               670:   CASING BOTTOM LOGGER
 BS  .IN             8.75:   BIT SIZE
 BSD .F              1580:   BIT SIZE AT DEPTH
 DFT .                OIL:   DRILLING FLUID TYPE
 TCS .HRS               4:   TIME CURCULATED STOPPED
 MRT .F                80:   MAXIMUM RECORDED TEMPERATURE
 LUN .               3029:   LOGGING UNIT NUMBER
 LUL .             CASPER:   LOGGING UNIT LOCATION
 ENGI.            MULLINS:   RECORDING ENGINEER
 CLNT.            A2DTECH:   CLIENT CODE
 ORIG.     1", 2.5" PRINT:   ORIGIN OF DATA
 UWI .       490251078300:   UNIQUE WELL ID
 DICO. A2D Technologies, Inc.:   DIGITIZING COMPANY
~OTHER INFORMATION
~A   DEPT     RHOB       DPHI       CORR         GRD      CALD   
# ...
 1076.0000     2.4964     0.0354     0.0040    91.4046     9.3943
 1076.5000     2.4920     0.0386     0.0041    90.4974     9.3943
 1077.0000     2.4879     0.0420     0.0040    90.1890     9.3943
 1077.5000     2.4854     0.0413     0.0038    91.1619     9.3943
 1078.0000     2.4915     0.0362     0.0079    90.9721     9.3943
 1078.5000     2.5070     0.0306     0.0199    88.6524     9.3943
 1079.0000     2.5246     0.0186     0.0320    87.2771     9.3943
 1079.5000     2.5344     0.0144     0.0363    87.4329     9.3943
 1080.0000     2.5323     0.0138     0.0349    88.5682     9.3943
 1080.5000     2.5242     0.0221     0.0340    89.9010     9.3943
 1081.0000     2.5181     0.0232     0.0331    91.6534     9.3943
 1081.5000     2.5175     0.0248     0.0312    94.9074     9.3943
 1082.0000     2.5090     0.0267     0.0273    90.8340     9.3943
 1082.5000     2.5052     0.0286     0.0234    86.1801     9.3943
 1083.0000     2.5071     0.0304     0.0202    82.1700     9.3944
 1083.5000     2.5087     0.0308     0.0182    82.3958     9.3943
 1084.0000     2.5074     0.0283     0.0165    83.8877     9.3942
 1084.5000     2.5041     0.0324     0.0147    85.4208     9.3947
 1085.0000     2.5036     0.0300     0.0131    85.6901     9.3905
 1085.5000     2.5045     0.0324     0.0108    85.1879     9.3835
 1086.0000     2.4969     0.0381     0.0079    85.9211     9.3769
 1086.5000     2.4912     0.0384     0.0051    87.2914     9.3706
 1087.0000     2.4926     0.0387     0.0022    88.5359     9.3640
 1087.5000     2.4903     0.0405     0.0000    89.3409     9.3571
 1088.0000     2.4853     0.0413     0.0000    86.9202     9.3533
 1088.5000     2.4925     0.0392     0.0000    86.1469     9.3537
 1089.0000     2.4922     0.0371    -0.0003    88.2746     9.3537
 1089.5000     2.4977     0.0348     0.0031    90.6153     9.3536
 1090.0000     2.4999     0.0332     0.0080    91.2243     9.3536
 1090.5000     2.4972     0.0361     0.0081    91.5385     9.3535
 1091.0000     2.4958     0.0355     0.0080    90.4432     9.3536
 1091.5000     2.5068     0.0312     0.0108    89.0694     9.3536
 1092.0000     2.5159     0.0251     0.0154    87.7452     9.3533
 1092.5000     2.5262     0.0168     0.0120    86.3176     9.3538
 1093.0000     2.5295     0.0167     0.0083    86.0277     9.3543
 1093.5000     2.5224     0.0186     0.0102    86.3164     9.3800
 1094.0000     2.5180     0.0295     0.0155    86.4843     9.4105
 1094.5000     2.4957     0.0406     0.0082    88.0173     9.4415
 1095.0000     2.4732     0.0510    -0.0003    89.8728     9.4719
 1095.5000     2.4714     0.0494    -0.0043    90.4920     9.5026
 1096.0000     2.4786     0.0449     0.0067    90.8196     9.5334
 1096.5000     2.4849     0.0405     0.0230    93.0678     9.5616
 1097.0000     2.4925     0.0359     0.0378    92.5128     9.5825
 1097.5000     2.5185     0.0225     0.0631    91.5927     9.6024
 1098.0000     2.5394     0.0129     0.0880    92.5425     9.6198
 1098.5000     2.5259     0.0185     0.0764    92.5318     9.6371
 1099.0000     2.5136     0.0297     0.0506    91.4486     9.6543
 1099.5000     2.4991     0.0355     0.0323    90.4170     9.6722
 1100.0000     2.4922     0.0413     0.0257    89.1453     9.6795
 1100.5000     2.4856     0.0397     0.0176    87.6209     9.6789
 1101.0000     2.4929     0.0358     0.0085    85.9235     9.6789
 1101.5000     2.5003     0.0320     0.0028    85.5463     9.6790
 1102.0000     2.5084     0.0282    -0.0064    86.3592     9.6789
 1102.5000     2.5150     0.0246    -0.0153    87.0081     9.6789
 1103.0000     2.5186     0.0227    -0.0067    86.6387     9.6789
 1103.5000     2.5090     0.0289     0.0016    84.9748     9.6789
 1104.0000     2.4984     0.0357     0.0017    84.2924     9.6789
 1104.5000     2.4873     0.0413    -0.0021    85.1490     9.6789
 1105.0000     2.4839     0.0437    -0.0043    85.6996     9.6789
 1105.5000     2.4819     0.0451    -0.0031    89.5624     9.6789
 1106.0000     2.4784     0.0465    -0.0023    92.5677     9.6789
 1106.5000     2.4766     0.0454    -0.0015    91.2518     9.6789
 1107.0000     2.4845     0.0421    -0.0006    90.3913     9.6789
 1107.5000     2.4871     0.0421     0.0008    91.0032     9.6789
 1108.0000     2.4867     0.0421     0.0036    91.7358     9.6789
 1108.5000     2.4947     0.0355     0.0064    93.4002     9.6789
 1109.0000     2.5068     0.0296     0.0091    95.6180     9.6789
 1109.5000     2.5137     0.0259     0.0118    93.9189     9.6789
 1110.0000     2.5094     0.0279     0.0149    91.4305     9.6789
 1110.5000     2.5059     0.0300     0.0139    92.7132     9.6789
 1111.0000     2.5027     0.0321     0.0070    93.7401     9.6789
 1111.5000     2.4987     0.0340     0.0005    92.2089     9.6789
 1112.0000     2.5097     0.0280    -0.0046    91.0000     9.6789
 1112.5000     2.5252     0.0169    -0.0074    93.3929     9.6789
 1113.0000     2.5255     0.0186    -0.0053    98.6241     9.6789
 1113.5000     2.5185     0.0221    -0.0004    97.6643     9.6789
 1114.0000     2.5168     0.0265     0.0051    94.6756     9.6789
 1114.5000     2.5060     0.0316     0.0060    91.3092     9.6789
 1115.0000     2.4988     0.0324     0.0077    89.5633     9.6789
 1115.5000     2.4989     0.0332     0.0093    87.6514     9.6789
 1116.0000     2.4988     0.0323     0.0108    88.6144     9.6789
 1116.5000     2.5018     0.0302     0.0124    91.0199     9.6789
 1117.0000     2.5076     0.0282     0.0137    94.5713     9.6789
 1117.5000     2.5087     0.0270     0.0157    95.1313     9.6789
 1118.0000     2.5073     0.0281     0.0171    94.0229     9.6789
 1118.5000     2.5107     0.0270     0.0278    92.2830     9.6789
 1119.0000     2.5164     0.0235     0.0380    90.6216     9.6789
 1119.5000     2.5183     0.0219     0.0386    89.2550     9.6789
 1120.0000     2.5132     0.0254     0.0353    90.4460     9.6789
 1120.5000     2.5085     0.0291     0.0185    90.3307     9.6789
 1121.0000     2.5016     0.0332     0.0079    88.0268     9.6789
 1121.5000     2.5062     0.0309     0.0053    89.7766     9.6788
 1122.0000     2.5120     0.0252     0.0028    88.9603     9.6789
 1122.5000     2.5171     0.0246     0.0008    88.0988     9.6789
 1123.0000     2.5116     0.0264     0.0018    90.5219     9.6813
 1123.5000     2.5032     0.0332     0.0033    90.1601     9.6840
 1124.0000     2.5013     0.0316     0.0113    88.3890     9.6868
 1124.5000     2.5096     0.0269     0.0320    87.8378     9.6895
 1125.0000     2.5231     0.0223     0.0510    90.5460     9.6922
 1125.5000     2.5215     0.0210     0.0482    94.1720     9.6950
 1126.0000     2.5045     0.0316     0.0178    94.5061     9.6977
 1126.5000     2.4942     0.0373    -0.0013    92.4737     9.7004
 1127.0000     2.4982     0.0332    -0.0075    91.2974     9.7032
 1127.5000     2.5166     0.0245    -0.0011    93.9953     9.7059
 1128.0000     2.5329     0.0113     0.0036    97.0975     9.7087
 1128.5000     2.5329     0.0141     0.0019    98.5778     9.7114
 1129.0000     2.5254     0.0224    -0.0010    98.7782     9.7142
 1129.5000     2.5176     0.0219    -0.0039    98.4768     9.7169
 1130.0000     2.5228     0.0194    -0.0026    96.9553     9.7194
 1130.5000     2.5176     0.0244    -0.0012    94.9780     9.7195
 1131.0000     2.5100     0.0283     0.0004    93.5962     9.7196
 1131.5000     2.5126     0.0264     0.0019    92.9519     9.7195
 1132.0000     2.5168     0.0241     0.0032    92.1997     9.7197
 1132.5000     2.5202     0.0218     0.0058    92.5948     9.7194
 1133.0000     2.5242     0.0202     0.0092    93.5779     9.7187
 1133.5000     2.5199     0.0235     0.0118    94.5059     9.7076
 1134.0000     2.5075     0.0300     0.0077    96.6715     9.6981
 1134.5000     2.5040     0.0317     0.0041    99.0870     9.6880
 1135.0000     2.5008     0.0334     0.0005    98.9524     9.6781
 1135.5000     2.4973     0.0345    -0.0038    97.4237     9.6682
 1136.0000     2.4987     0.0333    -0.0040    91.5630     9.6582
 1136.5000     2.5009     0.0324    -0.0040    90.5429     9.6484
