~VERSION INFORMATION
 VERS.                2.0:   CWLS LOG ASCII STANDARD - VERSION 2.0
 WRAP.                 NO:   ONE LINE PER DEPTH STEP
~WELL INFORMATION
#MNEM.UNIT      DATA TYPE    INFORMATION
#----------   ------------   ------------------------------
 STRT.F            0.0000:   START DEPTH
 STOP.F          618.0000:   STOP DEPTH
 STEP.F            0.5000:   STEP LENGTH
 NULL.          -999.2500:   NO VALUE
 COMP.   FLUOR DANIEL INC:   COMPANY
 WELL. NAVAL PETROLEUM RESERVE 3 SX-3 #2-33:   WELL
 FLD .             TEAPOT:   FIELD
 LOC .      S33 T39N R78W:   LOCATION
 CNTY.            NATRONA:   COUNTY
 STAT.            WYOMING:   STATE
 CTRY. UNITED STATES OF AMERICA:   COUNTRY
 SRVC.      Western Atlas:   SERVICE COMPANY
 DATE.        07-JAN-1995:   LOGDATE
 API .       490252267200:   API NUMBER
~CURVE INFORMATION
#MNEM.UNIT       API CODE    CURVE DESCRIPTION
#----------   ------------   ------------------------------
 DEPT.F                  :   
 GRR .GAPI   07 310 01 00:   GAMMA RAY FROM RES. LOG.
 RILD.OHMM   07 120 46 00:   INDUCTION LOG DEEP RESISTIVITY
 RILM.OHMM   07 120 44 00:   INDUCTION LOG MEDIUM RESISTIVITY
~PARAMETER INFORMATION
#MNEM.UNIT          VALUE    DESCRIPTION
#----------   ------------   ------------------------------
 PD  .                 GL:   PERMANENT DATUM
 EPD .F              5158:   ELEVATION PERMANENT DATUM
 LMF .                 KB:   LOG MEASURED FROM
 DAPD.F                10:   FEET ABOVE PERMANENT DATUM
 DMF .                 KB:   DRILLING MEASURED FROM
 EKB .F              5168:   KELLING BUSHING
 EDF .F              5167:   DRILLING FLOOR
 EGL .F              5158:   GROUND LEVEL
 DATE.         7-JAN-1995:   RUN DATE
 RUN .                  1:   RUN NUMBER
 DD  .F               625:   DEPTH DRILLER
 DL  .F               626:   DEPTH LOGGER
 BLI .F               618:   BOTTOM LOG INTERVAL
 CS  .IN            9.625:   CASING SIZE
 CBD .F                53:   CASING BOTTOM DRILLER
 CBL .F                54:   CASING BOTTOM LOGGER
 BS  .IN             8.75:   BIT SIZE
 BSD .F               625:   BIT SIZE AT DEPTH
 DFT .                AIR:   DRILLING FLUID TYPE
 MRT .F                89:   MAXIMUM RECORDED TEMPERATURE
 LUN .            HL 6530:   LOGGING UNIT NUMBER
 LUL .             CASPER:   LOGGING UNIT LOCATION
 ENGI.        VERN RAUTIO:   RECORDING ENGINEER
 WITN.        GARY STRONG:   WITNESSED BY
 CLNT.            A2DTECH:   CLIENT CODE
 ORIG.           5" PRINT:   ORIGIN OF DATA
 UWI .       490252267200:   UNIQUE WELL ID
 DICO. A2D Technologies, Inc.:   DIGITIZING COMPANY
~OTHER INFORMATION
~A    DEPT      GRR      RILD       RILM   
# ...
  182.0000   124.2544     8.6346     8.7150
  182.5000   124.9587     8.6106     8.6908
  183.0000   127.9369     8.5867     8.6666
  183.5000   130.8665     8.5628     8.6425
  184.0000   133.8127     8.5390     8.6185
  184.5000   133.7378     8.5152     8.5945
  185.0000   132.1584     8.4915     8.5706
  185.5000   130.5349     8.4679     8.5467
  186.0000   132.3107     8.4444     8.5230
  186.5000   134.7861     8.4211     8.4995
  187.0000   137.2796     8.3920     8.4700
  187.5000   136.7412     8.3583     8.4361
  188.0000   135.7668     8.3247     8.4022
  188.5000   135.5428     8.2912     8.3684
  189.0000   135.5391     8.2579     8.3347
  189.5000   135.5418     8.2247     8.3012
  190.0000   135.5422     8.1916     8.2678
  190.5000   135.5424     8.1586     8.2346
  191.0000   135.5474     8.1258     8.2015
  191.5000   135.5824     8.1036     8.1790
  192.0000   134.2555     8.2204     8.2969
  192.5000   132.7719     8.3101     8.3874
  193.0000   131.5767     8.4007     8.4789
  193.5000   131.4728     8.4924     8.5714
  194.0000   129.8703     8.5850     8.6649
  194.5000   128.1490     8.6787     8.7595
  195.0000   129.0288     8.7734     8.8550
  195.5000   130.2011     8.8691     8.9516
  196.0000   130.8141     8.9731     9.0566
  196.5000   131.4191     8.9731     9.0572
  197.0000   131.7970     8.9702     9.0539
  197.5000   130.7381     8.9525     9.0358
  198.0000   130.9992     8.9348     9.0181
  198.5000   132.0821     8.9169     9.0003
  199.0000   131.8290     8.8995     8.9836
  199.5000   129.7886     8.8296     8.9110
  200.0000   128.5407     8.7011     8.7825
  200.5000   127.4489     8.5744     8.6544
  201.0000   126.9943     8.4497     8.5283
  201.5000   127.9114     8.3267     8.4042
  202.0000   129.9715     8.2055     8.2819
  202.5000   134.4285     8.0861     8.1614
  203.0000   138.7889     7.9684     8.0426
  203.5000   140.6814     7.8525     7.9256
  204.0000   138.3185     7.7382     7.8102
  204.5000   132.9463     7.6256     7.6966
  205.0000   129.1800     7.5946     7.6653
  205.5000   126.7671     7.6131     7.6839
  206.0000   126.7449     7.7292     7.8010
  206.5000   128.7236     7.8471     7.9201
  207.0000   130.7970     7.9668     8.0410
  207.5000   132.6356     8.0884     8.1637
  208.0000   133.3747     8.2118     8.2882
  208.5000   132.5683     8.3371     8.4147
  209.0000   129.9723     8.4643     8.5431
  209.5000   126.6806     8.5934     8.6734
  210.0000   123.3158     8.8083     8.8083
  210.5000   123.0612     8.8111     8.8903
  211.0000   125.1811     8.8076     8.8896
  211.5000   125.0279     8.8087     8.8907
  212.0000   124.4799     8.7926     8.8747
  212.5000   125.1795     8.7596     8.8410
  213.0000   128.7820     8.7263     8.8075
  213.5000   131.0489     8.6932     8.7742
  214.0000   130.6652     8.6603     8.7409
  214.5000   130.3056     8.6275     8.7078
  215.0000   129.0096     8.5948     8.6748
  215.5000   126.7442     8.5623     8.6420
  216.0000   124.8427     8.5298     8.6092
  216.5000   127.5071     8.4975     8.5766
  217.0000   130.2030     8.4878     8.5650
  217.5000   132.8742     8.4878     8.5630
  218.0000   135.5506     8.6192     8.6995
  218.5000   138.3054     8.7073     8.7891
  219.0000   136.8822     8.8523     8.9347
  219.5000   132.5652     9.0126     9.0966
  220.0000   130.6012     9.1761     9.2615
  220.5000   130.2099     9.3424     9.4294
  221.0000   127.8320     9.5118     9.6003
  221.5000   125.8496     9.6842     9.7743
  222.0000   126.6459     9.8597     9.9515
  222.5000   127.9281    10.0384    10.1319
  223.0000   127.3125    10.2204    10.3155
  223.5000   125.7451    10.4056    10.5025
  224.0000   125.3781    10.5942    10.6928
  224.5000   125.2068    10.7863    10.8867
  225.0000   124.3543    10.9817    11.0840
  225.5000   121.2448    11.1808    11.2849
  226.0000   118.2612    11.3835    11.4894
  226.5000   115.2867    11.5898    11.6977
  227.0000   112.6130    11.7999    11.9097
  227.5000   112.0745    12.0138    12.1256
  228.0000   111.8067    12.2315    12.3454
  228.5000   114.0869    12.4532    12.5691
  229.0000   116.7375    12.5439    12.6602
  229.5000   119.1517    12.5695    12.6866
  230.0000   119.1323    12.5955    12.7128
  230.5000   116.8680    12.6213    12.7387
  231.0000   115.3788    12.6426    12.7618
  231.5000   114.2151    12.5298    12.6053
  232.0000   113.0431    12.3893    12.4133
  232.5000   113.1923    12.2500    12.2235
  233.0000   114.0157    12.1123    12.0369
  233.5000   113.9570    11.9763    11.8531
  234.0000   113.3594    11.8418    11.6721
  234.5000   112.6753    11.7088    11.4174
  235.0000   112.8194    11.5237    11.4454
  235.5000   113.9190    11.5683    11.4949
  236.0000   115.0084    11.6442    11.5445
  236.5000   116.1081    11.7207    11.5944
  237.0000   117.1636    11.7976    11.6445
  237.5000   114.9915    11.8751    11.6949
  238.0000   112.5948    11.9589    11.7393
  238.5000   110.2053    11.8401    11.6184
  239.0000   108.2095    11.7131    11.5115
  239.5000   108.5061    11.5875    11.4057
  240.0000   109.6098    11.4632    11.3008
  240.5000   112.0331    11.3403    11.1969
  241.0000   114.2051    11.2187    11.0940
  241.5000   113.7250    11.0984    10.9920
  242.0000   114.7681    10.9786    10.8909
  242.5000   117.3309    10.8708    10.7908
  243.0000   119.2136    10.7788    10.6916
  243.5000   116.9718    10.6882    10.5933
  244.0000   114.7895    10.5985    10.4959
  244.5000   112.5881    10.5095    10.3994
  245.0000   112.3276    10.4212    10.3038
  245.5000   114.1632    10.3337    10.2091
  246.0000   117.4722    10.2469    10.1152
  246.5000   119.9169    10.1608    10.0222
  247.0000   118.8541    10.0427     9.9301
  247.5000   118.2635     9.8987     9.8388
  248.0000   117.3041     9.7568     9.7483
  248.5000   114.1711     9.6170     9.6588
  249.0000   111.5253     9.4861     9.5739
  249.5000   112.9144     9.4135     9.5012
  250.0000   113.8302     9.3119     9.3986
  250.5000   114.4047     9.3457     9.4262
  251.0000   114.6538     9.4119     9.4801
  251.5000   114.6682     9.4785     9.5346
  252.0000   113.6419     9.5456     9.5895
  252.5000   111.9750     9.6132     9.6442
  253.0000   111.2637     9.6635     9.6635
  253.5000   112.3102     9.4577     9.4951
  254.0000   114.7066     9.2976     9.3399
  254.5000   117.6219     9.1402     9.1872
  255.0000   120.5066     8.9855     9.0369
  255.5000   121.9147     8.8334     8.8892
  256.0000   120.0652     8.6838     8.7438
  256.5000   117.7970     8.5368     8.6009
  257.0000   116.4957     8.3923     8.4601
  257.5000   116.8128     8.2502     8.3211
  258.0000   117.3985     8.1036     8.1785
  258.5000   115.2190     8.1036     8.1759
  259.0000   111.8801     8.0288     8.0996
  259.5000   111.7409     8.0288     8.1004
  260.0000   113.4393     8.0802     8.1554
  260.5000   115.1840     8.1166     8.1922
  261.0000   117.0103     8.1532     8.2290
  261.5000   119.9795     8.1899     8.2661
  262.0000   123.1634     8.2268     8.3033
  262.5000   126.2025     8.2638     8.3407
  263.0000   125.7168     8.3010     8.3783
  263.5000   122.2989     8.3384     8.4160
  264.0000   120.8192     8.3759     8.4539
  264.5000   122.0027     8.4217     8.5001
  265.0000   125.1962     8.5338     8.6133
  265.5000   126.6871     8.6475     8.7280
  266.0000   126.2242     8.7626     8.8442
  266.5000   124.7204     8.8794     8.9620
  267.0000   123.1926     8.9979     9.0814
  267.5000   122.4369     9.1170     9.2023
  268.0000   122.0461     9.2254     9.3119
  268.5000   121.6609     9.1261     9.2111
  269.0000   120.7601     9.0367     9.1207
  269.5000   119.4673     8.9480     9.0313
  270.0000   119.4110     8.8601     8.9427
  270.5000   121.3298     8.7728     8.8551
  271.0000   124.3661     8.7271     8.8083
  271.5000   128.8851     8.7722     8.8539
  272.0000   128.0481     8.8032     8.8852
  272.5000   121.9653     8.8344     8.9167
