~VERSION INFORMATION
 VERS.                2.0:   CWLS LOG ASCII STANDARD - VERSION 2.0
 WRAP.                 NO:   ONE LINE PER DEPTH STEP
~WELL INFORMATION
#MNEM.UNIT      DATA TYPE    INFORMATION
#----------   ------------   ------------------------------
 STRT.F           24.0000:   START DEPTH
 STOP.F          570.0000:   STOP DEPTH
 STEP.F            0.5000:   STEP LENGTH
 NULL.          -999.2500:   NO VALUE
 COMP. FENIX & SCISSON INC:   COMPANY
 WELL.   NPR-3 #32SX10-10:   WELL
 FLD .  TEAPOT COME NPR-3:   FIELD
 LOC .      S10 T38N R78W:   LOCATION
 CNTY.            NATRONA:   COUNTY
 STAT.            WYOMING:   STATE
 CTRY. UNITED STATES OF AMERICA:   COUNTRY
 SRVC.            Unknown:   SERVICE COMPANY
 DATE.        27-JUN-1978:   LOGDATE
 API .       490251065300:   API NUMBER
~CURVE INFORMATION
#MNEM.UNIT       API CODE    CURVE DESCRIPTION
#----------   ------------   ------------------------------
 DEPT.F                  :   
 CALD.IN     45 280 60 00:   CALIPER FROM DENSITY LOG
 GRD .GAPI   45 310 01 00:   GAMMA RAY FROM DENSITY LOG
 CORR.G/C3   45 356 01 00:   DENSITY CORRECTION
 DPHI.DEC    45 890 12 00:   DENSITY POROSITY SANDSTONE
 RHOB.G/C3   45 350 01 00:   BULK DENSITY
 SPR .MV     05 010 01 00:   SPONTANEOUS POTENTIAL FROM RES.
 SN  .OHMM   05 040 16 00:   SHORT NORMAL 16"
 ILD .OHMM   05 120 46 00:   INDUCTION LOG DEEP
~PARAMETER INFORMATION
#MNEM.UNIT          VALUE    DESCRIPTION
#----------   ------------   ------------------------------
 PD  .                 GL:   PERMANENT DATUM
 EPD .F              5239:   ELEVATION PERMANENT DATUM
 LMF .                 GL:   LOG MEASURED FROM
 DAPD.F                 4:   FEET ABOVE PERMANENT DATUM
 DMF .                 GL:   DRILLING MEASURED FROM
 EKB .F              5243:   KELLING BUSHING
 EGL .F              5239:   GROUND LEVEL
 DATE.        27-JUN-1978:   RUN DATE
 RUN .                  1:   RUN NUMBER
 DD  .F               565:   DEPTH DRILLER
 DL  .F               574:   DEPTH LOGGER
 BLI .F               572:   BOTTOM LOG INTERVAL
 TLI .F                30:   TOP LOG INTERVAL
 CS  .IN            8.625:   CASING SIZE
 CBD .F                40:   CASING BOTTOM DRILLER
 CBL .F                40:   CASING BOTTOM LOGGER
 BS  .IN            7.875:   BIT SIZE
 BSD .F               565:   BIT SIZE AT DEPTH
 DFT .                KCL:   DRILLING FLUID TYPE
 DFD .                8.7:   DRILLING FLUID DENSITY
 DFV .                 35:   DRILLING FLUID VISCOSITY
 DFPH.                 10:   DRILLING FLUID PH
 DFL .                 14:   DRILLING FLUID LOSS
 MSS .           FLOWLINE:   MUD SAMPLE SOURCE
 RMS .OHMM            .36:   RESISTIVITY MUD SAMPLE
 MST .F                78:   MUD SAMPLE TEMPERATURE
 RMF .OHMM             .3:   RESISTIVITY MUD FILTRATE SAMPLE
 MFST.F                86:   MUD FILTRATE SAMPLE TEMPERATURE
 RMC .OHMM            .36:   RESISTIVITY MUD CAKE
 MCST.F                87:   MUD CAKE SAMPLE TEMPERATURE
 MFSS.               MEAS:   MUD FILTRATE SAMPLE SOURCE
 MCSS.               MEAS:   MUD CAKE SAMPLE SOURCE
 RMB .OHMM            3.9:   RESISTIVITY MUD AT BHT
 BHT .F                72:   BOTTOM HOLE TEMPERATURE
 TCS .HRS            0300:   TIME CURCULATED STOPPED
 MRT .F                72:   MAXIMUM RECORDED TEMPERATURE
 LUN .               2938:   LOGGING UNIT NUMBER
 LUL .               CASP:   LOGGING UNIT LOCATION
 ENGI.            POINTER:   RECORDING ENGINEER
 WITN.         ZARGARNIAN:   WITNESSED BY
 CLNT.            A2DTECH:   CLIENT CODE
 ORIG.     2.5", 5" PRINT:   ORIGIN OF DATA
 UWI .       490251065300:   UNIQUE WELL ID
 DICO. A2D Technologies, Inc.:   DIGITIZING COMPANY
~OTHER INFORMATION
~A   DEPT     CALD         GRD      CORR       DPHI       RHOB        SPR         SN        ILD   
# ...
  267.0000     7.4599   143.3334     0.0002     0.1939     2.3636   -27.2656     7.5018     8.1874
  267.5000     7.4329   140.3909     0.0020     0.2029     2.3517   -27.2686     7.4011     7.9687
  268.0000     7.4352   134.7680     0.0067     0.2172     2.3189   -27.2717     7.3537     7.7558
  268.5000     7.4224   123.2015     0.0130     0.2301     2.3010   -27.3836     7.3537     7.6527
  269.0000     7.4251   121.5904     0.0222     0.2417     2.2897   -27.5761     7.2536     7.4483
  269.5000     7.4273   121.7624     0.0360     0.2432     2.2838   -27.5791     7.1082     7.2839
  270.0000     7.4295   122.0830     0.0497     0.2386     2.2886   -27.8806     7.0127     7.1529
  270.5000     7.4317   119.4318     0.0530     0.2245     2.3089   -27.9667     6.9184     6.9618
  271.0000     7.4488   117.5235     0.0465     0.1947     2.3419   -28.2617     6.7326     6.8693
  271.5000     7.4660   116.5068     0.0236     0.1549     2.3765   -28.5567     6.5900     6.6857
  272.0000     7.4831   120.8393     0.0134     0.1380     2.4380   -28.8517     6.4637     6.4838
  272.5000     7.5002   128.2921     0.0121     0.1326     2.4643   -29.3881     6.2902     6.1513
  273.0000     7.5173   137.2328     0.0079     0.1269     2.4719   -29.6896     6.0379     5.8973
  273.5000     7.5342   139.9308     0.0052     0.1277     2.4735   -29.7368     5.8461     5.6433
  274.0000     7.5515   140.8457     0.0055     0.1286     2.4706   -30.2925     5.5362     5.5133
  274.5000     7.5690   142.2064     0.0102     0.1252     2.4714   -30.3268     5.1474     5.2224
  275.0000     7.5782   144.4586     0.0135     0.1216     2.4738   -30.5970     4.7436     4.9467
  275.5000     7.5879   145.8193     0.0152     0.1200     2.4776   -30.8985     4.2534     4.5859
  276.0000     7.5902   146.5857     0.0170     0.1197     2.4822   -30.9015     3.8663     4.0187
  276.5000     7.5923   144.6520     0.0188     0.1197     2.4823   -30.9044     3.5492     3.7111
  277.0000     7.5796   140.9881     0.0205     0.1196     2.4824   -30.9075     3.2388     3.4303
  277.5000     7.5669   140.1188     0.0224     0.1202     2.4818   -31.2090     3.0260     3.2008
  278.0000     7.5697   139.9941     0.0226     0.1243     2.4774   -31.2120     2.8366     3.0346
  278.5000     7.5564   140.3153     0.0244     0.1291     2.4737   -31.2150     2.6863     2.9962
  279.0000     7.5592   142.5724     0.0246     0.1344     2.4678   -30.9195     2.6307     3.0405
  279.5000     7.5459   145.2868     0.0249     0.1380     2.4552   -30.9226     2.7657     3.2103
  280.0000     7.5332   146.0327     0.0252     0.1398     2.4501   -30.0301     3.0011     3.4363
  280.5000     7.5360   146.0612     0.0239     0.1377     2.4494   -29.4361     3.3374     3.8342
  281.0000     7.5382   148.9078     0.0212     0.1304     2.4630   -28.8421     3.8991     4.2781
  281.5000     7.5404   150.4170     0.0185     0.1291     2.4683   -28.5463     4.2886     4.7734
  282.0000     7.5277   145.9828     0.0172     0.1279     2.4707   -28.2511     4.7819     5.2537
  282.5000     7.5299   136.4965     0.0145     0.1255     2.4707   -27.9556     5.2299     5.9428
  283.0000     7.5321   133.8454     0.0131     0.1197     2.4779   -27.9586     5.5236     6.2776
  283.5000     7.5343   133.5657     0.0106     0.1152     2.4897   -28.2601     5.7545     6.5411
  284.0000     7.5216   134.1893     0.0093     0.1121     2.4928   -28.2631     5.9133     6.6317
  284.5000     7.5239   135.2529     0.0096     0.1109     2.4981   -28.2662     6.0698     6.6322
  285.0000     7.5265   135.4249     0.0099     0.1103     2.4982   -28.2692     6.1535     6.5425
  285.5000     7.5287   137.3799     0.0102     0.1096     2.4983   -28.2722     6.1490     6.3663
  286.0000     7.5309   139.1864     0.0104     0.1090     2.4992   -28.5737     6.0665     6.2802
  286.5000     7.5331   140.1013     0.0107     0.1080     2.4993   -28.5761     5.9850     6.1952
  287.0000     7.5353   141.7826     0.0110     0.1077     2.4993   -28.5791     5.9046     6.0284
  287.5000     7.5375   143.8882     0.0113     0.1107     2.5002   -28.5821     5.7460     5.8660
  288.0000     7.5546   144.3546     0.0115     0.1184     2.4935   -28.7403     5.5906     5.7867
  288.5000     7.5717   144.6584     0.0103     0.1213     2.4817   -28.8865     5.5145     5.6308
  289.0000     7.5739   144.8304     0.0105     0.1216     2.4803   -29.0319     5.4394     5.5546
  289.5000     7.5911   137.2758     0.0109     0.1213     2.4804   -29.0552     5.2924     5.5551
  290.0000     7.5933   134.4702     0.0111     0.1236     2.4789   -28.7662     5.2203     5.6320
  290.5000     7.5806   136.4311     0.0098     0.1242     2.4751   -28.3015     5.2203     5.7887
  291.0000     7.5828   142.8438     0.0102     0.1247     2.4739   -28.0054     5.2203     5.9497
  291.5000     7.5701   144.6502     0.0104     0.1274     2.4732   -27.6005     5.2924     6.1153
  292.0000     7.5568   144.6736     0.0122     0.1289     2.4704   -27.4144     5.5145     6.3030
  292.5000     7.5447   144.5426     0.0124     0.1279     2.4689   -27.3209     5.6678     6.5121
  293.0000     7.5470   144.1261     0.0142     0.1303     2.4698   -27.0318     5.9057     6.7442
  293.5000     7.5342   138.0574     0.0175     0.1317     2.4691   -26.8264     6.2385     6.9711
  294.0000     7.5369   134.0689     0.0207     0.1345     2.4640   -26.7523     6.5003     7.1634
  294.5000     7.5391   133.4977     0.0226     0.1316     2.4611   -26.5340     6.6810     7.3089
  295.0000     7.5413   133.6750     0.0242     0.1286     2.4672   -26.5373     6.7732     7.4612
  295.5000     7.5286   133.8569     0.0261     0.1289     2.4695   -26.5403     6.8666     7.6671
  296.0000     7.5308   137.7894     0.0263     0.1297     2.4674   -26.5433     6.9614     7.7217
  296.5000     7.5176   143.8500     0.0236     0.1294     2.4682   -26.5462     6.9614     7.8287
  297.0000     7.5049   147.7367     0.0209     0.1224     2.4706   -26.5493     6.9614     7.8292
  297.5000     7.4773   148.3545     0.0151     0.1158     2.4834   -26.5523     6.9614     7.7855
  298.0000     7.4497   147.6349     0.0124     0.1131     2.4896   -26.5552     6.9614     7.6819
  298.5000     7.4077   143.3493     0.0096     0.1127     2.4903   -26.5582     6.9614     7.5797
  299.0000     7.3503   137.8749     0.0100     0.1133     2.4905   -26.5612     6.9614     7.3773
  299.5000     7.3376   138.1955     0.0102     0.1135     2.4906   -26.8627     6.8666     7.2791
  300.0000     7.3082   139.4050     0.0105     0.1153     2.4902   -26.8657     6.7450     7.0871
  300.5000     7.2821   140.3418     0.0116     0.1186     2.4855   -27.4657     6.6608     6.9098
  301.0000     7.2851   143.8785     0.0128     0.1203     2.4818   -27.4687     6.5277     6.7324
  301.5000     7.2874   147.2659     0.0139     0.1202     2.4805   -27.7702     6.2950     6.5516
  302.0000     7.2898   148.1173     0.0145     0.1202     2.4814   -28.0718     6.1246     6.2911
  302.5000     7.2921   146.9506     0.0147     0.1195     2.4830   -28.0748     5.9095     6.1210
  303.0000     7.3094   138.6517     0.0149     0.1186     2.4846   -28.0778     5.7183     5.9554
  303.5000     7.3279   138.0739     0.0152     0.1162     2.4862   -28.0808     5.5635     5.8816
  304.0000     7.3611   141.0731     0.0154     0.1146     2.4886   -28.0666     5.3806     5.8824
  304.5000     7.3915   141.5354     0.0156     0.1133     2.4902   -28.0289     5.2339     5.8832
  305.0000     7.4237   134.1335     0.0144     0.1127     2.4918   -27.9912     5.0538     5.8841
  305.5000     7.4558   131.7781     0.0146     0.1145     2.4935   -27.9535     5.0845     5.8967
  306.0000     7.4731   135.3662     0.0134     0.1162     2.4921   -27.9158     5.4109     5.9799
  306.5000     7.4754   137.7657     0.0119     0.1174     2.4870   -27.8782     5.8373     6.1478
  307.0000     7.4778   139.4222     0.0093     0.1164     2.4856   -27.8405     6.1693     6.2346
