~VERSION INFORMATION
 VERS.                2.0:   CWLS LOG ASCII STANDARD - VERSION 2.0
 WRAP.                 NO:   ONE LINE PER DEPTH STEP
~WELL INFORMATION
#MNEM.UNIT      DATA TYPE    INFORMATION
#----------   ------------   ------------------------------
 STRT.F           40.0000:   START DEPTH
 STOP.F          462.0000:   STOP DEPTH
 STEP.F            0.5000:   STEP LENGTH
 NULL.          -999.2500:   NO VALUE
 COMP.    FENIX & SCISSON:   COMPANY
 WELL.        NPR #68-S-3:   WELL
 FLD .             TEAPOT:   FIELD
 LOC .       S3 T38N R78W:   LOCATION
 CNTY.            NATRONA:   COUNTY
 STAT.            WYOMING:   STATE
 CTRY. UNITED STATES OF AMERICA:   COUNTRY
 SRVC.      Dresser Atlas:   SERVICE COMPANY
 DATE.        28-MAR-1977:   LOGDATE
 API .       490251031900:   API NUMBER
~CURVE INFORMATION
#MNEM.UNIT       API CODE    CURVE DESCRIPTION
#----------   ------------   ------------------------------
 DEPT.F                  :   
 SPR .MV     07 010 01 00:   SPONTANEOUS POTENTIAL
 ILD .OHMM   07 120 46 00:   INDUCTION LOG DEEP
 ILM .OHMM   07 120 44 00:   INDUCTION LOG MEDIUM
 SFL .OHMM   07 220 01 00:   SHALLOW FOCUSED LOG RESISTIVITY
 CALD.IN     45 280 60 00:   CALIPER FROM DENSITY LOG
 GRD .GAPI   45 310 01 00:   GAMMA RAY FROM DENSITY LOG
 CORR.G/C3   45 356 01 00:   DENSITY CORRECTION
 RHOB.G/C3   45 350 01 00:   BULK DENSITY
 DPHI.DEC    45 890 12 00:   DENSITY POROSITY SANDSTONE
~PARAMETER INFORMATION
#MNEM.UNIT          VALUE    DESCRIPTION
#----------   ------------   ------------------------------
 PD  .                 GL:   PERMANENT DATUM
 EPD .F              5162:   ELEVATION PERMANENT DATUM
 LMF .                 KB:   LOG MEASURED FROM
 DAPD.F                 5:   FEET ABOVE PERMANENT DATUM
 DMF .                 KB:   DRILLING MEASURED FROM
 EKB .F              5167:   KELLING BUSHING
 EGL .F              5162:   GROUND LEVEL
 DATE.        28-MAR-1977:   RUN DATE
 RUN .                  1:   RUN NUMBER
 DD  .F               452:   DEPTH DRILLER
 DL  .F               464:   DEPTH LOGGER
 BLI .F               462:   BOTTOM LOG INTERVAL
 TLI .F                40:   TOP LOG INTERVAL
 CS  .IN               10:   CASING SIZE
 CBD .F                40:   CASING BOTTOM DRILLER
 CBL .F                40:   CASING BOTTOM LOGGER
 BS  .IN            7.875:   BIT SIZE
 BSD .F               452:   BIT SIZE AT DEPTH
 DFT .           CHEM GEL:   DRILLING FLUID TYPE
 DFD .                8.9:   DRILLING FLUID DENSITY
 DFV .                 34:   DRILLING FLUID VISCOSITY
 DFPH.                8.0:   DRILLING FLUID PH
 DFL .                8.2:   DRILLING FLUID LOSS
 MSS .         CIRCULATED:   MUD SAMPLE SOURCE
 RMS .OHMM           .223:   RESISTIVITY MUD SAMPLE
 MST .F                51:   MUD SAMPLE TEMPERATURE
 RMF .OHMM           .161:   RESISTIVITY MUD FILTRATE SAMPLE
 MFST.F                51:   MUD FILTRATE SAMPLE TEMPERATURE
 RMC .OHMM           .285:   RESISTIVITY MUD CAKE
 MCST.F                51:   MUD CAKE SAMPLE TEMPERATURE
 MFSS.               MEAS:   MUD FILTRATE SAMPLE SOURCE
 MCSS.               MEAS:   MUD CAKE SAMPLE SOURCE
 RMB .OHMM           .186:   RESISTIVITY MUD AT BHT
 BHT .F                61:   BOTTOM HOLE TEMPERATURE
 TCS .HRS            0500:   TIME CURCULATED STOPPED
 MRT .F                61:   MAXIMUM RECORDED TEMPERATURE
 LUN .               6145:   LOGGING UNIT NUMBER
 LUL .              GLTTE:   LOGGING UNIT LOCATION
 ENGI.              GOULD:   RECORDING ENGINEER
 WITN.               LYON:   WITNESSED BY
 CLNT.            A2DTECH:   CLIENT CODE
 ORIG.           5" PRINT:   ORIGIN OF DATA
 UWI .       490251031900:   UNIQUE WELL ID
 DICO. A2D Technologies, Inc.:   DIGITIZING COMPANY
~OTHER INFORMATION
~A   DEPT      SPR        ILD        ILM        SFL       CALD        GRD       CORR       RHOB       DPHI   
# ...
  441.5000   -22.3009     8.2842     8.6717    10.4937     7.7979   104.4388     0.0609     2.5874     0.0408
  442.0000   -22.4335     8.0622     8.6149    11.2473     7.8003   104.4626     0.0625     2.5843     0.0434
  442.5000   -22.5701     8.0105     8.4416    10.2855     7.8027   103.8903     0.0582     2.5742     0.0508
  443.0000   -22.6994     7.9588     8.3856     9.6687     7.7901   100.9335     0.0524     2.5535     0.0583
  443.5000   -22.6825     7.9086     8.3307     9.7390     7.7925    96.0393     0.0465     2.5453     0.0667
  444.0000   -22.8155     7.8581     8.2198     9.9456     7.7799    93.6184     0.0422     2.5380     0.0702
  444.5000   -22.9479     7.8072     8.1652     9.3500     7.7824    98.3223     0.0379     2.5337     0.0723
  445.0000   -23.0804     7.7023     8.1117     9.0974     7.7848   101.4758     0.0350     2.5317     0.0742
  445.5000   -23.2128     7.6516     8.0031     9.0379     7.7871   104.7783     0.0322     2.5310     0.0745
  446.0000   -23.1964     7.6063     7.9507     9.0418     7.7895   107.9318     0.0324     2.5327     0.0729
  446.5000   -23.1801     7.5056     7.9541     9.0449     7.7919   111.3833     0.0326     2.5358     0.0702
  447.0000   -23.1637     7.4576     7.9013     9.1107     7.7948   113.3445     0.0343     2.5389     0.0683
  447.5000   -23.2967     7.4100     7.8501     9.3692     7.7972   114.1135     0.0390     2.5382     0.0698
  448.0000   -23.2520     7.2623     7.7987     9.6351     7.7995   113.9880     0.0421     2.5368     0.0710
  448.5000   -23.1114     7.2159     7.8014     9.8403     7.8169   113.2669     0.0423     2.5422     0.0664
  449.0000   -23.0952     7.1689     7.7503     9.6417     7.8037   112.2475     0.0425     2.5400     0.0706
  449.5000   -23.0790     7.0748     7.7530     9.3821     7.8067   111.8242     0.0427     2.5349     0.0733
  450.0000   -23.0668     7.0793     7.7557     9.1295     7.8085   111.5499     0.0459     2.5371     0.0683
  450.5000   -23.1864     7.1000     7.6897     9.0449     7.7926   110.3152     0.0543     2.5515     0.0587
  451.0000   -23.3148     7.1207     7.6238     8.8293     7.7780   108.7666     0.0629     2.5584     0.0572
  451.5000   -23.4469     7.1414     7.5597     8.6515     7.7659   106.8514     0.0691     2.5637     0.0550
  452.0000   -23.5735     6.9618     7.4610     8.4794     7.7669   106.1285     0.0739     2.5668     0.0531
  452.5000   -23.8432     6.9190     7.4146     8.3674     7.7525   104.9585     0.0801     2.5729     0.0499
  453.0000   -23.9753     6.9278     7.3686     8.1999     7.7383   102.2982     0.0848     2.5805     0.0457
  453.5000   -23.9475     6.9349     7.3739     8.1476     7.7242   102.6186     0.0866     2.5858     0.0416
  454.0000   -24.0796     6.9419     7.2786     8.0400     7.7250   100.4054     0.0868     2.5761     0.0424
  454.5000   -24.0518     6.9492     7.1824     7.9887     7.7406   104.7495     0.0855     2.5687     0.0497
  455.0000   -24.1839     6.9564     7.0410     7.9928     7.7265   103.5795     0.0797     2.5620     0.0556
  455.5000   -24.1560     6.9151     6.9490     7.9969     7.7272   101.6644     0.0739     2.5545     0.0601
  456.0000   -24.1337     6.9239     6.7175     8.0010     7.6981   102.7299     0.0681     2.5494     0.0625
  456.5000   -23.9627     6.8814     6.3604     8.0606     7.6989   105.5837     0.0623     2.5412     0.0672
  457.0000   -23.3452     6.8901     5.9807     8.0082     7.6845   105.8985     0.0595     2.5285     0.0783
  457.5000   -22.8764     6.8478     5.6628     8.0134     7.6703   104.7285     0.0598     2.5210     0.0799
  458.0000   -22.5621     6.8565     5.4732     7.3795     7.6561   108.6311     0.0660     2.5279     0.0782
  458.5000   -24.4688     6.8635     5.4017     6.0846     7.6419   112.2301     0.0738     2.5182     0.0824
  459.0000   -24.8985     6.8705     5.4438     5.4506     7.6099   112.5505     0.0800     2.5077     0.0872
  459.5000   -24.7219     6.9253     5.4854     5.3773     7.5837   115.8514     0.0908     2.4996     0.0928
  460.0000   -24.5508     7.0290     5.4892     8.8500     7.5396   118.2582     0.0985     2.5049     0.0880
  460.5000   -24.5285     7.0363     5.6470     8.7330     7.4955   119.0256     0.1063     2.5155     0.0837
  461.0000   -24.6606     7.0926     5.7693     8.8022     7.4216   116.0672     0.1140     2.5133     0.0846
  461.5000   -24.7871     7.1013     5.8943     9.1817     7.3326   112.8108     0.1202     2.5051     0.0929
  462.0000   -24.6131     7.1987     6.0299     9.5291     7.2347   115.8222     0.1245     2.4876     0.1034
