~VERSION INFORMATION
 VERS.                2.0:   CWLS LOG ASCII STANDARD - VERSION 2.0
 WRAP.                 NO:   ONE LINE PER DEPTH STEP
~WELL INFORMATION
#MNEM.UNIT      DATA TYPE    INFORMATION
#----------   ------------   ------------------------------
 STRT.F           20.5000:   START DEPTH
 STOP.F          725.0000:   STOP DEPTH
 STEP.F            0.5000:   STEP LENGTH
 NULL.          -999.2500:   NO VALUE
 COMP. FENIX & SCISSON INC:   COMPANY
 WELL.       NPR 3 #67-27:   WELL
 FLD .             TEAPOT:   FIELD
 LOC .      S27 T39N R78W:   LOCATION
 CNTY.            NATRONA:   COUNTY
 STAT.            WYOMING:   STATE
 CTRY. UNITED STATES OF AMERICA:   COUNTRY
 SRVC.           BIRDWELL:   SERVICE COMPANY
 DATE.        15-SEP-1978:   LOGDATE
 API .       490251069400:   API NUMBER
~CURVE INFORMATION
#MNEM.UNIT       API CODE    CURVE DESCRIPTION
#----------   ------------   ------------------------------
 DEPT.F                  :   
 CALD.IN     45 280 60 00:   CALIPER
 GRD .GAPI   45 310 01 00:   GAMMA RAY FROM DENSITY LOG
 RHOB.G/C3   45 350 01 00:   BULK DENSITY
 DPHI.DEC    45 890 12 00:   DENSITY POROSITY SANDSTONE
 CORR.G/C3   45 356 01 00:   DENSITY CORRECTION
 SPR .MV     05 010 01 00:   SPONTANEOUS POTENTIAL FROM RES.
 ILD .OHMM   05 120 46 00:   INDUCTION LOG DEEP
 SN  .OHMM   05 040 16 00:   SHORT NORMAL 16"
~PARAMETER INFORMATION
#MNEM.UNIT          VALUE    DESCRIPTION
#----------   ------------   ------------------------------
 PD  .                 GL:   PERMANENT DATUM
 EPD .F              5027:   ELEVATION PERMANENT DATUM
 LMF .                 KB:   LOG MEASURED FROM
 DAPD.F                 4:   FEET ABOVE PERMANENT DATUM
 DMF .                 KB:   DRILLING MEASURED FROM
 EKB .F              5031:   KELLING BUSHING
 EGL .F              5027:   GROUND LEVEL
 DATE.            9-15-78:   RUN DATE
 RUN .                  1:   RUN NUMBER
 DD  .F               728:   DEPTH DRILLER
 DL  .F               719:   DEPTH LOGGER
 BLI .F               713:   BOTTOM LOG INTERVAL
 TLI .F                30:   TOP LOG INTERVAL
 CS  .IN            8.625:   CASING SIZE
 CBD .F                34:   CASING BOTTOM DRILLER
 CBL .F                34:   CASING BOTTOM LOGGER
 BS  .IN            7.875:   BIT SIZE
 BSD .F               728:   BIT SIZE AT DEPTH
 DFT .            KCL MUD:   DRILLING FLUID TYPE
 DFD .                  9:   DRILLING FLUID DENSITY
 DFV .                 46:   DRILLING FLUID VISCOSITY
 DFPH.                  9:   DRILLING FLUID PH
 DFL .                7.6:   DRILLING FLUID LOSS
 MSS .          FLOW LINE:   MUD SAMPLE SOURCE
 RMS .OHMM            .34:   RESISTIVITY MUD SAMPLE
 MST .F                68:   MUD SAMPLE TEMPERATURE
 RMF .OHMM             .3:   RESISTIVITY MUD FILTRATE SAMPLE
 MFST.F                68:   MUD FILTRATE SAMPLE TEMPERATURE
 RMC .OHMM            .38:   RESISTIVITY MUD CAKE
 MCST.F                70:   MUD CAKE SAMPLE TEMPERATURE
 MFSS.               MEAS:   MUD FILTRATE SAMPLE SOURCE
 MCSS.               MEAS:   MUD CAKE SAMPLE SOURCE
 RMB .OHMM            .32:   RESISTIVITY MUD AT BHT
 BHT .F                72:   BOTTOM HOLE TEMPERATURE
 TCS .HRS               2:   TIME CURCULATED STOPPED
 MRT .F                72:   MAXIMUM RECORDED TEMPERATURE
 LUN .               2958:   LOGGING UNIT NUMBER
 LUL .               CASP:   LOGGING UNIT LOCATION
 ENGI.           REYNOLDS:   RECORDING ENGINEER
 WITN.           DINSMORE:   WITNESSED BY
 CLNT.            A2DTECH:   CLIENT CODE
 ORIG.           5" PRINT:   ORIGIN OF DATA
 UWI .       490251069400:   UNIQUE WELL ID
 DICO. A2D Technologies, Inc.:   DIGITIZING COMPANY
~OTHER INFORMATION
~A   DEPT     CALD        GRD       RHOB       DPHI       CORR        SPR        ILD         SN   
# ...
  142.0000     7.6986   121.4916     2.4165     0.1703     0.0094   -51.2183     4.8799     5.5267
  142.5000     7.7001   121.6198     2.4166     0.1563     0.0081   -51.2085     4.8798     5.6035
  143.0000     7.7016   121.7579     2.4300     0.1478     0.0064   -51.1987     4.8970     5.6601
  143.5000     7.7031   121.8964     2.4459     0.1417     0.0047   -51.1890     4.9493     5.6739
  144.0000     7.7047   122.0338     2.4562     0.1355     0.0030   -51.1792     5.0021     5.6876
  144.5000     7.7061   122.1686     2.4626     0.1348     0.0017   -51.1694     5.0555     5.7014
  145.0000     7.7077   122.3291     2.4547     0.1424     0.0049   -51.1596     5.1095     5.7446
  145.5000     7.7096   122.9600     2.4468     0.1484     0.0082   -51.1498     5.1640     5.8155
  146.0000     7.7325   123.5894     2.4390     0.1544     0.0114   -51.1400     5.2191     5.8873
  146.5000     7.7795   124.0610     2.4384     0.1550     0.0146   -51.1303     5.2748     5.9225
  147.0000     7.8261   123.7625     2.4390     0.1530     0.0178   -51.1206     5.3022     5.9101
  147.5000     7.8729   123.3767     2.4398     0.1510     0.0192   -51.1112     5.2775     5.9007
  148.0000     7.9196   123.0951     2.4425     0.1490     0.0187   -51.0997     5.2506     5.8913
  148.5000     7.9664   123.0996     2.4474     0.1431     0.0181   -50.9870     5.2238     5.8818
  149.0000     7.9900   123.0939     2.4543     0.1367     0.0177   -50.8619     5.2031     5.8722
  149.5000     7.9900   122.8019     2.4606     0.1342     0.0130   -50.7364     5.1794     5.8001
  150.0000     7.9900   122.2001     2.4668     0.1346     0.0094   -50.6115     5.1561     5.6694
  150.5000     7.9900   121.9586     2.4666     0.1384     0.0095   -50.5007     5.1329     5.6037
  151.0000     7.9900   122.0776     2.4561     0.1422     0.0095   -50.5403     5.1097     5.6243
  151.5000     7.9900   122.1934     2.4464     0.1455     0.0094   -50.5782     5.0867     5.6381
  152.0000     7.9900   122.2891     2.4372     0.1515     0.0117   -50.6154     5.0638     5.6556
  152.5000     7.9900   121.7413     2.4317     0.1569     0.0164   -50.6526     5.0410     5.5550
  153.0000     7.9900   120.5953     2.4266     0.1632     0.0289   -50.6907     5.0168     5.4193
  153.5000     7.9899   119.4423     2.4158     0.1696     0.0429   -50.7235     4.8939     5.2535
  154.0000     7.9908   119.1214     2.4053     0.1760     0.0651   -50.7559     4.7659     5.3020
  154.5000     8.0072   119.4716     2.4022     0.1767     0.0867   -50.7883     4.6413     5.2165
  155.0000     8.0233   119.8230     2.4074     0.1705     0.1014   -50.8207     4.5199     5.0629
  155.5000     8.0393   120.1707     2.4185     0.1639     0.1130   -50.8530     4.3998     4.8800
  156.0000     8.0553   120.5151     2.4295     0.1586     0.1215   -50.8853     4.2824     4.8835
  156.5000     8.0695   120.5743     2.4347     0.1568     0.1183   -50.8784     4.2107     4.8896
  157.0000     8.0619   120.3066     2.4343     0.1551     0.1039   -50.8153     4.3288     4.8956
  157.5000     8.0539   120.0460     2.4372     0.1408     0.0879   -50.7525     4.3092     4.9019
  158.0000     8.0371   120.1228     2.4514     0.1311     0.0719   -50.6898     4.2760     4.9079
  158.5000     8.0092   120.6049     2.4720     0.1298     0.0560   -50.6269     4.2497     4.9142
  159.0000     7.9816   121.0829     2.4728     0.1296     0.0400   -50.5639     4.4241     4.9203
  159.5000     7.9546   121.5620     2.4666     0.1333     0.0241   -50.5029     4.5748     4.9724
  160.0000     7.9178   122.0366     2.4605     0.1369     0.0139   -50.4717     4.7306     5.2004
  160.5000     7.8803   122.1193     2.4544     0.1405     0.0106   -50.4363     4.9482     5.4386
  161.0000     7.8428   121.7161     2.4483     0.1440     0.0073   -50.4004     5.2120     5.6882
  161.5000     7.8092   121.3199     2.4427     0.1476     0.0040   -50.3643     5.4900     5.9489
  162.0000     7.7778   121.1268     2.4421     0.1511     0.0017   -50.3287     5.7831     6.2217
  162.5000     7.7462   121.2511     2.4437     0.1520     0.0027   -50.3091     6.0908     6.4551
  163.0000     7.7146   121.7405     2.4453     0.1508     0.0037   -50.3657     6.2018     6.5373
  163.5000     7.7097   122.4079     2.4469     0.1494     0.0047   -50.4210     6.2018     6.6153
  164.0000     7.7263   122.3131     2.4480     0.1453     0.0056   -50.4760     6.2018     6.6153
  164.5000     7.7510   122.0908     2.4476     0.1463     0.0066   -50.5310     6.2018     6.6153
  165.0000     7.7760   121.8699     2.4472     0.1471     0.0076   -50.5860     6.2018     6.6106
  165.5000     7.8010   121.8104     2.4485     0.1456     0.0086   -50.6410     6.2018     6.5929
  166.0000     7.8259   122.3761     2.4509     0.1393     0.0094   -50.6960     6.2019     6.5755
  166.5000     7.8509   122.8919     2.4564     0.1330     0.0073   -50.7511     6.2021     6.5581
  167.0000     7.8758   122.7644     2.4641     0.1320     0.0051   -50.8061     6.2014     6.5407
  167.5000     7.9008   122.5994     2.4602     0.1380     0.0029   -50.8611     6.2039     6.5232
  168.0000     7.9258   122.6551     2.4537     0.1439     0.0008   -50.9161     6.0166     6.5065
  168.5000     7.9494   123.0251     2.4433     0.1498     0.0001   -50.9712     5.8787     6.4381
  169.0000     7.9501   123.2747     2.4330     0.1557     0.0016   -51.0261     5.7439     6.2639
  169.5000     7.9500   122.3873     2.4257     0.1598     0.0031   -51.0824     5.6123     6.0944
  170.0000     7.9500   121.4824     2.4226     0.1618     0.0045   -51.0625     5.4837     5.9296
  170.5000     7.9499   120.5812     2.4201     0.1612     0.0060   -51.0077     5.3579     5.7694
  171.0000     7.9495   119.7084     2.4204     0.1606     0.0075   -50.9519     5.2351     5.6134
  171.5000     7.9704   119.2865     2.4207     0.1601     0.0089   -50.8960     5.0696     5.4617
  172.0000     7.9951   118.9241     2.4209     0.1606     0.0104   -50.8402     4.8306     5.3141
  172.5000     8.0075   119.3364     2.4183     0.1619     0.0119   -50.7844     4.6027     5.1704
  173.0000     7.9928   119.7757     2.4117     0.1749     0.0133   -50.7287     4.3857     5.0057
  173.5000     7.9785   120.2009     2.3944     0.1877     0.0148   -50.6729     4.1789     4.8284
  174.0000     7.9641   121.2814     2.3747     0.1979     0.0162   -50.6170     4.0800     4.6574
  174.5000     7.9506   121.7666     2.3678     0.1971     0.0177   -50.5605     4.0531     4.4914
  175.0000     7.9570   122.0958     2.3842     0.1821     0.0192   -50.5034     4.0263     4.3602
  175.5000     7.9642   122.1723     2.4023     0.1673     0.0186   -50.5583     3.9997     4.2322
  176.0000     7.9714   121.4438     2.4245     0.1524     0.0176   -50.6242     3.9841     4.1338
  176.5000     7.9785   120.3738     2.4469     0.1443     0.0165   -50.6899     4.0458     4.1616
  177.0000     7.9857   119.5409     2.4544     0.1421     0.0155   -50.7554     4.0902     4.3483
  177.5000     7.9928   119.8734     2.4555     0.1410     0.0144   -50.8209     4.1338     4.5796
  178.0000     7.9999   119.4600     2.4544     0.1409     0.0134   -50.8863     4.4311     4.8232
  178.5000     8.0071   119.0067     2.4572     0.1394     0.0123   -50.9518     4.7414     5.0168
  179.0000     8.0099   118.5530     2.4625     0.1358     0.0114   -51.0173     4.8286     5.0168
  179.5000     8.0100   118.1149     2.4678     0.1264     0.0108   -51.0828     4.8804     5.0168
  180.0000     8.0100   118.1740     2.4724     0.1264     0.0102   -51.1483     4.8800     5.0168
  180.5000     8.0100   118.6490     2.4698     0.1304     0.0096   -51.2137     4.8800     5.0166
  181.0000     8.0100   119.1158     2.4630     0.1376     0.0090   -51.2792     4.8800     5.0264
  181.5000     8.0100   119.5101     2.4544     0.1461     0.0084   -51.3447     4.8801     5.0376
  182.0000     8.0100   119.5017     2.4457     0.1491     0.0078   -51.4102     4.8809     5.0489
