~VERSION INFORMATION
 VERS.                2.0:   CWLS LOG ASCII STANDARD - VERSION 2.0
 WRAP.                 NO:   ONE LINE PER DEPTH STEP
~WELL INFORMATION
#MNEM.UNIT      DATA TYPE    INFORMATION
#----------   ------------   ------------------------------
 STRT.F            9.5000:   START DEPTH
 STOP.F          640.5000:   STOP DEPTH
 STEP.F            0.5000:   STEP LENGTH
 NULL.          -999.2500:   NO VALUE
 COMP. FENIX & SCISSON INC:   COMPANY
 WELL. 27-32 SX 11 WI #27-32 SX:   WELL
 FLD .            WILDCAT:   FIELD
 LOC .      S11 T38N R78W:   LOCATION
 CNTY.            NATRONA:   COUNTY
 STAT.            WYOMING:   STATE
 CTRY. UNITED STATES OF AMERICA:   COUNTRY
 SRVC.      Dresser Atlas:   SERVICE COMPANY
 DATE.        01-AUG-1980:   LOGDATE
 API .       490251083700:   API NUMBER
~CURVE INFORMATION
#MNEM.UNIT       API CODE    CURVE DESCRIPTION
#----------   ------------   ------------------------------
 DEPT.F                  :   
 SPR .MV     07 010 01 00:   SPONTANEOUS POTENTIAL
 SFL .OHMM   07 220 01 00:   SHALLOW FOCUSED LOG RESISTIVITY
 ILD .OHMM   07 120 46 00:   INDUCTION LOG DEEP
 ILM .OHMM   07 120 44 00:   INDUCTION LOG MEDIUM
 GRD .GAPI   45 310 01 00:   GAMMA RAY FROM DENSITY LOG
 CALD.IN     45 280 60 00:   CALIPER
 RHOB.G/C3   45 350 01 00:   BULK DENSITY
 CORR.G/C3   45 356 01 00:   DENSITY CORRECTION
 DPHI.DEC    45 890 12 00:   DENSITY POROSITY SANDSTONE
 NPHI.DEC    42 890 03 00:   NEUTRON POROSITY SANDSTONE
~PARAMETER INFORMATION
#MNEM.UNIT          VALUE    DESCRIPTION
#----------   ------------   ------------------------------
 PD  .                 GL:   PERMANENT DATUM
 EPD .F              5189:   ELEVATION PERMANENT DATUM
 LMF .                 KB:   LOG MEASURED FROM
 DAPD.F                 5:   FEET ABOVE PERMANENT DATUM
 DMF .                 KB:   DRILLING MEASURED FROM
 EKB .F              5194:   KELLING BUSHING
 EGL .F              5189:   GROUND LEVEL
 DATE.             8-1-80:   RUN DATE
 RUN .                  1:   RUN NUMBER
 DD  .F               625:   DEPTH DRILLER
 DL  .F               634:   DEPTH LOGGER
 BLI .F               632:   BOTTOM LOG INTERVAL
 TLI .F                12:   TOP LOG INTERVAL
 BS  .IN            7.875:   BIT SIZE
 BSD .F               625:   BIT SIZE AT DEPTH
 DFT .           CHEM GEL:   DRILLING FLUID TYPE
 DFD .                9.1:   DRILLING FLUID DENSITY
 DFV .                 44:   DRILLING FLUID VISCOSITY
 DFPH.                9.5:   DRILLING FLUID PH
 DFL .                7.6:   DRILLING FLUID LOSS
 MSS .           FLOWLINE:   MUD SAMPLE SOURCE
 RMS .OHMM            .27:   RESISTIVITY MUD SAMPLE
 MST .F                70:   MUD SAMPLE TEMPERATURE
 RMF .OHMM            .16:   RESISTIVITY MUD FILTRATE SAMPLE
 MFST.F                65:   MUD FILTRATE SAMPLE TEMPERATURE
 MFSS.               MEAS:   MUD FILTRATE SAMPLE SOURCE
 MCSS.               MEAS:   MUD CAKE SAMPLE SOURCE
 RMB .OHMM            .21:   RESISTIVITY MUD AT BHT
 BHT .F                94:   BOTTOM HOLE TEMPERATURE
 TCS .HRS            0040:   TIME CURCULATED STOPPED
 MRT .F                94:   MAXIMUM RECORDED TEMPERATURE
 LUN .               6145:   LOGGING UNIT NUMBER
 LUL .              GLTTE:   LOGGING UNIT LOCATION
 ENGI.              HENRY:   RECORDING ENGINEER
 WITN.              AMEND:   WITNESSED BY
 CLNT.            A2DTECH:   CLIENT CODE
 ORIG.     1", 2.5" PRINT:   ORIGIN OF DATA
 UWI .       490251083700:   UNIQUE WELL ID
 DICO. A2D Technologies, Inc.:   DIGITIZING COMPANY
~OTHER INFORMATION
~A    DEPT     SPR         SFL         ILD        ILM      GRD       CALD       RHOB       CORR       DPHI       NPHI   
# ...
  411.5000   -50.9814     9.5493     7.6211     8.1283   100.5063     7.9202     2.4971     0.0003     0.1095     0.2952
  412.0000   -50.9596     9.5925     7.6361     8.0899   100.4592     7.9231     2.4976     0.0026     0.1096     0.2997
  412.5000   -50.9388     9.6359     7.6564     8.0517   102.3752     7.9257     2.4993     0.0056     0.1096     0.3070
  413.0000   -50.9165     9.6794     7.6352     8.0137   105.3619     7.9284     2.5006     0.0088     0.1069     0.3125
  413.5000   -50.8950     9.7451     7.5361     7.9758   105.4661     7.9311     2.5025     0.0119     0.1048     0.3084
  414.0000   -50.8733     9.6939     7.4383     7.9381   103.3621     7.9338     2.5038     0.0150     0.1052     0.2932
  414.5000   -50.8515     9.4422     7.3417     7.9006   101.3693     7.9365     2.5122     0.0182     0.1022     0.2932
  415.0000   -50.8299     9.1970     7.2464     7.8633    99.3080     7.9392     2.5205     0.0212     0.0956     0.2954
  415.5000   -50.8083     8.8880     7.1524     7.8261    99.9782     7.9419     2.5174     0.0239     0.0982     0.2966
  416.0000   -50.7868     9.2171     7.0596     7.7611   100.6920     7.9446     2.5078     0.0233     0.1008     0.2932
  416.5000   -50.7650     9.7564     6.9680     7.6344   100.7670     7.9473     2.5074     0.0226     0.1012     0.2956
  417.0000   -50.7433     9.7564     6.8775     7.5096   100.7571     7.9500     2.5079     0.0219     0.1007     0.3012
  417.5000   -50.7210     9.3294     6.7882     7.3870   100.7676     7.9527     2.5087     0.0212     0.1019     0.3058
  418.0000   -50.6998     8.8979     6.7002     7.2663   100.8214     7.9553     2.5081     0.0200     0.1032     0.3113
  418.5000   -50.6779     8.4864     6.6132     7.1476   101.6501     7.9580     2.5163     0.0240     0.0961     0.3148
  419.0000   -50.6542     8.7271     6.4836     7.0308   102.4014     7.9607     2.5306     0.0312     0.0848     0.3126
  419.5000   -50.6379     9.1503     6.3454     6.9159   103.1312     7.9634     2.5332     0.0359     0.0925     0.3096
  420.0000   -50.6150     9.7564     6.2103     6.8029   103.9042     7.9661     2.5112     0.0267     0.1059     0.3066
  420.5000   -50.8160     9.2032     6.0782     6.6626   103.2689     7.9688     2.4900     0.0167     0.1192     0.3046
  421.0000   -51.0750     8.4076     5.9492     6.4410   102.4483     7.9715     2.4686     0.0065     0.1325     0.3052
  421.5000   -51.3406     7.6809     5.8233     6.2268   102.5394     7.9742     2.4472    -0.0043     0.1465     0.3119
  422.0000   -51.5945     7.0169     5.7002     6.1215   102.7645     7.9769     2.4363     0.0037     0.1473     0.3178
  422.5000   -51.8223     6.5955     5.5796     6.1215   102.1277     7.9796     2.4496     0.0170     0.1277     0.3239
  423.0000   -51.7438     7.2362     5.4767     6.1215   100.8253     7.9823     2.4885     0.0312     0.1111     0.3252
  423.5000   -51.6237     8.0023     5.7547     6.2367    99.8048     7.9849     2.5093     0.0275     0.1024     0.3185
  424.0000   -51.4986     8.8495     6.0088     6.2367   101.3840     7.9876     2.5142     0.0232     0.1024     0.3108
  424.5000   -51.3788     9.3993     6.2773     6.5072   104.4713     7.9903     2.5106     0.0180     0.1024     0.3030
  425.0000   -51.2501     9.3556     6.5578     6.7486   105.1319     7.9930     2.5063     0.0132     0.1051     0.2959
  425.5000   -51.1363     9.2820     6.8461     6.9990   101.5011     7.9957     2.5014     0.0084     0.1087     0.2900
  426.0000   -51.0349     9.2091     6.8461     7.2586    98.6678     7.9984     2.4971     0.0034     0.1120     0.2908
  426.5000   -51.2904     9.1367     6.6604     7.5150    95.9789     8.0011     2.4941    -0.0001     0.1131     0.2940
  427.0000   -51.5389     9.0553     6.4446     7.1751    95.2684     8.0038     2.4913     0.0000     0.1142     0.2980
  427.5000   -51.8052     9.1776     6.2357     6.8648    94.6372     8.0065     2.4883     0.0001     0.1152     0.3058
  428.0000   -52.0654     9.5762     6.0336     6.5644    95.6614     8.0092     2.4853     0.0037     0.1167     0.3119
  428.5000   -52.3190     9.3993     5.8381     6.2807    98.6386     8.0119     2.4840     0.0076     0.1198     0.3095
  429.0000   -52.5803     8.0277     5.6489     6.0090   100.0695     8.0145     2.4727     0.0117     0.1264     0.3068
  429.5000   -52.5729     6.9645     5.4658     5.7851    99.7951     8.0172     2.4529     0.0156     0.1347     0.3090
  430.0000   -52.4713     6.2367     5.2887     5.6783   102.8736     8.0199     2.4467     0.0201     0.1400     0.3116
  430.5000   -52.3697     6.2367     5.1173     5.6787   101.9649     8.0226     2.4652     0.0325     0.1241     0.3076
  431.0000   -52.2721     7.5755     5.2537     5.8430    97.0974     8.0253     2.4853     0.0399     0.1080     0.3035
  431.5000   -52.1749     9.2257     5.4848     6.0605    95.3450     8.0280     2.5061     0.0359     0.1013     0.3030
  432.0000   -52.0704     9.3993     5.7261     6.2870    96.4079     8.0307     2.5132     0.0330     0.1003     0.3044
  432.5000   -51.9751     9.1742     5.9780     6.5203    97.7479     8.0333     2.5168     0.0298     0.0950     0.3059
  433.0000   -51.8888     9.0553     6.2410     6.7622    95.1420     8.0362     2.5245     0.0280     0.0880     0.2999
  433.5000   -51.6348     9.3843     6.5155     7.0131    93.1430     8.0378     2.5323     0.0282     0.0839     0.2934
  434.0000   -51.4011     9.7071     6.8021     7.2732    93.1808     8.0395     2.5390     0.0281     0.0846     0.2860
  434.5000   -51.4254     9.9400     7.1014     7.5431    96.3161     8.0412     2.5391     0.0281     0.0858     0.2754
  435.0000   -51.4243     9.9958     7.3762     7.8229    99.4910     8.0429     2.5393     0.0281     0.0869     0.2736
  435.5000   -51.4195    10.0577     7.5155     8.1131    98.0344     8.0445     2.5391     0.0281     0.0880     0.2779
  436.0000   -51.4233    10.1200     7.7122     8.2493    95.3805     8.0462     2.5391     0.0270     0.0856     0.2762
  436.5000   -51.4222    10.1827     7.9140     8.3623    92.7660     8.0479     2.5368     0.0260     0.0889     0.2728
  437.0000   -51.4222    10.2458     8.2493     8.4619    90.6306     8.0496     2.5338     0.0249     0.0920     0.2694
  437.5000   -51.4228    10.3093     8.2407     8.5627    89.7182     8.0513     2.5312     0.0237     0.0911     0.2683
  438.0000   -51.4228    10.3732     8.2191     8.6646    90.9520     8.0529     2.5316     0.0227     0.0899     0.2705
  438.5000   -51.4228    10.4374     8.1975     8.7678    93.0066     8.0546     2.5319     0.0216     0.0887     0.2729
  439.0000   -51.4228    10.5118     8.1759     8.8723    95.0283     8.0563     2.5323     0.0204     0.0872     0.2731
  439.5000   -51.4228    10.6539     8.1544     8.9781    95.3173     8.0580     2.5326     0.0213     0.0885     0.2716
  440.0000   -51.4228    10.8234     8.1330     9.0752    92.5824     8.0596     2.5330     0.0239     0.0904     0.2701
  440.5000   -51.4218    10.9956     8.1117     9.1472    90.0898     8.0613     2.5331     0.0263     0.0889     0.2686
  441.0000   -51.4217    11.3257     8.0903     9.2198    90.3456     8.0630     2.5331     0.0286     0.0872     0.2671
  441.5000   -51.4223    11.1872     8.0691     9.2930    91.5393     8.0647     2.5331     0.0311     0.0872     0.2656
  442.0000   -51.4200    10.9254     8.0479     9.3666    92.8212     8.0664     2.5332     0.0334     0.0872     0.2641
  442.5000   -51.4235    10.6698     8.0267     9.3998    93.5447     8.0681     2.5334     0.0359     0.0855     0.2626
  443.0000   -51.4228    10.4201     8.0056     9.3997    93.8069     8.0697     2.5384     0.0382     0.0828     0.2611
  443.5000   -51.4070    10.1744     7.9844     9.3706    94.3798     8.0714     2.5434     0.0406     0.0800     0.2595
  444.0000   -51.6783    10.2550     7.9624     9.3410    95.0545     8.0732     2.5471     0.0434     0.0829     0.2608
  444.5000   -52.4730    10.4182     7.9443     9.3115    93.5731     8.0747     2.5401     0.0405     0.0860     0.2622
