~VERSION INFORMATION
 VERS.                2.0:   CWLS LOG ASCII STANDARD - VERSION 2.0
 WRAP.                 NO:   ONE LINE PER DEPTH STEP
~WELL INFORMATION
#MNEM.UNIT      DATA TYPE    INFORMATION
#----------   ------------   ------------------------------
 STRT.F           85.5000:   START DEPTH
 STOP.F         1080.5000:   STOP DEPTH
 STEP.F            0.5000:   STEP LENGTH
 NULL.          -999.2500:   NO VALUE
 COMP.         U.S.  NAVY:   COMPANY
 WELL.  N.P.R. #3 #67-S-2:   WELL
 FLD .             TEAPOT:   FIELD
 LOC .       S2 T38N R78W:   LOCATION
 CNTY.            NATRONA:   COUNTY
 STAT.            WYOMING:   STATE
 CTRY. UNITED STATES OF AMERICA:   COUNTRY
 SRVC.       Schlumberger:   SERVICE COMPANY
 DATE.        20-JUL-1964:   LOGDATE
 API .       490250639700:   API NUMBER
~CURVE INFORMATION
#MNEM.UNIT       API CODE    CURVE DESCRIPTION
#----------   ------------   ------------------------------
 DEPT.F                  :   
 GR  .GAPI   30 310 01 00:   GAMMA RAY
 DT  .US/F   60 520 33 00:   INTERVAL TRANSIT TIME
 SPR .MV     06 010 01 00:   SPONTANEOUS POTENTIAL
 CILD.MMHO   06 110 46 00:   CONDUCTIVITY INDUCTION LOG DEEP
 ASN .OHMM   06 041 16 00:   AMPLIFIED SHORT NORMAL 16"
 ILD .OHMM   06 120 46 00:   INDUCTION LOG DEEP
~PARAMETER INFORMATION
#MNEM.UNIT          VALUE    DESCRIPTION
#----------   ------------   ------------------------------
 PD  .                 GL:   PERMANENT DATUM
 EPD .F              5207:   ELEVATION PERMANENT DATUM
 LMF .                 KB:   LOG MEASURED FROM
 DAPD.F                 5:   FEET ABOVE PERMANENT DATUM
 DMF .                 KB:   DRILLING MEASURED FROM
 EKB .F              5212:   KELLING BUSHING
 EGL .F              5207:   GROUND LEVEL
 DATE.          7-20-1964:   RUN DATE
 RUN .                  1:   RUN NUMBER
 DD  .F              1080:   DEPTH DRILLER
 DL  .F              1081:   DEPTH LOGGER
 BLI .F              1080:   BOTTOM LOG INTERVAL
 TLI .F                86:   TOP LOG INTERVAL
 CS  .IN            8.625:   CASING SIZE
 CBD .F                10:   CASING BOTTOM DRILLER
 BS  .IN             6.75:   BIT SIZE
 BSD .F              1080:   BIT SIZE AT DEPTH
 DFT .            GEL-OIL:   DRILLING FLUID TYPE
 DFD .                9.5:   DRILLING FLUID DENSITY
 DFV .                 43:   DRILLING FLUID VISCOSITY
 MSS .           FLOWLINE:   MUD SAMPLE SOURCE
 RMS .OHMM           1.85:   RESISTIVITY MUD SAMPLE
 MST .F                83:   MUD SAMPLE TEMPERATURE
 RMF .OHMM           1.29:   RESISTIVITY MUD FILTRATE SAMPLE
 MFST.F                83:   MUD FILTRATE SAMPLE TEMPERATURE
 RMC .OHMM           2.49:   RESISTIVITY MUD CAKE
 MCST.F                83:   MUD CAKE SAMPLE TEMPERATURE
 MFSS.                 FP:   MUD FILTRATE SAMPLE SOURCE
 MCSS.                 FP:   MUD CAKE SAMPLE SOURCE
 TCS .HRS               2:   TIME CURCULATED STOPPED
 LUN .               4507:   LOGGING UNIT NUMBER
 LUL .               CSPR:   LOGGING UNIT LOCATION
 ENGI.             DANNER:   RECORDING ENGINEER
 WITN.          JORGENSEN:   WITNESSED BY
 CLNT.            A2DTECH:   CLIENT CODE
 ORIG.           2" PRINT:   ORIGIN OF DATA
 UWI .       490250639700:   UNIQUE WELL ID
 DICO. A2D Technologies, Inc.:   DIGITIZING COMPANY
~OTHER INFORMATION
~A   DEPT       GR         DT        SPR       CILD        ASN        ILD   
# ...
  189.5000  -999.2500  -999.2500   -25.5374   170.8174     6.6263     5.8268
  190.0000  -999.2500  -999.2500   -25.6072   175.1113     6.5903     5.7122
  190.5000  -999.2500  -999.2500   -25.7272   178.8658     6.5541     5.6122
  191.0000  -999.2500  -999.2500   -25.8467   182.6187     6.5241     5.5121
  191.5000  -999.2500  -999.2500   -25.9667   185.7566     6.3972     5.4119
  192.0000  -999.2500  -999.2500   -26.0863   187.8285     6.2884     5.3120
  192.5000  -999.2500  -999.2500   -26.0856   189.6080     6.1786     5.2116
  193.0000  -999.2500  -999.2500   -26.0255   191.3884     6.0701     5.1297
  193.5000  -999.2500  -999.2500   -25.9658   193.1669     5.9601     5.2828
  194.0000  -999.2500  -999.2500   -25.9058   190.4486     5.9268     5.4131
  194.5000  -999.2500  -999.2500   -25.8460   185.6732     5.9853     5.5429
  195.0000  -999.2500  -999.2500   -25.7861   180.9016     6.0364     5.6733
  195.5000  -999.2500  -999.2500   -25.7262   176.1255     6.0853     5.8032
  196.0000  -999.2500  -999.2500   -25.6664   171.3540     6.1261     5.9335
  196.5000  -999.2500  -999.2500   -25.6064   166.5777     6.6330     6.0635
  197.0000  -999.2500  -999.2500   -25.5466   162.8514     6.9625     6.1936
  197.5000  -999.2500  -999.2500   -25.5576   161.3845     6.9452     6.3237
  198.0000  -999.2500  -999.2500   -25.5960   160.1861     6.9243     6.4240
  198.5000  -999.2500  -999.2500   -25.6344   162.0565     6.9008     6.2782
  199.0000  -999.2500  -999.2500   -25.6728   165.0621     6.8798     6.0788
  199.5000  -999.2500  -999.2500   -25.7112   171.7467     6.8618     5.8795
  200.0000  -999.2500  -999.2500   -25.7496   179.7235     6.6345     5.6801
  200.5000  -999.2500  -999.2500   -25.7880   187.6936     6.4499     5.4807
  201.0000  -999.2500  -999.2500   -25.8262   195.6710     6.2672     5.2814
  201.5000  -999.2500  -999.2500   -25.8648   198.9378     6.0827     5.0820
  202.0000  -999.2500  -999.2500   -25.9030   200.5975     5.9000     4.9308
  202.5000  -999.2500  -999.2500   -25.9417   202.2488     5.7156     5.0083
  203.0000  -999.2500  -999.2500   -25.9798   201.9570     5.6481     5.1137
  203.5000  -999.2500  -999.2500   -26.0185   200.9637     5.6766     5.2186
  204.0000  -999.2500  -999.2500   -26.0565   198.2736     5.7077     5.3240
  204.5000  -999.2500  -999.2500   -26.0952   195.7171     5.8455     5.4289
  205.0000  -999.2500  -999.2500   -26.1255   187.6992     5.9581     5.5343
  205.5000  -999.2500  -999.2500   -26.0310   181.1703     6.0700     5.6392
  206.0000  -999.2500  -999.2500   -25.9515   174.6414     6.1826     5.7445
  206.5000  -999.2500  -999.2500   -25.8729   169.9502     6.2946     5.8265
  207.0000  -999.2500  -999.2500   -25.7934   165.9761     6.4070     5.9263
  207.5000  -999.2500  -999.2500   -25.7148   162.8486     6.5191     6.0652
  208.0000  -999.2500  -999.2500   -25.6353   161.1269     6.6314     6.2043
  208.5000  -999.2500  -999.2500   -25.5567   159.7076     6.7436     6.3433
  209.0000  -999.2500  -999.2500   -25.6281   158.2883     6.8559     6.4823
  209.5000  -999.2500  -999.2500   -25.7766   157.8685     6.9682     6.5234
  210.0000  -999.2500  -999.2500   -25.9245   159.4953     7.0016     6.4059
  210.5000  -999.2500  -999.2500   -26.0730   161.8136     6.9635     6.2389
  211.0000  -999.2500  -999.2500   -26.1257   164.1318     6.9317     6.0714
  211.5000  -999.2500  -999.2500   -26.0695   170.3586     6.8255     5.9045
  212.0000  -999.2500  -999.2500   -26.0200   178.3068     6.6892     5.7369
  212.5000  -999.2500  -999.2500   -25.9707   186.2550     6.5542     5.5701
  213.0000  -999.2500  -999.2500   -25.9213   192.7291     6.4193     5.4024
  213.5000  -999.2500  -999.2500   -25.8719   196.8513     6.2840     5.2357
  214.0000  -999.2500  -999.2500   -25.8225   200.3287     6.1492     5.0679
  214.5000  -999.2500  -999.2500   -25.7730   203.8060     5.8807     4.9310
  215.0000  -999.2500  -999.2500   -25.7285   206.6733     5.6082     5.0353
  215.5000  -999.2500  -999.2500   -25.7547   205.6599     5.6077     5.1249
  216.0000  -999.2500  -999.2500   -25.7986   202.6793     5.6968     5.2135
  216.5000  -999.2500  -999.2500   -25.8426   198.2740     5.7717     5.3030
  217.0000  -999.2500  -999.2500   -25.8864   193.1645     5.8479     5.3917
  217.5000  -999.2500  -999.2500   -25.9305   188.0549     5.9227     5.4811
  218.0000  -999.2500  -999.2500   -25.9743   182.9454     5.9868     5.5698
  218.5000  -999.2500  -999.2500   -26.0185   177.8358     6.2319     5.6591
  219.0000  -999.2500  -999.2500   -26.0620   172.7248     6.4446     5.7479
  219.5000  -999.2500  -999.2500   -26.1064   167.6170     6.6233     5.8371
  220.0000  -999.2500  -999.2500   -26.1498   166.1601     6.7797     5.9260
  220.5000  -999.2500  -999.2500   -26.1942   166.6578     6.9141     6.0151
  221.0000  -999.2500  -999.2500   -26.2375   167.1540     6.9214     6.1041
  221.5000  -999.2500  -999.2500   -26.2821   167.6513     6.8573     6.1931
  222.0000  -999.2500  -999.2500   -26.3240   168.1477     6.7941     6.2037
  222.5000  -999.2500  -999.2500   -26.0804   168.6448     6.7301     6.1706
  223.0000  -999.2500  -999.2500   -25.8426   169.1415     6.6668     6.1376
  223.5000  -999.2500  -999.2500   -25.7402   169.6381     6.6811     6.1045
  224.0000  -999.2500  -999.2500   -25.7616   169.1936     6.7409     6.0714
  224.5000  -999.2500  -999.2500   -25.7841   168.1998     6.8004     6.0383
  225.0000  -999.2500  -999.2500   -25.8056   166.3970     6.8601     6.0850
  225.5000  -999.2500  -999.2500   -25.8280   164.1118     6.9197     6.1790
  226.0000  -999.2500  -999.2500   -25.8496   161.8267     6.9792     6.2732
  226.5000  -999.2500  -999.2500   -25.8719   159.5416     7.0390     6.3672
  227.0000  -999.2500  -999.2500   -25.8936   157.2565     7.1572     6.4614
  227.5000  -999.2500  -999.2500   -25.9158   154.9714     7.3124     6.5553
  228.0000  -999.2500  -999.2500   -25.9376   152.6862     7.4671     6.6496
  228.5000  -999.2500  -999.2500   -25.9597   150.4012     7.6223     6.7434
  229.0000  -999.2500  -999.2500   -25.9815   148.1160     7.7769     6.8378
  229.5000  -999.2500  -999.2500   -26.0036   145.8309     7.7984     6.9219
  230.0000  -999.2500  -999.2500   -26.0254   145.0911     7.7319     6.9222
  230.5000  -999.2500  -999.2500   -26.0473   145.3749     7.6660     6.9656
  231.0000  -999.2500  -999.2500   -26.0692   145.6588     7.7021     7.0057
  231.5000  -999.2500  -999.2500   -26.0912   145.9163     7.7987     7.0451
  232.0000  -999.2500  -999.2500   -26.1131   145.1926     7.8069     7.0851
  232.5000  -999.2500  -999.2500   -26.1351   144.5302     7.8154     7.1245
  233.0000  -999.2500  -999.2500   -26.1570   143.8679     7.8554     7.1646
  233.5000  -999.2500  -999.2500   -26.1790   143.2055     7.9196     7.2040
  234.0000  -999.2500  -999.2500   -26.2009   144.6613     7.9774     7.1588
  234.5000  -999.2500  -999.2500   -26.2229   147.6424     7.9138     7.0516
  235.0000  -999.2500  -999.2500   -26.2448   150.6227     7.8535     6.9450
  235.5000  -999.2500  -999.2500   -26.2668   153.6025     7.7948     6.8379
  236.0000  -999.2500  -999.2500   -26.2888   156.5828     7.7386     6.7312
  236.5000  -999.2500  -999.2500   -26.3108   158.6580     7.4505     6.6242
  237.0000  -999.2500  -999.2500   -26.2941   160.0490     7.1796     6.5244
  237.5000  -999.2500  -999.2500   -26.2151   161.4391     7.0717     6.4820
  238.0000  -999.2500  -999.2500   -26.1361   162.8305     7.0868     6.4424
  238.5000  -999.2500  -999.2500   -26.0571   164.2206     7.1026     6.4552
  239.0000  -999.2500  -999.2500   -25.9781   163.7329     7.1509     6.5093
  239.5000  -999.2500  -999.2500   -25.8990   161.7452     7.1979     6.5636
  240.0000  -999.2500  -999.2500   -25.8200   159.7592     7.2437     6.6175
  240.5000  -999.2500  -999.2500   -25.7409   157.7716     7.2905     6.6719
  241.0000  -999.2500  -999.2500   -25.6620   155.7859     7.3364     6.7232
