~VERSION INFORMATION
 VERS.                2.0:   CWLS LOG ASCII STANDARD - VERSION 2.0
 WRAP.                 NO:   ONE LINE PER DEPTH STEP
~WELL INFORMATION
#MNEM.UNIT      DATA TYPE    INFORMATION
#----------   ------------   ------------------------------
 STRT.F           30.0000:   START DEPTH
 STOP.F         2432.5000:   STOP DEPTH
 STEP.F            0.5000:   STEP LENGTH
 NULL.          -999.2500:   NO VALUE
 COMP. FENIX & SCISSON INC:   COMPANY
 WELL.     72 SHX 4 #72-4:   WELL
 FLD .             TEAPOT:   FIELD
 LOC .       S4 T38N R78W:   LOCATION
 CNTY.            NATRONA:   COUNTY
 STAT.            WYOMING:   STATE
 CTRY. UNITED STATES OF AMERICA:   COUNTRY
 SRVC.           BIRDWELL:   SERVICE COMPANY
 DATE.        05-MAR-1979:   LOGDATE
 API .       490251074300:   API NUMBER
~CURVE INFORMATION
#MNEM.UNIT       API CODE    CURVE DESCRIPTION
#----------   ------------   ------------------------------
 DEPT.F                  :   
 SPR .MV     05 010 01 00:   SPONTANEOUS POTENTIAL FROM RES.
 SN  .OHMM   05 040 16 00:   SHORT NORMAL 16"
 ILD .OHMM   05 120 46 00:   INDUCTION LOG DEEP
 CALD.IN     45 280 60 00:   CALIPER
 GRD .GAPI   45 310 01 00:   GAMMA RAY FROM DENSITY LOG
 RHOB.G/C3   45 350 01 00:   BULK DENSITY
 CORR.G/C3   45 356 01 00:   DENSITY CORRECTION
 DPHI.DEC    45 890 12 00:   DENSITY POROSITY SANDSTONE
~PARAMETER INFORMATION
#MNEM.UNIT          VALUE    DESCRIPTION
#----------   ------------   ------------------------------
 PD  .                 GL:   PERMANENT DATUM
 EPD .F              5194:   ELEVATION PERMANENT DATUM
 LMF .                 KB:   LOG MEASURED FROM
 DAPD.F                10:   FEET ABOVE PERMANENT DATUM
 DMF .                 KB:   DRILLING MEASURED FROM
 EKB .F              5204:   KELLING BUSHING
 EGL .F              5194:   GROUND LEVEL
 DATE.             3-5-79:   RUN DATE
 RUN .                  1:   RUN NUMBER
 DD  .F              2560:   DEPTH DRILLER
 DL  .F              2432:   DEPTH LOGGER
 BLI .F              2432:   BOTTOM LOG INTERVAL
 TLI .F               400:   TOP LOG INTERVAL
 CS  .IN            9.625:   CASING SIZE
 CBD .F               685:   CASING BOTTOM DRILLER
 CBL .F               685:   CASING BOTTOM LOGGER
 BS  .IN             8.75:   BIT SIZE
 BSD .F              2560:   BIT SIZE AT DEPTH
 DFT .                AIR:   DRILLING FLUID TYPE
 TCS .HRS               5:   TIME CURCULATED STOPPED
 LUN .               3006:   LOGGING UNIT NUMBER
 LUL .             CASPER:   LOGGING UNIT LOCATION
 ENGI.         B. ROLLINS:   RECORDING ENGINEER
 WITN.           DINSMORE:   WITNESSED BY
 CLNT.            A2DTECH:   CLIENT CODE
 ORIG.           5" PRINT:   ORIGIN OF DATA
 UWI .       490251074300:   UNIQUE WELL ID
 DICO. A2D Technologies, Inc.:   DIGITIZING COMPANY
~OTHER INFORMATION
~A   DEPT      SPR         SN        ILD        CALD       GRD       RHOB         CORR      DPHI  
# ...
 1893.0000  -999.2500  -999.2500  -999.2500     8.9574    90.2944     2.5216     0.0371     0.0136
 1893.5000  -999.2500  -999.2500  -999.2500     8.9555    89.9479     2.5227     0.0415     0.0092
 1894.0000  -999.2500  -999.2500  -999.2500     8.9535    91.2925     2.5252     0.0373     0.0092
 1894.5000  -999.2500  -999.2500  -999.2500     8.9515    92.8981     2.5129     0.0170     0.0301
 1895.0000  -999.2500  -999.2500  -999.2500     8.9495    94.0136     2.4955     0.0041     0.0204
 1895.5000  -999.2500  -999.2500  -999.2500     8.9475    92.4860     2.5100     0.0058     0.0101
 1896.0000  -999.2500  -999.2500  -999.2500     8.9455    89.9141     2.5252     0.0049     0.0052
 1896.5000  -999.2500  -999.2500  -999.2500     8.9435    87.3187     2.5313     0.0032     0.0090
 1897.0000  -999.2500  -999.2500  -999.2500     8.9415    85.6215     2.5261     0.0015     0.0176
 1897.5000  -999.2500  -999.2500  -999.2500     8.9395    84.8988     2.5209    -0.0002     0.0183
 1898.0000  -999.2500  -999.2500  -999.2500     8.9394    83.4988     2.5198     0.0064     0.0128
 1898.5000  -999.2500  -999.2500  -999.2500     8.9505    81.4960     2.5219     0.0149     0.0100
 1899.0000  -999.2500  -999.2500  -999.2500     8.9614    82.2257     2.5225     0.0201     0.0126
 1899.5000  -999.2500  -999.2500  -999.2500     8.9721    83.9337     2.5168     0.0200     0.0188
 1900.0000  -999.2500  -999.2500  -999.2500     8.9687    85.4307     2.5113     0.0240     0.0237
 1900.5000  -999.2500  -999.2500  -999.2500     8.9496    86.4155     2.5063     0.0298     0.0242
 1901.0000  -999.2500  -999.2500  -999.2500     8.9306    87.3717     2.5059     0.0356     0.0247
 1901.5000  -999.2500  -999.2500  -999.2500     8.9115    89.0663     2.5061     0.0414     0.0169
 1902.0000  -999.2500  -999.2500  -999.2500     8.8925    91.2608     2.5100     0.0469    -0.0018
 1902.5000  -999.2500  -999.2500  -999.2500     8.8734    93.4664     2.5278     0.0614    -0.0189
 1903.0000  -999.2500  -999.2500  -999.2500     8.8544    95.4344     2.5623     0.0771    -0.0189
 1903.5000  -999.2500  -999.2500  -999.2500     8.8352    95.3257     2.5636     0.0931     0.0036
 1904.0000  -999.2500  -999.2500  -999.2500     8.8160    88.5001     2.5517     0.0956    -0.0020
 1904.5000  -999.2500  -999.2500  -999.2500     8.7984    83.3393     2.5451     0.0923    -0.0112
 1905.0000  -999.2500  -999.2500  -999.2500     8.8081    78.2268     2.5593     0.0892    -0.0107
 1905.5000  -999.2500  -999.2500  -999.2500     8.8176    74.7894     2.5670     0.0862    -0.0095
 1906.0000  -999.2500  -999.2500  -999.2500     8.8177    80.1243     2.5607     0.0812    -0.0083
 1906.5000  -999.2500  -999.2500  -999.2500     8.8176    84.4671     2.5549     0.0721    -0.0071
 1907.0000  -999.2500  -999.2500  -999.2500     8.8179    87.0790     2.5513     0.0629    -0.0060
 1907.5000  -999.2500  -999.2500  -999.2500     8.8286    89.6389     2.5479     0.0494     0.0108
 1908.0000  -999.2500  -999.2500  -999.2500     8.8396    92.2035     2.5330     0.0300     0.0271
 1908.5000  -999.2500  -999.2500  -999.2500     8.8503    94.7815     2.5136     0.0109     0.0321
 1909.0000  -999.2500  -999.2500  -999.2500     8.8532    95.9691     2.4964     0.0173     0.0215
 1909.5000  -999.2500  -999.2500  -999.2500     8.8392    95.9763     2.4972     0.0254     0.0076
 1910.0000  -999.2500  -999.2500  -999.2500     8.8262    96.7606     2.5285     0.0334     0.0048
 1910.5000  -999.2500  -999.2500  -999.2500     8.8421    97.7309     2.5354     0.0413     0.0107
 1911.0000  -999.2500  -999.2500  -999.2500     8.8550    98.6925     2.5281     0.0402     0.0153
 1911.5000  -999.2500  -999.2500  -999.2500     8.8684    98.5610     2.5197     0.0382     0.0192
 1912.0000  -999.2500  -999.2500  -999.2500     8.8822    97.7587     2.5145     0.0404     0.0188
 1912.5000  -999.2500  -999.2500  -999.2500     8.8959    96.9715     2.5166     0.0429     0.0075
 1913.0000  -999.2500  -999.2500  -999.2500     8.9096    96.1762     2.5212     0.0499    -0.0038
 1913.5000  -999.2500  -999.2500  -999.2500     8.9233    95.0421     2.5368     0.0625    -0.0077
 1914.0000  -999.2500  -999.2500  -999.2500     8.9370    92.6028     2.5473     0.0683    -0.0010
 1914.5000  -999.2500  -999.2500  -999.2500     8.9508    90.2342     2.5420     0.0564     0.0114
 1915.0000  -999.2500  -999.2500  -999.2500     8.9650    87.8636     2.5270     0.0411     0.0233
 1915.5000  -999.2500  -999.2500  -999.2500     8.9726    85.5086     2.5120     0.0258     0.0233
 1916.0000  -999.2500  -999.2500  -999.2500     8.9681    84.2686     2.5084     0.0236     0.0084
 1916.5000  -999.2500  -999.2500  -999.2500     8.9791    85.5006     2.5236     0.0231     0.0089
 1917.0000  -999.2500  -999.2500  -999.2500     8.9911    87.9083     2.5199     0.0226     0.0125
 1917.5000  -999.2500  -999.2500  -999.2500     9.0028    90.3181     2.5151     0.0221     0.0161
 1918.0000  -999.2500  -999.2500  -999.2500     9.0146    92.7557     2.5103     0.0239     0.0206
 1918.5000  -999.2500  -999.2500  -999.2500     9.0263    93.0538     2.5055     0.0261     0.0263
 1919.0000  -999.2500  -999.2500  -999.2500     9.0381    90.5820     2.5007     0.0283     0.0301
 1919.5000  -999.2500  -999.2500  -999.2500     9.0499    91.6973     2.5005     0.0298     0.0223
 1920.0000  -999.2500  -999.2500  -999.2500     9.0616    92.3408     2.5005     0.0276     0.0208
 1920.5000  -999.2500  -999.2500  -999.2500     9.0735    90.2317     2.5000     0.0255     0.0313
 1921.0000  -999.2500  -999.2500  -999.2500     9.0812    88.1422     2.4979     0.0264     0.0289
 1921.5000  -999.2500  -999.2500  -999.2500     9.0893    86.5317     2.4972     0.0366     0.0253
 1922.0000  -999.2500  -999.2500  -999.2500     9.0973    88.7439     2.4996     0.0463     0.0243
 1922.5000  -999.2500  -999.2500  -999.2500     9.1054    92.3084     2.5019     0.0543     0.0230
 1923.0000  -999.2500  -999.2500  -999.2500     9.1133    95.8315     2.5042     0.0542     0.0217
 1923.5000  -999.2500  -999.2500  -999.2500     9.1143    95.8509     2.5041     0.0537     0.0245
 1924.0000  -999.2500  -999.2500  -999.2500     9.0899    89.5657     2.5037     0.0444     0.0269
 1924.5000  -999.2500  -999.2500  -999.2500     9.0659    88.1411     2.5037     0.0353     0.0204
 1925.0000  -999.2500  -999.2500  -999.2500     9.0419    91.4965     2.5051     0.0272     0.0176
 1925.5000  -999.2500  -999.2500  -999.2500     9.0180    94.8900     2.5064     0.0241     0.0257
 1926.0000  -999.2500  -999.2500  -999.2500     8.9940    96.9936     2.5079     0.0261     0.0214
 1926.5000  -999.2500  -999.2500  -999.2500     8.9700    98.1671     2.5102     0.0359     0.0144
 1927.0000  -999.2500  -999.2500  -999.2500     8.9460    99.5624     2.5138     0.0386     0.0151
 1927.5000  -999.2500  -999.2500  -999.2500     8.9437   102.5272     2.5120     0.0392     0.0199
 1928.0000  -999.2500  -999.2500  -999.2500     8.9561   105.9965     2.5076     0.0398     0.0245
 1928.5000  -999.2500  -999.2500  -999.2500     8.9685   109.5129     2.5035     0.0429     0.0241
 1929.0000  -999.2500  -999.2500  -999.2500     8.9810   112.4797     2.5045     0.0471     0.0184
 1929.5000  -999.2500  -999.2500  -999.2500     8.9936   114.0479     2.5145     0.0514     0.0114
 1930.0000  -999.2500  -999.2500  -999.2500     8.9962   113.1798     2.5245     0.0558     0.0068
 1930.5000  -999.2500  -999.2500  -999.2500     8.9936   109.1605     2.5345     0.0601    -0.0046
 1931.0000  -999.2500  -999.2500  -999.2500     8.9908   105.2605     2.5445     0.0642    -0.0088
 1931.5000  -999.2500  -999.2500  -999.2500     8.9881   101.3901     2.5517     0.0632    -0.0016
 1932.0000  -999.2500  -999.2500  -999.2500     8.9853    98.5687     2.5440     0.0440     0.0149
 1932.5000  -999.2500  -999.2500  -999.2500     8.9826    97.5985     2.5189     0.0254     0.0301
 1933.0000  -999.2500  -999.2500  -999.2500     8.9799    97.4345     2.4940     0.0139     0.0453
