~VERSION INFORMATION
 VERS.                2.0:   CWLS LOG ASCII STANDARD - VERSION 2.0
 WRAP.                 NO:   ONE LINE PER DEPTH STEP
~WELL INFORMATION
#MNEM.UNIT      DATA TYPE    INFORMATION
#----------   ------------   ------------------------------
 STRT.F            8.0000:   START DEPTH
 STOP.F          500.0000:   STOP DEPTH
 STEP.F            0.5000:   STEP LENGTH
 NULL.          -999.2500:   NO VALUE
 COMP. FENIX & SCISSON INC:   COMPANY
 WELL. 65 12 SX 3FI #65-3:   WELL
 FLD .             TEAPOT:   FIELD
 LOC .       S3 T38N R78W:   LOCATION
 CNTY.            NATRONA:   COUNTY
 STAT.            WYOMING:   STATE
 CTRY. UNITED STATES OF AMERICA:   COUNTRY
 SRVC.              Welex:   SERVICE COMPANY
 DATE.        01-JUN-1980:   LOGDATE
 API .       490251082400:   API NUMBER
~CURVE INFORMATION
#MNEM.UNIT       API CODE    CURVE DESCRIPTION
#----------   ------------   ------------------------------
 DEPT.F                  :   
 GRD .GAPI   45 310 01 00:   GAMMA RAY FROM DENSITY LOG
 CALD.IN     45 280 60 00:   CALIPER
 RHOB.G/C3   45 350 01 00:   BULK DENSITY
 CORR.G/C3   45 356 01 00:   DENSITY CORRECTION
 DPHI.DEC    45 890 12 00:   DENSITY POROSITY SANDSTONE
 NPHI.DEC    42 890 03 00:   NEUTRON POROSITY SANDSTONE
 SPR .MV     07 010 01 00:   SPONTANEOUS POTENTIAL
 SGRD.OHMM   07 220 05 00:   SHALLOW GUARD RESISTIVITY
 ILD .OHMM   07 120 46 00:   INDUCTION LOG DEEP
 ILM .OHMM   07 120 44 00:   INDUCTION LOG MEDIUM
~PARAMETER INFORMATION
#MNEM.UNIT          VALUE    DESCRIPTION
#----------   ------------   ------------------------------
 PD  .                 GL:   PERMANENT DATUM
 EPD .F              5155:   ELEVATION PERMANENT DATUM
 LMF .                 KB:   LOG MEASURED FROM
 DAPD.F                 4:   FEET ABOVE PERMANENT DATUM
 DMF .                 KB:   DRILLING MEASURED FROM
 EKB .F              5159:   KELLING BUSHING
 EGL .F              5155:   GROUND LEVEL
 DATE.             6-1-80:   RUN DATE
 RUN .                  1:   RUN NUMBER
 DD  .F               505:   DEPTH DRILLER
 DL  .F               502:   DEPTH LOGGER
 BLI .F               500:   BOTTOM LOG INTERVAL
 TLI .F                20:   TOP LOG INTERVAL
 BS  .IN            9.875:   BIT SIZE
 BSD .F               505:   BIT SIZE AT DEPTH
 DFT .      OIL BASED MUD:   DRILLING FLUID TYPE
 MSS .            MUD PIT:   MUD SAMPLE SOURCE
 RMS .OHMM             .9:   RESISTIVITY MUD SAMPLE
 MST .F                65:   MUD SAMPLE TEMPERATURE
 RMF .OHMM            .72:   RESISTIVITY MUD FILTRATE SAMPLE
 MFST.F                65:   MUD FILTRATE SAMPLE TEMPERATURE
 RMC .OHMM           1.08:   RESISTIVITY MUD CAKE
 MCST.F                65:   MUD CAKE SAMPLE TEMPERATURE
 MFSS.           MEASURED:   MUD FILTRATE SAMPLE SOURCE
 MCSS.           MEASURED:   MUD CAKE SAMPLE SOURCE
 RMB .OHMM            .71:   RESISTIVITY MUD AT BHT
 BHT .F                76:   BOTTOM HOLE TEMPERATURE
 TCS .HRS               2:   TIME CURCULATED STOPPED
 MRT .F                76:   MAXIMUM RECORDED TEMPERATURE
 LUN .               9685:   LOGGING UNIT NUMBER
 LUL .             CASPER:   LOGGING UNIT LOCATION
 ENGI.               REIN:   RECORDING ENGINEER
 WITN.            RHOADES:   WITNESSED BY
 CLNT.            A2DTECH:   CLIENT CODE
 ORIG.        2" 5" PRINT:   ORIGIN OF DATA
 UWI .       490251082400:   UNIQUE WELL ID
 DICO. A2D Technologies, Inc.:   DIGITIZING COMPANY
~OTHER INFORMATION
~A    DEPT     GRD       CALD       RHOB       CORR       DPHI       NPHI        SPR        SGRD         ILD        ILM 
# ...
  309.5000    76.1081    10.1392     2.3437     0.0065     0.1839     0.2545   -10.2672    30.6694    22.2656    24.1483
  310.0000    76.2086    10.0778     2.3753     0.0291     0.1674     0.2535   -10.2270    30.9945    22.4002    24.3421
  310.5000    75.4540    10.0166     2.3976     0.0361     0.1570     0.2518   -10.1877    31.3230    22.5354    24.5375
  311.0000    74.7148     9.9735     2.4114     0.0438     0.1511     0.2501   -10.1814    31.6549    22.6713    24.7345
  311.5000    73.9733     9.9624     2.4220     0.0512     0.1469     0.2464   -10.2950    32.5931    22.8082    25.3714
  312.0000    73.2291     9.9507     2.4318     0.0571     0.1511     0.2412   -10.4045    34.5209    22.9454    26.3158
  312.5000    72.5022     9.9392     2.4257     0.0498     0.1484     0.2360   -10.5139    32.8869    23.0560    27.6990
  313.0000    72.3304     9.9317     2.4288     0.0453     0.1456     0.2347   -10.6233    30.3435    22.9298    26.9889
  313.5000    74.2059     9.9243     2.4342     0.0473     0.1501     0.2428   -10.7326    27.9968    23.0560    25.8426
  314.0000    76.0258     9.9169     2.4250     0.0489     0.1560     0.2465   -10.8420    25.8316    22.4328    24.7450
  314.5000    76.9363     9.9095     2.4155     0.0414     0.1606     0.2496   -10.9517    24.3457    21.8216    23.6941
  315.0000    76.4764     9.9021     2.4081     0.0336     0.1549     0.2523   -11.0612    23.7339    21.2270    23.0403
  315.5000    76.3299     9.8947     2.4158     0.0363     0.1535     0.2554   -11.1427    23.4481    20.6487    22.6537
  316.0000    77.4155     9.8873     2.4182     0.0373     0.1591     0.2590   -11.0573    23.4007    20.0861    22.2736
  316.5000    78.4682     9.8804     2.4103     0.0271     0.1620     0.2578   -10.9722    23.3493    19.5389    21.8999
  317.0000    79.2981     9.8831     2.4026     0.0172     0.1635     0.2542   -10.8877    23.2978    19.0065    21.5325
  317.5000    79.0555     9.8861     2.4077     0.0184     0.1528     0.2531   -10.8033    23.2464    18.4887    21.2288
  318.0000    78.7911     9.8891     2.4229     0.0348     0.1451     0.2512   -10.7188    23.1951    18.1062    21.0889
  318.5000    78.5271     9.8920     2.4285     0.0510     0.1509     0.2536   -10.6340    23.1439    17.9384    20.9427
  319.0000    78.2646     9.8950     2.4218     0.0455     0.1546     0.2542   -10.5549    23.0928    17.7760    20.7983
  319.5000    77.9975     9.8979     2.4152     0.0408     0.1572     0.2543   -10.5714    23.0418    17.6145    20.6548
  320.0000    77.7549     9.9009     2.4187    -0.0484     0.1573     0.2585   -10.5912    22.9909    17.4526    20.5122
  320.5000    76.5872     9.9038     2.4235     0.0165     0.1513     0.2590   -10.6106    22.9401    17.3499    20.3690
  321.0000    74.9460     9.9067     2.4166     0.0373     0.1550     0.2590   -10.6299    22.8897    17.5237    20.2778
  321.5000    73.2810     9.9097     2.4202     0.0366     0.1512     0.2600   -10.6492    22.8449    17.6555    20.5071
  322.0000    71.6348     9.9126     2.4195     0.0413     0.1594     0.2612   -10.6685    22.8245    17.7882    20.6814
  322.5000    70.7486     9.9156     2.4025     0.0307     0.1675     0.2648   -10.6878    22.8017    17.9219    20.8571
  323.0000    72.2579     9.9185     2.3953     0.0248     0.1730     0.2710   -10.7072    22.7791    18.0567    21.0343
  323.5000    73.6901     9.9252     2.3775     0.0126     0.1785     0.2690   -10.7273    22.7565    18.1924    21.2288
  324.0000    75.1200     9.9333     2.3706     0.0007     0.1801     0.2660   -10.7529    22.7339    18.3291    21.1029
  324.5000    76.4151     9.9415     2.3742     0.0028     0.1801     0.2634   -10.5101    22.7113    18.4669    20.9656
  325.0000    77.4944     9.9497     2.3763     0.0066     0.1792     0.2643   -10.2047    22.6887    18.6058    20.8293
  325.5000    78.5287     9.9580     2.3703     0.0105     0.1855     0.2625    -9.6263    22.6663    18.7456    20.6938
  326.0000    78.9687     9.9662     2.3644     0.0094     0.1882     0.2596    -7.7594    22.6426    18.8865    20.5591
  326.5000    77.9820     9.9744     2.3587     0.0066     0.1901     0.2614    -5.9150    22.5179    19.0159    20.4254
  327.0000    76.9977     9.9827     2.3576     0.0036     0.1844     0.2593    -4.0777    22.3428    18.8478    20.2925
  327.5000    76.0226     9.9909     2.3740     0.0036     0.1756     0.2630    -2.2219    22.1707    18.6947    20.1620
  328.0000    75.5000     9.9971     2.3902     0.0185     0.1647     0.2740    -1.3726    22.0000    18.5428    20.0325
  328.5000    76.6899     9.9875     2.3996     0.0355     0.1675     0.2717    -1.0457    21.8306    18.3922    19.9039
  329.0000    77.9320     9.9781     2.3929     0.0334     0.1698     0.2677    -0.7362    21.6624    18.2427    19.7761
  329.5000    79.1774     9.9687     2.4012     0.0225     0.1637     0.2702    -0.4231    21.4956    18.0945    19.6491
  330.0000    80.4108     9.9593     2.4024     0.0180     0.1675     0.2756    -0.4172    21.3301    17.9475    19.5229
  330.5000    81.4713     9.9499     2.3975     0.0192     0.1574     0.2808    -0.6175    21.1658    17.8017    19.3975
  331.0000    82.1314     9.9405     2.4205     0.0280     0.1511     0.2790    -0.8211    21.0028    17.6570    19.2729
  331.5000    82.7584     9.9311     2.4367     0.0395     0.1444     0.2770    -1.0251    20.8410    17.5136    19.1492
  332.0000    81.4907     9.9215     2.4415     0.0492     0.1405     0.2702    -1.2293    20.6805    17.3713    19.0262
  332.5000    80.0845     9.9173     2.4439     0.0464     0.1422     0.2594    -1.4394    20.4640    17.2302    18.9040
  333.0000    78.6794     9.9143     2.4394     0.0439     0.1471     0.2564    -1.4230    20.5637    17.0902    18.7826
  333.5000    77.2849     9.9115     2.4332     0.0404     0.1532     0.2556    -1.3510    20.7209    16.9513    18.6619
  334.0000    76.2109     9.9086     2.4165     0.0339     0.1635     0.2568    -1.2773    20.8793    16.8136    18.5419
  334.5000    76.9575     9.9057     2.3922     0.0123     0.1739     0.2584    -1.2041    21.0389    16.6770    18.4231
  335.0000    77.6755     9.9027     2.3683    -0.0090     0.1848     0.2566    -1.1332    21.1997    16.5658    18.3308
  335.5000    78.3881     9.8999     2.3670    -0.0261     0.1814     0.2566    -1.1619    21.3617    16.5410    18.4246
  336.0000    79.1390     9.9008     2.3790    -0.0215     0.1702     0.2599    -1.3877    21.5250    16.5163    18.5397
  336.5000    79.9185     9.9019     2.3913    -0.0093     0.1706     0.2614    -1.6103    21.6219    16.4916    18.6556
  337.0000    80.6996     9.9030     2.3853    -0.0033     0.1772     0.2626    -1.8333    21.3758    16.4669    18.7722
  337.5000    81.4967     9.9041     2.3769    -0.0112     0.1798     0.2674    -2.0561    21.2029    16.4422    18.8423
  338.0000    81.4207     9.9052     2.3850    -0.0079     0.1741     0.2740    -2.2790    21.0314    16.4176    18.8423
  338.5000    81.1632     9.9062     2.3808    -0.0018     0.1753     0.2804    -2.5018    20.8613    16.3930    18.8422
  339.0000    80.9232     9.9073     2.3832     0.0044     0.1735     0.2810    -2.7246    20.6925    16.3685    18.8422
  339.5000    79.5721     9.9084     2.3874     0.0035     0.1785     0.2800    -2.9474    20.5252    16.3440    18.8422
  340.0000    78.0082     9.9094     2.3915    -0.0069     0.1620     0.2784    -3.1703    20.3591    16.3195    18.8421
  340.5000    76.4415     9.9105     2.4063    -0.0047     0.1530     0.2717    -3.3975    20.1944    16.2953    18.7024
  341.0000    75.2551     9.9116     2.4212    -0.0001     0.1470     0.2587    -3.6192    20.0919    16.2680    18.5598
  341.5000    74.6038     9.9127     2.4288     0.0026     0.1366     0.2456    -3.8465    20.6709    16.3977    18.4146
  342.0000    73.9589     9.9137     2.4470    -0.0021     0.1186     0.2326    -4.0736    21.3190    16.6240    18.3321
  342.5000    73.3149     9.9148     2.4808     0.0064     0.1018     0.2187    -4.3001    23.2254    16.9235    19.5085
