~VERSION INFORMATION
 VERS.                2.0:   CWLS LOG ASCII STANDARD - VERSION 2.0
 WRAP.                 NO:   ONE LINE PER DEPTH STEP
~WELL INFORMATION
#MNEM.UNIT      DATA TYPE    INFORMATION
#----------   ------------   ------------------------------
 STRT.F           80.0000:   START DEPTH
 STOP.F          718.5000:   STOP DEPTH
 STEP.F            0.5000:   STEP LENGTH
 NULL.          -999.2500:   NO VALUE
 COMP. U S NAVY-INTEX OIL:   COMPANY
 WELL. RES 3 TEAPOT DOM #21-S-2:   WELL
 FLD .        TEAPOT DOME:   FIELD
 LOC .       S2 T38N R78W:   LOCATION
 CNTY.            NATRONA:   COUNTY
 STAT.            WYOMING:   STATE
 CTRY. UNITED STATES OF AMERICA:   COUNTRY
 SRVC. Schlumberger Well Surveying Corp:   SERVICE COMPANY
 DATE.        18-JUL-1962:   LOGDATE
 API .       490250648100:   API NUMBER
~CURVE INFORMATION
#MNEM.UNIT       API CODE    CURVE DESCRIPTION
#----------   ------------   ------------------------------
 DEPT.F                  :   
 CALM.IN     15 280 01 00:   CALIPER FROM MICRO LOG
 SPR .MV     05 010 01 00:   SPONTANEOUS POTENTIAL FROM RES.
 ASN .OHMM   05 041 16 00:   AMPLIFIED SHORT NORMAL 16"
 ILD .OHMM   05 120 46 00:   INDUCTION LOG DEEP
 CILD.MMHO   05 110 46 00:   CONDUCTIVITY INDUCTION LOG DEEP
~PARAMETER INFORMATION
#MNEM.UNIT          VALUE    DESCRIPTION
#----------   ------------   ------------------------------
 LMF .                 KB:   LOG MEASURED FROM
 DMF .                 KB:   DRILLING MEASURED FROM
 EKB .F              5116:   KELLING BUSHING
 EGL .F              5111:   GROUND LEVEL
 DATE.          7-18-1962:   RUN DATE
 RUN .                  1:   RUN NUMBER
 DD  .F               719:   DEPTH DRILLER
 DL  .F               719:   DEPTH LOGGER
 BLI .F               718:   BOTTOM LOG INTERVAL
 TLI .F                90:   TOP LOG INTERVAL
 BS  .IN             6.75:   BIT SIZE
 BSD .F               719:   BIT SIZE AT DEPTH
 DFT .           OIL EMUL:   DRILLING FLUID TYPE
 DFD .                 10:   DRILLING FLUID DENSITY
 DFV .                 45:   DRILLING FLUID VISCOSITY
 DFL .                2.8:   DRILLING FLUID LOSS
 RMS .OHMM           3.87:   RESISTIVITY MUD SAMPLE
 MST .F                94:   MUD SAMPLE TEMPERATURE
 RMF .OHMM           2.93:   RESISTIVITY MUD FILTRATE SAMPLE
 MFST.F                94:   MUD FILTRATE SAMPLE TEMPERATURE
 RMC .OHMM           3.95:   RESISTIVITY MUD CAKE
 MCST.F                94:   MUD CAKE SAMPLE TEMPERATURE
 TCS .HRS              .5:   TIME CURCULATED STOPPED
 LUN .               2503:   LOGGING UNIT NUMBER
 LUL .              CSPR.:   LOGGING UNIT LOCATION
 ENGI.             DANNER:   RECORDING ENGINEER
 WITN.          JORGENSEN:   WITNESSED BY
 CLNT.            A2DTECH:   CLIENT CODE
 ORIG.      2" , 5" PRINT:   ORIGIN OF DATA
 UWI .       490250648100:   UNIQUE WELL ID
 DICO. A2D Technologies, Inc.:   DIGITIZING COMPANY
~OTHER INFORMATION
~A   DEPT     CALM        SPR          ASN        ILD      CILD  
# ...
  568.0000     6.6366   -50.0252     5.6853     4.6993   210.6349
  568.5000     6.6605   -50.1132     6.0766     5.0201   198.1249
  569.0000     6.6889   -50.6038     6.4586     5.4332   182.2053
  569.5000     6.7170   -51.1194     6.7044     5.8266   166.2857
  570.0000     6.7450   -51.3126     6.8958     6.1880   155.5905
  570.5000     6.7730   -51.2857     7.0164     6.5530   147.5251
  571.0000     6.8015   -50.5929     7.1383     6.6974   144.3593
  571.5000     6.8305   -49.8848     7.2430     6.7241   142.6093
  572.0000     6.8688   -49.1801     7.3263     6.7487   141.6595
  572.5000     6.9597   -48.4742     7.4096     6.7731   140.7098
  573.0000     6.9597   -47.7702     7.4888     6.7978   139.7601
  573.5000     6.9391   -47.7123     7.5416     6.8226   138.8103
  574.0000     6.9557   -47.7502     7.5886     6.8473   137.8605
  574.5000     6.9763   -47.7892     7.6100     6.8716   137.1859
  575.0000     6.9759   -47.8270     7.6303     6.8646   137.1859
  575.5000     6.9759   -47.8645     7.6506     6.8245   137.6159
  576.0000     6.9760   -47.9773     7.6645     6.7846   139.0229
  576.5000     6.9750   -48.1624     7.6264     6.7446   140.4299
  577.0000     6.9489   -48.3480     7.5607     6.7046   141.8370
  577.5000     6.9218   -48.5342     7.4678     6.6646   142.5085
  578.0000     6.8964   -48.6881     7.4248     6.6241   142.9138
  578.5000     6.9044   -48.3516     7.3941     6.5854   143.3190
  579.0000     6.9138   -47.9918     7.3639     6.6200   143.7230
  579.5000     6.9230   -47.6306     7.3335     6.6576   144.0988
  580.0000     6.9322   -47.4465     7.3035     6.6065   147.7480
  580.5000     6.9290   -47.3826     7.2759     6.3950   152.2368
  581.0000     6.8946   -47.3210     7.1256     6.1705   165.0310
  581.5000     6.8610   -47.2597     6.9381     5.5950   179.9291
  582.0000     6.8273   -47.1988     6.5451     4.9975   194.8271
  582.5000     6.7933   -47.1399     6.1445     4.7471   206.6834
  583.0000     6.7591   -47.0584     5.7462     4.6953   210.6953
  583.5000     6.7998   -46.5215     5.5424     4.6473   212.5372
  584.0000     6.9222   -45.9715     5.5229     4.6002   213.9397
  584.5000     7.0322   -45.4953     5.3577     4.6065   214.0302
  585.0000     6.9948   -46.0272     5.2816     4.6833   211.8593
  585.5000     6.9531   -46.5761     5.8411     4.7589   205.3786
  586.0000     6.9121   -47.0751     6.1101     4.8335   198.2027
  586.5000     6.8712   -47.1696     6.1954     4.7998   198.7754
  587.0000     6.8303   -47.2530     6.0843     4.6420   207.7372
  587.5000     6.7895   -47.3378     5.7566     4.4807   217.5879
  588.0000     6.7479   -47.4196     5.4032     4.4315   220.6298
  588.5000     6.7498   -47.3714     5.1473     4.3884   221.6080
  589.0000     6.7722   -47.0039     5.1733     4.3442   221.6080
  589.5000     6.7951   -46.6376     5.4334     4.3005   220.6030
  590.0000     6.8181   -46.6296     5.3519     4.2896   217.9038
  590.5000     6.8410   -47.0050     5.4631     4.4323   210.3869
  591.0000     6.8639   -47.8987     5.9662     4.8315   198.1080
  591.5000     6.8868   -48.0814     6.4217     5.3098   181.0126
  592.0000     6.9098   -47.9269     6.6043     5.7886   163.9171
  592.5000     6.9329   -47.4752     6.7404     6.2314   152.1752
  593.0000     6.9242   -47.0314     6.8203     6.3825   149.2462
  593.5000     6.9076   -46.6570     6.8601     6.2422   153.0000
  594.0000     6.8906   -46.6238     6.8782     5.8777   159.7878
  594.5000     6.8750   -46.5842     6.8352     5.5155   171.0441
  595.0000     6.8895   -46.5445     6.6819     5.1545   182.3004
  595.5000     6.9059   -46.5027     6.4413     4.8675   193.5567
  596.0000     6.9223   -46.3942     6.1525     4.8731   196.4109
  596.5000     6.9387   -46.0098     5.8616     4.8944   197.4874
  597.0000     6.9550   -45.6351     5.8069     4.9184   196.7322
  597.5000     6.9713   -45.2649     5.8193     4.9434   196.0086
  598.0000     6.9876   -45.2472     5.9368     4.9625   193.6817
  598.5000     6.9936   -45.6566     6.1409     5.2504   186.9280
  599.0000     6.9888   -46.0625     6.5744     5.6502   177.2810
  599.5000     6.9840   -46.3275     6.9977     6.0551   164.5018
  600.0000     6.9792   -46.4441     7.3649     6.4599   151.7227
  600.5000     6.9681   -46.5607     7.6936     6.8649   138.9435
  601.0000     6.9415   -46.6769     7.8668     7.2858   131.6181
  601.5000     6.9150   -46.7942     8.0426     7.4288   127.8794
  602.0000     6.8886   -46.9957     8.1517     7.4907   127.0328
  602.5000     6.8617   -47.3987     8.2648     7.5498   126.1425
  603.0000     6.8343   -47.7468     8.3127     7.6097   125.2521
  603.5000     6.8058   -47.9439     8.3428     7.6698   124.3618
  604.0000     6.7774   -48.1484     8.3722     7.7299   123.4715
  604.5000     6.7489   -48.3501     8.4103     7.7901   122.5811
  605.0000     6.7204   -48.5526     8.4668     7.8492   121.6908
  605.5000     6.6923   -48.7525     8.5049     7.8708   121.4294
  606.0000     6.6778   -48.9195     8.5293     7.8112   122.3557
  606.5000     6.6895   -49.0010     8.5530     7.7531   123.2928
  607.0000     6.7008   -49.0930     8.5647     7.6945   124.2286
  607.5000     6.7129   -49.4327     8.5043     7.6356   125.1628
  608.0000     6.6852   -49.8008     8.4444     7.5898   126.1307
  608.5000     6.6479   -50.1681     8.3844     7.7417   124.1370
  609.0000     6.6597   -50.5373     8.3220     7.9033   122.0461
  609.5000     6.7014   -50.6606     8.3679     8.0633   119.9768
  610.0000     6.7482   -50.3458     8.4908     8.2275   119.4598
  610.5000     6.8166   -50.0275     8.7034     8.1073   120.1005
  611.0000     6.8840   -49.7096     8.8965     7.7828   125.0653
  611.5000     6.9528   -49.3921     8.9681     7.1612   133.5578
  612.0000     6.9905   -49.0741     8.8887     6.5208   147.4322
  612.5000     7.0018   -48.7568     8.5253     5.8844   161.3065
  613.0000     7.0076   -48.4597     7.8285     5.3639   174.1558
  613.5000     7.0151   -48.3212     7.1504     5.3753   179.8887
  614.0000     6.9476   -48.1772     6.5552     5.3767   179.5205
  614.5000     6.8481   -48.0316     6.6872     5.3763   177.9863
  615.0000     6.7770   -47.8900     6.7200     5.3735   176.7638
  615.5000     6.7949   -47.9468     6.7808     5.3922   172.7236
  616.0000     6.8110   -48.0175     7.4397     5.8201   165.0452
  616.5000     6.8268   -48.0741     8.4766     6.4623   149.0916
  617.0000     6.8653   -47.7095     9.1798     7.3532   129.6869
  617.5000     6.9406   -47.3166     9.6930     8.2429   111.0553
  618.0000     7.0316   -46.9250    10.0343     9.1285   104.8040
  618.5000     7.0215   -46.5339    10.1582     9.7670    99.7588
  619.0000     7.0041   -46.1421    10.3481     9.5251   100.0653
  619.5000     6.9769   -45.7417    10.5440     9.3029   101.3266
  620.0000     6.9405   -45.6652    10.7511     9.0940   102.5879
  620.5000     6.9028   -45.6654    10.9697     9.3766   101.9028
  621.0000     6.9171   -45.7410    10.5793     9.7925    99.3382
  621.5000     6.9458   -45.9449    11.1568    10.2094    95.8803
  622.0000     6.9749   -46.1462    11.4741    10.6376    90.9822
  622.5000     7.0040   -46.3481    12.4802    11.4719    84.8123
  623.0000     7.0074   -46.5539    13.5810    12.2898    78.5776
  623.5000     6.9261   -47.0245    14.6847    13.1132    72.3502
  624.0000     6.7920   -47.9467    15.7891    14.0770    66.1300
  624.5000     6.6590   -49.2820    16.8939    15.2211    59.9075
  625.0000     6.5256   -51.3133    17.9981    16.3604    55.1089
  625.5000     6.5214   -53.3395    19.0941    17.5405    51.7454
  626.0000     6.6409   -55.3022    19.9707    18.4775    48.3819
  626.5000     6.7383   -55.9376    20.5801    19.4065    46.0133
  627.0000     6.6695   -56.0173    21.1987    19.8207    44.6006
  627.5000     6.5895   -56.4405    21.8197    20.2181    43.1879
  628.0000     6.5152   -57.7934    22.6126    20.6451    41.7753
  628.5000     6.5242   -59.4939    24.5173    21.6537    40.3626
