~VERSION INFORMATION
 VERS.                2.0:   CWLS LOG ASCII STANDARD - VERSION 2.0
 WRAP.                 NO:   ONE LINE PER DEPTH STEP
~WELL INFORMATION
#MNEM.UNIT      DATA TYPE    INFORMATION
#----------   ------------   ------------------------------
 STRT.F           34.0000:   START DEPTH
 STOP.F          604.0000:   STOP DEPTH
 STEP.F            0.5000:   STEP LENGTH
 NULL.          -999.2500:   NO VALUE
 COMP. FENIX & SCISSON INC:   COMPANY
 WELL.       NPR #17 SX-2:   WELL
 FLD .             TEAPOT:   FIELD
 LOC .       S2 T38N R78W:   LOCATION
 CNTY.            NATRONA:   COUNTY
 STAT.            WYOMING:   STATE
 CTRY. UNITED STATES OF AMERICA:   COUNTRY
 SRVC.       Schlumberger:   SERVICE COMPANY
 DATE.        18-MAR-1977:   LOGDATE
 API .       490251032700:   API NUMBER
~CURVE INFORMATION
#MNEM.UNIT       API CODE    CURVE DESCRIPTION
#----------   ------------   ------------------------------
 DEPT.F                  :   
 SPR .MV     07 010 01 00:   SPONTANEOUS POTENTIAL
 ILD .OHMM   07 120 46 00:   INDUCTION LOG DEEP
 ILM .OHMM   07 120 44 00:   INDUCTION LOG MEDIUM
 LL8 .OHMM   07 220 08 00:   LATEROLOG-8 RES.
 CALD.IN     45 280 60 00:   CALIPER FROM DENSITY LOG
 GRD .GAPI   45 310 01 00:   GAMMA RAY FROM DENSITY LOG
 CORR.G/C3   45 356 01 00:   DENSITY CORRECTION
 DPHI.DEC    45 890 12 00:   DENSITY POROSITY SANDSTONE
 RHOB.G/C3   45 350 01 00:   BULK DENSITY
~PARAMETER INFORMATION
#MNEM.UNIT          VALUE    DESCRIPTION
#----------   ------------   ------------------------------
 PD  .                 GL:   PERMANENT DATUM
 EPD .F              5122:   ELEVATION PERMANENT DATUM
 LMF .                 KB:   LOG MEASURED FROM
 DAPD.F                 4:   FEET ABOVE PERMANENT DATUM
 DMF .                 KB:   DRILLING MEASURED FROM
 EKB .F              5126:   KELLING BUSHING
 EGL .F              5122:   GROUND LEVEL
 DATE.        18-MAR-1977:   RUN DATE
 RUN .                  1:   RUN NUMBER
 DD  .F               600:   DEPTH DRILLER
 DL  .F               605:   DEPTH LOGGER
 BLI .F               604:   BOTTOM LOG INTERVAL
 TLI .F                44:   TOP LOG INTERVAL
 CS  .IN            8.625:   CASING SIZE
 CBD .F                40:   CASING BOTTOM DRILLER
 CBL .F                44:   CASING BOTTOM LOGGER
 BS  .IN            7.875:   BIT SIZE
 BSD .F               600:   BIT SIZE AT DEPTH
 DFT .            KCL MUD:   DRILLING FLUID TYPE
 DFD .                8.9:   DRILLING FLUID DENSITY
 DFV .                 39:   DRILLING FLUID VISCOSITY
 DFPH.                8.5:   DRILLING FLUID PH
 DFL .                6.1:   DRILLING FLUID LOSS
 MSS .                PIT:   MUD SAMPLE SOURCE
 RMS .OHMM           0.26:   RESISTIVITY MUD SAMPLE
 MST .F                52:   MUD SAMPLE TEMPERATURE
 RMF .OHMM           0.24:   RESISTIVITY MUD FILTRATE SAMPLE
 MFST.F                52:   MUD FILTRATE SAMPLE TEMPERATURE
 MFSS.               MEAS:   MUD FILTRATE SAMPLE SOURCE
 TCS .HRS            0230:   TIME CURCULATED STOPPED
 LUN .               7711:   LOGGING UNIT NUMBER
 LUL .               CSPR:   LOGGING UNIT LOCATION
 ENGI.             SAYLER:   RECORDING ENGINEER
 WITN.         STUEBINGER:   WITNESSED BY
 CLNT.            A2DTECH:   CLIENT CODE
 ORIG.           5" PRINT:   ORIGIN OF DATA
 UWI .       490251032700:   UNIQUE WELL ID
 DICO. A2D Technologies, Inc.:   DIGITIZING COMPANY
~OTHER INFORMATION
~A   DEPT      SPR        ILD        ILM        LL8       CALD        GRD       CORR       DPHI       RHOB   
# ...
  326.0000   -43.4396     8.5488     8.6327     8.8228     7.9449   115.0133     0.0181     0.1051     2.4726
  326.5000   -43.7362     8.5500     8.6339     8.7619     7.8711   116.0311     0.0144     0.1092     2.4691
  327.0000   -43.8838     8.5511     8.6351     8.5814     7.8719   115.4094     0.0084     0.1083     2.4657
  327.5000   -44.1803     8.4929     8.5764     8.5221     7.8873   113.5827     0.0047     0.1158     2.4503
  328.0000   -44.3279     8.4356     8.5183     8.4632     7.9472   112.0643     0.0107     0.1200     2.4490
  328.5000   -44.3408     8.0926     8.4605     8.3466     7.9181   111.6275     0.0145     0.1163     2.4590
  329.0000   -44.3249     7.5510     8.1163     8.0622     7.9187   113.7145     0.0093     0.1166     2.4610
  329.5000   -44.3234     7.1939     7.5727     7.7336     7.9490   115.2062     0.0055     0.1193     2.4536
  330.0000   -44.1729     6.8537     6.9199     7.2656     7.9792   116.4017     0.0078     0.1214     2.4469
  330.5000   -44.1714     6.5751     6.4117     6.7296     7.9947   116.5602     0.0146     0.1229     2.4395
  331.0000   -44.9150     6.3959     6.1083     6.1915     8.0252   116.4197     0.0116     0.1327     2.4328
  331.5000   -45.6587     6.1359     5.7789     5.7334     8.0561   115.9881     0.0147     0.1327     2.4321
  332.0000   -46.5514     4.8468     4.8248     5.3474     8.1464   115.5514     0.0184     0.1327     2.4276
  332.5000   -47.7422     3.9362     3.7060     5.0221     8.2344   114.3791     0.0186     0.1378     2.4082
  333.0000   -48.4858     3.2640     3.3167     4.5875     8.2351   114.5375     0.0140     0.1559     2.3739
  333.5000   -49.2295     2.9622     3.0307     4.0695     8.2357   114.8441     0.0110     0.1798     2.3470
  334.0000   -49.8241     2.8221     2.4610     3.4314     8.2213   113.6692     0.0088     0.2112     2.3247
  334.5000   -50.4222     2.6150     2.4274     2.7566     8.2221   110.4202     0.0058     0.2288     2.2799
  335.0000   -51.0134     2.4569     2.4446     2.4569     8.2375   109.0972     0.0126     0.2446     2.2545
  335.5000   -51.0119     2.4917     2.4964     2.4456     8.2529   107.7741     0.0194     0.2535     2.2411
  336.0000   -50.7124     2.6527     2.6395     2.7326     8.2535   105.2659     0.0179     0.2580     2.2314
  336.5000   -50.4128     2.9442     3.1404     3.3413     8.2541   104.8291     0.0157     0.2475     2.2471
  337.0000   -49.9423     3.0486     3.8418     4.2007     8.2397   106.1753     0.0110     0.2117     2.2927
  337.5000   -48.9071     3.3601     4.7655     5.0658     8.2553   109.7412    -0.0009     0.1743     2.3473
  338.0000   -48.1590     3.9973     5.7894     5.9008     8.2558   114.3440    -0.0022     0.1486     2.3906
  338.5000   -47.4262     4.7554     6.1637     6.8734     8.2414   119.2432    -0.0032     0.1447     2.4146
  339.0000   -47.1098     5.3644     6.3382     7.3162     8.2272   119.5498    -0.0059     0.1411     2.4198
  339.5000   -46.8087     6.1228     6.4726     7.3162     8.1983   119.5601     0.0020     0.1232     2.4385
  340.0000   -46.3785     6.7033     6.6558     7.2154     8.1988   119.7185     0.0152     0.1184     2.4550
  340.5000   -46.2067     7.0183     6.8920     6.9695     8.1846   119.7338     0.0152     0.1154     2.4595
  341.0000   -45.6075     7.0192     6.9894     7.1160     8.1407   119.8973     0.0182     0.1136     2.4662
  341.5000   -45.1575     7.0202     6.9904     7.2656     8.0671   120.6977     0.0213     0.1112     2.4775
  342.0000   -44.5842     7.0212     6.9913     7.3162     7.9638   123.5426     0.0273     0.1070     2.4820
  342.5000   -44.1356     6.9166     6.9923     7.3162     7.9345   125.2765     0.0311     0.0989     2.4842
  343.0000   -43.8361     6.7277     6.9933     7.6270     7.9056   125.4124     0.0199     0.1069     2.4828
  343.5000   -43.5362     6.5989     6.8026     7.7874     7.9047   124.6794     0.0146     0.1117     2.4731
  344.0000   -43.6841     6.3307     6.3912     7.7874     7.9068   125.2848     0.0124     0.1129     2.4693
  344.5000   -43.9803     5.9481     5.9219     7.4183     7.9371   127.6655     0.0117     0.1087     2.4687
  345.0000   -44.7240     5.6668     5.5253     6.7319     7.9675   130.7869     0.0162     0.1075     2.4717
  345.5000   -45.6167     5.2510     5.1912     5.4296     8.0274   132.2787     0.0170     0.1180     2.4639
  346.0000   -46.2113     5.0373     5.0849     5.0307     8.1022   131.9926     0.0125     0.1251     2.4249
  346.5000   -46.3593     5.0382     5.0856     5.6212     8.1473   129.0400     0.0020     0.1440     2.4104
  347.0000   -46.5068     5.0389     5.0863     6.1515     8.1330   125.4947     0.0148     0.1438     2.4132
  347.5000   -46.6544     5.1100     5.1941     5.6997     8.1336   118.8383     0.0156     0.1355     2.4278
  348.0000   -46.6525     5.1463     5.3412     5.3920     8.1192   114.4042     0.0149     0.1322     2.4330
  348.5000   -46.5020     5.2553     5.8063     6.2808     8.1050   110.8589     0.0149     0.1322     2.4338
  349.0000   -46.3515     5.4795     5.8071     6.9213     8.0907   111.7581     0.0157     0.1321     2.4353
  349.5000   -46.2009     5.8742     5.7677     6.8259     8.0915   113.2498     0.0187     0.1232     2.4406
  350.0000   -45.8227     6.1097     6.0981     6.9749     8.0606   114.6759     0.0285     0.1193     2.4451
  350.5000   -44.8712     6.3007     6.9133     7.3694     8.0511   118.1578     0.0318     0.1231     2.4414
  351.0000   -43.9482     6.6176     7.3114     7.9558     8.0480   120.5371     0.0368     0.1249     2.4444
  351.5000   -43.7918     6.9023     7.6788     8.1819     8.0484   120.2497     0.0548     0.1118     2.4750
  352.0000   -43.4863     7.4020     7.9535     8.3562     8.0487   119.5157     0.0668     0.1061     2.4862
  352.5000   -43.0319     7.6670     8.1809     8.5936     8.0490   120.1194     0.0742     0.0962     2.4900
  353.0000   -42.8754     7.8867     8.1843     8.6558     8.0344   121.6098     0.0727     0.0992     2.4870
  353.5000   -42.7190     7.9454     8.1309     8.6581     8.0199   122.6558     0.0697     0.0986     2.4848
  354.0000   -42.8607     7.8933     8.0222     8.6605     7.9460   122.9610     0.0697     0.0962     2.4923
  354.5000   -43.1532     7.7883     7.8600     8.6629     7.9760   123.5625     0.0644     0.0944     2.4923
  355.0000   -43.5910     7.6315     7.7547     8.6652     8.0505   124.3121     0.0584     0.0929     2.4953
  355.5000   -43.8836     7.5308     7.7025     8.6077     8.1018   124.4692     0.0366     0.0914     2.5028
  356.0000   -44.1742     7.3792     7.5485     8.4328     8.1401   123.8833     0.0268     0.1057     2.4781
  356.5000   -44.4631     7.2306     7.3908     8.2614     8.1552   124.4871     0.0171     0.1141     2.4655
  357.0000   -44.7537     7.1343     7.2463     8.0891     8.1704   125.6812     0.0201     0.1123     2.4730
  357.5000   -45.4915     7.0394     7.1992     7.8742     8.1707   126.5790     0.0306     0.1057     2.4842
  358.0000   -46.2293     6.8976     7.1523     7.7579     8.1710   125.6990     0.0260     0.1087     2.4745
  358.5000   -46.5201     6.7588     7.0573     7.6100     8.1713   123.4857     0.0215     0.1167     2.4566
  359.0000   -46.3635     6.5769     6.7720     7.5072     8.1567   124.0872     0.0215     0.1152     2.4640
  359.5000   -46.0581     6.2680     6.3642     7.3043     8.1719   125.1332     0.0192     0.1128     2.4685
  360.0000   -45.9016     5.9323     5.8171     7.1064     8.1870   127.3643     0.0185     0.1170     2.4566
  360.5000   -45.7452     5.6918     5.5434     6.9615     8.1724   129.7436     0.0192     0.1155     2.4596
  361.0000   -45.5887     5.5399     5.5067     6.4524     8.0837   128.7155     0.0162     0.1176     2.4529
  361.5000   -45.5663     5.5042     5.5479     5.5408     7.8615   129.1688     0.0154     0.1241     2.4417
  362.0000   -45.5936     5.5120     5.6279     4.9599     7.7431   130.5111     0.0274     0.1229     2.4441
