~VERSION INFORMATION
 VERS.                2.0:   CWLS LOG ASCII STANDARD - VERSION 2.0
 WRAP.                 NO:   ONE LINE PER DEPTH STEP
~WELL INFORMATION
#MNEM.UNIT      DATA TYPE    INFORMATION
#----------   ------------   ------------------------------
 STRT.F           20.0000:   START DEPTH
 STOP.F          546.0000:   STOP DEPTH
 STEP.F            0.5000:   STEP LENGTH
 NULL.          -999.2500:   NO VALUE
 COMP. LAWRENCE/ALLISON INC:   COMPANY
 WELL.   83-61 STX #10-10:   WELL
 FLD .             TEAPOT:   FIELD
 LOC .      S10 T38N R78W:   LOCATION
 CNTY.            NATRONA:   COUNTY
 STAT.            WYOMING:   STATE
 CTRY. UNITED STATES OF AMERICA:   COUNTRY
 SRVC.           Gearhart:   SERVICE COMPANY
 DATE.        09-JUN-1987:   LOGDATE
 API .       490251113100:   API NUMBER
~CURVE INFORMATION
#MNEM.UNIT       API CODE    CURVE DESCRIPTION
#----------   ------------   ------------------------------
 DEPT.F                  :   
 GRR .GAPI   07 310 01 00:   GAMMA RAY FROM RES. LOG.
 RILD.OHMM   07 120 46 00:   INDUCTION LOG DEEP RESISTIVITY
 RILM.OHMM   07 120 44 00:   INDUCTION LOG MEDIUM RESISTIVITY
 RLL .OHMM   07 220 00 00:   LATEROLOG RESISTIVITY
~PARAMETER INFORMATION
#MNEM.UNIT          VALUE    DESCRIPTION
#----------   ------------   ------------------------------
 PD  .                 GL:   PERMANENT DATUM
 EPD .F              5163:   ELEVATION PERMANENT DATUM
 LMF .                 KB:   LOG MEASURED FROM
 DAPD.F                 8:   FEET ABOVE PERMANENT DATUM
 DMF .                 KB:   DRILLING MEASURED FROM
 EKB .F              5171:   KELLING BUSHING
 EDF .F              5169:   DRILLING FLOOR
 EGL .F              5163:   GROUND LEVEL
 DATE.             6-9-87:   RUN DATE
 RUN .                  1:   RUN NUMBER
 DD  .F             552.5:   DEPTH DRILLER
 DL  .F               549:   DEPTH LOGGER
 BLI .F               546:   BOTTOM LOG INTERVAL
 TLI .F                49:   TOP LOG INTERVAL
 CS  .IN             8.62:   CASING SIZE
 CBD .F                50:   CASING BOTTOM DRILLER
 CBL .F                46:   CASING BOTTOM LOGGER
 BS  .IN             7.87:   BIT SIZE
 BSD .F             552.5:   BIT SIZE AT DEPTH
 DFT .                MUD:   DRILLING FLUID TYPE
 TCS .HRS            0300:   TIME CURCULATED STOPPED
 TLAB.HRS            0400:   TIME LOGGER AT BOTTOM
 LUN .               7597:   LOGGING UNIT NUMBER
 LUL .           GILLETTE:   LOGGING UNIT LOCATION
 ENGI.           JOHNSTON:   RECORDING ENGINEER
 WITN.             STRONG:   WITNESSED BY
 CLNT.            A2DTECH:   CLIENT CODE
 ORIG.       2", 5" PRINT:   ORIGIN OF DATA
 UWI .       490251113100:   UNIQUE WELL ID
 DICO. A2D Technologies, Inc.:   DIGITIZING COMPANY
~OTHER INFORMATION
~A   DEPT       GRR      RILD       RILM        RLL   
   20.0000    90.3689  -999.2500  -999.2500  -999.2500
   20.5000    90.6762  -999.2500  -999.2500  -999.2500
   21.0000    91.8033  -999.2500  -999.2500  -999.2500
   21.5000    93.4298  -999.2500  -999.2500  -999.2500
   22.0000    92.0948  -999.2500  -999.2500  -999.2500
   22.5000    90.3682  -999.2500  -999.2500  -999.2500
   23.0000    89.2931  -999.2500  -999.2500  -999.2500
   23.5000    89.8824  -999.2500  -999.2500  -999.2500
   24.0000    88.3518  -999.2500  -999.2500  -999.2500
   24.5000    87.2384  -999.2500  -999.2500  -999.2500
   25.0000    88.8547  -999.2500  -999.2500  -999.2500
   25.5000    90.4637  -999.2500  -999.2500  -999.2500
   26.0000    91.6828  -999.2500  -999.2500  -999.2500
   26.5000    92.2631  -999.2500  -999.2500  -999.2500
   27.0000    91.7850  -999.2500  -999.2500  -999.2500
   27.5000    90.8649  -999.2500  -999.2500  -999.2500
   28.0000    88.3246  -999.2500  -999.2500  -999.2500
   28.5000    85.5772  -999.2500  -999.2500  -999.2500
   29.0000    82.8681  -999.2500  -999.2500  -999.2500
   29.5000    82.8548  -999.2500  -999.2500  -999.2500
   30.0000    83.1751  -999.2500  -999.2500  -999.2500
   30.5000    83.4952  -999.2500  -999.2500  -999.2500
   31.0000    83.8105  -999.2500  -999.2500  -999.2500
   31.5000    84.1123  -999.2500  -999.2500  -999.2500
   32.0000    85.2678  -999.2500  -999.2500  -999.2500
   32.5000    86.7542  -999.2500  -999.2500  -999.2500
   33.0000    86.9077  -999.2500  -999.2500  -999.2500
   33.5000    85.7200  -999.2500  -999.2500  -999.2500
   34.0000    84.5345  -999.2500  -999.2500  -999.2500
   34.5000    83.3252  -999.2500  -999.2500  -999.2500
   35.0000    83.3079  -999.2500  -999.2500  -999.2500
   35.5000    83.7463  -999.2500  -999.2500  -999.2500
   36.0000    84.1949  -999.2500  -999.2500  -999.2500
   36.5000    84.6423  -999.2500  -999.2500  -999.2500
   37.0000    85.0223  -999.2500  -999.2500  -999.2500
   37.5000    84.8578  -999.2500  -999.2500  -999.2500
   38.0000    84.7144  -999.2500  -999.2500  -999.2500
   38.5000    82.9038  -999.2500  -999.2500  -999.2500
   39.0000    80.4549  -999.2500  -999.2500  -999.2500
   39.5000    77.9928  -999.2500  -999.2500  -999.2500
   40.0000    75.5465  -999.2500  -999.2500  -999.2500
   40.5000    73.1064  -999.2500  -999.2500  -999.2500
   41.0000    70.6674  -999.2500  -999.2500  -999.2500
   41.5000    68.2279  -999.2500  -999.2500  -999.2500
   42.0000    66.1881  -999.2500  -999.2500  -999.2500
   42.5000    64.5471  -999.2500  -999.2500  -999.2500
   43.0000    62.5737  -999.2500  -999.2500  -999.2500
   43.5000    60.2432  -999.2500  -999.2500  -999.2500
   44.0000    60.6602  -999.2500  -999.2500  -999.2500
   44.5000    62.7046  -999.2500  -999.2500  -999.2500
   45.0000    64.7484  -999.2500  -999.2500  -999.2500
   45.5000    66.0209  -999.2500  -999.2500     3.9500
   46.0000    67.1974   107.6581   162.9830     4.0641
   46.5000    68.1074    17.9229    57.2962     4.2025
   47.0000    66.7311     3.6184    10.5154     4.1184
   47.5000    62.0637     2.4265     5.2251     3.8575
   48.0000    56.9950     1.6042     1.7127     3.5051
   48.5000    51.9267     1.5445     1.4197     3.4588
   49.0000    47.1974     1.8742     1.3914     3.9162
   49.5000    45.6291     2.1967     1.4631     4.3021
   50.0000    44.7042     2.4121     1.5490     3.9165
   50.5000    44.3657     2.2631     1.6399     3.5247
   51.0000    43.8448     2.1359     1.7361     3.1722
   51.5000    42.1051     2.0142     1.8147     2.8341
   52.0000    40.3392     1.9399     1.7391     2.8074
   52.5000    38.5829     1.9700     1.6614     3.2869
   53.0000    37.0872     1.9933     1.5871     5.0472
   53.5000    37.4111     2.0169     1.5162    10.3333
   54.0000    38.3451     2.0408     1.4717    23.2778
   54.5000    39.4545     2.0649     1.4452   166.9673
   55.0000    40.4659     2.0894     1.4632   277.7579
   55.5000    40.8932     2.1141     1.4816   432.2515
   56.0000    41.3286     2.1391     1.5003   517.6590
   56.5000    41.4658     2.1644     1.5191   637.7266
   57.0000    41.1154     2.1897     1.5300   619.8350
   57.5000    40.7723     2.2151     1.5299   462.3647
   58.0000    40.4277     2.3032     1.5299   333.8276
   58.5000    40.0834     2.3916     1.5299   241.0238
   59.0000    39.7365     2.4829     1.5299   125.6659
   59.5000    39.3638     2.5778     1.5299     6.4606
   60.0000    38.9526     2.6855     1.5945     3.4817
   60.5000    38.8147     2.9739     1.6703     2.9125
   61.0000    39.0012     2.9698     1.7498     2.7487
   61.5000    39.1622     3.2865     1.8329     2.6381
   62.0000    39.5832     3.5475     1.9201     2.5053
   62.5000    39.9983     3.8294     2.0114     2.5041
   63.0000    40.4103     4.1335     2.1268     2.5679
   63.5000    40.9484     4.4619     2.2871     2.6360
   64.0000    42.3097     4.8163     2.4595     2.7690
   64.5000    43.6890     5.1989     2.6450     2.9291
   65.0000    45.1867     5.6119     2.8444     3.0300
   65.5000    47.2267     6.0531     3.0588     3.0821
   66.0000    49.2941     6.3531     3.3958     3.1499
   66.5000    51.3602     6.6648     3.8463     3.4506
   67.0000    53.4245     6.9919     4.3569     3.9417
   67.5000    55.4896     7.1899     4.9346     4.0931
   68.0000    58.1405     7.2129     5.2166     4.3143
   68.5000    60.9891     7.2347     5.3175     4.6959
   69.0000    62.6860     7.2569     5.4203     5.1112
   69.5000    64.2929     7.2793     5.5262     5.2503
   70.0000    64.5438     7.3020     5.6498     5.2753
   70.5000    66.1288     7.3353     5.7879     5.3004
   71.0000    68.8334     7.3943     5.9281     5.3728
   71.5000    71.5476     7.4577     6.0727     5.6081
   72.0000    74.2858     7.5040     6.1975     5.8537
   72.5000    74.6081     7.5677     6.2863     6.1100
   73.0000    73.3236     7.6320     6.3755     6.2278
   73.5000    72.0311     7.6968     6.4686     6.2278
   74.0000    71.0351     7.7621     6.5004     6.2278
   74.5000    72.8431     7.8280     6.5332     6.3156
   75.0000    74.8183     7.8945     6.5663     6.4693
   75.5000    76.7898     7.9615     6.5925     6.4442
   76.0000    78.7715     8.0291     6.7443     6.4086
   76.5000    79.0914     8.0972     6.9632     6.4698
   77.0000    77.9456     8.2968     7.1889     6.7467
   77.5000    76.7788     8.5797     7.4234     7.0306
   78.0000    75.6788     8.8722     7.6703     7.3255
   78.5000    76.9086     9.1748     7.9564     7.6326
   79.0000    78.2951     9.4876     8.2503     7.9528
   79.5000    79.6672     9.8111     8.5559     8.2858
   80.0000    80.7126    10.1457     8.8723     8.5980
   80.5000    81.1629    10.5932     9.2006     8.5980
   81.0000    81.3503    10.5588     9.3771     8.5983
   81.5000    81.6036    10.5107     9.4021     8.5980
   82.0000    82.9985    10.4629     9.4271     8.5981
   82.5000    83.8190    10.4152     9.4535     8.5923
   83.0000    83.8062    10.3678     9.5433     8.5758
   83.5000    83.7843    10.3207     9.5270     8.5594
   84.0000    84.9771    10.2737     9.4961     8.5430
   84.5000    86.1952    10.2269     9.4658     8.5267
   85.0000    85.1154    10.1574     9.4356     8.4900
   85.5000    84.0119    10.0537     9.4055     8.3555
   86.0000    84.5100     9.9510     9.3755     8.2231
   86.5000    86.8835     9.8494     9.3456     8.1997
   87.0000    89.2710     9.7488     9.3158     8.3212
   87.5000    89.7440     9.6492     9.2861     8.4214
   88.0000    89.4627     9.6182     9.2565     8.5229
   88.5000    89.1528     9.5990     9.2270     8.6256
   89.0000    88.8353     9.5799     9.1976     8.6799
   89.5000    88.5060     9.5608     9.1683     8.5168
   90.0000    88.1737     9.5417     9.1390     8.5827
   90.5000    87.8436     9.5227     9.1099     8.6341
   91.0000    87.5036     9.5037     8.9985     8.6798
   91.5000    88.8629     9.4847     8.8560     8.5333
   92.0000    91.2607     9.4658     8.7157     8.4041
   92.5000    93.1206     9.4411     8.5776     8.2771
