~VERSION INFORMATION
 VERS.                2.0:   CWLS LOG ASCII STANDARD - VERSION 2.0
 WRAP.                 NO:   ONE LINE PER DEPTH STEP
~WELL INFORMATION
#MNEM.UNIT      DATA TYPE    INFORMATION
#----------   ------------   ------------------------------
 STRT.F           20.0000:   START DEPTH
 STOP.F          672.0000:   STOP DEPTH
 STEP.F            0.5000:   STEP LENGTH
 NULL.          -999.2500:   NO VALUE
 COMP.              FENIX:   COMPANY
 WELL.    NPR ##3 23-S-11:   WELL
 FLD .        TEAPOT DOME:   FIELD
 LOC .      S11 T38N R78W:   LOCATION
 CNTY.            NATRONA:   COUNTY
 STAT.            WYOMING:   STATE
 CTRY. UNITED STATES OF AMERICA:   COUNTRY
 SRVC.           BIRDWELL:   SERVICE COMPANY
 DATE.        05-FEB-1978:   LOGDATE
 API .       490251057300:   API NUMBER
~CURVE INFORMATION
#MNEM.UNIT       API CODE    CURVE DESCRIPTION
#----------   ------------   ------------------------------
 DEPT.F                  :   
 ILD .OHMM   05 120 46 00:   INDUCTION LOG DEEP
 SN  .OHMM   05 040 16 00:   SHORT NORMAL 16"
 SPR .MV     05 010 01 00:   SPONTANEOUS POTENTIAL FROM RES.
 CALD.IN     45 280 60 00:   CALIPER FROM DENSITY LOG
 CORR.G/C3   45 356 01 00:   DENSITY CORRECTION
 DPHI.DEC    45 890 10 00:   DENSITY POROSITY LIMESTONE
 GRD .GAPI   45 310 01 00:   GAMMA RAY FROM DENSITY LOG
 RHOB.G/C3   45 350 01 00:   BULK DENSITY
~PARAMETER INFORMATION
#MNEM.UNIT          VALUE    DESCRIPTION
#----------   ------------   ------------------------------
 PD  .                 GL:   PERMANENT DATUM
 EPD .F              5175:   ELEVATION PERMANENT DATUM
 LMF .                 KB:   LOG MEASURED FROM
 DMF .                 KB:   DRILLING MEASURED FROM
 EKB .F              5178:   KELLING BUSHING
 EGL .F              5175:   GROUND LEVEL
 DATE.        05-FEB-1978:   RUN DATE
 RUN .                  1:   RUN NUMBER
 DD  .F               670:   DEPTH DRILLER
 DL  .F               675:   DEPTH LOGGER
 BLI .F               670:   BOTTOM LOG INTERVAL
 TLI .F                40:   TOP LOG INTERVAL
 CS  .IN            8.625:   CASING SIZE
 CBD .F                39:   CASING BOTTOM DRILLER
 CBL .F                40:   CASING BOTTOM LOGGER
 BS  .IN            7.875:   BIT SIZE
 BSD .F               670:   BIT SIZE AT DEPTH
 DFT .                KCL:   DRILLING FLUID TYPE
 DFD .                8.4:   DRILLING FLUID DENSITY
 DFV .                 32:   DRILLING FLUID VISCOSITY
 DFPH.                  8:   DRILLING FLUID PH
 DFL .                8.8:   DRILLING FLUID LOSS
 MSS .           FLOWLINE:   MUD SAMPLE SOURCE
 RMS .OHMM           0.58:   RESISTIVITY MUD SAMPLE
 MST .F                62:   MUD SAMPLE TEMPERATURE
 RMF .OHMM           0.58:   RESISTIVITY MUD FILTRATE SAMPLE
 MFST.F                62:   MUD FILTRATE SAMPLE TEMPERATURE
 RMC .OHMM            0.9:   RESISTIVITY MUD CAKE
 MCST.F                66:   MUD CAKE SAMPLE TEMPERATURE
 MFSS.               MEAS:   MUD FILTRATE SAMPLE SOURCE
 RMB .OHMM           0.55:   RESISTIVITY MUD AT BHT
 BHT .F                72:   BOTTOM HOLE TEMPERATURE
 TCS .HRS               1:   TIME CURCULATED STOPPED
 MRT .F                72:   MAXIMUM RECORDED TEMPERATURE
 LUN .               2958:   LOGGING UNIT NUMBER
 LUL .               CASP:   LOGGING UNIT LOCATION
 ENGI.            POINTER:   RECORDING ENGINEER
 WITN.         HARRINGTON:   WITNESSED BY
 CLNT.            A2DTECH:   CLIENT CODE
 ORIG.           5" PRINT:   ORIGIN OF DATA
 UWI .       490251057300:   UNIQUE WELL ID
 DICO. A2D Technologies, Inc.:   DIGITIZING COMPANY
~OTHER INFORMATION
~A   DEPT      ILD         SN        SPR       CALD       CORR       DPHI         GRD      RHOB   
# ...
  303.5000    10.0432    10.8803   -51.8933     7.9444     0.0160     0.1089    71.4288     2.4665
  304.0000     9.9708    10.8029   -51.9039     7.9432     0.0144     0.1104    72.3266     2.4656
  304.5000     9.8990    10.7232   -51.9128     7.9422     0.0144     0.1123    72.7753     2.4619
  305.0000     9.8959    10.5754   -51.9224     7.9412     0.0151     0.1141    72.7736     2.4574
  305.5000     9.8929    10.5606   -51.9299     7.9400     0.0181     0.1159    72.9217     2.4544
  306.0000     9.9292    10.4983   -51.9390     7.9390     0.0196     0.1165    73.9698     2.4536
  306.5000     9.9557    10.4959   -51.9483     7.9380     0.0211     0.1162    74.5681     2.4544
  307.0000     9.9524    10.3927   -51.9573     7.9220     0.0218     0.1159    75.3163     2.4543
  307.5000     9.9493    10.3471   -51.8136     7.9208     0.0218     0.1159    76.0642     2.4543
  308.0000     9.9459    10.3450   -51.8232     7.9047     0.0203     0.1165    76.3630     2.4528
  308.5000     9.9431    10.4147   -51.6811     7.9037     0.0195     0.1174    72.6131     2.4468
  309.0000     9.9899    10.4123   -51.6899     7.9025     0.0187     0.1171    72.7616     2.4453
  309.5000     9.9369    10.4105   -51.6988     7.9015     0.0194     0.1150    73.8093     2.4498
  310.0000     9.9338    10.4081   -51.7077     7.8855     0.0232     0.1142    74.1078     2.4557
  310.5000     9.9307    10.4058   -51.8690     7.8845     0.0315     0.1042    74.4062     2.4662
  311.0000     9.8585    10.4769   -52.0305     7.8833     0.0269     0.0972    74.8571     2.4783
  311.5000     9.8445    10.4229   -52.2080     7.8823     0.0231     0.0952    75.7524     2.4812
  312.0000     9.6497    10.3278   -52.5076     7.8662     0.0208     0.1037    76.0512     2.4752
  312.5000     9.5033    10.1833   -52.6677     7.8954     0.0199     0.1100    74.5502     2.4572
  313.0000     9.3151     9.9020   -52.7213     7.8941     0.0178     0.1162    73.3418     2.4421
  313.5000     9.2479     9.6960   -52.9915     7.8932     0.0185     0.1211    73.3479     2.4391
  314.0000     9.1101     9.5604   -52.9365     7.8922     0.0200     0.1208    73.0463     2.4421
  314.5000     8.9888     9.4267   -52.8567     7.8909     0.0215     0.1202    72.4452     2.4458
  315.0000     8.9240     9.4904   -52.7134     7.8900     0.0214     0.1180    71.5443     2.4496
  315.5000     8.9213     9.4229   -52.7243     7.9040     0.0184     0.1100    72.2921     2.4564
  316.0000     8.8569     9.4210   -52.8856     7.9181     0.0146     0.1119    73.9399     2.4526
  316.5000     8.8544     9.3539   -52.8945     7.9473     0.0131     0.1170    74.3883     2.4465
  317.0000     8.7904     9.3516   -52.9041     7.9761     0.0123     0.1197    74.8366     2.4435
  317.5000     8.7877     9.3398   -52.7583     7.9752     0.0123     0.1215    74.8349     2.4419
  318.0000     8.7848     9.2373   -52.7683     7.9739     0.0123     0.1224    74.2338     2.4390
  318.5000     8.7817     9.1533   -52.7774     7.9729     0.0123     0.1230    71.6836     2.4352
  319.0000     8.7188     9.0883   -52.7866     7.9569     0.0145     0.1233    73.7808     2.4329
  319.5000     8.6555     8.9611   -52.7975     7.9406     0.0167     0.1239    74.6790     2.4344
  320.0000     8.6529     8.8577   -52.8049     7.9246     0.0182     0.1246    75.1273     2.4352
  320.5000     8.5905     8.8305   -52.8140     7.9085     0.0197     0.1249    75.1259     2.4359
  321.0000     8.5629     8.7049   -52.8241     7.9075     0.0197     0.1237    75.4240     2.4381
  321.5000     8.5260     8.6483   -52.8330     7.9063     0.0189     0.1210    75.5725     2.4486
  322.0000     8.5233     8.6462   -52.8415     7.9204     0.0174     0.1195    76.0209     2.4516
  322.5000     8.5201     8.6758   -52.8507     7.9194     0.0151     0.1180    76.9190     2.4539
  323.0000     8.5775     8.7034   -52.8603     7.9182     0.0143     0.1174    76.9173     2.4516
  323.5000     8.6346     8.7012   -52.8707     7.9172     0.0143     0.1204    76.7659     2.4441
  324.0000     8.6920     8.6994   -52.8795     7.9162     0.0143     0.1216    76.1648     2.4365
  324.5000     8.6287     8.6977   -53.0408     7.9303     0.0150     0.1222    75.4138     2.4343
  325.0000     8.5073     8.6958   -53.3546     7.9291     0.0165     0.1213    74.3626     2.4388
  325.5000     8.3296     8.6336   -53.5159     7.9434     0.0187     0.1207    74.2112     2.4425
  326.0000     8.2032     8.4540   -53.5879     7.9572     0.0179     0.1211    74.0599     2.4447
  326.5000     7.9739     8.3053   -53.8385     7.9560     0.0164     0.1223    74.5157     2.4462
  327.0000     7.8178     8.1060   -54.0000     7.9703     0.0149     0.1256    76.4555     2.4440
  327.5000     7.6016     7.9743   -54.0091     7.9691     0.0141     0.1271    76.9042     2.4409
  328.0000     7.4946     7.7721   -54.0198     7.9681     0.0134     0.1277    76.6026     2.4357
  328.5000     7.3892     7.6634   -54.0274     7.9518     0.0118     0.1295    78.7263     2.4296
  329.0000     7.3869     7.6537   -54.0375     7.9508     0.0118     0.1310    81.0972     2.4281
  329.5000     7.3847     7.6069   -53.8939     7.9498     0.0140     0.1319    81.6959     2.4289
  330.0000     7.3824     7.6588   -53.8707     7.9486     0.0155     0.1307    79.8950     2.4311
  330.5000     7.3797     7.6568   -53.6861     7.9476     0.0177     0.1259    77.0574     2.4341
  331.0000     7.4805     7.7086   -53.6159     7.9466     0.0185     0.1223    75.9938     2.4408
  331.5000     7.6354     7.8148   -53.6268     7.9306     0.0162     0.1163    76.2926     2.4483
  332.0000     7.7942     7.8677   -53.4810     7.9294     0.0177     0.1167    76.7406     2.4506
  332.5000     7.9551     7.9208   -53.4921     7.9284     0.0184     0.1176    77.5262     2.4476
  333.0000     8.0086     7.8644   -53.5009     7.9425     0.0176     0.1134    78.9863     2.4581
  333.5000     7.8407     7.8624   -53.3574     7.9412     0.0146     0.1086    76.8859     2.4656
  334.0000     7.7841     7.8065   -53.2134     7.9555     0.0123     0.1116    73.8860     2.4640
  334.5000     7.7274     7.7509   -53.2226     7.9694     0.0108     0.1155    73.7347     2.4558
  335.0000     7.6717     7.8037   -53.0793     7.9533     0.0070     0.1164    75.6820     2.4535
  335.5000     7.6694     7.8562   -53.0902     7.9674     0.0040     0.1158    76.8799     2.4475
  336.0000     7.7210     7.9643   -53.0990     7.9662     0.0077     0.1194    78.0779     2.4429
  336.5000     7.7724     8.1304   -53.1067     7.9652     0.0085     0.1200    79.7253     2.4437
  337.0000     7.7695     8.3648   -53.1159     7.9640     0.0085     0.1170    78.9743     2.4474
  337.5000     7.8212     8.5905   -53.1256     7.9630     0.0099     0.1156    77.1738     2.4497
  338.0000     7.9017     8.7700   -53.2870     7.9620     0.0107     0.1162    75.6732     2.4512
  338.5000     7.9808     8.8903   -53.2957     7.9610     0.0084     0.1177    75.5218     2.4526
  339.0000     7.9777     8.8270   -53.3049     7.9751     0.0031     0.1201    75.6703     2.4504
  339.5000     7.9753     8.7642   -53.3158     7.9739     0.0061     0.1219    77.3177     2.4443
  340.0000     7.9729     8.6158   -53.1707     7.9578     0.0113     0.1219    80.4648     2.4428
  340.5000     7.9705     8.4776   -53.1799     7.9716     0.0143     0.1207    83.4615     2.4526
  341.0000     7.8583     8.2793   -53.1890     7.9707     0.0151     0.1159    84.0602     2.4601
  341.5000     7.7477     8.0569   -53.1988     7.9546     0.0135     0.1086    83.4587     2.4646
  342.0000     7.5859     7.8347   -53.2073     7.9536     0.0127     0.1057    83.9071     2.4646
  342.5000     7.6364     7.9426   -53.2165     7.9524     0.0142     0.1120    83.3056     2.4623
  343.0000     7.6335     8.0524   -53.2256     7.9514     0.0179     0.1141    80.7555     2.4615
  343.5000     7.6849     8.2047   -53.3890     7.9504     0.0209     0.1128    79.2548     2.4645
