~VERSION INFORMATION
 VERS.                2.0:   CWLS LOG ASCII STANDARD - VERSION 2.0
 WRAP.                 NO:   ONE LINE PER DEPTH STEP
~WELL INFORMATION
#MNEM.UNIT      DATA TYPE    INFORMATION
#----------   ------------   ------------------------------
 STRT.F          610.5000:   START DEPTH
 STOP.F         2311.0000:   STOP DEPTH
 STEP.F            0.5000:   STEP LENGTH
 NULL.          -999.2500:   NO VALUE
 COMP. BROWN JOHN E&C INC:   COMPANY
 WELL.  48-1SHX-34 #48-34:   WELL
 FLD .             TEAPOT:   FIELD
 LOC .      S34 T39N R78W:   LOCATION
 CNTY.            NATRONA:   COUNTY
 STAT.            WYOMING:   STATE
 CTRY. UNITED STATES OF AMERICA:   COUNTRY
 SRVC.            Unknown:   SERVICE COMPANY
 DATE.        16-SEP-1991:   LOGDATE
 API .       490251109000:   API NUMBER
~CURVE INFORMATION
#MNEM.UNIT       API CODE    CURVE DESCRIPTION
#----------   ------------   ------------------------------
 DEPT.F                  :   
 ROP .MIN/FT 91 810 01 00:   RAT OF DRILLING PENETRATION
 TGAS.UNITS  91 830 01 00:   TOTAL GAS FROM HOTWIRE
~PARAMETER INFORMATION
#MNEM.UNIT          VALUE    DESCRIPTION
#----------   ------------   ------------------------------
 EKB .F              5163:   KELLING BUSHING
 EGL .F              5152:   GROUND LEVEL
 DATE.            9-16-91:   RUN DATE
 DD  .F              2311:   DEPTH DRILLER
 TCS .HRS            0200:   TIME CURCULATED STOPPED
 TLAB.HRS            0115:   TIME LOGGER AT BOTTOM
 ENGI.             HENDRY:   RECORDING ENGINEER
 WITN.               HUSK:   WITNESSED BY
 CLNT.            A2DTECH:   CLIENT CODE
 ORIG.           5" PRINT:   ORIGIN OF DATA
 UWI .       490251109000:   UNIQUE WELL ID
 DICO. A2D Technologies, Inc.:   DIGITIZING COMPANY
~OTHER INFORMATION
~A   DEPT        ROP       TGAS 
# ...
 2190.0000     0.8229    21.0528
 2190.5000     0.7517    21.0442
 2191.0000     0.6808    21.0355
 2191.5000     0.6203    21.0269
 2192.0000     0.6216    21.0182
 2192.5000     0.6218    21.0096
 2193.0000     0.6219    21.0009
 2193.5000     0.6219    20.9923
 2194.0000     0.6219    20.9836
 2194.5000     0.6218    20.9750
 2195.0000     0.6219    20.9663
 2195.5000     0.6217    20.9577
 2196.0000     0.6442    20.9490
 2196.5000     0.6859    20.9404
 2197.0000     0.7279    20.9317
 2197.5000     0.7705    20.9231
 2198.0000     0.7656    20.9145
 2198.5000     0.7409    20.9052
 2199.0000     0.7157    20.9107
 2199.5000     0.7135    20.9341
 2200.0000     0.7465    20.4250
 2200.5000     0.7801    20.4141
 2201.0000     0.8136    20.4090
 2201.5000     0.8470    20.4098
 2202.0000     0.8804    20.4098
 2202.5000     0.9096    20.4098
 2203.0000     0.9443    20.4098
 2203.5000     0.9821    20.4098
 2204.0000     1.0187    20.4098
 2204.5000     1.0676    20.4098
 2205.0000     1.1298    20.4098
 2205.5000     1.1857    20.4098
 2206.0000     1.1824    20.4098
 2206.5000     1.0757    20.4098
 2207.0000     0.9703    20.4098
 2207.5000     0.8656    20.4098
 2208.0000     0.7614    20.4098
 2208.5000     0.6834    20.4098
 2209.0000     0.6937    20.4098
 2209.5000     0.7140    20.4098
 2210.0000     0.7381    20.4098
 2210.5000     0.7625    20.4098
 2211.0000     0.7870    20.4098
 2211.5000     0.8120    20.4098
 2212.0000     0.8486    20.4098
 2212.5000     0.8575    20.4098
 2213.0000     0.8707    20.4098
 2213.5000     0.8972    20.4098
 2214.0000     0.9336    20.4098
 2214.5000     0.9702    20.4098
 2215.0000     1.0070    20.4098
 2215.5000     1.0437    20.4098
 2216.0000     1.0804    20.4098
 2216.5000     1.1172    20.4098
 2217.0000     1.1540    20.4098
 2217.5000     1.1723    20.4098
 2218.0000     1.1059    20.4098
 2218.5000     1.0384    20.4098
 2219.0000     0.9711    20.4098
 2219.5000     0.9040    20.4098
 2220.0000     0.8364    20.4098
 2220.5000     0.7517    20.4099
 2221.0000     0.6405    20.4105
 2221.5000     0.5297    20.3830
 2222.0000     0.4255    20.3488
 2222.5000     0.3947    20.3146
 2223.0000     0.3958    20.2803
 2223.5000     0.3957    20.2461
 2224.0000     0.3956    20.2119
 2224.5000     0.3870    20.1777
 2225.0000     0.3647    20.1434
 2225.5000     0.3427    20.1092
 2226.0000     0.3178    20.0750
 2226.5000     0.3108    20.0408
 2227.0000     0.3139    20.0065
 2227.5000     0.3175    19.9723
 2228.0000     0.3210    19.9383
 2228.5000     0.3245    19.9179
 2229.0000     0.3280    19.9228
 2229.5000     0.3312    19.9344
 2230.0000     0.3612    19.9460
 2230.5000     0.4091    19.9576
 2231.0000     0.4574    19.9692
 2231.5000     0.5057    19.9808
 2232.0000     0.5531    19.9924
 2232.5000     0.5686    20.0040
 2233.0000     0.5246    20.0155
 2233.5000     0.5151    20.0271
 2234.0000     0.5698    20.0387
 2234.5000     0.6234    20.0503
 2235.0000     0.6771    20.0619
 2235.5000     0.7310    20.0735
 2236.0000     0.7862    20.0851
 2236.5000     0.7983    20.0966
 2237.0000     0.7678    20.1082
 2237.5000     0.7193    20.1198
 2238.0000     0.6705    20.1314
 2238.5000     0.6216    20.1430
 2239.0000     0.5724    20.1546
 2239.5000     0.5245    20.1662
 2240.0000     0.5228    20.1778
 2240.5000     0.5706    20.1893
 2241.0000     0.6164    20.2009
 2241.5000     0.6610    20.2125
 2242.0000     0.6564    20.2241
 2242.5000     0.6304    20.2357
 2243.0000     0.6045    20.2473
 2243.5000     0.5775    20.2589
 2244.0000     0.6120    20.2704
 2244.5000     0.6884    20.2820
 2245.0000     0.7650    20.2936
 2245.5000     0.8417    20.3052
 2246.0000     0.9184    20.3168
 2246.5000     0.9950    20.3284
 2247.0000     1.0710    20.3400
 2247.5000     1.1351    20.3516
 2248.0000     1.1374    20.3631
 2248.5000     1.0997    20.3747
 2249.0000     1.0441    20.3863
 2249.5000     0.9839    20.3979
 2250.0000     0.9237    20.4095
 2250.5000     0.8631    20.4211
 2251.0000     0.8006    20.4327
 2251.5000     0.7613    20.4442
 2252.0000     0.7218    20.4558
 2252.5000     0.6821    20.4674
 2253.0000     0.6423    20.4790
 2253.5000     0.6026    20.4906
 2254.0000     0.5628    20.5022
 2254.5000     0.5231    20.5138
 2255.0000     0.4834    20.5254
 2255.5000     0.4428    20.5369
 2256.0000     0.4221    20.5485
 2256.5000     0.4646    20.5601
 2257.0000     0.5111    20.5717
 2257.5000     0.5576    20.5833
 2258.0000     0.6040    20.5949
 2258.5000     0.6504    20.6065
 2259.0000     0.6968    20.6180
 2259.5000     0.7364    20.6296
 2260.0000     0.7154    20.6412
 2260.5000     0.6902    20.6528
 2261.0000     0.6649    20.6644
 2261.5000     0.6397    20.6760
 2262.0000     0.6132    20.6876
 2262.5000     0.6284    20.6992
 2263.0000     0.6421    20.7107
 2263.5000     0.6571    20.7223
 2264.0000     0.6604    20.7339
 2264.5000     0.6276    20.7455
 2265.0000     0.5882    20.7571
 2265.5000     0.5469    20.7687
 2266.0000     0.5507    20.7803
 2266.5000     0.6359    20.7919
 2267.0000     0.7244    20.8034
 2267.5000     0.8122    20.8150
 2268.0000     0.8993    20.8266
 2268.5000     0.9283    20.8382
 2269.0000     0.8813    20.8498
 2269.5000     0.8351    20.8614
 2270.0000     0.7887    20.8730
 2270.5000     0.7423    20.8845
 2271.0000     0.6959    20.8961
 2271.5000     0.6491    20.9024
 2272.0000     0.6340    20.9089
 2272.5000     0.6657    20.9153
 2273.0000     0.7108    20.9218
 2273.5000     0.7566    20.9282
 2274.0000     0.7979    20.9347
 2274.5000     0.7948    20.9411
 2275.0000     0.7348    20.9475
 2275.5000     0.6744    20.9540
 2276.0000     0.6871    20.9604
 2276.5000     0.7813    20.9668
 2277.0000     0.8748    20.9733
 2277.5000     0.9684    20.9797
 2278.0000     1.0614    20.9862
 2278.5000     1.1479    20.9926
 2279.0000     1.1256    20.9990
 2279.5000     1.0495    21.0055
 2280.0000     0.9973    21.0119
 2280.5000     1.0032    21.0184
 2281.0000     1.1114    21.0248
 2281.5000     1.2299    21.0312
 2282.0000     1.3492    21.0377
 2282.5000     1.4000    21.0441
 2283.0000     1.3805    21.0505
 2283.5000     1.2464    21.0570
 2284.0000     1.1130    21.0634
 2284.5000     0.9786    21.0699
 2285.0000     0.9079    21.0763
 2285.5000     0.8621    21.0827
 2286.0000     0.8177    21.0892
 2286.5000     0.7733    21.0956
 2287.0000     0.7286    21.1020
 2287.5000     0.6860    21.1085
 2288.0000     0.6980    21.1149
 2288.5000     0.7746    21.1214
 2289.0000     0.8502    21.1278
 2289.5000     0.9219    21.1342
 2290.0000     0.9216    21.1407
 2290.5000     0.8595    21.1471
 2291.0000     0.7957    21.1535
 2291.5000     0.7382    21.1600
 2292.0000     0.6956    21.1664
 2292.5000     0.6971    21.1729
 2293.0000     0.6972    21.1793
 2293.5000     0.6974    21.1857
 2294.0000     0.6958    21.1922
 2294.5000     0.7885    21.1986
 2295.0000     0.9246    21.2050
 2295.5000     1.0625    21.2115
 2296.0000     1.1998    21.2179
 2296.5000     1.3018    21.2244
 2297.0000     1.2668    21.2308
 2297.5000     1.1785    21.2372
 2298.0000     1.0930    21.2437
 2298.5000     1.0074    21.2501
 2299.0000     0.9218    21.2566
 2299.5000     0.8338    21.2630
 2300.0000     0.8053    21.2694
 2300.5000     0.7828    21.2759
 2301.0000     0.7624    21.2823
 2301.5000     0.7411    21.2887
 2302.0000     0.7240    21.2952
 2302.5000     0.6872    21.3016
 2303.0000     0.6544    21.3081
 2303.5000     0.6219    21.3145
 2304.0000     0.5894    21.3209
 2304.5000     0.5715    21.3274
 2305.0000     0.5708    21.3338
 2305.5000     0.5943    21.3402
 2306.0000     0.6592    21.3467
 2306.5000     0.7670    21.3531
 2307.0000     0.9306    21.3596
 2307.5000     1.0825    21.3660
 2308.0000     1.0628    21.3724
 2308.5000     1.0022    21.3789
 2309.0000     0.9437    21.3853
 2309.5000     0.8854    21.3920
 2310.0000     0.8270    21.3934
 2310.5000     0.7683  -999.2500
 2311.0000     0.7117  -999.2500
