~VERSION INFORMATION
 VERS.                2.0:   CWLS LOG ASCII STANDARD - VERSION 2.0
 WRAP.                 NO:   ONE LINE PER DEPTH STEP
~WELL INFORMATION
#MNEM.UNIT      DATA TYPE    INFORMATION
#----------   ------------   ------------------------------
 STRT.F            0.0000:   START DEPTH
 STOP.F          437.0000:   STOP DEPTH
 STEP.F            0.5000:   STEP LENGTH
 NULL.          -999.2500:   NO VALUE
 COMP. BROWN JOHN E&C INC:   COMPANY
 WELL. NPR 3 SX-10 #64-1-10:   WELL
 FLD .             TEAPOT:   FIELD
 LOC .      S10 T38N R78W:   LOCATION
 CNTY.            NATRONA:   COUNTY
 STAT.            WYOMING:   STATE
 CTRY. UNITED STATES OF AMERICA:   COUNTRY
 SRVC.     Atlas Wireline:   SERVICE COMPANY
 DATE.        29-APR-1991:   LOGDATE
 API .       490251133600:   API NUMBER
~CURVE INFORMATION
#MNEM.UNIT       API CODE    CURVE DESCRIPTION
#----------   ------------   ------------------------------
 DEPT.F                  :   
 GRR .GAPI   07 310 01 00:   GAMMA RAY
 RILD.OHMM   07 120 46 00:   INDUCTION LOG DEEP RESISTIVITY
 RILM.OHMM   07 120 44 00:   INDUCTION LOG MEDIUM RESISTIVITY
~PARAMETER INFORMATION
#MNEM.UNIT          VALUE    DESCRIPTION
#----------   ------------   ------------------------------
 EPD .F              5185:   ELEVATION PERMANENT DATUM
 LMF .                 KB:   LOG MEASURED FROM
 DAPD.F                 5:   FEET ABOVE PERMANENT DATUM
 DMF .                 KB:   DRILLING MEASURED FROM
 EKB .F              5190:   KELLING BUSHING
 EGL .F              5185:   GROUND LEVEL
 DATE.        29-APR-1991:   RUN DATE
 RUN .                  1:   RUN NUMBER
 DD  .F               440:   DEPTH DRILLER
 DL  .F               439:   DEPTH LOGGER
 BLI .F               437:   BOTTOM LOG INTERVAL
 CS  .IN            8.625:   CASING SIZE
 CBD .F                44:   CASING BOTTOM DRILLER
 CBL .F                44:   CASING BOTTOM LOGGER
 BS  .IN            7.875:   BIT SIZE
 BSD .F               440:   BIT SIZE AT DEPTH
 DFT .                AIR:   DRILLING FLUID TYPE
 LUN .           HL- 6272:   LOGGING UNIT NUMBER
 LUL .             CASPER:   LOGGING UNIT LOCATION
 ENGI.            KINNETT:   RECORDING ENGINEER
 WITN.             STRONG:   WITNESSED BY
 CLNT.            A2DTECH:   CLIENT CODE
 ORIG.           5" PRINT:   ORIGIN OF DATA
 UWI .       490251133600:   UNIQUE WELL ID
 DICO. A2D Technologies, Inc.:   DIGITIZING COMPANY
~OTHER INFORMATION
~A    DEPT      GRR      RILD       RILM   
# ...
  273.0000    92.3253    26.9424    26.1711
  273.5000    97.6131    26.5567    25.9808
  274.0000    99.2256    26.5549    25.9772
  274.5000    96.4736    26.5530    25.9735
  275.0000    92.5731    26.5511    25.9699
  275.5000    93.0371    26.5493    25.9662
  276.0000    93.2702    26.5473    25.9626
  276.5000    96.2621    26.5450    25.9589
  277.0000    95.5775    26.5432    25.9551
  277.5000    94.2037    26.5413    25.9514
  278.0000    96.5054    26.5394    25.7620
  278.5000   101.6002    26.3479    25.5747
  279.0000   103.9081    26.1577    25.3888
  279.5000   104.7887    25.7833    25.2042
  280.0000   106.6307    25.4143    25.0209
  280.5000   104.5690    25.2309    24.6619
  281.0000   100.6685    25.0488    24.4826
  281.5000    99.7542    24.8680    24.1313
  282.0000   101.5964    24.6838    23.7850
  282.5000   105.5060    24.3351    23.4437
  283.0000   108.4967    24.1594    23.1073
  283.5000   108.0418    23.9847    22.7757
  284.0000   105.2899    23.8116    22.7572
  284.5000   102.5379    23.6397    22.4456
  285.0000    99.3265    23.6380    22.4418
  285.5000    96.8042    23.6364    22.4386
  286.0000   101.1732    23.4658    23.2528
  286.5000   103.9343    23.6335    22.7557
  287.0000   103.9878    23.6314    22.5910
  287.5000   101.6462    23.7999    23.2430
  288.0000   101.1914    23.9695    23.0740
  288.5000   101.6554    23.9678    22.7429
  289.0000    94.9344    23.9661    22.5775
  289.5000    88.8018    23.7930    22.2536
  290.0000    88.5755    23.6210    22.0918
  290.5000    88.8109    23.4505    21.7747
  291.0000    96.3958    23.1148    21.4622
  291.5000   101.4539    22.7840    21.1542
  292.0000   102.8367    22.6196    20.9998
  292.5000    98.0174    22.6180    20.6984
  293.0000    97.1019    22.6164    20.5479
  293.5000    99.8641    22.6148    20.3985
  294.0000   102.3954    21.9736    20.2502
  294.5000   101.2514    21.5042    19.9597
  295.0000    96.2024    21.0449    19.3937
  295.5000    92.5316    20.5945    18.9791
  296.0000    92.0766    20.1441    18.5733
  296.5000    93.0000    19.7034    18.3068
  297.0000    94.1561    19.3034    18.0441
  297.5000    94.1425    19.0271    17.7852
  298.0000    93.2434    18.6208    17.5300
  298.5000    94.4763    18.4864    17.3871
  299.0000    98.0774    18.0915    17.2754
  299.5000   100.8385    17.8326    17.1498
  300.0000   101.0716    17.6268    17.5193
  300.5000    98.0990    17.1975    17.2667
  301.0000    96.0430    16.9478    16.8964
  301.5000    95.8218    16.5823    16.6527
  302.0000    98.5925    16.4591    16.2956
  302.5000    98.6039    15.9890    16.0606
  303.0000    98.8450    15.7568    15.8290
  303.5000   100.9237    15.5280    15.4895
  304.0000   105.0698    15.1931    15.3758
  304.5000   103.2435    15.0802    15.0461
  305.0000   100.0389    14.8612    14.8291
  305.5000    97.2938    14.6454    14.6153
  306.0000    95.4671    14.4327    14.4983
  306.5000    95.9383    14.3255    14.2827
  307.0000    97.7873    14.2189    14.0919
  307.5000    99.8660    14.2014    14.0889
  308.0000   102.6401    14.0084    13.9855
  308.5000   102.8752    14.0036    13.9825
  309.0000   100.9709    14.1004    14.0807
  309.5000    97.7725    14.3001    14.0770
  310.0000   100.1554    14.4000    14.1758
  310.5000   104.7610    14.6040    14.2746
  311.0000   107.0694    14.7039    14.4774
  311.5000   105.2431    14.6997    14.5783
  312.0000   100.4306    14.8024    14.6791
  312.5000   101.3608    14.7972    14.5713
  313.0000   106.4257    14.5823    14.4644
  313.5000   108.9639    14.3705    14.3537
  314.0000   107.8267    14.2637    14.1403
  314.5000   103.9330    14.1578    13.8475
  315.0000    97.5125    13.8524    13.4533
  315.5000    93.8485    13.5537    13.1648
  316.0000    97.3055    13.3569    12.8824
  316.5000   104.6676    13.1628    12.5162
  317.0000   110.8811    13.0650    12.3358
  317.5000   112.2707    12.9671    12.2452
  318.0000   109.9850    12.9634    12.2426
  318.5000   106.3210    12.9598    12.3286
  319.0000   105.4134    13.0503    12.5037
  319.5000   105.1952    13.3304    12.8634
  320.0000   109.6329    13.7136    13.4249
  320.5000   112.1348    14.2103    14.5214
  321.0000   112.3507    15.1537    16.1635
  321.5000   108.6891    16.6301    18.9627
  322.0000   103.8766    18.6473    22.0745
  322.5000    97.2264    21.2113    25.1278
  323.0000    89.8871    24.8302    28.6277
  323.5000    84.3854    28.2444    31.6378
  324.0000    79.8026    30.9961    34.2218
  324.5000    81.4219    33.2918    35.9722
  325.0000    83.9601    34.7460    37.0109
  325.5000    86.9576    34.7361    37.0011
  326.0000    90.4146    34.4515    36.2076
  326.5000    93.6419    33.9770    35.6855
  327.0000    94.5693    33.9654    35.1709
  327.5000    92.7458    33.9558    34.9127
  328.0000    88.1630    33.4627    35.1560
  328.5000    84.9584    32.7410    35.6553
  329.0000    83.8213    32.2655    34.8890
  329.5000    83.8070    31.5696    33.6235
  330.0000    84.5331    30.8888    32.2049
  330.5000    88.2198    30.8800    31.5426
  331.0000    92.3754    30.6506    31.3111
  331.5000    93.7558    30.2055    31.3045
  332.0000    92.2418    29.7668    31.2979
  332.5000    89.5749    29.1249    31.0681
  333.0000    88.5092    28.9085    30.4018
  333.5000    87.8314    28.4887    29.5376
  334.0000    87.3805    28.2770    28.6980
  334.5000    86.4759    27.8664    28.0825
  335.0000    86.4873    27.4616    27.2842
  335.5000    88.7957    27.2341    26.5087
  336.0000    96.1578    26.6364    26.1264
  336.5000    98.4662    26.0928    25.7497
  337.0000    98.9341    25.5300    25.3784
  337.5000    90.2194    25.1593    25.1769
  338.0000    84.4880    24.7939    25.0070
  338.5000    87.9450    24.2592    24.8223
  339.0000    91.1723    24.0789    24.6401
  339.5000    93.0214    23.7292    24.4592
  340.0000    92.5733    23.7225    24.2797
  340.5000    93.5035    23.7158    24.1015
  341.0000    94.4337    23.7091    24.0964
  341.5000    94.2152    23.7024    24.0913
  342.0000    94.4564    23.6957    24.0862
  342.5000    96.3290    23.6890    24.0811
  343.0000   100.0198    23.5130    24.0760
  343.5000   101.8412    23.5063    24.0709
  344.0000   100.2729    23.3317    24.0658
  344.5000    96.2642    23.3250    24.0607
  345.0000    95.4434    22.9862    23.8841
  345.5000    98.2142    22.9796    23.8790
  346.0000    94.0908    22.6445    23.5346
  346.5000    90.4268    22.3156    23.1942
  347.0000    91.8164    21.9916    22.6967
  347.5000    96.4219    21.3635    22.2099
  348.0000   100.1058    20.7533    21.4247
  348.5000    99.6577    20.1606    20.8157
  349.0000   101.5096    19.4449    20.2240
  349.5000   104.7369    19.1625    19.7903
  350.0000   106.1237    19.0201    20.0715
  350.5000   105.7930    19.7217    20.9491
  351.0000   104.7670    20.2861    22.5001
  351.5000   102.4790    20.2846    23.6526
  352.0000    97.4345    20.2829    23.8192
  352.5000    89.4038    20.2815    22.9787
  353.0000    82.7513    20.1351    21.6887
  353.5000    85.0575    19.8469    20.3280
  354.0000    90.8093    19.2841    19.4422
  354.5000    98.1691    18.6034    18.2645
  355.0000   101.8535    17.6911    17.7466
  355.5000   102.5517    17.0667    17.3672
  356.0000   101.4123    16.5828    17.1180
  356.5000   100.2728    16.4631    16.9935
  357.0000    95.6877    16.4619    16.8700
  357.5000    93.6294    16.2263    16.5093
  358.0000    95.2649    15.9940    16.3893
  358.5000    97.5852    15.7651    16.0389
  359.0000    98.9403    15.6513    15.9223
  359.5000    98.9495    15.5383    15.8065
  360.0000    99.4176    15.3013    15.5797
  360.5000    97.1319    15.0964    15.4664
  361.0000    94.6142    14.8803    15.2445
  361.5000    93.0130    14.6674    15.0257
  362.0000    92.3330    14.5615    14.8100
  362.5000    97.6277    14.3531    14.6849
  363.0000   101.3121    14.2495    14.4909
  363.5000   101.7783    14.0455    14.2830
