~VERSION INFORMATION
 VERS.                2.0:   CWLS LOG ASCII STANDARD - VERSION 2.0
 WRAP.                 NO:   ONE LINE PER DEPTH STEP
~WELL INFORMATION
#MNEM.UNIT      DATA TYPE    INFORMATION
#----------   ------------   ------------------------------
 STRT.F           36.0000:   START DEPTH
 STOP.F          592.0000:   STOP DEPTH
 STEP.F            0.5000:   STEP LENGTH
 NULL.          -999.2500:   NO VALUE
 COMP. FENIX & SCISSON INC:   COMPANY
 WELL.           S #35-10:   WELL
 FLD .              NPR-3:   FIELD
 LOC .      S10 T38N R78W:   LOCATION
 CNTY.            NATRONA:   COUNTY
 STAT.            WYOMING:   STATE
 CTRY. UNITED STATES OF AMERICA:   COUNTRY
 SRVC.              Welex:   SERVICE COMPANY
 DATE.        07-MAR-1977:   LOGDATE
 API .       490251029000:   API NUMBER
~CURVE INFORMATION
#MNEM.UNIT       API CODE    CURVE DESCRIPTION
#----------   ------------   ------------------------------
 DEPT.F                  :   
 SPR .MV     07 010 01 00:   SPONTANEOUS POTENTIAL
 ILM .OHMM   07 120 44 00:   INDUCTION LOG MEDIUM
 ILD .OHMM   07 120 46 00:   INDUCTION LOG DEEP
 SGRD.OHMM   07 220 05 00:   SHALLOW GUARD RESISTIVITY
 CALD.IN     45 280 60 00:   CALIPER FROM DENSITY LOG
 RHOB.G/C3   45 350 01 00:   BULK DENSITY
 CORR.G/C3   45 356 01 00:   DENSITY CORRECTION
 DPHI.DEC    45 890 12 00:   DENSITY POROSITY SANDSTONE
 GRD .GAPI   45 310 01 00:   GAMMA RAY FROM DENSITY LOG
~PARAMETER INFORMATION
#MNEM.UNIT          VALUE    DESCRIPTION
#----------   ------------   ------------------------------
 PD  .                 GL:   PERMANENT DATUM
 EPD .F              5234:   ELEVATION PERMANENT DATUM
 LMF .                 GL:   LOG MEASURED FROM
 DMF .                 GL:   DRILLING MEASURED FROM
 EGL .F              5234:   GROUND LEVEL
 DATE.             3-7-77:   RUN DATE
 RUN .                  1:   RUN NUMBER
 DD  .F               600:   DEPTH DRILLER
 DL  .F               593:   DEPTH LOGGER
 BLI .F               591:   BOTTOM LOG INTERVAL
 TLI .F                35:   TOP LOG INTERVAL
 CS  .IN            8.625:   CASING SIZE
 CBD .F                42:   CASING BOTTOM DRILLER
 CBL .F                42:   CASING BOTTOM LOGGER
 BS  .IN            7.875:   BIT SIZE
 BSD .F               600:   BIT SIZE AT DEPTH
 DFT .            KCL MUD:   DRILLING FLUID TYPE
 MSS .          FLOW LINE:   MUD SAMPLE SOURCE
 RMS .OHMM            .40:   RESISTIVITY MUD SAMPLE
 MST .F                58:   MUD SAMPLE TEMPERATURE
 RMF .OHMM            .33:   RESISTIVITY MUD FILTRATE SAMPLE
 MFST.F                58:   MUD FILTRATE SAMPLE TEMPERATURE
 RMC .OHMM            .44:   RESISTIVITY MUD CAKE
 MCST.F                58:   MUD CAKE SAMPLE TEMPERATURE
 MFSS.           FANN KIT:   MUD FILTRATE SAMPLE SOURCE
 MCSS.           FANN KIT:   MUD CAKE SAMPLE SOURCE
 RMB .OHMM            .31:   RESISTIVITY MUD AT BHT
 BHT .F                62:   BOTTOM HOLE TEMPERATURE
 TCS .HRS               3:   TIME CURCULATED STOPPED
 MRT .F                62:   MAXIMUM RECORDED TEMPERATURE
 LUN .               8611:   LOGGING UNIT NUMBER
 LUL .           GILLETTE:   LOGGING UNIT LOCATION
 ENGI.            C. DOAK:   RECORDING ENGINEER
 WITN.      L. STUEBINGER:   WITNESSED BY
 CLNT.            A2DTECH:   CLIENT CODE
 ORIG.        2" 5" PRINT:   ORIGIN OF DATA
 UWI .       490251029000:   UNIQUE WELL ID
 DICO. A2D Technologies, Inc.:   DIGITIZING COMPANY
~OTHER INFORMATION
~A   DEPT      SPR        ILM        ILD       SGRD         CALD       RHOB      CORR        DPHI       GRD  
# ...
  510.5000   -40.3652    15.0551    12.8558    15.9719     7.8158     2.4261     0.0508     0.1373   102.8517
  511.0000   -40.4143    14.8673    12.9047    16.7336     7.8101     2.4213     0.0465     0.1368   100.9260
  511.5000   -40.4633    14.6818    12.9538    17.0368     7.8042     2.4168     0.0422     0.1386    99.5412
  512.0000   -40.5124    14.4986    13.0003    16.6428     7.7983     2.4123     0.0423     0.1406   100.9660
  512.5000   -40.5611    14.3091    13.0604    16.3419     7.7924     2.4078     0.0430     0.1426   100.7258
  513.0000   -40.6080    14.9807    13.2601    16.2700     7.7864     2.4032     0.0437     0.1446   100.2903
  513.5000   -40.6698    14.0886    13.4219    16.3055     7.7805     2.4012     0.0411     0.1463    99.9479
  514.0000   -41.0014    13.0365    13.5820    16.3652     7.7746     2.4081     0.0382     0.1420   100.9825
  514.5000   -41.3290    12.4905    13.6676    16.4200     7.7687     2.4156     0.0354     0.1374   102.0654
  515.0000   -41.6543    12.1565    13.3852    16.1689     7.7631     2.4232     0.0338     0.1328   102.0415
  515.5000   -41.9762    11.8315    13.1680    15.9742     7.7716     2.4216     0.0349     0.1292   102.0909
  516.0000   -42.2930    11.4113    12.9544    16.0222     7.7999     2.4193     0.0369     0.1276   104.0719
  516.5000   -42.6100    10.3762    12.7452    16.1215     7.8193     2.4274     0.0399     0.1250   108.1579
  517.0000   -42.9270    10.8474    12.5346    15.9943     7.8190     2.4361     0.0430     0.1198   111.1233
  517.5000   -43.2425    11.9692    12.2467    15.7959     7.8191     2.4442     0.0457     0.1203   113.9380
  518.0000   -43.5151    12.5887    12.0150    15.6000     7.8191     2.4375     0.0390     0.1208   113.4454
  518.5000   -43.7104    12.7425    11.9105    15.3987     7.8220     2.4365     0.0322     0.1213   110.0030
  519.0000   -43.9072    12.8648    12.0415    15.9684     7.8253     2.4406     0.0370     0.1193   106.2341
  519.5000   -44.1010    12.9863    12.1562    16.7524     7.8286     2.4449     0.0417     0.1173   102.7132
  520.0000   -44.2463    13.0548    12.2724    17.4963     7.8318     2.4492     0.0406     0.1153   103.5677
  520.5000   -44.2751    12.2782    12.3565    15.8363     7.8351     2.4535     0.0405     0.1133   103.9728
  521.0000   -44.3063    11.8018    12.3080    15.9977     7.8386     2.4567     0.0451     0.1117    99.8910
  521.5000   -44.3369    12.2456    12.2550    16.1885     7.8316     2.4518     0.0452     0.1138    99.3288
  522.0000   -44.3676    12.5936    11.9105    16.4200     7.8226     2.4468     0.0446     0.1157   101.3810
  522.5000   -44.3984    12.9475    11.9105    16.2954     7.8135     2.4422     0.0440     0.1177   103.4012
  523.0000   -44.4291    13.3056    12.0071    16.1416     7.8044     2.4449     0.0442     0.1184   104.0637
  523.5000   -44.4599    13.7750    12.1030    15.9892     7.7953     2.4470     0.0450     0.1182   104.7740
  524.0000   -44.4906    14.0576    12.1991    15.8383     7.7862     2.4482     0.0457     0.1181   107.5370
  524.5000   -44.5214    14.3412    12.2959    15.6838     7.7771     2.4424     0.0410     0.1185   109.1140
  525.0000   -44.5520    14.5740    12.3935    15.7869     7.7678     2.4398     0.0359     0.1191   106.6057
  525.5000   -44.5826    13.6117    12.4696    15.8943     7.7605     2.4428     0.0377     0.1197   104.2748
  526.0000   -44.6143    12.5064    12.3178    16.0023     7.7844     2.4443     0.0400     0.1190   103.4330
  526.5000   -44.7003    11.6871    12.1726    16.1215     7.8088     2.4418     0.0424     0.1180   103.3645
  527.0000   -44.8766    12.1572    12.0815    15.8311     7.8191     2.4480     0.0448     0.1170   105.4499
  527.5000   -45.0517    12.6902    11.9863    15.4330     7.8186     2.4553     0.0457     0.1161   107.4572
  528.0000   -45.2271    13.2466    11.8919    15.1152     7.8035     2.4466     0.0457     0.1171   108.8995
  528.5000   -45.4024    13.9206    11.7983    15.2254     7.8035     2.4371     0.0404     0.1208   109.1550
  529.0000   -45.5777    13.8351    11.7054    15.3566     7.8189     2.4284     0.0389     0.1248   109.0328
  529.5000   -45.7531    13.7045    11.6133    15.3987     7.8052     2.4346     0.0410     0.1223   110.6137
  530.0000   -45.9286    13.5751    11.5888    14.9521     7.7880     2.4417     0.0430     0.1190   113.1368
  530.5000   -46.1019    13.4469    11.5855    14.7084     7.7714     2.4487     0.0451     0.1157   115.6829
  531.0000   -46.2408    13.4191    11.4814    15.1475     7.7547     2.4558     0.0472     0.1124   114.6808
  531.5000   -46.2921    14.2186    11.5857    15.6838     7.7378     2.4625     0.0494     0.1097   112.7263
  532.0000   -46.3453    14.3091    11.5677    15.5271     7.7206     2.4608     0.0496     0.1114   110.7087
  532.5000   -46.3980    13.7935    11.5256    15.3987     7.7352     2.4558     0.0465     0.1125   109.8018
  533.0000   -46.4508    13.7935    11.4837    15.3987     7.7528     2.4589     0.0433     0.1090   108.9394
  533.5000   -46.5036    14.0875    11.4418    15.8662     7.7702     2.4646     0.0402     0.1091   108.3959
  534.0000   -46.5563    14.3106    11.4002    15.9742     7.7875     2.4592     0.0361     0.1117   109.8922
  534.5000   -46.6074    14.2119    11.3619    15.5242     7.8056     2.4530     0.0389     0.1141   111.7542
  535.0000   -46.7415    13.9897    11.3284    15.1743     7.8245     2.4576     0.0428     0.1126   113.6843
  535.5000   -46.8948    13.7695    11.2948    14.8439     7.8326     2.4618     0.0466     0.1111   113.1229
  536.0000   -47.0484    13.5518    11.2614    14.8439     7.7992     2.4660     0.0498     0.1097   113.7817
  536.5000   -47.2018    13.4191    11.2282    14.9448     7.7656     2.4655     0.0508     0.1082   112.6741
  537.0000   -47.3552    13.4713    11.1946    15.0337     7.7813     2.4598     0.0508     0.1097   110.0061
  537.5000   -47.5086    13.5247    11.1490    15.1188     7.8085     2.4541     0.0469     0.1130   107.1558
  538.0000   -47.6618    13.5786    11.0606    15.0260     7.8350     2.4508     0.0432     0.1148   104.9490
  538.5000   -47.8150    13.6291    10.9735    14.9101     7.8234     2.4599     0.0416     0.1103   105.5149
  539.0000   -47.9704    13.6736    10.8871    14.7694     7.8133     2.4715     0.0461     0.1057   107.8732
  539.5000   -48.2298    13.4732    10.8014    14.6295     7.8022     2.4829     0.0514     0.1011   110.6027
  540.0000   -48.5321    13.3822    10.7164    14.3869     7.7840     2.4801     0.0571     0.0989   113.3544
  540.5000   -48.8351    13.2919    10.6320    14.0800     7.7632     2.4731     0.0514     0.1042   115.8626
  541.0000   -49.1381    13.2021    10.5715    13.7935     7.7463     2.4667     0.0496     0.1070   113.7258
  541.5000   -49.4410    12.9186    10.3695    13.9135     7.7279     2.4795     0.0538     0.1042   111.9823
  542.0000   -49.7439    12.7752    10.1867    14.0081     7.7080     2.4907     0.0579     0.0946   112.1886
  542.5000   -50.0468    12.6335    10.0054    14.0489     7.7592     2.4963     0.0579     0.0892   113.2919
  543.0000   -50.3498    12.4933     9.7532    13.6159     7.7431     2.4946     0.0551     0.0918   114.8455
  543.5000   -50.6526    11.9463     9.4924    13.1921     7.6521     2.4905     0.0522     0.0934   117.3705
  544.0000   -50.9461    11.4947     9.2386    12.7815     7.6384     2.4845     0.0494     0.0953   119.8803
  544.5000   -51.3391    11.0602     8.8027    12.3521     7.6573     2.4773     0.0465     0.0996   122.4992
  545.0000   -51.7335    10.6421     8.3588    12.3577     7.6701     2.4734     0.0437     0.1023   127.1456
  545.5000   -52.1074    10.2398     7.8205    12.1646     7.7268     2.4724     0.0419     0.1030   131.9987
  546.0000   -52.4342     9.8527     7.3008    12.0406     7.7855     2.4714     0.0400     0.1044   136.8712
  546.5000   -52.7628     9.2597     6.8156    11.6608     7.7865     2.4706     0.0428     0.1063   140.0811
