~VERSION INFORMATION
 VERS.                2.0:   CWLS LOG ASCII STANDARD - VERSION 2.0
 WRAP.                 NO:   ONE LINE PER DEPTH STEP
~WELL INFORMATION
#MNEM.UNIT      DATA TYPE    INFORMATION
#----------   ------------   ------------------------------
 STRT.F           15.0000:   START DEPTH
 STOP.F          557.0000:   STOP DEPTH
 STEP.F            0.5000:   STEP LENGTH
 NULL.          -999.2500:   NO VALUE
 COMP. FENIX & SICISSOR INC.:   COMPANY
 WELL.       NPR #85-S-10:   WELL
 FLD .             TEAPOT:   FIELD
 LOC .      S10 T38N R78W:   LOCATION
 CNTY.            NATRONA:   COUNTY
 STAT.            WYOMING:   STATE
 CTRY. UNITED STATES OF AMERICA:   COUNTRY
 SRVC.           BIRDWELL:   SERVICE COMPANY
 DATE.        27-NOV-1978:   LOGDATE
 API .       490251075300:   API NUMBER
~CURVE INFORMATION
#MNEM.UNIT       API CODE    CURVE DESCRIPTION
#----------   ------------   ------------------------------
 DEPT.F                  :   
 CALD.IN     45 280 60 00:   CALIPER FROM DENSITY LOG
 DPHI.DEC    45 890 12 00:   DENSITY POROSITY SANDSTONE
 GRD .GAPI   45 310 01 00:   GAMMA RAY FROM DENSITY LOG
 RHOB.G/C3   45 350 01 00:   BULK DENSITY
 CORR.G/C3   45 356 01 00:   DENSITY CORRECTION
 ILD .OHMM   05 120 46 00:   INDUCTION LOG DEEP
 SN  .OHMM   05 040 00 00:   SHORT NORMAL
 SPR .MV     05 010 01 00:   SPONTANEOUS POTENTIAL
~PARAMETER INFORMATION
#MNEM.UNIT          VALUE    DESCRIPTION
#----------   ------------   ------------------------------
 PD  .                 GL:   PERMANENT DATUM
 EPD .F              5196:   ELEVATION PERMANENT DATUM
 LMF .                 KB:   LOG MEASURED FROM
 DAPD.F                 4:   FEET ABOVE PERMANENT DATUM
 DMF .                 KB:   DRILLING MEASURED FROM
 EKB .F              5200:   KELLING BUSHING
 EGL .F              5196:   GROUND LEVEL
 DATE.        27-NOV-1978:   RUN DATE
 RUN .                  1:   RUN NUMBER
 DD  .F               557:   DEPTH DRILLER
 DL  .F               551:   DEPTH LOGGER
 BLI .F               545:   BOTTOM LOG INTERVAL
 TLI .F                48:   TOP LOG INTERVAL
 CS  .IN            8.625:   CASING SIZE
 CBD .F                40:   CASING BOTTOM DRILLER
 CBL .F                35:   CASING BOTTOM LOGGER
 BS  .IN            7.875:   BIT SIZE
 BSD .F               557:   BIT SIZE AT DEPTH
 DFT .                KCL:   DRILLING FLUID TYPE
 DFD .                8.8:   DRILLING FLUID DENSITY
 DFV .                 38:   DRILLING FLUID VISCOSITY
 DFPH.               11.1:   DRILLING FLUID PH
 DFL .                 14:   DRILLING FLUID LOSS
 MSS .           FLOWLINE:   MUD SAMPLE SOURCE
 RMS .OHMM           0.32:   RESISTIVITY MUD SAMPLE
 MST .F                58:   MUD SAMPLE TEMPERATURE
 RMF .OHMM           0.31:   RESISTIVITY MUD FILTRATE SAMPLE
 MFST.F                74:   MUD FILTRATE SAMPLE TEMPERATURE
 RMC .OHMM           0.53:   RESISTIVITY MUD CAKE
 MCST.F                75:   MUD CAKE SAMPLE TEMPERATURE
 MFSS.               MEAS:   MUD FILTRATE SAMPLE SOURCE
 MCSS.               MEAS:   MUD CAKE SAMPLE SOURCE
 RMB .OHMM           0.31:   RESISTIVITY MUD AT BHT
 BHT .F                59:   BOTTOM HOLE TEMPERATURE
 TCS .HRS               2:   TIME CURCULATED STOPPED
 MRT .F                59:   MAXIMUM RECORDED TEMPERATURE
 LUN .               2958:   LOGGING UNIT NUMBER
 LUL .             CASPER:   LOGGING UNIT LOCATION
 ENGI.             MILLER:   RECORDING ENGINEER
 WITN.           DINSMORE:   WITNESSED BY
 CLNT.            A2DTECH:   CLIENT CODE
 ORIG.         2.5" PRINT:   ORIGIN OF DATA
 UWI .       490251075300:   UNIQUE WELL ID
 DICO. A2D Technologies, Inc.:   DIGITIZING COMPANY
~OTHER INFORMATION
~A   DEPT     CALD       DPHI         GRD      RHOB       CORR        ILD         SN        SPR   
# ...
  298.5000     8.1402     0.1459   102.6641     2.4389     0.0783     2.8507     3.1383    -7.9360
  299.0000     8.1405     0.1429   106.3765     2.4417     0.0737     2.8896     3.2082    -8.0935
  299.5000     8.1408     0.1429   110.0568     2.4417     0.0675     3.0810     3.3472    -8.8439
  300.0000     8.1718     0.1441   112.4148     2.4414     0.0613     3.4765     3.5585    -9.3504
  300.5000     8.2070     0.1569   114.9418     2.4349     0.0551     3.7806     3.9619    -9.7530
  301.0000     8.2344     0.1643   117.4688     2.4088     0.0489     4.1112     5.0288    -9.7498
  301.5000     8.2656     0.1658   119.1733     2.3940     0.0422     4.5339     5.9509    -9.7468
  302.0000     8.2664     0.1658   118.7296     2.3874     0.0422     5.1419     6.6580    -9.7439
  302.5000     8.2670     0.1561   116.2664     2.3904     0.0573     5.4501     6.9449    -9.4360
  303.0000     8.2982     0.1513   115.3457     2.4115     0.0725     5.6829     6.8492    -9.7380
  303.5000     8.2681     0.1476   115.3524     2.4358     0.0681     5.7488     6.9469    -9.7348
  304.0000     8.1767     0.1531   116.9016     2.4056     0.0367     5.8291     6.9479    -9.7317
  304.5000     8.0853     0.1911   118.4508     2.3784     0.0198     5.7471     6.9488    -9.7287
  305.0000     8.1779     0.1972   120.6327     2.3678     0.0143     5.6270     6.9498   -10.0305
  305.5000     8.2399     0.1971   122.9151     2.3542     0.0122     5.4646     6.9508   -10.1997
  306.0000     8.2405     0.1948   125.9711     2.3544     0.0152     5.2818     6.8552   -10.3293
  306.5000     8.2411     0.1833   126.8080     2.3584     0.0197     5.2077     6.6665   -10.6311
  307.0000     8.2417     0.1702   124.3766     2.3756     0.0230     5.1346     6.5746   -10.9329
  307.5000     8.2423     0.1600   118.6625     2.4011     0.0273     4.9922     6.4839   -10.9297
  308.0000     8.2429     0.1554   115.9382     2.4136     0.0213     4.9915     6.3085   -10.3170
  308.5000     8.2436     0.1569   115.4136     2.4178     0.0003     4.9215     6.1320    -9.6707
  309.0000     8.2442     0.1572   115.7675     2.4178    -0.0027     4.9902     6.1329    -9.0081
  309.5000     8.2449     0.1572   121.2912     2.4178    -0.0027     4.9894     6.1338    -8.1072
  310.0000     8.2147     0.1572   124.0750     2.4209    -0.0027     5.1545     6.1606    -7.8659
  310.5000     8.2154     0.1535   125.0069     2.4300    -0.0027     5.3063     6.3439    -7.9792
  311.0000     8.2160     0.1457   125.3215     2.4391    -0.0027     5.5013     6.5758    -8.3059
  311.5000     8.2166     0.1450   125.3274     2.4451    -0.0027     5.7026     6.9720    -8.4665
  312.0000     8.1865     0.1487   125.3334     2.4497    -0.0032     6.1507     7.3653    -8.4629
  312.5000     8.1858     0.1547   125.3395     2.4240    -0.0056     6.4136     7.6827    -8.7652
  313.0000     8.1263     0.1622   123.9754     2.4055    -0.0086     6.5949     7.9022    -8.7619
  313.5000     8.1270     0.1690   119.9732     2.3981    -0.0086     6.6869     7.9033    -8.7590
  314.0000     8.1658     0.1716   117.0240     2.3938    -0.0060     6.7802     8.1291    -8.4512
  314.5000     8.1896     0.1678   117.3395     2.3946    -0.0011     6.7793     8.2450    -8.4375
  315.0000     8.1902     0.1603   117.6543     2.4049     0.0069     6.7783     8.3626    -8.1047
  315.5000     8.1631     0.1549   117.9691     2.4144     0.0185     6.7774     8.3637    -7.8323
  316.0000     8.0982     0.1516   117.9753     2.4247     0.0276     6.7764     8.3649    -7.7439
  316.5000     8.0387     0.1491   119.8346     2.4318     0.0397     6.7362     8.2494    -7.4111
  317.0000     8.0086     0.1497   121.3837     2.4347     0.0457     6.6803     8.1359    -7.3486
  317.5000     8.0706     0.1479   119.2292     2.4362     0.0487     6.6253     8.0238    -7.6753
  318.0000     8.1633     0.1455   118.0000     2.4363     0.0548     6.4940     7.9132    -7.8171
  318.5000     8.1945     0.1449   117.6548     2.4366     0.0487     6.4028     7.9145    -8.7282
  319.0000     8.1951     0.1521   119.2471     2.4166     0.0397     6.4020     7.6967    -9.3350
  319.5000     8.2264     0.1642   119.2541     2.4045     0.0397     6.2244     7.6977    -9.6372
  320.0000     8.2270     0.1611   116.1317     2.4030     0.0386     6.2236     7.4859   -10.2439
  320.5000     8.2276     0.1671   114.9440     2.3961     0.0299     6.1291     7.2799   -10.2409
  321.0000     8.2282     0.1910   115.6307     2.3619     0.0237     6.0360     7.1795   -10.5428
  321.5000     8.2288     0.2030   115.8827     2.3420     0.0217     5.8416     7.0805   -10.5396
  322.0000     8.2294     0.2046   115.3704     2.3376     0.0204     5.6134     7.0307   -10.5366
  322.5000     8.2301     0.1953   114.3506     2.3365     0.0233     5.4513     6.7586   -10.4294
  323.0000     8.2307     0.1613   114.5052     2.3701     0.0373     5.1843     6.3095   -10.2256
  323.5000     8.2313     0.1457   116.8040     2.4247     0.0519     4.9007     5.9876   -10.2226
  324.0000     8.2320     0.1457   120.5444     2.4356     0.0610     4.8319     5.9886    -9.6092
  324.5000     8.2326     0.1496   121.1676     2.4259     0.0429     4.8313     6.0740    -9.6062
  325.0000     8.2332     0.1544   121.4822     2.4213     0.0309     4.8306     6.0748    -9.6033
  325.5000     8.2338     0.1592   121.4882     2.4194     0.0219     4.9671     6.0756    -9.2955
  326.0000     8.2344     0.1580   121.4942     2.4244     0.0219     5.0364     6.1622    -8.9877
  326.5000     8.2350     0.1531   121.5001     2.4274     0.0279     5.4267     6.7985    -8.9847
  327.0000     8.2042     0.1507   121.5062     2.4305     0.0312     5.9009     7.6230    -8.9817
  327.5000     8.1385     0.1507   121.5406     2.4305     0.0340     6.2324     7.9700    -8.9787
  328.0000     8.0172     0.1568   121.8272     2.4303     0.0303     6.4464     8.1887    -8.9756
  328.5000     7.9920     0.1585   122.5211     2.4241     0.0271     6.6980     8.2774    -8.9726
  329.0000     8.1244     0.1555   123.2572     2.4181     0.0250     6.7518     8.2786    -8.9695
  329.5000     8.1772     0.1485   124.1188     2.4258     0.0262     6.7508     8.2238    -8.9665
  330.0000     8.0726     0.1430   124.3210     2.4427     0.0354     6.7498     8.2309    -8.9634
  330.5000     8.0866     0.1440   124.6369     2.4487     0.0401     6.7488     8.2823    -8.9599
  331.0000     8.1834     0.1490   125.7438     2.4399     0.0341     6.7480     8.2834    -8.9569
  331.5000     8.2105     0.1484   127.1184     2.4320     0.0281     6.7470     8.2845    -9.2591
  332.0000     8.2111     0.1373   128.0503     2.4458     0.0341     6.7461     8.2856    -9.2559
  332.5000     8.2424     0.1330   128.0562     2.4533     0.0401     6.7452     8.2867    -9.2530
  333.0000     8.2430     0.1355   125.5931     2.4537     0.0402     6.7442     8.2879    -9.5550
  333.5000     8.2436     0.1403   123.1299     2.4488     0.0341     6.7433     8.2890    -9.5518
  334.0000     8.2749     0.1439   123.1359     2.4428     0.0221     6.7423     8.2902    -9.5488
  334.5000     8.2755     0.1457   123.7742     2.4398     0.0159     6.7414     8.2913    -9.5457
  335.0000     8.2761     0.1457   124.3827     2.4368     0.0068     6.7405     8.1769    -9.5427
  335.5000     8.2767     0.1433   124.3889     2.4353     0.0036     6.7395     8.1782    -9.5396
  336.0000     8.2773     0.1535   124.0857     2.4336     0.0011     6.7384     8.1794    -9.5366
  336.5000     8.2779     0.1605   124.0926     2.4268     0.0020     6.7375     8.1807    -9.5330
  337.0000     8.2785     0.1613   124.0988     2.4183     0.0041     6.7366     8.1818    -9.5301
  337.5000     8.2932     0.1573   124.1049     2.4157     0.0041     6.7357     8.1829    -9.5271
  338.0000     8.3104     0.1550   123.8025     2.4187     0.0042     6.7348     8.1840    -9.5242
  338.5000     8.3112     0.1591   123.1926     2.4082     0.0042     6.7339     8.1851    -9.8262
