~VERSION INFORMATION
 VERS.                2.0:   CWLS LOG ASCII STANDARD - VERSION 2.0
 WRAP.                 NO:   ONE LINE PER DEPTH STEP
~WELL INFORMATION
#MNEM.UNIT      DATA TYPE    INFORMATION
#----------   ------------   ------------------------------
 STRT.F           34.5000:   START DEPTH
 STOP.F          665.5000:   STOP DEPTH
 STEP.F            0.5000:   STEP LENGTH
 NULL.          -999.2500:   NO VALUE
 COMP. FENIX & SCISSON INC:   COMPANY
 WELL.    NPR-3 SX #14-14:   WELL
 FLD .        TEAPOT DOME:   FIELD
 LOC .      S14 T38N R78W:   LOCATION
 CNTY.            NATRONA:   COUNTY
 STAT.            WYOMING:   STATE
 CTRY. UNITED STATES OF AMERICA:   COUNTRY
 SRVC.            Unknown:   SERVICE COMPANY
 DATE.        01-JUN-1978:   LOGDATE
 API .       490251063100:   API NUMBER
~CURVE INFORMATION
#MNEM.UNIT       API CODE    CURVE DESCRIPTION
#----------   ------------   ------------------------------
 DEPT.F                  :   
 SPR .MV     05 010 01 00:   SPONTANEOUS POTENTIAL FROM RES.
 SN  .OHMM   05 040 16 00:   SHORT NORMAL 16"
 IL  .OHMM   05 120 00 00:   INDUCTION LOG
 GRD .GAPI   45 310 01 00:   GAMMA RAY FROM DENSITY LOG
 RHOB.G/C3   45 350 01 00:   BULK DENSITY
 DPHI.DEC    45 890 12 00:   DENSITY POROSITY SANDSTONE
 CORR.G/C3   45 356 01 00:   DENSITY CORRECTION
 CALD.IN     45 280 60 00:   CALIPER FROM DENSITY LOG
~PARAMETER INFORMATION
#MNEM.UNIT          VALUE    DESCRIPTION
#----------   ------------   ------------------------------
 PD  .                 GL:   PERMANENT DATUM
 EPD .F              5212:   ELEVATION PERMANENT DATUM
 LMF .                 KB:   LOG MEASURED FROM
 DAPD.F                 4:   FEET ABOVE PERMANENT DATUM
 DMF .                 KB:   DRILLING MEASURED FROM
 EKB .F              5216:   KELLING BUSHING
 EGL .F              5212:   GROUND LEVEL
 DATE.           6-1-1978:   RUN DATE
 RUN .                  1:   RUN NUMBER
 DD  .F               670:   DEPTH DRILLER
 DL  .F               670:   DEPTH LOGGER
 BLI .F               664:   BOTTOM LOG INTERVAL
 TLI .F                40:   TOP LOG INTERVAL
 CS  .IN            8.625:   CASING SIZE
 CBD .F                40:   CASING BOTTOM DRILLER
 BS  .IN            7.875:   BIT SIZE
 BSD .F               670:   BIT SIZE AT DEPTH
 DFT .                KCL:   DRILLING FLUID TYPE
 DFD .                8.7:   DRILLING FLUID DENSITY
 DFV .                 32:   DRILLING FLUID VISCOSITY
 DFPH.                 10:   DRILLING FLUID PH
 RMS .OHMM            .30:   RESISTIVITY MUD SAMPLE
 MST .F                66:   MUD SAMPLE TEMPERATURE
 BHT .F                75:   BOTTOM HOLE TEMPERATURE
 TCS .HRS               2:   TIME CURCULATED STOPPED
 MRT .F                75:   MAXIMUM RECORDED TEMPERATURE
 LUN .               2958:   LOGGING UNIT NUMBER
 LUL .              CSPR.:   LOGGING UNIT LOCATION
 ENGI.             MILLER:   RECORDING ENGINEER
 WITN.           MCGINLEY:   WITNESSED BY
 CLNT.            A2DTECH:   CLIENT CODE
 ORIG.      2" , 5" PRINT:   ORIGIN OF DATA
 UWI .       490251063100:   UNIQUE WELL ID
 DICO. A2D Technologies, Inc.:   DIGITIZING COMPANY
~OTHER INFORMATION
~A   DEPT      SPR         SN         IL         GRD      RHOB       DPHI       CORR       CALD   
# ...
  601.5000   -20.4467    14.0739    18.2388    55.7356     2.3716     0.1671     0.0465     7.6896
  602.0000   -20.7515    13.9218    18.2440    56.2518     2.3871     0.1576     0.0539     7.7162
  602.5000   -21.0560    13.8097    18.0320    55.9763     2.4024     0.1584     0.0585     7.7428
  603.0000   -21.3604    13.7556    17.6860    54.9510     2.4065     0.1581     0.0583     7.7694
  603.5000   -21.6650    13.7017    17.3483    55.0069     2.4079     0.1509     0.0558     7.7962
  604.0000   -21.9819    13.6481    17.0170    57.0793     2.4197     0.1439     0.0533     7.8230
  604.5000   -22.0556    13.5946    16.6922    59.1047     2.4318     0.1368     0.0507     7.8456
  605.0000   -22.0569    13.5413    16.3736    60.0919     2.4442     0.1335     0.0482     7.8164
  605.5000   -22.0560    13.4882    16.0610    59.9868     2.4508     0.1307     0.0471     7.7874
  606.0000   -22.0559    13.4354    15.7544    60.2116     2.4559     0.1278     0.0492     7.7670
  606.5000   -22.0559    13.3827    15.4496    60.7158     2.4610     0.1249     0.0533     7.7658
  607.0000   -22.0559    13.3303    15.3474    61.2397     2.4683     0.1197     0.0610     7.7641
  607.5000   -22.0559    13.2781    15.2445    61.0233     2.4790     0.1143     0.0686     7.7625
  608.0000   -22.0559    13.2261    15.1422    60.6361     2.4898     0.1120     0.0745     7.7609
  608.5000   -22.0559    13.1742    15.0406    60.3587     2.5007     0.1134     0.0724     7.7593
  609.0000   -22.0559    13.1226    14.9397    60.5788     2.5019     0.1158     0.0695     7.7577
  609.5000   -22.0559    13.0712    14.8395    61.5913     2.4841     0.1192     0.0665     7.7561
  610.0000   -22.0559    13.0200    14.7400    62.0575     2.4666     0.1226     0.0689     7.7545
  610.5000   -22.0559    12.9690    14.6411    62.2623     2.4509     0.1259     0.0722     7.7529
  611.0000   -22.0559    12.9181    14.5428    62.0361     2.4516     0.1293     0.0742     7.7513
  611.5000   -22.0558    12.8675    14.4450    61.8232     2.4555     0.1311     0.0732     7.7497
  612.0000   -22.0557    12.8291    14.3511    61.1941     2.4527     0.1306     0.0722     7.7479
  612.5000   -22.0536    12.7985    14.3685    60.2712     2.4556     0.1301     0.0711     7.7391
  613.0000   -22.1545    12.7678    14.3854    59.5456     2.4609     0.1301     0.0682     7.7302
  613.5000   -22.2845    12.7373    14.4024    59.6637     2.4664     0.1317     0.0583     7.7073
  614.0000   -22.4150    12.7068    14.4194    59.6795     2.4674     0.1332     0.0487     7.6822
  614.5000   -22.5454    12.6764    14.4364    58.3258     2.4543     0.1347     0.0404     7.6733
  615.0000   -22.6757    12.6461    14.4533    57.3481     2.4427     0.1337     0.0417     7.6835
  615.5000   -22.8061    12.6158    14.4704    57.6995     2.4491     0.1280     0.0428     7.6936
  616.0000   -22.9364    12.5857    14.4824    58.8046     2.4603     0.1223     0.0439     7.7036
  616.5000   -23.0667    12.5555    14.4024    58.9769     2.4714     0.1166     0.0450     7.7325
  617.0000   -23.1971    12.5255    14.3348    57.2495     2.4825     0.1109     0.0461     7.7765
  617.5000   -23.3276    12.4988    14.2674    56.4097     2.4937     0.1078     0.0451     7.8205
  618.0000   -23.4531    12.5042    14.2003    56.9373     2.4893     0.1132     0.0431     7.8647
  618.5000   -23.5252    12.5103    14.1335    57.6467     2.4826     0.1147     0.0436     7.9059
  619.0000   -23.5944    12.5164    14.0671    57.7603     2.4828     0.1101     0.0452     7.9074
  619.5000   -23.6638    12.5225    14.0010    58.0328     2.4863     0.1078     0.0459     7.8823
  620.0000   -23.7332    12.5287    13.9352    59.2289     2.4845     0.1138     0.0420     7.8466
  620.5000   -23.8026    12.5349    13.8697    60.3909     2.4814     0.1188     0.0380     7.8104
  621.0000   -23.8720    12.5410    13.8045    60.8337     2.4781     0.1198     0.0378     7.7741
  621.5000   -23.9415    12.5472    13.7396    60.6753     2.4769     0.1198     0.0398     7.7380
  622.0000   -24.0109    12.5533    13.6750    60.5048     2.4812     0.1145     0.0418     7.7076
  622.5000   -24.0801    12.5595    13.6108    60.3467     2.4874     0.1095     0.0440     7.7060
  623.0000   -24.1496    12.5656    13.5468    60.4764     2.4937     0.1041     0.0406     7.7032
  623.5000   -24.2183    12.5718    13.4831    60.9112     2.4998     0.1072     0.0351     7.7003
  624.0000   -24.4429    12.5780    13.4198    61.4945     2.5006     0.1061     0.0317     7.6974
  624.5000   -24.8013    12.5842    13.3307    61.8880     2.5031     0.1027     0.0300     7.6945
  625.0000   -25.1594    12.5903    13.3397    61.6877     2.5059     0.1002     0.0284     7.6917
  625.5000   -25.5212    12.5965    13.3551    61.6110     2.5044     0.1047     0.0268     7.6884
  626.0000   -25.6625    12.6028    13.3704    62.3578     2.5003     0.1094     0.0251     7.6643
  626.5000   -25.6882    12.6095    13.3858    63.0646     2.4962     0.1066     0.0258     7.6378
  627.0000   -25.7117    12.6146    13.4012    62.1489     2.4959     0.1084     0.0275     7.6114
  627.5000   -25.7353    12.5386    13.4165    61.2794     2.4978     0.1122     0.0292     7.5850
  628.0000   -25.7591    12.4710    13.4318    62.5937     2.4946     0.1101     0.0310     7.5639
  628.5000   -25.7829    12.4035    13.4512    64.1302     2.4996     0.1060     0.0341     7.5507
  629.0000   -25.8063    12.3363    13.3443    63.7119     2.5072     0.1018     0.0441     7.5374
  629.5000   -25.8305    12.2692    13.1516    62.8162     2.5149     0.0995     0.0413     7.5242
  630.0000   -25.8827    11.9842    12.9616    62.7965     2.5155     0.0971     0.0378     7.5109
  630.5000   -26.0426    11.8116    12.7744    64.6603     2.5120     0.0963     0.0344     7.4976
  631.0000   -26.1979    11.7808    12.5899    67.3657     2.5103     0.0967     0.0310     7.4844
  631.5000   -26.3531    11.7500    12.4080    70.0431     2.5113     0.0971     0.0285     7.4711
  632.0000   -26.5081    11.7165    12.2288    72.3187     2.5101     0.0988     0.0298     7.4578
  632.5000   -26.6624    11.5999    12.0522    71.8240     2.5066     0.1003     0.0322     7.4445
  633.0000   -26.8095    11.4732    11.8781    69.6854     2.5027     0.1005     0.0346     7.4313
  633.5000   -27.2657    11.3476    11.7065    67.1105     2.5047     0.0991     0.0372     7.4179
  634.0000   -27.7774    11.2238    11.5374    64.6907     2.5085     0.1024     0.0403     7.4101
  634.5000   -28.2907    11.1009    11.3708    64.6480     2.5040     0.1066     0.0284     7.4149
  635.0000   -28.8037    10.9842    11.2066    65.3189     2.4943     0.1090     0.0161     7.4536
  635.5000   -29.3064    10.7836    10.7823    65.9460     2.4893     0.1110     0.0048     7.4812
  636.0000   -29.6267    10.3016     9.6750    66.4262     2.4876     0.1110     0.0045     7.5080
  636.5000   -29.8815     9.6236     8.6818    67.0491     2.4790     0.1297     0.0091     7.5348
  637.0000   -30.0344     8.9985     7.7830    69.9235     2.4648     0.1335     0.0143     7.5616
  637.5000   -30.0425     8.4128     7.1749    74.9998     2.4507     0.1385     0.0196     7.5885
  638.0000   -30.0340     7.8652     6.9838    80.0809     2.4365     0.1436     0.0221     7.6153
  638.5000   -29.7200     7.2542     6.8602    85.1359     2.4221     0.1461     0.0241     7.6422
  639.0000   -29.0739     7.3214     6.8670    90.1976     2.4095     0.1332     0.0326     7.6690
  639.5000   -28.6355     7.4095     6.8013    93.9061     2.4076     0.1239     0.0362     7.6890
  640.0000   -28.6611     7.7374     6.7384    93.0500     2.4834     0.1147     0.0307     7.6881
  640.5000   -28.3886     8.3972     6.8008    85.1479     2.4956     0.1114     0.0253     7.6808
  641.0000   -27.9893     9.1132     7.9675    76.7415     2.5197     0.1107     0.0236     7.6736
  641.5000   -27.6563     9.8902     9.2253    68.4242     2.5222     0.1103     0.0224     7.6665
