~VERSION INFORMATION
 VERS.                2.0:   CWLS LOG ASCII STANDARD - VERSION 2.0
 WRAP.                 NO:   ONE LINE PER DEPTH STEP
~WELL INFORMATION
#MNEM.UNIT      DATA TYPE    INFORMATION
#----------   ------------   ------------------------------
 STRT.F         1099.5000:   START DEPTH
 STOP.F         2700.0000:   STOP DEPTH
 STEP.F            0.5000:   STEP LENGTH
 NULL.          -999.2500:   NO VALUE
 COMP. LAWRENCE/ALLISON INC NPR #3:   COMPANY
 WELL.   47 STX 14 #47-14:   WELL
 FLD .             TEAPOT:   FIELD
 LOC .      S14 T38N R78W:   LOCATION
 CNTY.            NATRONA:   COUNTY
 STAT.            WYOMING:   STATE
 CTRY. UNITED STATES OF AMERICA:   COUNTRY
 SRVC.            Unknown:   SERVICE COMPANY
 DATE.        01-SEP-1988:   LOGDATE
 API .       490251124400:   API NUMBER
~CURVE INFORMATION
#MNEM.UNIT       API CODE    CURVE DESCRIPTION
#----------   ------------   ------------------------------
 DEPT.F                  :   
 ROP .MIN/FT 91 810 01 00:   RATE OF DRILLING PENETRATION
 TGAS.UNITS  91 830 01 00:   TOTAL GAS FROM HOTWIRE
~PARAMETER INFORMATION
#MNEM.UNIT          VALUE    DESCRIPTION
#----------   ------------   ------------------------------
 EKB .F              5286:   KELLING BUSHING
 EGL .F              5276:   GROUND LEVEL
 DATE.             9-1-88:   RUN DATE
 DD  .F              2700:   DEPTH DRILLER
 CBD .F              1088:   CASING BOTTOM DRILLER
 TCS .HRS            1200:   TIME CURCULATED STOPPED
 TLAB.HRS            1223:   TIME LOGGER AT BOTTOM
 ENGI.               HUSK:   RECORDING ENGINEER
 WITN.           PETERSON:   WITNESSED BY
 CLNT.            A2DTECH:   CLIENT CODE
 ORIG.           5" PRINT:   ORIGIN OF DATA
 UWI .       490251124400:   UNIQUE WELL ID
 DICO. A2D Technologies, Inc.:   DIGITIZING COMPANY
~OTHER INFORMATION
~A  DEPT       ROP       TGAS   
# ...
 1221.0000     0.4437     3.3980
 1221.5000     0.4642     3.3244
 1222.0000     0.4901     3.3028
 1222.5000     0.5168     3.3028
 1223.0000     0.5482     3.3028
 1223.5000     0.5730     3.3028
 1224.0000     0.6008     3.3028
 1224.5000     0.6397     3.3028
 1225.0000     0.6818     3.3028
 1225.5000     0.7018     3.3028
 1226.0000     0.6909     3.3028
 1226.5000     0.6539     3.3028
 1227.0000     0.6253     3.2962
 1227.5000     0.5820     3.2773
 1228.0000     0.5386     3.2583
 1228.5000     0.4915     3.2394
 1229.0000     0.4432     3.2204
 1229.5000     0.3905     3.2014
 1230.0000     0.3735     3.1825
 1230.5000     0.4263     3.1635
 1231.0000     0.4748     3.1445
 1231.5000     0.5122     3.1256
 1232.0000     0.5437     3.1066
 1232.5000     0.5697     3.0876
 1233.0000     0.5847     3.0687
 1233.5000     0.5948     3.0497
 1234.0000     0.5983     3.0308
 1234.5000     0.5977     3.0118
 1235.0000     0.5899     2.9928
 1235.5000     0.5786     2.9739
 1236.0000     0.5593     2.9549
 1236.5000     0.5331     2.9359
 1237.0000     0.5119     2.9170
 1237.5000     0.4700     2.8980
 1238.0000     0.4177     2.8790
 1238.5000     0.4252     2.8601
 1239.0000     0.4749     2.8411
 1239.5000     0.5198     2.8222
 1240.0000     0.5495     2.8034
 1240.5000     0.5179     2.7869
 1241.0000     0.4656     2.7705
 1241.5000     0.4444     2.7540
 1242.0000     0.4334     2.7375
 1242.5000     0.4328     2.7210
 1243.0000     0.4321     2.7045
 1243.5000     0.4213     2.6881
 1244.0000     0.4207     2.6716
 1244.5000     0.4165     2.6551
 1245.0000     0.3853     2.6386
 1245.5000     0.3573     2.6221
 1246.0000     0.3882     2.6056
 1246.5000     0.4453     2.5892
 1247.0000     0.4875     2.5727
 1247.5000     0.5373     2.5562
 1248.0000     0.6062     2.5397
 1248.5000     0.6941     2.5232
 1249.0000     0.6221     2.5068
 1249.5000     0.5680     2.4903
 1250.0000     0.5152     2.4751
 1250.5000     0.5463     2.5019
 1251.0000     0.6110     2.5266
 1251.5000     0.6496     2.5514
 1252.0000     0.6591     2.5762
 1252.5000     0.6652     2.6009
 1253.0000     0.6615     2.6257
 1253.5000     0.6504     2.6505
 1254.0000     0.6244     2.6753
 1254.5000     0.5920     2.7000
 1255.0000     0.5677     2.7248
 1255.5000     0.5211     2.7496
 1256.0000     0.4793     2.7743
 1256.5000     0.4374     2.7991
 1257.0000     0.3749     2.8239
 1257.5000     0.3228     2.8486
 1258.0000     0.4069     2.8734
 1258.5000     0.4892     2.8982
 1259.0000     0.5311     2.9229
 1259.5000     0.5766     2.9477
 1260.0000     0.5696     2.9725
 1260.5000     0.5266     2.9973
 1261.0000     0.4756     3.0220
 1261.5000     0.4116     3.0468
 1262.0000     0.3939     3.0716
 1262.5000     0.4003     3.0963
 1263.0000     0.3998     3.1211
 1263.5000     0.3993     3.1459
 1264.0000     0.4033     3.1706
 1264.5000     0.4038     3.1954
 1265.0000     0.3977     3.2202
 1265.5000     0.3972     3.0010
 1266.0000     0.3967     3.1143
 1266.5000     0.3902     3.2945
 1267.0000     0.3791     3.3193
 1267.5000     0.3615     3.0464
 1268.0000     0.3533     2.0230
 1268.5000     0.4117     2.0666
 1269.0000     0.4815     2.5970
 1269.5000     0.5187     3.0339
 1270.0000     0.5270     3.0578
 1270.5000     0.4970     3.0818
 1271.0000     0.4565     3.1058
 1271.5000     0.4241     3.1116
 1272.0000     0.3978     3.0982
 1272.5000     0.3900     3.0848
 1273.0000     0.3895     3.0714
 1273.5000     0.3889     3.0580
 1274.0000     0.3884     3.0445
 1274.5000     0.3835     3.0311
 1275.0000     0.3723     3.0177
 1275.5000     0.3612     3.0043
 1276.0000     0.3713     2.9909
 1276.5000     0.4082     2.9775
 1277.0000     0.4560     2.9641
 1277.5000     0.4963     2.9507
 1278.0000     0.5147     2.9373
 1278.5000     0.5114     2.9239
 1279.0000     0.4862     2.9105
 1279.5000     0.4538     2.8971
 1280.0000     0.4291     2.8837
 1280.5000     0.3916     2.8703
 1281.0000     0.3486     2.8569
 1281.5000     0.2979     2.8435
 1282.0000     0.3289     2.8301
 1282.5000     0.3709     2.8167
 1283.0000     0.4100     2.8033
 1283.5000     0.4302     2.7899
 1284.0000     0.4607     2.7765
 1284.5000     0.5118     2.7631
 1285.0000     0.5836     2.7497
 1285.5000     0.6319     2.7363
 1286.0000     0.6110     2.7229
 1286.5000     0.5680     2.7095
 1287.0000     0.5213     2.6961
 1287.5000     0.4677     2.6827
 1288.0000     0.4153     2.6693
 1288.5000     0.4354     2.6559
 1289.0000     0.4452     2.6425
 1289.5000     0.4447     2.6291
 1290.0000     0.4439     2.6157
 1290.5000     0.4334     2.6023
 1291.0000     0.4310     2.5889
 1291.5000     0.4093     2.5755
 1292.0000     0.3890     2.5621
 1292.5000     0.3796     2.5487
 1293.0000     0.3791     2.5431
 1293.5000     0.3786     2.1645
 1294.0000     0.3781     0.9412
 1294.5000     0.3747     0.9660
 1295.0000     0.3636     0.9908
 1295.5000     0.3490     1.0156
 1296.0000     0.3310     1.0403
 1296.5000     0.3239     1.0651
 1297.0000     0.3233     1.0899
 1297.5000     0.3228     1.1146
 1298.0000     0.3419     1.1394
 1298.5000     0.3890     1.1642
 1299.0000     0.4470     1.1890
 1299.5000     0.5044     1.2137
 1300.0000     0.5681     1.2385
 1300.5000     0.5051     1.2302
 1301.0000     0.4524     1.2219
 1301.5000     0.3998     1.2137
 1302.0000     0.3884     1.2054
 1302.5000     0.3874     1.1971
 1303.0000     0.3864     1.1888
 1303.5000     0.3853     1.1806
 1304.0000     0.3843     1.1723
 1304.5000     0.3833     1.1640
 1305.0000     0.3822     1.1557
 1305.5000     0.3812     1.1475
 1306.0000     0.3802     1.1392
 1306.5000     0.3941     1.1309
 1307.0000     0.4404     1.1226
 1307.5000     0.4866     1.1144
 1308.0000     0.5411     1.1061
 1308.5000     0.4781     1.0978
 1309.0000     0.4255     1.0895
 1309.5000     0.3832     1.0812
 1310.0000     0.3512     1.0730
 1310.5000     0.3502     1.0647
 1311.0000     0.3492     1.0564
 1311.5000     0.3481     1.0481
 1312.0000     0.3471     1.0399
 1312.5000     0.3461     1.0316
 1313.0000     0.3450     1.0233
 1313.5000     0.3440     1.0150
 1314.0000     0.3430     1.0068
 1314.5000     0.3419     0.9985
 1315.0000     0.3409     0.9902
 1315.5000     0.3384     0.9819
 1316.0000     0.3344     0.9736
 1316.5000     0.3304     0.9654
 1317.0000     0.3264     0.9571
 1317.5000     0.3255     0.9488
 1318.0000     0.3368     0.9405
 1318.5000     0.3685     0.9323
 1319.0000     0.4098     0.9240
 1319.5000     0.4511     0.9157
 1320.0000     0.4959     0.9074
 1320.5000     0.4941     0.8992
 1321.0000     0.4539     0.8909
 1321.5000     0.4105     0.8826
 1322.0000     0.3829     0.8743
 1322.5000     0.3607     0.8661
 1323.0000     0.3449     0.8578
 1323.5000     0.3438     0.8495
 1324.0000     0.3532     0.8412
 1324.5000     0.3728     0.8329
 1325.0000     0.4028     0.8247
 1325.5000     0.4328     0.8164
 1326.0000     0.4731     0.8081
 1326.5000     0.4824     0.7998
 1327.0000     0.4707     0.7916
 1327.5000     0.4485     0.7833
 1328.0000     0.4249     0.7750
 1328.5000     0.3815     0.7667
 1329.0000     0.3394     0.7585
 1329.5000     0.3316     0.7502
 1330.0000     0.3306     0.7419
 1330.5000     0.3295     0.7336
 1331.0000     0.3285     0.7253
 1331.5000     0.3275     0.7171
 1332.0000     0.3264     0.7088
 1332.5000     0.3254     0.7005
 1333.0000     0.3244     0.6922
 1333.5000     0.3233     0.6840
 1334.0000     0.3223     0.6757
 1334.5000     0.3181     0.6674
 1335.0000     0.3099     0.6591
 1335.5000     0.3126     0.6509
 1336.0000     0.3221     0.6426
 1336.5000     0.3443     0.6343
 1337.0000     0.3857     0.6260
 1337.5000     0.4317     0.6178
 1338.0000     0.4787     0.6095
 1338.5000     0.5095     0.6012
 1339.0000     0.5186     0.5929
 1339.5000     0.5003     0.5846
 1340.0000     0.4614     0.5764
 1340.5000     0.4017     0.5681
 1341.0000     0.4110     0.5598
 1341.5000     0.4307     0.5515
 1342.0000     0.4297     0.5433
