~VERSION INFORMATION
 VERS.                2.0:   CWLS LOG ASCII STANDARD - VERSION 2.0
 WRAP.                 NO:   ONE LINE PER DEPTH STEP
~WELL INFORMATION
#MNEM.UNIT      DATA TYPE    INFORMATION
#----------   ------------   ------------------------------
 STRT.F           30.0000:   START DEPTH
 STOP.F          618.0000:   STOP DEPTH
 STEP.F            0.5000:   STEP LENGTH
 NULL.          -999.2500:   NO VALUE
 COMP. FENNIX & SCISSON, INC.:   COMPANY
 WELL.       NPR #88-S-10:   WELL
 FLD .              NPR-3:   FIELD
 LOC .      S10 T38N R78W:   LOCATION
 CNTY.            NATRONA:   COUNTY
 STAT.            WYOMING:   STATE
 CTRY. UNITED STATES OF AMERICA:   COUNTRY
 SRVC.              Welex:   SERVICE COMPANY
 DATE.        22-APR-1977:   LOGDATE
 API .       490251034200:   API NUMBER
~CURVE INFORMATION
#MNEM.UNIT       API CODE    CURVE DESCRIPTION
#----------   ------------   ------------------------------
 DEPT.F                  :   
 CALD.IN     45 280 60 00:   CALIPER FROM DENSITY LOG
 GRD .GAPI   45 310 01 00:   GAMMA RAY FROM DENSITY LOG
 CORR.G/C3   45 356 01 00:   DENSITY CORRECTION
 RHOB.G/C3   45 350 01 00:   BULK DENSITY
 DPHI.DEC    45 890 12 00:   DENSITY POROSITY SANDSTONE
 ILD .OHMM   07 120 46 00:   INDUCTION LOG DEEP
 ILM .OHMM   07 120 44 00:   INDUCTION LOG MEDIUM
 SGRD.OHMM   07 220 05 00:   SHALLOW GUARD RESISTIVITY
 SPR .MV     07 010 01 00:   SPONTANEOUS POTENTIAL FROM RES.
~PARAMETER INFORMATION
#MNEM.UNIT          VALUE    DESCRIPTION
#----------   ------------   ------------------------------
 PD  .                 GL:   PERMANENT DATUM
 EPD .F              5255:   ELEVATION PERMANENT DATUM
 LMF .                 GL:   LOG MEASURED FROM
 DMF .                 GL:   DRILLING MEASURED FROM
 EGL .F              5255:   GROUND LEVEL
 DATE.        22-APR-1977:   RUN DATE
 RUN .                  1:   RUN NUMBER
 DD  .F               630:   DEPTH DRILLER
 DL  .F               620:   DEPTH LOGGER
 BLI .F               618:   BOTTOM LOG INTERVAL
 TLI .F                38:   TOP LOG INTERVAL
 CS  .IN            8.625:   CASING SIZE
 CBD .F                40:   CASING BOTTOM DRILLER
 BS  .IN            7.875:   BIT SIZE
 BSD .F               630:   BIT SIZE AT DEPTH
 DFT .            KCL GEL:   DRILLING FLUID TYPE
 DFD .                9.0:   DRILLING FLUID DENSITY
 DFV .                 40:   DRILLING FLUID VISCOSITY
 DFPH.                8.0:   DRILLING FLUID PH
 DFL .                6.4:   DRILLING FLUID LOSS
 MSS .            MUD PIT:   MUD SAMPLE SOURCE
 RMS .OHMM            .20:   RESISTIVITY MUD SAMPLE
 MST .F                65:   MUD SAMPLE TEMPERATURE
 RMF .OHMM            .18:   RESISTIVITY MUD FILTRATE SAMPLE
 MFST.F                65:   MUD FILTRATE SAMPLE TEMPERATURE
 RMC .OHMM            .28:   RESISTIVITY MUD CAKE
 MCST.F                65:   MUD CAKE SAMPLE TEMPERATURE
 MFSS.               MEAS:   MUD FILTRATE SAMPLE SOURCE
 MCSS.               MEAS:   MUD CAKE SAMPLE SOURCE
 RMB .OHMM            .18:   RESISTIVITY MUD AT BHT
 BHT .F                71:   BOTTOM HOLE TEMPERATURE
 TCS .HRS            0300:   TIME CURCULATED STOPPED
 MRT .F                71:   MAXIMUM RECORDED TEMPERATURE
 LUN .               8611:   LOGGING UNIT NUMBER
 LUL .             CASPER:   LOGGING UNIT LOCATION
 ENGI.          T. JOYNER:   RECORDING ENGINEER
 WITN.           ROB LYON:   WITNESSED BY
 CLNT.            A2DTECH:   CLIENT CODE
 ORIG.           5" PRINT:   ORIGIN OF DATA
 UWI .       490251034200:   UNIQUE WELL ID
 DICO. A2D Technologies, Inc.:   DIGITIZING COMPANY
~OTHER INFORMATION
~A   DEPT     CALD        GRD       CORR       RHOB       DPHI        ILD        ILM       SGRD        SPR   
# ...
  395.0000     7.8102   124.6859     0.0004     2.4802     0.1097     5.7441     6.0585    10.4899   -24.1071
  395.5000     7.8100   125.8850     0.0005     2.4607     0.1148     5.9043     6.2263    10.7062   -24.1071
  396.0000     7.8248   127.8326     0.0005     2.4560     0.1184     6.0690     6.4877    10.7781   -24.1071
  396.5000     7.8247   129.1814     0.0005     2.4546     0.1181     6.1954     6.8539    10.9995   -24.1071
  397.0000     7.8245   129.6320     0.0006     2.4550     0.1172     6.2811     7.1911    10.9965   -24.1071
  397.5000     7.8244   130.8311     0.0006     2.4617     0.1148     6.3585     7.5448    10.9935   -24.1071
  398.0000     7.8242   134.5751     0.0006     2.4722     0.1097     6.4011     7.8615    10.9905   -24.1071
  398.5000     7.8390   134.4269     0.0022     2.4795     0.1073     6.4440     7.9691    10.9875   -24.1071
  399.0000     7.8389   131.8835     0.0037     2.4817     0.1085     6.4424     7.4867    10.9845   -23.9583
  399.5000     7.8686   129.4898     0.0053     2.4809     0.1121     6.4411     7.0828    11.0582   -23.9583
  400.0000     7.8534   127.1234     0.0068     2.4734     0.1131     6.3955     6.9358    11.1673   -24.1253
  400.5000     7.8680   125.6016     0.0068     2.4757     0.1112     6.4489     6.9814    11.3825   -24.2346
  401.0000     7.8675   129.0484     0.0053     2.4794     0.1094     6.5244     7.2739    11.4313   -24.1160
  401.5000     7.8670   128.7521     0.0069     2.4817     0.1106     6.5210     7.5787    11.4258   -24.1205
  402.0000     7.8516   124.8621     0.0084     2.4697     0.1115     6.5183     7.9510    11.4161   -24.1250
  402.5000     7.8512   129.0567     0.0100     2.4704     0.1085     6.5157     8.1152    11.1811   -24.1295
  403.0000     7.8358   127.3903     0.0100     2.4854     0.1058     6.5130     7.8367    11.0166   -24.1339
  403.5000     7.8353   126.3314     0.0115     2.4884     0.1031     6.5553     7.5163    10.7177   -24.1384
  404.0000     7.8349   123.1581     0.0146     2.4906     0.0998     6.5980     7.2589    10.5658   -24.1429
  404.5000     7.8344   120.2176     0.0191     2.5183     0.0989     6.6409     7.1078    10.7252   -24.1473
  405.0000     7.8341   119.6407     0.0207     2.5205     0.0992     6.7302     7.0989    11.1748   -24.1518
  405.5000     7.8337   120.8427     0.0222     2.5130     0.1010     6.6812     7.4031    11.8049   -24.1562
  406.0000     7.8332   123.5389     0.0222     2.5055     0.1031     6.5418     7.7134    12.5429   -24.1607
  406.5000     7.8178   126.6941     0.0223     2.4913     0.1049     6.3178     7.9265    12.7849   -24.1394
  407.0000     7.8174   125.6408     0.0223     2.4853     0.1070     6.1435     8.0895    12.6744   -24.0206
  407.5000     7.8020   124.8953     0.0193     2.4733     0.1091     6.0154     7.7588    12.2536   -23.8774
  408.0000     7.8015   124.8323     0.0178     2.4621     0.1124     5.8495     6.9936    11.6707   -23.7330
  408.5000     7.7861   128.6438     0.0148     2.4913     0.1001     5.6486     5.8009    10.2330   -23.7375
  409.0000     7.7857   127.2996     0.0134     2.5077     0.0932     5.4171     4.8802     7.8708   -23.4432
  409.5000     7.7852   125.5062     0.0134     2.5032     0.0929     5.2687     4.8134     6.5309   -23.1500
  410.0000     7.7848   122.3655     0.0119     2.4972     0.0939     5.1921     5.1959     5.9682   -22.5603
  410.5000     7.7843   120.1230     0.0135     2.4935     0.0963     5.1567     5.5284     9.1466   -22.2661
  411.0000     7.7839   120.7248     0.0150     2.4912     0.0955     5.3431     5.7973    11.4777   -21.8252
  411.5000     7.7834   120.8775     0.0180     2.4935     0.0938     5.6013     6.0464    12.8100   -21.3821
  412.0000     7.7830   120.5811     0.0196     2.5032     0.0948     5.8885     6.4845    13.6235   -20.9412
  412.5000     7.7825   115.4943     0.0196     2.5054     0.0990     6.3084     6.9881    13.8076   -20.4993
  413.0000     7.7821   113.4015     0.0196     2.4942     0.1037     6.7962     7.4352    13.8965   -20.2050
  413.5000     7.7966   112.5063     0.0197     2.4762     0.1091     7.2585     7.9424    13.8881   -19.7641
  414.0000     7.8111   111.9098     0.0197     2.4635     0.1156     7.5617     8.5068    13.7861   -19.4698
  414.5000     7.8256   114.0094     0.0212     2.4605     0.1153     7.8234     9.0486    13.6848   -19.0290
  415.0000     7.8401   116.1082     0.0243     2.4613     0.1153     8.0395     9.4931    13.4909   -18.7358
  415.5000     7.8396   117.1591     0.0304     2.4560     0.1165     8.1477     9.7554    13.4844   -18.4415
  416.0000     7.8392   116.5633     0.0334     2.4433     0.1279     8.2573     9.8875    13.4779   -18.0006
  416.5000     7.8238   112.5244     0.0334     2.4164     0.1428     8.3685     9.9534    13.5663   -17.7064
  417.0000     7.8233   105.4915     0.0335     2.3977     0.1497     8.4811     9.6118    13.8414   -17.2644
  417.5000     7.7930   100.4047     0.0335     2.3834     0.1578     8.5952     9.4116    14.9247   -16.8235
  418.0000     7.7776    96.3658     0.0335     2.3782     0.1683     8.9533     9.8060    17.2414   -16.5292
  418.5000     7.7622    92.7760     0.0366     2.3759     0.1772     9.8557    10.5756    19.9176   -16.0884
  419.0000     7.7468    88.5915     0.0426     2.3550     0.1796    11.1522    11.8058    22.3834   -15.7941
  419.5000     7.7314    86.5702     0.0472     2.3348     0.1889    12.1083    13.4547    23.8047   -15.5009
  420.0000     7.7160    85.1097     0.0487     2.3295     0.1946    13.1464    15.7630    26.0242   -15.2077
  420.5000     7.7006    82.6908     0.0472     2.3400     0.1868    14.1755    18.5952    28.0609   -14.9146
  421.0000     7.6852    80.0549     0.0458     2.3348     0.1913    15.7122    20.9020    30.0492   -14.7702
  421.5000     7.6847    79.6132     0.0413     2.3295     0.1931    17.0592    23.4950    31.0881   -14.6258
  422.0000     7.6843    79.0199     0.0323     2.3258     0.1952    17.7718    25.1645    30.0203   -14.6314
  422.5000     7.6989    82.1707     0.0263     2.3250     0.1990    18.0128    25.6820    28.3958   -14.4871
  423.0000     7.7134    86.8144     0.0233     2.3258     0.1946    18.0035    24.8026    27.6102   -14.4915
  423.5000     7.7427    88.7635     0.0233     2.3295     0.1841    17.5070    23.1412    27.0320   -14.4960
  424.0000     7.7573    89.2156     0.0236     2.3601     0.1718    17.0242    21.5911    26.6491   -14.3505
  424.5000     7.7568    88.6199     0.0281     2.3788     0.1670    16.4410    20.8518    26.6362   -14.3560
  425.0000     7.7713    88.0240     0.0309     2.3740     0.1685    16.0981    20.4177    27.1798   -14.3605
  425.5000     7.7708    87.2786     0.0277     2.3551     0.1802    15.8713    20.1310    28.3140   -14.3649
  426.0000     7.7704    86.8317     0.0217     2.3467     0.1817    15.7558    20.4037    30.7412   -14.5182
  426.5000     7.7699    90.5780     0.0189     2.3514     0.1757    15.7494    20.8232    28.8779   -14.5226
  427.0000     7.7545    91.7787     0.0175     2.3679     0.1661    15.7429    21.1071    27.3152   -14.5271
  427.5000     7.7541    91.6312     0.0160     2.3841     0.1589    15.7364    21.2459    26.5595   -14.5315
  428.0000     7.7536    90.8865     0.0160     2.3923     0.1550    15.8403    20.8018    26.1832   -14.5360
  428.5000     7.7532    90.4404     0.0176     2.3922     0.1559    15.8322    20.2286    26.3548   -14.3905
  429.0000     7.7527    88.4973     0.0191     2.3840     0.1598    16.0452    19.8075    27.0754   -14.3961
  429.5000     7.7673    86.7039     0.0206     2.3788     0.1625    16.0386    19.5293    28.7947   -14.4005
  430.0000     7.7668    87.6051     0.0207     2.3758     0.1664    16.2547    19.5050    31.4793   -14.4050
  430.5000     7.7663    90.0034     0.0238     2.3713     0.1745    16.4731    19.6510    34.1779   -14.2604
  431.0000     7.7659    87.3118     0.0268     2.3608     0.1801    16.6950    20.7590    31.4491   -14.1166
