~VERSION INFORMATION
 VERS.                2.0:   CWLS LOG ASCII STANDARD - VERSION 2.0
 WRAP.                 NO:   ONE LINE PER DEPTH STEP
~WELL INFORMATION
#MNEM.UNIT      DATA TYPE    INFORMATION
#----------   ------------   ------------------------------
 STRT.F           42.0000:   START DEPTH
 STOP.F          866.0000:   STOP DEPTH
 STEP.F            0.5000:   STEP LENGTH
 NULL.          -999.2500:   NO VALUE
 COMP. FENIX & SCISSON INC:   COMPANY
 WELL.      NPR-SX #47-11:   WELL
 FLD .             TEAPOT:   FIELD
 LOC .      S11 T38N R78W:   LOCATION
 CNTY.            NATRONA:   COUNTY
 STAT.            WYOMING:   STATE
 CTRY. UNITED STATES OF AMERICA:   COUNTRY
 SRVC.            Unknown:   SERVICE COMPANY
 DATE.        25-FEB-1978:   LOGDATE
 API .       490251058700:   API NUMBER
~CURVE INFORMATION
#MNEM.UNIT       API CODE    CURVE DESCRIPTION
#----------   ------------   ------------------------------
 DEPT.F                  :   
 SPR .MV     07 010 01 00:   SPONTANEOUS POTENTIAL
 SN  .OHMM   07 040 16 00:   SHORT NORMAL 16'
 ILD .OHMM   07 120 46 00:   INDUCTION LOG DEEP
 CORR.G/C3   45 356 01 00:   DENSITY CORRECTION
 RHOB.G/C3   45 350 01 00:   BULK DENSITY
 DPHI.DEC    45 890 12 00:   DENSITY POROSITY SANDSTONE
 CALD.IN     45 280 60 00:   CALIPER FROM DENSITY LOG
 GRD .GAPI   45 310 01 00:   GAMMA RAY FROM DENSITY LOG
~PARAMETER INFORMATION
#MNEM.UNIT          VALUE    DESCRIPTION
#----------   ------------   ------------------------------
 PD  .                 GL:   PERMANENT DATUM
 EPD .F              5202:   ELEVATION PERMANENT DATUM
 LMF .                 KB:   LOG MEASURED FROM
 DAPD.F                 4:   FEET ABOVE PERMANENT DATUM
 DMF .                 KB:   DRILLING MEASURED FROM
 EKB .F              5206:   KELLING BUSHING
 EGL .F              5202:   GROUND LEVEL
 DATE.            2-25-78:   RUN DATE
 RUN .                  1:   RUN NUMBER
 DD  .F               870:   DEPTH DRILLER
 DL  .F               870:   DEPTH LOGGER
 BLI .F               865:   BOTTOM LOG INTERVAL
 TLI .F                47:   TOP LOG INTERVAL
 CS  .IN            8.625:   CASING SIZE
 CBD .F                40:   CASING BOTTOM DRILLER
 CBL .F                47:   CASING BOTTOM LOGGER
 BS  .IN            7.875:   BIT SIZE
 BSD .F               870:   BIT SIZE AT DEPTH
 DFT .                KCL:   DRILLING FLUID TYPE
 DFD .                8.7:   DRILLING FLUID DENSITY
 DFV .                 35:   DRILLING FLUID VISCOSITY
 DFL .                4.8:   DRILLING FLUID LOSS
 MSS .         CIRCULATED:   MUD SAMPLE SOURCE
 RMS .OHMM            1.5:   RESISTIVITY MUD SAMPLE
 MST .F                70:   MUD SAMPLE TEMPERATURE
 RMF .OHMM            .75:   RESISTIVITY MUD FILTRATE SAMPLE
 MFST.F                74:   MUD FILTRATE SAMPLE TEMPERATURE
 RMC .OHMM            1.8:   RESISTIVITY MUD CAKE
 MCST.F                68:   MUD CAKE SAMPLE TEMPERATURE
 MFSS.              PRESS:   MUD FILTRATE SAMPLE SOURCE
 RMB .OHMM            1.5:   RESISTIVITY MUD AT BHT
 BHT .F                70:   BOTTOM HOLE TEMPERATURE
 TCS .HRS               2:   TIME CURCULATED STOPPED
 MRT .F                70:   MAXIMUM RECORDED TEMPERATURE
 LUN .               2958:   LOGGING UNIT NUMBER
 LUL .               CASP:   LOGGING UNIT LOCATION
 CLNT.            A2DTECH:   CLIENT CODE
 ORIG.        2" 5" PRINT:   ORIGIN OF DATA
 UWI .       490251058700:   UNIQUE WELL ID
 DICO. A2D Technologies, Inc.:   DIGITIZING COMPANY
~OTHER INFORMATION
~A   DEPT      SPR         SN        ILD       CORR       RHOB       DPHI         CALD      GRD   
# ...
  204.0000   -20.0844     6.6483     6.2952     0.0055     2.4195     0.1326     8.6042    86.3086
  204.5000   -20.0686     6.6160     6.2840     0.0115     2.4274     0.1401     8.6045    90.7296
  205.0000   -20.0527     6.5837     6.2728     0.0102     2.4381     0.1341     8.6048    88.2071
  205.5000   -20.0366     6.5517     6.2616     0.0095     2.4376     0.1344     8.6051    86.2630
  206.0000   -20.0204     6.5198     6.2504     0.0094     2.4369     0.1363     8.6054    84.8133
  206.5000   -20.0070     6.4790     6.2393     0.0057     2.4247     0.1373     8.6057    90.2796
  207.0000   -19.9833     6.5092     6.2281     0.0049     2.4176     0.1367     8.6060    92.0655
  207.5000   -19.9594     6.5517     6.2170     0.0042     2.4228     0.1372     8.6063    94.6110
  208.0000   -19.9355     6.5998     6.2059     0.0037     2.4207     0.1376     8.6066    95.8475
  208.5000   -19.9115     6.5706     6.1949     0.0056     2.4336     0.1380     8.6069    95.8450
  209.0000   -19.8876     6.5085     6.1786     0.0105     2.4237     0.1381     8.6072    95.0835
  209.5000   -19.8633     6.4471     6.1464     0.0170     2.4365     0.1326     8.6075    95.7057
  210.0000   -19.8387     6.3862     6.1145     0.0173     2.4510     0.1292     8.6078    95.6000
  210.5000   -19.8246     6.3259     6.0828     0.0104     2.4453     0.1407     8.6081    93.7464
  211.0000   -19.9830     6.3019     6.0511     0.0047     2.4355     0.1439     8.6084    93.3207
  211.5000   -20.1495     6.3019     6.0196     0.0015     2.4259     0.1451     8.6087    95.5145
  212.0000   -20.2337     6.2896     5.9885     0.0020     2.4167     0.1467     8.6089    93.1801
  212.5000   -20.1831     6.2737     5.9621     0.0024     2.4166     0.1477     8.6085    91.0414
  213.0000   -20.3288     6.2579     6.0071     0.0014     2.4172     0.1485     8.6069    91.0543
  213.5000   -20.0387     6.2440     6.0548    -0.0004     2.4188     0.1485     8.6053    93.7413
  214.0000   -20.1430     6.3262     6.1030    -0.0016     2.4131     0.1453     8.6037    98.6000
  214.5000   -20.2206     6.4425     6.1516     0.0026     2.4095     0.1365     8.6021    96.0445
  215.0000   -20.2189     6.5609     6.2005     0.0080     2.4173     0.1272     8.6005    95.0181
  215.5000   -20.2191     6.6340     6.2498     0.0123     2.4314     0.1309     8.5989    91.2954
  216.0000   -20.2192     6.7069     6.2995     0.0101     2.4459     0.1352     8.5973    92.1839
  216.5000   -20.2191     6.7806     6.3496     0.0125     2.4433     0.1329     8.5957    88.2747
  217.0000   -20.2191     6.8552     6.4001     0.0133     2.4383     0.1361     8.5941    85.0809
  217.5000   -20.2191     6.9305     6.5392     0.0098     2.4365     0.1386     8.5925    86.3111
  218.0000   -20.2191     6.9760     6.5998     0.0065     2.4320     0.1348     8.5910    87.4650
  218.5000   -20.2191     6.9760     6.5466     0.0058     2.4290     0.1436     8.5894    86.7641
  219.0000   -20.2191     6.9760     6.4936     0.0023     2.4261     0.1505     8.5878    87.1382
  219.5000   -20.2191     6.9567     6.4410    -0.0027     2.4145     0.1551     8.5862    87.2364
  220.0000   -20.2191     6.8318     6.3888    -0.0048     2.4029     0.1607     8.5846    83.9403
  220.5000   -20.2191     6.7246     6.3371    -0.0053     2.3918     0.1692     8.5830    85.9111
  221.0000   -20.2191     6.6311     6.2842    -0.0067     2.3883     0.1811     8.5814    87.1113
  221.5000   -20.2191     6.4633     6.1300    -0.0087     2.3731     0.1898     8.5798    87.3796
  222.0000   -20.2191     6.2011     5.9796    -0.0086     2.3512     0.2020     8.5782    84.0655
  222.5000   -20.2192     5.8300     5.3952    -0.0061     2.3288     0.2293     8.5766    87.1943
  223.0000   -20.2191     5.1935     4.8176    -0.0035     2.3049     0.2606     8.5750    87.6706
  223.5000   -20.2188     4.6265     4.3018    -0.0008     2.2406     0.2790     8.5734    90.8766
  224.0000   -20.2227     4.1214     3.8412     0.0086     2.2006     0.2941     8.5718    93.0663
  224.5000   -19.9804     3.6714     3.4300     0.0198     2.1677     0.3058     8.5702    99.5557
  225.0000   -19.5868     3.2706     3.0628     0.0227     2.1361     0.3097     8.5570   103.9894
  225.5000   -19.2633     3.0054     2.7348     0.0258     2.1214     0.3051     8.5154   104.2546
  226.0000   -19.3660     2.7616     2.4625     0.0360     2.1243     0.2851     8.4655   106.7825
  226.5000   -19.1989     2.5723     2.2394     0.0547     2.1443     0.2161     8.4181   107.2324
  227.0000   -19.3346     2.5723     2.1384     0.0797     2.1812     0.1629     8.3912   106.1630
  227.5000   -19.6447     2.6318     2.1384     0.0805     2.2827     0.1391     8.4128   105.3465
  228.0000   -19.9506     2.8179     2.4584     0.0660     2.3772     0.1277     8.4617   102.9469
  228.5000   -20.2601     3.0171     2.7808     0.0513     2.4222     0.1204     8.5111    89.5921
  229.0000   -20.4169     3.2706     3.1455     0.0450     2.4468     0.1163     8.5356    82.9355
  229.5000   -20.4173     3.9708     3.8364     0.0407     2.4560     0.1140     8.5514    79.9659
  230.0000   -20.4190     5.3505     4.8449     0.0375     2.4648     0.1204     8.5664    80.5056
  230.5000   -20.4204     7.0609     6.1186     0.0275     2.4631     0.1245     8.5913    67.1160
  231.0000   -20.6019     8.3617     7.4332     0.0247     2.4592     0.1139     8.5895    66.5315
  231.5000   -21.0241     9.7057     8.6175     0.0281     2.4658     0.1110     8.5892    66.6655
  232.0000   -21.4485    11.4473    10.3832     0.0304     2.4741     0.1189     8.5893    64.9909
  232.5000   -21.6050    13.6388    10.3797     0.0267     2.4723     0.1296     8.5892    63.8011
  233.0000   -21.3448    16.3192    10.3811     0.0226     2.4564     0.1405     8.5811    63.4867
  233.5000   -21.0710    17.7230    10.0191     0.0207     2.4383     0.1516     8.5722    61.3137
  234.0000   -20.7987    18.4015     9.3244     0.0209     2.4214     0.1660     8.5634    59.9096
  234.5000   -20.6154    15.5649     8.4971     0.0212     2.3981     0.1824     8.5542    66.0445
  235.0000   -20.6651    13.1191     7.7432     0.0215     2.3714     0.1945     8.5398    73.8673
  235.5000   -20.8360    10.7462     7.0568     0.0262     2.3495     0.1886     8.4980    79.4933
  236.0000   -20.9957     8.8025     6.4311     0.0479     2.3337     0.1787     8.4578    84.6708
  236.5000   -20.8199     7.2103     5.9306     0.0706     2.3457     0.1648     8.4246    82.5378
  237.0000   -20.6212     5.9062     5.5384     0.0722     2.3672     0.1600     8.3943    79.6897
  237.5000   -21.0403     5.5374     5.1907     0.0590     2.3825     0.1640     8.3640    79.5417
  238.0000   -21.5339     5.5374     5.1907     0.0555     2.3791     0.1667     8.3974    78.6030
  238.5000   -21.9991     6.5591     5.8547     0.0612     2.3805     0.1583     8.5185    81.7084
  239.0000   -21.9562     7.5194     6.5756     0.0706     2.3742     0.1458     8.5689    82.5490
  239.5000   -21.8961     8.4464     7.3854     0.0719     2.4149     0.1585     8.5693    80.7377
  240.0000   -21.8375     8.7309     8.3144     0.0428     2.4054     0.1656     8.5694    79.9020
  240.5000   -21.8562     9.0352     8.7037     0.0208     2.3772     0.1548     8.5690    76.5965
  241.0000   -21.9289     9.3327     8.9126     0.0198     2.3899     0.1504     8.5732    76.0711
  241.5000   -22.0022     9.6512     9.1265     0.0201     2.3979     0.1524     8.5884    72.8039
  242.0000   -22.0760     9.9806     9.3456     0.0203     2.4031     0.1563     8.5894    73.5494
  242.5000   -22.1497    10.3031     9.5699     0.0159     2.4000     0.1595     8.5894    77.1895
  243.0000   -22.2227    10.4884     9.7996     0.0135     2.3917     0.1596     8.5892    78.8046
  243.5000   -22.2958    10.6769    10.0348     0.0135     2.3909     0.1567     8.5893    80.4945
  244.0000   -22.3785    10.8689    10.2757     0.0160     2.3933     0.1534     8.5917    80.6407
