~VERSION INFORMATION
 VERS.                2.0:   CWLS LOG ASCII STANDARD - VERSION 2.0
 WRAP.                 NO:   ONE LINE PER DEPTH STEP
~WELL INFORMATION
#MNEM.UNIT      DATA TYPE    INFORMATION
#----------   ------------   ------------------------------
 STRT.F           15.0000:   START DEPTH
 STOP.F          531.0000:   STOP DEPTH
 STEP.F            0.1000:   STEP LENGTH
 NULL.          -999.2500:   NO VALUE
 COMP. LAWRENCE/ALLISON INC:   COMPANY
 WELL.   NPR 3 #42-61SX10:   WELL
 FLD .          N.P.R. #3:   FIELD
 LOC .      S10 T38N R78W:   LOCATION
 CNTY.            NATRONA:   COUNTY
 STAT.            WYOMING:   STATE
 CTRY. UNITED STATES OF AMERICA:   COUNTRY
 SRVC.           Gearhart:   SERVICE COMPANY
 DATE.        06-JUL-1986:   LOGDATE
 API .       490251109500:   API NUMBER
~CURVE INFORMATION
#MNEM.UNIT       API CODE    CURVE DESCRIPTION
#----------   ------------   ------------------------------
 DEPT.F                  :   
 GRR .GAPI   07 310 01 00:   GAMMA RAY
 RILD.OHMM   07 120 46 00:   INDUCTION LOG DEEP
 RILM.OHMM   07 120 44 00:   INDUCTION LOG MEDIUM
~PARAMETER INFORMATION
#MNEM.UNIT          VALUE    DESCRIPTION
#----------   ------------   ------------------------------
 PD  .                 GL:   PERMANENT DATUM
 EPD .F              5196:   ELEVATION PERMANENT DATUM
 LMF .                 KB:   LOG MEASURED FROM
 DAPD.F                 5:   FEET ABOVE PERMANENT DATUM
 DMF .                 KB:   DRILLING MEASURED FROM
 EKB .F              5201:   KELLING BUSHING
 EGL .F              5196:   GROUND LEVEL
 DATE.        06-JUL-1986:   RUN DATE
 RUN .                  1:   RUN NUMBER
 DD  .F               548:   DEPTH DRILLER
 DL  .F               541:   DEPTH LOGGER
 BLI .F               531:   BOTTOM LOG INTERVAL
 TLI .F                15:   TOP LOG INTERVAL
 CS  .IN            8.625:   CASING SIZE
 CBD .F                47:   CASING BOTTOM DRILLER
 CBL .F                47:   CASING BOTTOM LOGGER
 BS  .IN            7.875:   BIT SIZE
 BSD .F               548:   BIT SIZE AT DEPTH
 DFT .                AIR:   DRILLING FLUID TYPE
 BHT .F                82:   BOTTOM HOLE TEMPERATURE
 TCS .HRS            2000:   TIME CURCULATED STOPPED
 TLAB.HRS            2130:   TIME LOGGER AT BOTTOM
 MRT .F                82:   MAXIMUM RECORDED TEMPERATURE
 LUN .               7609:   LOGGING UNIT NUMBER
 LUL .           GILLETTE:   LOGGING UNIT LOCATION
 ENGI.              BAUER:   RECORDING ENGINEER
 WITN.           JENNINGS:   WITNESSED BY
 CLNT.            A2DTECH:   CLIENT CODE
 ORIG.           5" PRINT:   ORIGIN OF DATA
 UWI .       490251109500:   UNIQUE WELL ID
 DICO. A2D Technologies, Inc.:   DIGITIZING COMPANY
~OTHER INFORMATION
~A   DEPT      GRR       RILD       RILM   
# ...
  451.8000    96.2984    13.1604    13.1044
  451.9000    96.2975    13.1224    13.0402
  452.0000    96.3083    13.1001    13.0406
  452.1000    96.6010    13.0314    12.9688
  452.2000    96.8137    13.0319    12.9501
  452.3000    97.0664    12.9646    12.9094
  452.4000    97.4289    12.8895    12.8346
  452.5000    97.9352    12.8513    12.7706
  452.6000    98.4416    12.8305    12.7710
  452.7000    99.0384    12.7621    12.7714
  452.8000    99.4542    12.7626    12.7172
  452.9000    99.8040    12.6977    12.6827
  453.0000    99.9520    12.6740    12.6588
  453.1000    99.9511    12.6396    12.5855
  453.2000    99.9503    12.5861    12.5070
  453.3000    99.9492    12.5816    12.5073
  453.4000    99.9485    12.4989    12.4553
  453.5000    99.9477    12.4992    12.4205
  453.6000   100.0462    12.4515    12.3982
  453.7000   100.2514    12.4125    12.3343
  453.8000   100.2504    12.3944    12.3347
  453.9000   100.2495    12.3264    12.2698
  454.0000   100.2486    12.3269    12.2491
  454.1000   100.3938    12.2662    12.2136
  454.2000   100.6465    12.2414    12.1428
  454.3000   100.8991    12.2100    12.0793
  454.4000   101.1611    12.1393    12.0797
  454.5000   101.6489    12.0717    12.0172
  454.6000   102.1551    12.0722    11.9958
  454.7000   102.6614    12.0137    11.9621
  454.8000   103.2566    11.9884    11.8928
  454.9000   103.9794    11.9587    11.8295
  455.0000   104.5147    11.8894    11.8299
  455.1000   104.9919    11.8223    11.7697
  455.2000   105.4982    11.8227    11.7016
  455.3000   106.0045    11.7664    11.6660
  455.4000   106.5108    11.7407    11.6479
  455.5000   107.0172    11.7125    11.5850
  455.6000   107.5629    11.6592    11.5854
  455.7000   108.0297    11.6588    11.5273
  455.8000   107.9898    11.5784    11.4606
  455.9000   107.3447    11.5242    11.4248
  456.0000   106.4080    11.4981    11.4080
  456.1000   105.6462    11.4984    11.3455
  456.2000   104.8095    11.4853    11.3458
  456.3000   104.3515    11.4187    11.3461
  456.4000   104.0203    11.4191    11.3037
  456.5000   103.8909    11.3665    11.2674
  456.6000   103.8901    11.3399    11.2518
  456.7000   103.8892    11.3402    11.1892
  456.8000   103.8882    11.3282    11.1895
  456.9000   103.8875    11.2616    11.1898
  457.0000   103.8866    11.2619    11.1489
  457.1000   103.8857    11.2110    11.1122
  457.2000   103.8848    11.1838    11.1125
  457.3000   103.8840    11.1842    11.1112
  457.4000   103.8830    11.1846    11.0354
  457.5000   103.8822    11.1849    11.0357
  457.6000   103.8814    11.1220    11.0360
  457.7000   103.8805    11.1073    11.0363
  457.8000   103.8796    11.1077    11.0366
  457.9000   103.8787    11.1081    11.0369
  458.0000   103.8777    11.1084    11.0373
  458.1000   103.8770    11.1088    10.9857
  458.2000   103.8761    11.1091    10.9606
  458.3000   103.8753    11.0607    10.9609
  458.4000   103.8744    11.0321    10.9612
  458.5000   103.8735    11.0325    10.9615
  458.6000   103.8725    11.0328    10.9618
  458.7000   104.0794    11.0332    10.9622
  458.8000   104.1762    11.0335    10.9625
  458.9000   104.1754    11.0339    10.9628
  459.0000   104.2269    10.9997    10.9631
  459.1000   104.4790    10.9574    10.9634
  459.2000   104.4781    10.9577    10.9011
  459.3000   104.6796    10.9581    10.8873
  459.4000   104.7817    10.9584    10.8876
  459.5000   104.7808    10.9588    10.8879
  459.6000   104.7328    10.9591    10.8882
  459.7000   104.4737    10.9390    10.8885
  459.8000   104.2239    10.8831    10.8888
  459.9000   103.1807    10.8835    10.8891
  460.0000   101.9120    10.8838    10.8894
  460.1000   100.7369    10.8842    10.8897
  460.2000    99.5958    10.8846    10.8802
  460.3000    97.7509    10.8849    10.8142
  460.4000    97.0190    10.8853    10.8145
  460.5000    96.4493    10.8857    10.8148
  460.6000    96.0815    10.8860    10.8151
  460.7000    95.8270    10.8420    10.8154
  460.8000    95.6092    10.8105    10.8157
  460.9000    95.6082    10.8108    10.8160
  461.0000    95.6074    10.8112    10.8163
  461.1000    95.6065    10.8116    10.7703
  461.2000    95.4707    10.7559    10.7412
  461.3000    95.3826    10.7365    10.7415
  461.4000    95.6982    10.7369    10.7339
  461.5000    96.5190    10.7197    10.6670
  461.6000    97.2178    10.6624    10.6673
  461.7000    97.7962    10.6628    10.6676
  461.8000    98.3025    10.6631    10.6679
  461.9000    98.8089    10.6217    10.6486
  462.0000    99.3413    10.5892    10.5938
  462.1000   100.1779    10.5895    10.5942
  462.2000   100.6331    10.5859    10.5945
  462.3000   100.9631    10.5161    10.5512
  462.4000   101.3403    10.5164    10.5209
  462.5000   101.7739    10.5167    10.5028
  462.6000   102.0266    10.5171    10.4479
  462.7000   102.3100    10.5019    10.4482
  462.8000   102.5320    10.4441    10.4485
  462.9000   102.7847    10.4445    10.4068
  463.0000   103.0374    10.4448    10.3760
  463.1000   103.2227    10.4452    10.3590
  463.2000   103.2376    10.4186    10.2990
  463.3000   103.5262    10.3727    10.2322
  463.4000   103.5254    10.3730    10.2325
  463.5000   103.5245    10.3734    10.1925
  463.6000   103.6377    10.3234    10.1615
  463.7000   103.8281    10.3014    10.1618
  463.8000   103.8377    10.3018    10.1580
  463.9000   104.1316    10.2886    10.0913
  464.0000   104.1309    10.2303    10.0915
  464.1000   104.1300    10.2307    10.0529
  464.2000   104.2378    10.2310    10.0215
  464.3000   104.4336    10.2313    10.0068
  464.4000   104.4380    10.2317     9.9519
  464.5000   104.7370    10.2194     9.9523
  464.6000   104.9434    10.1607     9.9525
  464.7000   105.1961    10.1611     9.9152
  464.8000   105.4488    10.1613     9.8834
  464.9000   105.7015    10.1260     9.8837
  465.0000   105.9542    10.0909     9.8817
  465.1000   106.2069    10.0796     9.8152
  465.2000   106.4596    10.0209     9.8154
  465.3000   106.7123    10.0212     9.7795
  465.4000   106.9650     9.9753     9.7473
  465.5000   107.2177     9.9517     9.7346
  465.6000   107.4757     9.9296     9.6796
  465.7000   107.7232     9.8721     9.6800
  465.8000   107.9759     9.8138     9.6339
  465.9000   108.0838     9.7580     9.6127
  466.0000   108.0829     9.7457     9.5897
  466.1000   108.0407     9.7134     9.5460
  466.2000   107.7758     9.6781     9.5463
  466.3000   107.2887     9.6785     9.5466
  466.4000   106.9721     9.6788     9.5019
  466.5000   106.7176     9.6245     9.4803
  466.6000   106.4631     9.6116     9.4584
  466.7000   106.1725     9.5805     9.4036
  466.8000   105.6331     9.5450     9.3489
  466.9000   105.3944     9.5366     9.3492
  467.0000   105.1400     9.4788     9.3063
  467.1000   104.8855     9.4791     9.2524
  467.2000   104.5484     9.4379     9.1988
  467.3000   104.0712     9.3833     9.1553
  467.4000   103.7958     9.3477     9.1556
  467.5000   103.3298     9.3403     9.1036
  467.6000   103.1834     9.2829     9.0509
  467.7000   103.6988     9.2324     8.9985
  467.8000   104.7125     9.1789     8.9464
  467.9000   105.7773     9.1543     8.8945
  468.0000   107.4547     9.1193     8.8413
  468.1000   107.9087     9.0203     8.8416
  468.2000   108.5907     8.9643     8.7634
  468.3000   109.1028     8.9162     8.6903
  468.4000   109.4276     8.8645     8.6400
  468.5000   109.9135     8.7866     8.5899
  468.6000   110.1975     8.7008     8.5378
  468.7000   110.1967     8.6504     8.4907
  468.8000   110.3662     8.5959     8.4416
  468.9000   110.6190     8.5051     8.3927
  469.0000   110.8048     8.4415     8.3441
  469.1000   110.8039     8.3926     8.2957
  469.2000   110.8029     8.3440     8.2447
  469.3000   110.5853     8.2956     8.1999
  469.4000   110.4960     8.2427     8.1525
  469.5000   110.3816     8.1998     8.1052
  469.6000   110.1889     8.1523     8.0738
  469.7000   110.1880     8.1051     8.0681
  469.8000   110.1870     8.0582     8.0178
  469.9000   109.9746     8.0115     7.9749
