~VERSION INFORMATION
 VERS.                2.0:   CWLS LOG ASCII STANDARD - VERSION 2.0
 WRAP.                 NO:   ONE LINE PER DEPTH STEP
~WELL INFORMATION
#MNEM.UNIT      DATA TYPE    INFORMATION
#----------   ------------   ------------------------------
 STRT.F          690.5000:   START DEPTH
 STOP.F         2366.0000:   STOP DEPTH
 STEP.F            0.5000:   STEP LENGTH
 NULL.          -999.2500:   NO VALUE
 COMP. LAWRENCE/ALLISON INC:   COMPANY
 WELL.  NPR 3 #26SHX10-10:   WELL
 FLD .             TEAPOT:   FIELD
 LOC .      S10 T38N R78W:   LOCATION
 CNTY.            NATRONA:   COUNTY
 STAT.            WYOMING:   STATE
 CTRY. UNITED STATES OF AMERICA:   COUNTRY
 SRVC.            Unknown:   SERVICE COMPANY
 DATE.        30-DEC-1992:   LOGDATE
 API .       490251113600:   API NUMBER
~CURVE INFORMATION
#MNEM.UNIT       API CODE    CURVE DESCRIPTION
#----------   ------------   ------------------------------
 DEPT.F                  :   
 ROP .MIN/FT 91 810 01 00:   RATE OF DRILLING PENETRATION
 TGAS.UNITS  91 830 01 00:   TOTAL GAS FROM HOTWIRE
~PARAMETER INFORMATION
#MNEM.UNIT          VALUE    DESCRIPTION
#----------   ------------   ------------------------------
 EKB .F              5235:   KELLING BUSHING
 EGL .F              5225:   GROUND LEVEL
 DATE.           12-30-92:   RUN DATE
 DD  .F              2365:   DEPTH DRILLER
 BLI .F              2360:   BOTTOM LOG INTERVAL
 TLI .F              2160:   TOP LOG INTERVAL
 CS  .IN            8.625:   CASING SIZE
 CBD .F               675:   CASING BOTTOM DRILLER
 TCS .HRS            0200:   TIME CURCULATED STOPPED
 TLAB.HRS            1700:   TIME LOGGER AT BOTTOM
 ENGI.               HUSK:   RECORDING ENGINEER
 WITN.              TOWER:   WITNESSED BY
 CLNT.            A2DTECH:   CLIENT CODE
 ORIG.           5" PRINT:   ORIGIN OF DATA
 UWI .       490251113600:   UNIQUE WELL ID
 DICO. A2D Technologies, Inc.:   DIGITIZING COMPANY
~OTHER INFORMATION
~A   DEPT      ROP         TGAS 
# ...
 2027.0000     0.9502    10.7495
 2027.5000     0.9926    10.8010
 2028.0000     1.0245     9.7834
 2028.5000     1.0352     9.8259
 2029.0000     1.0354     9.8761
 2029.5000     1.0357     9.9173
 2030.0000     1.0345     9.9584
 2030.5000     1.0044     9.9996
 2031.0000     0.9203    10.0408
 2031.5000     0.8256    10.0820
 2032.0000     0.7835    10.1232
 2032.5000     0.7627    10.1647
 2033.0000     0.7629    10.2071
 2033.5000     0.7736    11.3159
 2034.0000     0.7844    11.3570
 2034.5000     0.7846    11.3982
 2035.0000     0.7848    11.4394
 2035.5000     0.6479    12.5394
 2036.0000     0.5637    12.5806
 2036.5000     0.5428    13.6806
 2037.0000     0.5536    13.7224
 2037.5000     0.5432    14.8235
 2038.0000     0.5540    14.8733
 2038.5000     0.5859    14.9145
 2039.0000     0.7021    14.9557
 2039.5000     0.8500    14.9969
 2040.0000     0.9663    15.0380
 2040.5000     1.0298    15.0792
 2041.0000     1.0300    15.1204
 2041.5000     1.0407    16.2239
 2042.0000     1.0304    18.3896
 2042.5000     0.9673    19.4824
 2043.0000     0.9148    19.5307
 2043.5000     0.8412    19.5719
 2044.0000     0.7781    18.5543
 2044.5000     0.7572    18.5955
 2045.0000     0.8108    18.6367
 2045.5000     0.9070    18.6778
 2046.0000     0.9899    18.7200
 2046.5000     1.0112    18.7705
 2047.0000     1.0325    17.7426
 2047.5000     1.0327    16.7249
 2048.0000     1.0118    16.7764
 2048.5000     0.9487    16.8176
 2049.0000     0.8524    17.9073
 2049.5000     0.7593    16.8988
 2050.0000     0.7595    16.9412
 2050.5000     0.7703    11.6902
 2051.0000     0.8232    12.8138
 2051.5000     0.8762    12.8657
 2052.0000     0.9291    12.9176
 2052.5000     1.0032    11.9105
 2053.0000     1.0784    13.0341
 2053.5000     1.1408    13.0859
 2054.0000     1.2253    13.1377
 2054.5000     1.2783    13.1895
 2055.0000     1.2047    13.2413
 2055.5000     1.0994    14.3520
 2056.0000     1.0363    15.4626
 2056.5000     1.0049    15.5144
 2057.0000     1.0051    15.5663
 2057.5000     1.0053    16.6769
 2058.0000     1.0055    16.7294
 2058.5000     1.0057    16.7824
 2059.0000     1.0059    16.8453
 2059.5000     1.0061    16.8971
 2060.0000     1.0063    16.9489
 2060.5000     0.9953    17.0008
 2061.0000     0.9751    15.9808
 2061.5000     1.0241    16.0456
 2062.0000     1.0236    16.0974
 2062.5000     1.0232    15.0882
 2063.0000     1.0334    14.0834
 2063.5000     1.0328    14.1352
 2064.0000     1.0324    13.1282
 2064.5000     1.0320    13.1824
 2065.0000     1.0210    13.2448
 2065.5000     1.0206    13.2966
 2066.0000     1.0097    12.2766
 2066.5000     0.9987    12.3414
 2067.0000     0.9983    12.3932
 2067.5000     0.9979    12.4451
 2068.0000     0.9975    11.4381
 2068.5000     0.9970    11.4899
 2069.0000     0.9861    11.5417
 2069.5000     0.9856    11.5941
 2070.0000     0.9852    11.6471
 2070.5000     1.0269    12.7689
 2071.0000     1.0793    12.8208
 2071.5000     1.1422    13.9314
 2072.0000     1.2050    13.9832
 2072.5000     1.2468    14.0350
 2073.0000     1.1937    15.1457
 2073.5000     1.0667    16.2563
 2074.0000     0.9819    18.4258
 2074.5000     0.9814    19.5364
 2075.0000     0.9705    19.5882
 2075.5000     0.9700    18.5812
 2076.0000     0.9696    17.5742
 2076.5000     0.9902    15.5084
 2077.0000     1.0320    14.5014
 2077.5000     1.1898    15.6250
 2078.0000     1.3160    41.0886
 2078.5000     1.3156    13.6110
 2079.0000     1.3046    12.5910
 2079.5000     1.3148    12.6558
 2080.0000     1.3143    12.7076
 2080.5000     1.4142    12.7594
 2081.0000     1.6159    12.8118
 2081.5000     1.8299    12.8647
 2082.0000     2.0088    13.9867
 2082.5000     1.8185    12.9667
 2083.0000     1.4278    14.0903
 2083.5000     1.2270    14.1421
 2084.0000     1.0683    14.1939
 2084.5000     0.9730    14.2457
 2085.0000     0.8987    15.3564
 2085.5000     0.8350    15.4082
 2086.0000     0.7713    15.4600
 2086.5000     0.7603    15.5119
 2087.0000     0.8056    15.5647
 2087.5000     0.9176    15.6177
 2088.0000     0.9805    15.6803
 2088.5000     0.9908    15.7321
 2089.0000     1.0009    15.7839
 2089.5000     0.9793    15.8357
 2090.0000     0.9789    15.8875
 2090.5000     0.9785    15.9393
 2091.0000     0.9780    15.9912
 2091.5000     0.9776    16.0430
 2092.0000     0.9772    16.0948
 2092.5000     0.9768    16.1466
 2093.0000     0.9764    15.1396
 2093.5000     0.9653    15.2044
 2094.0000     0.9649    15.2562
 2094.5000     0.9645    15.3080
 2095.0000     0.9641    14.2881
 2095.5000     0.9637    14.3529
 2096.0000     0.9633    15.4635
 2096.5000     0.9628    15.5153
 2097.0000     0.9624    15.5671
 2097.5000     0.9620    15.6189
 2098.0000     0.9616    14.6119
 2098.5000     0.9612    14.6638
 2099.0000     0.9608    13.6568
 2099.5000     0.9603    13.7215
 2100.0000     0.9598    13.7639
 2100.5000     0.9711    13.8068
 2101.0000     0.9610    13.8564
 2101.5000     0.9615    13.8972
 2102.0000     0.9729    13.9379
 2102.5000     1.0154    13.9787
 2103.0000     1.0792    14.0194
 2103.5000     1.1535    14.0612
 2104.0000     1.2490    14.1111
 2104.5000     1.3128    14.1519
 2105.0000     1.3351    15.2515
 2105.5000     1.3454    14.2334
 2106.0000     1.3037    14.2742
 2106.5000     1.2516    14.3153
 2107.0000     1.1888    14.3659
 2107.5000     1.1050    14.4066
 2108.0000     1.0505    13.3885
 2108.5000     1.0110    13.4293
 2109.0000     0.9906    13.4701
 2109.5000     1.0016    13.5108
 2110.0000     1.0654    13.5529
 2110.5000     1.2347    13.6025
 2111.0000     1.4825    13.6433
 2111.5000     1.6789    13.6840
 2112.0000     1.8165    13.7248
 2112.5000     1.7432    14.8244
 2113.0000     1.5960    14.8659
 2113.5000     1.4378    13.8471
 2114.0000     1.2490    13.8980
 2114.5000     1.0597    13.9388
 2115.0000     0.9020    13.9795
 2115.5000     0.8181    14.0203
 2116.0000     0.7764    13.0022
 2116.5000     0.7663    13.0532
 2117.0000     0.7670    13.0939
 2117.5000     0.7675    13.1347
 2118.0000     0.7680    13.1754
 2118.5000     0.7685    13.2162
 2119.0000     0.7690    13.2569
 2119.5000     0.7590    13.2988
 2120.0000     0.7701    13.3412
 2120.5000     0.7812    13.3894
 2121.0000     0.8450    13.4302
 2121.5000     0.9299    12.4019
 2122.0000     0.9937    12.4529
 2122.5000     1.0364    12.4941
 2123.0000     1.0370    12.5365
 2123.5000     1.0268    12.5853
 2124.0000     1.0168    12.6295
 2124.5000     1.0174    12.6668
 2125.0000     1.0074    11.6471
 2125.5000     1.0186    11.6895
 2126.0000     1.0296    11.7318
 2126.5000     1.0301    11.7812
 2127.0000     1.0412    11.8220
 2127.5000     1.0522    10.7971
 2128.0000     1.0316    10.8447
 2128.5000     0.9584    10.8888
 2129.0000     0.8324    10.9271
 2129.5000     0.8116     9.9115
 2130.0000     0.8016     9.9591
 2130.5000     0.8761     9.9998
 2131.0000     0.9626     7.9229
 2131.5000     1.0354     7.9637
 2132.0000     1.0359     8.0047
 2132.5000     1.0364     8.0554
 2133.0000     1.0369     8.0961
 2133.5000     1.0375     9.1957
 2134.0000     1.0380    10.2953
 2134.5000     1.0386    11.3949
 2135.0000     1.0285    12.4945
 2135.5000     1.0291    12.5365
 2136.0000     1.0296    13.6450
 2136.5000     1.0301    14.7446
 2137.0000     1.0184    14.7853
 2137.5000     1.0100    14.8261
 2138.0000     1.0106    15.9257
 2138.5000     1.0111    15.9671
 2139.0000     1.0011    16.0174
 2139.5000     1.0019    16.0581
 2140.0000     1.0444    15.0299
 2140.5000     1.1188    11.9043
 2141.0000     1.1825    10.8847
 2141.5000     1.2358     9.8682
 2142.0000     1.2679     8.8501
 2142.5000     1.2579    11.0187
 2143.0000     1.2269    12.1183
 2143.5000     1.1536    17.4532
 2144.0000     1.0380   161.0945
 2144.5000     0.8276   442.1161
 2145.0000     0.6804   436.8730
 2145.5000     0.5732   432.6784
 2146.0000     0.5233   432.7200
 2146.5000     0.5238   438.0642
 2147.0000     0.5243   443.3991
 2147.5000     0.5248   443.4399
 2148.0000     0.5359   441.3528
