~VERSION INFORMATION
 VERS.                2.0:   CWLS LOG ASCII STANDARD - VERSION 2.0
 WRAP.                 NO:   ONE LINE PER DEPTH STEP
~WELL INFORMATION
#MNEM.UNIT      DATA TYPE    INFORMATION
#----------   ------------   ------------------------------
 STRT.F           30.0000:   START DEPTH
 STOP.F          458.0000:   STOP DEPTH
 STEP.F            0.5000:   STEP LENGTH
 NULL.          -999.2500:   NO VALUE
 COMP. FENIX & SCISSON INC:   COMPANY
 WELL. NPR 3 #53 SX 10-10:   WELL
 FLD .             TEAPOT:   FIELD
 LOC .      S10 T38N R78W:   LOCATION
 CNTY.            NATRONA:   COUNTY
 STAT.            WYOMING:   STATE
 CTRY. UNITED STATES OF AMERICA:   COUNTRY
 SRVC.              Welex:   SERVICE COMPANY
 DATE.        16-APR-1977:   LOGDATE
 API .       490251033200:   API NUMBER
~CURVE INFORMATION
#MNEM.UNIT       API CODE    CURVE DESCRIPTION
#----------   ------------   ------------------------------
 DEPT.F                  :   
 SPR .MV     07 010 01 00:   SPONTANEOUS POTENTIAL FROM RES.
 ILD .OHMM   07 120 46 00:   INDUCTION LOG DEEP
 ILM .OHMM   07 120 44 00:   INDUCTION LOG MEDIUM
 SGRD.OHMM   07 220 05 00:   SHALLOW GUARD RESISTIVITY
 GRD .GAPI   45 310 01 00:   GAMMA RAY FROM DENSITY LOG
 CALD.IN     45 280 60 00:   CALIPER FROM DENSITY LOG
 CORR.G/C3   45 356 01 00:   DENSITY CORRECTION
 RHOB.G/C3   45 350 01 00:   BULK DENSITY
 DPHI.DEC    45 890 12 00:   DENSITY POROSITY SANDSTONE
~PARAMETER INFORMATION
#MNEM.UNIT          VALUE    DESCRIPTION
#----------   ------------   ------------------------------
 PD  .                 GL:   PERMANENT DATUM
 EPD .F              5180:   ELEVATION PERMANENT DATUM
 LMF .                 GL:   LOG MEASURED FROM
 DMF .                 GL:   DRILLING MEASURED FROM
 EGL .F              5180:   GROUND LEVEL
 DATE.        16-APR-1977:   RUN DATE
 RUN .                  1:   RUN NUMBER
 DD  .F               455:   DEPTH DRILLER
 DL  .F               461:   DEPTH LOGGER
 BLI .F               459:   BOTTOM LOG INTERVAL
 TLI .F                30:   TOP LOG INTERVAL
 CS  .IN            8.625:   CASING SIZE
 BS  .IN            7.875:   BIT SIZE
 BSD .F               455:   BIT SIZE AT DEPTH
 DFT .            KCL MUD:   DRILLING FLUID TYPE
 DFD .                8.9:   DRILLING FLUID DENSITY
 TCS .HRS            0600:   TIME CURCULATED STOPPED
 MRT .F                66:   MAXIMUM RECORDED TEMPERATURE
 ENGI.               DOAK:   RECORDING ENGINEER
 WITN.      B. HARRINGTON:   WITNESSED BY
 CLNT.            A2DTECH:   CLIENT CODE
 ORIG.           5" PRINT:   ORIGIN OF DATA
 UWI .       490251033200:   UNIQUE WELL ID
 DICO. A2D Technologies, Inc.:   DIGITIZING COMPANY
~OTHER INFORMATION
~A   DEPT      SPR        ILD        ILM       SGRD         GRD        CALD      CORR        RHOB     DPHI   
# ...
  395.0000   -44.6008     9.9554    12.5157    15.2937   103.8482     7.7688     0.0183     2.4769     0.1005
  395.5000   -44.7255     9.7571    11.6860    14.8848   102.0713     7.7708     0.0227     2.4820     0.0991
  396.0000   -44.9985     9.4968    11.1400    14.0916   101.2212     7.7727     0.0246     2.4820     0.0977
  396.5000   -45.1173     9.1165    10.4014    13.6202   101.5493     7.7597     0.0276     2.4769     0.1007
  397.0000   -45.0936     8.6312    11.3860    13.4406   102.3150     7.7617     0.0246     2.4710     0.1107
  397.5000   -45.0699     7.9489    11.7102    13.2633   103.3803     7.7636     0.0188     2.4605     0.1176
  398.0000   -45.2006     7.4224    11.0112    12.6436   104.5854     7.7656     0.0129     2.4418     0.1223
  398.5000   -45.1709     6.3792    10.6429    12.1365   106.2496     7.7675     0.0085     2.4299     0.1269
  399.0000   -45.3016     6.0397    10.0757    11.3319   108.6499     7.7694     0.0057     2.4232     0.1314
  399.5000   -45.4262     5.7979     9.0874    11.1054   112.9796     7.7416     0.0029     2.4181     0.1347
  400.0000   -45.4112     5.7209     7.7026     8.2536   115.3789     7.7286     0.0000     2.4152     0.1390
  400.5000   -45.0975     5.6850     7.2926     5.2696   114.4933     7.7744    -0.0014     2.4153     0.1399
  401.0000   -44.9317     5.7289     7.5539     6.2251   109.4473     7.7604    -0.0042     2.4169     0.1375
  401.5000   -44.4701     5.9341     8.6796    11.3687   104.1041     7.7315    -0.0056     2.4226     0.1326
  402.0000   -44.3043     6.2323     9.9044    14.7953    97.5722     7.7323    -0.0039     2.4302     0.1284
  402.5000   -44.1430     6.5909    10.6201    15.1159    94.0120     7.7332     0.0008     2.4378     0.1248
  403.0000   -44.2731     7.0671    10.7005    14.9186    95.2067     7.7788     0.0069     2.4447     0.1217
  403.5000   -44.4031     7.7903    10.5584    14.9290    97.4414     7.7946     0.0131     2.4509     0.1189
  404.0000   -44.3846     8.4696    11.8028    15.0430    95.2186     7.7955     0.0163     2.4570     0.1153
  404.5000   -44.2189     9.0190    12.3959    15.0534    93.4415     7.7964     0.0179     2.4612     0.1119
  405.0000   -44.0533     9.4722    12.1489    14.6529    94.6362     7.7973     0.0181     2.4673     0.1094
  405.5000   -43.8762     9.4781    11.9051    14.1623    96.8709     7.7982     0.0197     2.4720     0.1073
  406.0000   -43.5740     9.4172    12.9451    14.2729   102.2261     7.7991     0.0214     2.4766     0.1042
  406.5000   -43.4083     9.5557    13.7849    14.2828   104.7581     7.7851     0.0246     2.4804     0.1019
  407.0000   -43.3905     9.9667    13.6963    14.1917   106.3985     7.7859     0.0262     2.4828     0.0998
  407.5000   -43.3727    10.2526    13.8021    14.6023   108.3361     7.7868     0.0264     2.4844     0.0974
  408.0000   -43.3549    10.4740    14.0008    16.2094   109.5293     7.7877     0.0265     2.4853     0.0968
  408.5000   -43.3370    10.5533    13.4402    16.9078   107.0107     7.7886     0.0251     2.4831     0.0985
  409.0000   -43.3191    10.6331    13.8257    16.6871   101.5009     7.7895     0.0193     2.4803     0.1009
  409.5000   -43.3013    10.7136    13.3663    16.4665    94.6903     7.7904     0.0149     2.4766     0.1033
  410.0000   -42.9876    10.8695    14.2334    17.2980    92.9117     7.7913     0.0135     2.4722     0.1044
  410.5000   -42.8218    10.9517    15.1568    18.8076    93.5135     7.7773     0.0122     2.4716     0.1041
  411.0000   -42.8039    11.4228    15.1662    18.9512    94.8568     7.7782     0.0139     2.4717     0.1032
  411.5000   -42.6381    11.7504    15.8185    18.4438    96.7944     7.7791     0.0140     2.4748     0.1019
  412.0000   -42.6203    11.9215    16.8447    18.3294    99.9207     7.7949     0.0142     2.4802     0.1007
  412.5000   -42.6024    12.1789    17.8139    18.9906    98.8866     7.7958     0.0158     2.4833     0.0995
  413.0000   -42.7370    12.2711    17.3387    20.0846    95.9208     7.7967     0.0190     2.4842     0.0982
  413.5000   -43.1584    12.1922    16.5297    19.9600    93.9951     7.7976     0.0207     2.4865     0.0961
  414.0000   -43.1406    12.2017    15.9755    18.5109    94.2982     7.7985     0.0238     2.4904     0.0925
  414.5000   -43.1227    12.2093    16.4363    17.8912    96.5330     7.8143     0.0270     2.4965     0.0897
  415.0000   -42.9569    12.2169    16.9078    18.0309    98.9164     7.8152     0.0271     2.4989     0.0900
  415.5000   -42.7912    12.0566    17.7573    18.5494   100.1111     7.8012     0.0273     2.4945     0.0927
  416.0000   -42.6254    11.8966    18.3935    19.0828    99.0769     7.8021     0.0274     2.4886     0.0980
  416.5000   -42.4596    11.8219    19.0524    19.4963    97.1512     7.8030     0.0216     2.4820     0.1043
  417.0000   -42.4417    11.9959    19.5989    20.1961    94.7798     7.8039     0.0172     2.4753     0.1088
  417.5000   -42.2759    12.0034    19.6111    20.2101    94.6357     7.8048     0.0125     2.4642     0.1148
  418.0000   -42.2581    12.2626    18.9565    20.2241    96.7954     7.7908     0.0097     2.4564     0.1171
  418.5000   -42.3926    12.3554    18.1974    18.4982   101.4837     7.7917     0.0056     2.4539     0.1159
  419.0000   -42.5182    12.3631    17.4688    17.8820   104.7586     7.7926     0.0074     2.4596     0.1135
  419.5000   -42.6483    12.3708    16.5390    17.6456   106.1003     7.7935     0.0105     2.4654     0.1110
  420.0000   -42.4825    12.2932    15.5508    18.0310   103.1345     7.7646     0.0166     2.4711     0.1068
  420.5000   -42.3167    12.0464    15.2386    18.6782   104.9250     7.7655     0.0198     2.4765     0.1031
  421.0000   -42.0030    11.7251    15.1431    20.0293   106.5640     7.7664     0.0244     2.4811     0.0993
  421.5000   -41.8402    11.4123    16.1279    20.4633   104.3426     7.7524     0.0291     2.4861     0.0953
  422.0000   -41.6715    11.1850    17.5342    20.6196    98.9994     7.7533     0.0307     2.4944     0.0922
  422.5000   -41.6536    11.3496    18.2883    20.3504    96.0336     7.7392     0.0294     2.4976     0.0913
  423.0000   -41.6357    11.5947    18.4267    19.8090    95.8895     7.7401     0.0250     2.4947     0.0943
  423.5000   -41.7703    11.5219    18.1849    18.8861    96.1941     7.7261     0.0221     2.4888     0.0979
  424.0000   -41.8959    11.4479    17.9464    17.6365    97.8345     7.7121     0.0193     2.4806     0.0987
  424.5000   -42.0577    11.1443    17.2278    17.2834   100.8123     7.7130     0.0179     2.4852     0.0966
  425.0000   -42.1605    10.8470    16.7682    17.1791   104.8301     7.7139     0.0181     2.4899     0.0953
  425.5000   -42.1420    10.7773    15.9859    16.8352   107.2135     7.7148     0.0182     2.4870     0.0983
  426.0000   -42.1065    10.5626    15.6650    16.7308   105.4364     7.7008     0.0169     2.4781     0.1082
  426.5000   -41.8107    10.4963    15.4595    16.8614   103.2135     7.7017     0.0110     2.4684     0.1130
  427.0000   -41.7929    10.5045    15.5789    16.9902   103.8139     7.7025     0.0066     2.4580     0.1150
  427.5000   -41.7754    10.5110    15.8057    16.3110   104.8599     7.7034     0.0068     2.4604     0.1129
  428.0000   -42.0534    10.4451    15.9228    16.3223   106.2032     7.6894     0.0054     2.4665     0.1108
  428.5000   -42.1839    10.3065    15.0776    16.3336   106.9521     7.7052     0.0026     2.4651     0.1152
  429.0000   -42.4615    10.1027    14.2751    16.4583   107.4038     7.7061     0.0012     2.4540     0.1188
  429.5000   -42.4436     9.9015    14.0878    16.2435   106.3697     7.7070    -0.0001     2.4458     0.1197
  430.0000   -42.2778     9.4395    14.4919    15.2740   103.8481     7.7079    -0.0015     2.4459     0.1178
  430.5000   -42.1120     9.2500    14.7006    15.0721   104.6528     7.7088     0.0002     2.4506     0.1157
  431.0000   -42.0942     9.5168    14.1142    14.9786   105.7206     7.7097     0.0018     2.4544     0.1139
