~VERSION INFORMATION
 VERS.                2.0:   CWLS LOG ASCII STANDARD - VERSION 2.0
 WRAP.                 NO:   ONE LINE PER DEPTH STEP
~WELL INFORMATION
#MNEM.UNIT      DATA TYPE    INFORMATION
#----------   ------------   ------------------------------
 STRT.F           34.0000:   START DEPTH
 STOP.F          534.0000:   STOP DEPTH
 STEP.F            0.5000:   STEP LENGTH
 NULL.          -999.2500:   NO VALUE
 COMP.    FENIX & SCISSON:   COMPANY
 WELL.      33 SX 3 #33-3:   WELL
 FLD .             TEAPOT:   FIELD
 LOC .       S3 T38N R78W:   LOCATION
 CNTY.            NATRONA:   COUNTY
 STAT.            WYOMING:   STATE
 CTRY. UNITED STATES OF AMERICA:   COUNTRY
 SRVC.       Schlumberger:   SERVICE COMPANY
 DATE.        23-FEB-1977:   LOGDATE
 API .       490251028500:   API NUMBER
~CURVE INFORMATION
#MNEM.UNIT       API CODE    CURVE DESCRIPTION
#----------   ------------   ------------------------------
 DEPT.F                  :   
 SPR .MV     07 010 01 00:   SPONTANEOUS POTENTIAL
 LL8 .OHMM   07 220 08 00:   LATEROLOG-8 RES.
 ILD .OHMM   07 120 46 00:   INDUCTION LOG DEEP
 ILM .OHMM   07 120 44 00:   INDUCTION LOG MEDIUM
 CALD.IN     45 280 60 00:   CALIPER
 GRD .GAPI   45 310 01 00:   GAMMA RAY FROM DENSITY LOG
 RHOB.G/C3   45 350 01 00:   BULK DENSITY
 DPOR.DEC    45 890 12 00:   DENSITY POROSITY SANDSTONE
 CORR.G/C3   45 356 01 00:   DENSITY CORRECTION
~PARAMETER INFORMATION
#MNEM.UNIT          VALUE    DESCRIPTION
#----------   ------------   ------------------------------
 PD  .                 GL:   PERMANENT DATUM
 EPD .F              5170:   ELEVATION PERMANENT DATUM
 LMF .                 KB:   LOG MEASURED FROM
 DAPD.F                 5:   FEET ABOVE PERMANENT DATUM
 DMF .                 KB:   DRILLING MEASURED FROM
 EKB .F              5175:   KELLING BUSHING
 EGL .F              5170:   GROUND LEVEL
 DATE.            2-23-77:   RUN DATE
 RUN .                  1:   RUN NUMBER
 DD  .F               550:   DEPTH DRILLER
 DL  .F               535:   DEPTH LOGGER
 BLI .F               525:   BOTTOM LOG INTERVAL
 TLI .F                47:   TOP LOG INTERVAL
 CS  .IN            8.625:   CASING SIZE
 CBD .F                40:   CASING BOTTOM DRILLER
 CBL .F                47:   CASING BOTTOM LOGGER
 BS  .IN            7.875:   BIT SIZE
 BSD .F               550:   BIT SIZE AT DEPTH
 DFT .                KCL:   DRILLING FLUID TYPE
 DFD .                  9:   DRILLING FLUID DENSITY
 DFV .                 36:   DRILLING FLUID VISCOSITY
 MSS .            MUDTANK:   MUD SAMPLE SOURCE
 RMS .OHMM           .255:   RESISTIVITY MUD SAMPLE
 MST .F                74:   MUD SAMPLE TEMPERATURE
 RMF .OHMM           .246:   RESISTIVITY MUD FILTRATE SAMPLE
 MFST.F                74:   MUD FILTRATE SAMPLE TEMPERATURE
 RMC .OHMM            .38:   RESISTIVITY MUD CAKE
 MCST.F                74:   MUD CAKE SAMPLE TEMPERATURE
 MFSS.                  M:   MUD FILTRATE SAMPLE SOURCE
 MCSS.                  C:   MUD CAKE SAMPLE SOURCE
 RMB .OHMM            .34:   RESISTIVITY MUD AT BHT
 BHT .F                55:   BOTTOM HOLE TEMPERATURE
 TCS .HRS            0600:   TIME CURCULATED STOPPED
 TLAB.HRS            0730:   TIME LOGGER AT BOTTOM
 MRT .F                55:   MAXIMUM RECORDED TEMPERATURE
 LUN .               5642:   LOGGING UNIT NUMBER
 LUL .               CSPR:   LOGGING UNIT LOCATION
 ENGI.                FIX:   RECORDING ENGINEER
 WITN.         STUEBINGER:   WITNESSED BY
 CLNT.            A2DTECH:   CLIENT CODE
 ORIG.       2", 5" PRINT:   ORIGIN OF DATA
 UWI .       490251028500:   UNIQUE WELL ID
 DICO. A2D Technologies, Inc.:   DIGITIZING COMPANY
~OTHER INFORMATION
~A   DEPT      SPR        LL8        ILD        ILM       CALD         GRD      RHOB       DPOR       CORR   
   34.0000  -999.2500  -999.2500  -999.2500  -999.2500  -999.2500    94.2346  -999.2500  -999.2500  -999.2500
   34.5000  -999.2500  -999.2500  -999.2500  -999.2500  -999.2500    93.5413  -999.2500  -999.2500  -999.2500
   35.0000  -999.2500  -999.2500  -999.2500  -999.2500  -999.2500    92.0005  -999.2500  -999.2500  -999.2500
   35.5000  -999.2500  -999.2500  -999.2500  -999.2500  -999.2500    90.8549  -999.2500  -999.2500  -999.2500
   36.0000  -999.2500  -999.2500  -999.2500  -999.2500  -999.2500    91.8450  -999.2500  -999.2500  -999.2500
   36.5000  -999.2500  -999.2500  -999.2500  -999.2500  -999.2500    93.4813  -999.2500  -999.2500  -999.2500
   37.0000  -999.2500  -999.2500  -999.2500  -999.2500  -999.2500    96.3010  -999.2500  -999.2500  -999.2500
   37.5000  -999.2500  -999.2500  -999.2500  -999.2500  -999.2500   100.1225  -999.2500  -999.2500  -999.2500
   38.0000  -999.2500  -999.2500  -999.2500  -999.2500  -999.2500   101.9235  -999.2500  -999.2500  -999.2500
   38.5000  -999.2500  -999.2500  -999.2500  -999.2500  -999.2500   102.9506  -999.2500  -999.2500  -999.2500
   39.0000  -999.2500  -999.2500  -999.2500  -999.2500  -999.2500   102.0174  -999.2500  -999.2500  -999.2500
   39.5000  -999.2500  -999.2500  -999.2500  -999.2500  -999.2500   101.0264  -999.2500  -999.2500  -999.2500
   40.0000  -999.2500  -999.2500  -999.2500  -999.2500  -999.2500   100.0267  -999.2500  -999.2500  -999.2500
   40.5000  -999.2500  -999.2500  -999.2500  -999.2500  -999.2500   100.2231  -999.2500  -999.2500  -999.2500
   41.0000  -999.2500  -999.2500  -999.2500  -999.2500  -999.2500   101.9323  -999.2500  -999.2500  -999.2500
   41.5000  -999.2500  -999.2500  -999.2500  -999.2500  -999.2500   105.8259  -999.2500  -999.2500  -999.2500
   42.0000  -999.2500  -999.2500  -999.2500  -999.2500  -999.2500   109.5979  -999.2500  -999.2500  -999.2500
   42.5000  -999.2500  -999.2500  -999.2500  -999.2500  -999.2500   113.0266  -999.2500  -999.2500  -999.2500
   43.0000  -999.2500  -999.2500  -999.2500  -999.2500  -999.2500   112.0470  -999.2500  -999.2500  -999.2500
   43.5000  -999.2500  -999.2500  -999.2500  -999.2500  -999.2500   109.7080  -999.2500  -999.2500  -999.2500
   44.0000  -999.2500  -999.2500  -999.2500  -999.2500  -999.2500   107.2326  -999.2500  -999.2500  -999.2500
   44.5000  -999.2500  -999.2500  -999.2500  -999.2500  -999.2500   104.9861  -999.2500  -999.2500  -999.2500
   45.0000  -999.2500  -999.2500  -999.2500  -999.2500  -999.2500   104.2455  -999.2500  -999.2500  -999.2500
   45.5000  -999.2500  -999.2500  -999.2500  -999.2500  -999.2500   105.2373  -999.2500  -999.2500  -999.2500
   46.0000  -999.2500  -999.2500  -999.2500  -999.2500  -999.2500   109.6050  -999.2500  -999.2500  -999.2500
   46.5000  -999.2500  -999.2500  -999.2500  -999.2500     8.4507   117.2978  -999.2500  -999.2500  -999.2500
   47.0000  -999.2500  1595.1340     6.6080     8.8537     8.6190   126.0917     2.1590     0.2237    -0.0192
   47.5000  -999.2500  1658.8947     2.6748    10.0562     8.5051   130.2392     2.2892     0.1660    -0.0072
   48.0000  -999.2500  1005.5685     1.3325     1.3826     8.3913   129.6958     2.4229     0.1408     0.0127
   48.5000  -999.2500  1270.4733     2.1490     1.4084     8.4064   128.4469     2.4190     0.1419     0.0223
   49.0000  -999.2500  1555.3190     3.3854     3.8610     8.4523   127.3678     2.4122     0.1468     0.0061
   49.5000  -999.2500  1520.9972     5.8058     8.1045     8.5025   126.4234     2.4093     0.1512     0.0058
   50.0000  -999.2500  1525.9432     9.6013     8.9776     8.5633   127.1464     2.4369     0.1394     0.0188
   50.5000  -999.2500  1258.9148    15.8514     9.9448     8.6159   128.0496     2.4476     0.1263     0.0334
   51.0000  -999.2500   528.2152    20.6566    10.0562     8.5804   128.5660     2.4264     0.1222     0.0219
   51.5000  -999.2500  1170.4515     8.5960     9.8550     8.5419   127.8715     2.4031     0.1372    -0.0315
   52.0000  -999.2500  1565.2306     7.7892     9.6320     8.5051   127.7234     2.3821     0.1669    -0.0241
   52.5000  -999.2500  1553.8748     7.6242     9.4140     8.4783   128.0057     2.4178     0.1537    -0.0085
   53.0000  -999.2500  1537.8640     7.6711     9.1697     8.5346   127.8772     2.4295     0.1348    -0.0010
   53.5000  -999.2500  1566.3920     8.3604     9.3192     8.5947   126.3969     2.4263     0.1349    -0.0080
   54.0000  -999.2500  1546.5188    11.0799     9.6621     8.6542   125.0212     2.4494     0.1298     0.0051
   54.5000  -999.2500  1495.4692    15.0934    10.0177     8.7157   125.2177     2.4371     0.1323    -0.0119
   55.0000  -999.2500  1497.7228    12.0323    10.5029     8.7238   127.2889     2.4452     0.1366    -0.0194
   55.5000  -999.2500  1501.3354     9.8967    10.3834     8.6838   131.5898     2.4477     0.1390    -0.0038
   56.0000  -999.2500  1504.9568     8.9486    10.1485     8.6440   135.8098     2.4346     0.1417     0.0114
   56.5000  -999.2500  1508.5869     7.7662     9.9188     8.6046   139.3794     2.4212     0.1449     0.0182
   57.0000  -999.2500  1512.2258     7.8641     9.6944     8.5736   139.4322     2.4132     0.1494     0.0090
   57.5000  -999.2500  1515.8828     8.1202     9.4758     8.5745   138.1781     2.3978     0.1559     0.0117
   58.0000   -81.8452  1519.5328     8.3613     9.2557     8.5749   135.9221     2.3817     0.1653    -0.0016
   58.5000   -81.8452  1523.2711     8.3221     9.2426     8.5746   133.5825     2.4085     0.1555    -0.0126
   59.0000   -81.5718  1523.3351     8.2714     9.2255     8.6004   131.0138     2.4286     0.1376     0.0244
   59.5000   -80.6877  1523.3162     8.2211     9.2088     8.6176   128.4510     2.3992     0.1490     0.0012
   60.0000   -78.6690  1523.3268     8.1711     9.1922     8.6361   126.9924     2.4170     0.1549     0.0122
   60.5000   -77.5667  1523.3284     8.1214     9.1758     8.6549   129.6331     2.4119     0.1440     0.0138
   61.0000   -79.0182  1523.3284     8.0719     9.1593     8.6737   131.9792     2.4291     0.1352     0.0167
   61.5000   -79.2772  1523.3284     8.0582     9.1429     8.6924   132.5835     2.4272     0.1379     0.0286
   62.0000   -78.6057  1523.3284     8.0996     9.1265     8.7111   133.9615     2.4203     0.1392     0.0371
   62.5000   -77.6901  1523.3284     8.1367     9.1100     8.7300   135.8588     2.4372     0.1329     0.0262
   63.0000   -77.5540  1523.3284     8.1740     9.0940     8.7215   138.8017     2.4510     0.1333     0.0323
   63.5000   -77.9441  1523.3284     8.2115     9.0812     8.7019   142.2918     2.4363     0.1336     0.0482
   64.0000   -77.8712  1523.3284     8.2492     9.0663     8.6819   139.4542     2.4459     0.1281     0.0298
   64.5000   -77.3634  1523.3284     8.2845     9.0515     8.6560   135.8000     2.4663     0.1200     0.0436
   65.0000   -76.2373  1523.3284     8.2649     9.0367     8.6090   133.2495     2.4835     0.1126     0.0392
   65.5000   -74.5877  1523.3284     8.2230     9.0219     8.5954   131.0157     2.4931     0.0980     0.0529
   66.0000   -72.9502  1523.3284     8.1813     9.0070     8.6045   128.8325     2.4759     0.1038     0.0684
   66.5000   -71.4322  1523.3284     8.1398     8.9845     8.6150   128.6906     2.4624     0.1168     0.0236
   67.0000   -70.1229  1523.3284     8.0985     8.9456     8.6254   130.4429     2.4490     0.1320     0.0299
   67.5000   -69.3263  1523.3284     8.0574     8.9067     8.6347   132.3610     2.4397     0.1276     0.0284
   68.0000   -69.3321  1523.3284     8.0165     8.8680     8.6277   133.6819     2.4440     0.1296     0.0219
   68.5000   -69.6938  1523.3284     7.9759     8.8294     8.6191   135.0066     2.4492     0.1271     0.0047
   69.0000   -70.2541  1523.3284     7.9354     8.7910     8.6104   136.1514     2.4552     0.1240     0.0174
   69.5000   -70.9660  1523.3284     7.8952     8.7526     8.6018   136.3978     2.4580     0.1236     0.0423
   70.0000   -70.2596  1523.3284     7.8551     8.7136     8.5932   137.3156     2.4476     0.1271     0.0384
