~VERSION INFORMATION
 VERS.                2.0:   CWLS LOG ASCII STANDARD - VERSION 2.0
 WRAP.                 NO:   ONE LINE PER DEPTH STEP
~WELL INFORMATION
#MNEM.UNIT      DATA TYPE    INFORMATION
#----------   ------------   ------------------------------
 STRT.F           30.0000:   START DEPTH
 STOP.F          655.5000:   STOP DEPTH
 STEP.F            0.5000:   STEP LENGTH
 NULL.          -999.2500:   NO VALUE
 COMP. FENIX & SCISSON INC:   COMPANY
 WELL.    NPR-3 SX #52-15:   WELL
 FLD .             TEAPOT:   FIELD
 LOC .      S15 T38N R78W:   LOCATION
 CNTY.            NATRONA:   COUNTY
 STAT.            WYOMING:   STATE
 CTRY. UNITED STATES OF AMERICA:   COUNTRY
 SRVC.            Unknown:   SERVICE COMPANY
 DATE.        27-MAY-1978:   LOGDATE
 API .       490251062200:   API NUMBER
~CURVE INFORMATION
#MNEM.UNIT       API CODE    CURVE DESCRIPTION
#----------   ------------   ------------------------------
 DEPT.F                  :   
 GRD .GAPI   45 310 01 00:   GAMMA RAY FROM DENSITY LOG
 CALD.IN     45 280 60 00:   CALIPER
 RHOB.G/C3   45 350 01 00:   BULK DENSITY
 DPHI.DEC    45 890 12 00:   DENSITY POROSITY SANDSTONE
 CORR.G/C3   45 356 01 00:   DENSITY CORRECTION
 SN  .OHMM   05 040 16 00:   SHORT NORMAL 16"
 IL  .OHMM   05 120 00 00:   INDUCTION LOG
 SPR .MV     05 010 01 00:   SPONTANEOUS POTENTIAL FROM RES.
~PARAMETER INFORMATION
#MNEM.UNIT          VALUE    DESCRIPTION
#----------   ------------   ------------------------------
 PD  .                 GL:   PERMANENT DATUM
 EPD .F              5240:   ELEVATION PERMANENT DATUM
 LMF .                 KB:   LOG MEASURED FROM
 DAPD.F                 4:   FEET ABOVE PERMANENT DATUM
 DMF .                 GL:   DRILLING MEASURED FROM
 EKB .F              5244:   KELLING BUSHING
 EGL .F              5240:   GROUND LEVEL
 DATE.          5-27-1978:   RUN DATE
 RUN .                  1:   RUN NUMBER
 DD  .F               645:   DEPTH DRILLER
 DL  .F               655:   DEPTH LOGGER
 BLI .F               650:   BOTTOM LOG INTERVAL
 TLI .F                50:   TOP LOG INTERVAL
 CS  .IN            8.625:   CASING SIZE
 CBD .F                40:   CASING BOTTOM DRILLER
 CBL .F                40:   CASING BOTTOM LOGGER
 BS  .IN            7.875:   BIT SIZE
 BSD .F               645:   BIT SIZE AT DEPTH
 DFT .                KCL:   DRILLING FLUID TYPE
 DFD .                8.6:   DRILLING FLUID DENSITY
 DFV .                 32:   DRILLING FLUID VISCOSITY
 DFPH.               10.5:   DRILLING FLUID PH
 DFL .                7.4:   DRILLING FLUID LOSS
 MSS .           FLOWLINE:   MUD SAMPLE SOURCE
 RMS .OHMM            .30:   RESISTIVITY MUD SAMPLE
 MST .F                66:   MUD SAMPLE TEMPERATURE
 RMF .OHMM            .32:   RESISTIVITY MUD FILTRATE SAMPLE
 MFST.F                64:   MUD FILTRATE SAMPLE TEMPERATURE
 RMC .OHMM            .50:   RESISTIVITY MUD CAKE
 MCST.F                64:   MUD CAKE SAMPLE TEMPERATURE
 MFSS.           MEASURED:   MUD FILTRATE SAMPLE SOURCE
 BHT .F                68:   BOTTOM HOLE TEMPERATURE
 TCS .HRS               2:   TIME CURCULATED STOPPED
 MRT .F                68:   MAXIMUM RECORDED TEMPERATURE
 LUN .               2958:   LOGGING UNIT NUMBER
 LUL .              CASP.:   LOGGING UNIT LOCATION
 ENGI.            POINTER:   RECORDING ENGINEER
 WITN.           MCGINLEY:   WITNESSED BY
 CLNT.            A2DTECH:   CLIENT CODE
 ORIG.      2" , 5" PRINT:   ORIGIN OF DATA
 UWI .       490251062200:   UNIQUE WELL ID
 DICO. A2D Technologies, Inc.:   DIGITIZING COMPANY
~OTHER INFORMATION
~A   DEPT       GRD      CALD       RHOB       DPHI       CORR         SN         IL        SPR   
# ...
  273.0000    95.5373     7.6696     2.5270     0.1011     0.0982     9.0831    10.0694   -20.2106
  273.5000    92.1939     7.6452     2.5228     0.1004     0.0985     9.0753    10.0208   -20.0315
  274.0000    89.4498     7.6208     2.5098     0.1034     0.1064     9.0675     9.9854   -19.8378
  274.5000    91.7027     7.5964     2.5002     0.0980     0.1124     9.0597     9.9500   -19.6454
  275.0000    94.0890     7.5720     2.5067     0.0920     0.1122     9.0519     9.9147   -19.4534
  275.5000    96.2376     7.5476     2.5195     0.0958     0.1123     9.0441     9.8795   -19.2612
  276.0000    96.5895     7.5233     2.5319     0.1020     0.1010     9.0363     9.8442   -19.0632
  276.5000    96.5607     7.5086     2.5354     0.1082     0.0799     9.0284     9.8100   -19.0428
  277.0000    95.9249     7.5280     2.5111     0.1144     0.0609     9.0215     9.7940   -19.0673
  277.5000    95.5562     7.5465     2.5044     0.1159     0.0565     9.0168    10.0058   -19.0928
  278.0000    97.7347     7.5650     2.4973     0.1128     0.0518     9.1804    10.1834   -19.1179
  278.5000   100.5385     7.5835     2.4908     0.1107     0.0483     9.2976    10.3643   -19.1428
  279.0000   101.0547     7.6020     2.4940     0.1092     0.0497     9.4161    10.5483   -19.1679
  279.5000   101.2261     7.6209     2.4977     0.1077     0.0541     9.5360    10.7356   -19.1931
  280.0000   101.2917     7.6260     2.5013     0.1062     0.0590     9.6575    10.9262   -19.2208
  280.5000   100.7078     7.6276     2.5049     0.1047     0.0638     9.7805    11.1203   -19.1275
  281.0000    99.7597     7.6291     2.5085     0.1041     0.0687     9.9050    11.3177   -19.0058
  281.5000    98.2269     7.6307     2.5120     0.1038     0.0714    10.0312    11.5187   -18.8836
  282.0000    97.4286     7.6323     2.5143     0.1023     0.0731    10.1589    11.7232   -18.7616
  282.5000    98.6243     7.6339     2.5134     0.1006     0.0749    10.2883    11.9314   -18.6397
  283.0000    99.8340     7.6355     2.5126     0.1006     0.0767    10.4194    12.1433   -18.5177
  283.5000   100.3889     7.6371     2.5174     0.1005     0.0791    10.5521    12.3589   -18.3960
  284.0000   100.1857     7.6387     2.5191     0.0975     0.0846    10.6865    12.5784   -18.2731
  284.5000    96.8809     7.6403     2.5194     0.0946     0.0901    10.8226    12.7947   -18.2277
  285.0000    93.4863     7.6418     2.5241     0.0949     0.0956    10.9604    12.9292   -18.2269
  285.5000    93.2057     7.6434     2.5284     0.0953     0.1011    11.1000    13.0611   -18.2269
  286.0000    94.3152     7.6462     2.5276     0.0962     0.1039    11.2414    13.1617   -18.2271
  286.5000    93.4264     7.6549     2.5266     0.0973     0.1030    11.3845    13.1894   -18.2265
  287.0000    90.5658     7.6637     2.5257     0.0986     0.1021    11.5619    13.2172   -18.3089
  287.5000    89.7853     7.6526     2.5248     0.1036     0.1013    11.5494    13.2450   -18.4546
  288.0000    89.1185     7.6381     2.5239     0.1056     0.1004    11.5335    13.2729   -18.6009
  288.5000    85.1066     7.6235     2.5113     0.1051     0.0996    11.5173    13.3009   -18.7478
  289.0000    84.1637     7.6080     2.5097     0.1092     0.0987    11.5013    13.3289   -18.8942
  289.5000    86.7842     7.6261     2.5086     0.1148     0.0979    11.4853    13.3570   -19.0280
  290.0000    90.1084     7.6558     2.5042     0.1194     0.0970    11.4693    13.3851   -19.0390
  290.5000    89.5604     7.6854     2.4924     0.1120     0.0962    11.4251    13.3977   -19.0545
  291.0000    85.2837     7.7001     2.4856     0.1080     0.0986    11.2387    13.1966   -19.0705
  291.5000    84.3160     7.6866     2.4918     0.1058     0.1097    11.0550    13.0504   -19.0865
  292.0000    85.0077     7.6736     2.5121     0.1059     0.1175    10.8742    12.9058   -19.1025
  292.5000    87.0854     7.6604     2.5124     0.1050     0.1202    10.6422    12.7628   -19.1185
  293.0000    87.7942     7.6475     2.5120     0.1025     0.1203    10.6511    12.6215   -19.1345
  293.5000    87.8100     7.6341     2.5117     0.0999     0.1203    10.6640    12.4460   -19.1505
  294.0000    87.8036     7.6082     2.5122     0.0986     0.1182    10.6770    12.4746   -19.1665
  294.5000    87.6088     7.5427     2.5186     0.0994     0.1158    10.6899    12.5132   -19.1828
  295.0000    86.7530     7.5189     2.5216     0.1055     0.1121    10.7029    12.5519   -19.1989
  295.5000    88.3138     7.4955     2.5212     0.1158     0.1054    10.7156    12.5907   -19.2124
  296.0000    90.6817     7.4894     2.5041     0.1104     0.1113    10.7295    12.6296   -19.0989
  296.5000    91.1381     7.4968     2.4950     0.1058     0.1206    10.7410    12.6687   -18.8281
  297.0000    86.5475     7.5060     2.5045     0.1060     0.1291    10.5117    12.7079   -18.5595
  297.5000    85.3812     7.5519     2.5133     0.1063     0.1362    10.2587    12.7471   -18.2801
  298.0000    92.7684     7.5997     2.5123     0.1065     0.1433    10.2392    12.7947   -18.4698
  298.5000    95.2180     7.6436     2.5092     0.1057     0.1505    10.2181    12.6356   -18.8891
  299.0000    93.8967     7.6368     2.5088     0.1037     0.1543    10.1964    12.4379   -19.3107
  299.5000    91.5706     7.6288     2.5115     0.1016     0.1543    10.1745    12.2433   -19.6553
  300.0000    88.2122     7.6264     2.5145     0.1013     0.1544    10.1526    12.0518   -19.7711
  300.5000    89.6243     7.6335     2.5248     0.1011     0.1504    10.1308    11.8632   -19.8889
  301.0000    91.4768     7.6401     2.5257     0.1020     0.1420    10.1091    11.6776   -20.0070
  301.5000    93.5634     7.6432     2.5208     0.1102     0.1282    10.0874    11.5383   -20.1250
  302.0000    94.6137     7.6383     2.5129     0.1186     0.1144    10.0520    11.4028   -20.2208
  302.5000    90.8011     7.6336     2.5022     0.1169     0.1008     9.9619    11.2689   -20.1903
  303.0000    87.6226     7.6287     2.4918     0.1158     0.0912     9.8727    11.1487   -20.1607
  303.5000    87.2817     7.6163     2.4914     0.1198     0.0891     9.7842    11.0323   -20.1314
  304.0000    88.9635     7.5648     2.4905     0.1206     0.0868     9.7051    10.9171   -20.1022
  304.5000    90.5388     7.5452     2.4882     0.1153     0.0846     9.6990    10.8030   -20.0730
  305.0000    89.8534     7.5448     2.4876     0.1082     0.0824     9.6928    10.6902   -20.0438
  305.5000    87.9843     7.5449     2.4934     0.1116     0.0798     9.6868    10.5785   -20.0146
  306.0000    86.1430     7.5449     2.4982     0.1169     0.0707     9.6807    10.4479   -19.9854
  306.5000    84.7113     7.5449     2.4929     0.1238     0.0639     9.6746    10.4584   -19.9562
  307.0000    91.2570     7.5449     2.4874     0.1212     0.0636     9.6685    10.4712   -19.9270
  307.5000    94.9189     7.5449     2.4821     0.1172     0.0632     9.6624    10.4841   -19.8978
  308.0000    91.9468     7.5450     2.4784     0.1111     0.0629     9.6563    10.4970   -19.8685
  308.5000    82.7476     7.5448     2.4821     0.1050     0.0625     9.6503    10.5099   -19.8400
  309.0000    83.5715     7.5349     2.4936     0.0988     0.0616     9.6442    10.5228   -19.8445
  309.5000    86.2593     7.5007     2.5051     0.0974     0.0582     9.6381    10.5357   -19.9144
  310.0000    88.3830     7.4853     2.5119     0.0996     0.0548     9.6322    10.5486   -19.9831
  310.5000    89.6411     7.4848     2.5179     0.1003     0.0515     9.6261    10.5616   -20.0521
  311.0000    88.3308     7.4857     2.5225     0.0999     0.0481     9.6201    10.5746   -20.1210
  311.5000    87.0518     7.5173     2.5213     0.1085     0.0453     9.5540    10.5875   -20.1899
  312.0000    85.7316     7.5511     2.5169     0.1193     0.0435     9.4259    10.6005   -20.2588
  312.5000    84.2599     7.5849     2.4989     0.1281     0.0424     9.2995    10.6139   -20.3277
  313.0000    82.7945     7.6185     2.4821     0.1304     0.0439     9.1907    10.6266   -20.3966
