~VERSION INFORMATION
 VERS.                2.0:   CWLS LOG ASCII STANDARD - VERSION 2.0
 WRAP.                 NO:   ONE LINE PER DEPTH STEP
~WELL INFORMATION
#MNEM.UNIT      DATA TYPE    INFORMATION
#----------   ------------   ------------------------------
 STRT.F           20.0000:   START DEPTH
 STOP.F          964.0000:   STOP DEPTH
 STEP.F            0.5000:   STEP LENGTH
 NULL.          -999.2500:   NO VALUE
 COMP. FENIX & SCISSON INC:   COMPANY
 WELL.    NPR-3 SX #58-11:   WELL
 FLD .             TEAPOT:   FIELD
 LOC .      S11 T38N R78W:   LOCATION
 CNTY.            NATRONA:   COUNTY
 STAT.            WYOMING:   STATE
 CTRY. UNITED STATES OF AMERICA:   COUNTRY
 SRVC.            Unknown:   SERVICE COMPANY
 DATE.        09-MAR-1978:   LOGDATE
 API .       490251060100:   API NUMBER
~CURVE INFORMATION
#MNEM.UNIT       API CODE    CURVE DESCRIPTION
#----------   ------------   ------------------------------
 DEPT.F                  :   
 SPR .MV     05 010 01 00:   SPONTANEOUS POTENTIAL FROM RES.
 SN  .OHMM   05 040 16 00:   SHORT NORMAL 16"
 ILD .OHMM   05 120 46 00:   INDUCTION LOG DEEP
 CALD.IN     45 280 60 00:   CALIPER
 GRD .GAPI   45 310 01 00:   GAMMA RAY FROM DENSITY LOG
 CORR.G/C3   45 356 01 00:   DENSITY CORRECTION
 RHOB.G/C3   45 350 01 00:   BULK DENSITY
 DPHI.DEC    45 890 12 00:   DENSITY POROSITY SANDSTONE
~PARAMETER INFORMATION
#MNEM.UNIT          VALUE    DESCRIPTION
#----------   ------------   ------------------------------
 PD  .                 GL:   PERMANENT DATUM
 EPD .F              5219:   ELEVATION PERMANENT DATUM
 LMF .                 KB:   LOG MEASURED FROM
 DAPD.F                 4:   FEET ABOVE PERMANENT DATUM
 DMF .                 KB:   DRILLING MEASURED FROM
 EKB .F              5223:   KELLING BUSHING
 EGL .F              5219:   GROUND LEVEL
 DATE.           3-9-1978:   RUN DATE
 RUN .                  1:   RUN NUMBER
 DD  .F               963:   DEPTH DRILLER
 DL  .F               966:   DEPTH LOGGER
 BLI .F               960:   BOTTOM LOG INTERVAL
 TLI .F                80:   TOP LOG INTERVAL
 CS  .IN            8.625:   CASING SIZE
 CBD .F                40:   CASING BOTTOM DRILLER
 BS  .IN            7.875:   BIT SIZE
 BSD .F               963:   BIT SIZE AT DEPTH
 DFT .         LIGNO SULF:   DRILLING FLUID TYPE
 DFD .                8.6:   DRILLING FLUID DENSITY
 DFV .                 30:   DRILLING FLUID VISCOSITY
 DFPH.               10.5:   DRILLING FLUID PH
 DFL .                4.8:   DRILLING FLUID LOSS
 MSS .          FLOW LINE:   MUD SAMPLE SOURCE
 RMS .OHMM            1.7:   RESISTIVITY MUD SAMPLE
 MST .F                60:   MUD SAMPLE TEMPERATURE
 RMF .OHMM            1.5:   RESISTIVITY MUD FILTRATE SAMPLE
 MFST.F                74:   MUD FILTRATE SAMPLE TEMPERATURE
 RMC .OHMM            2.8:   RESISTIVITY MUD CAKE
 MCST.F                68:   MUD CAKE SAMPLE TEMPERATURE
 MFSS.               MEAS:   MUD FILTRATE SAMPLE SOURCE
 MCSS.               MEAS:   MUD CAKE SAMPLE SOURCE
 RMB .OHMM           1.38:   RESISTIVITY MUD AT BHT
 BHT .F                74:   BOTTOM HOLE TEMPERATURE
 TCS .HRS               4:   TIME CURCULATED STOPPED
 MRT .F                74:   MAXIMUM RECORDED TEMPERATURE
 LUN .               2958:   LOGGING UNIT NUMBER
 LUL .               CASP:   LOGGING UNIT LOCATION
 ENGI.             MILLER:   RECORDING ENGINEER
 WITN.         HARRINGTON:   WITNESSED BY
 CLNT.            A2DTECH:   CLIENT CODE
 ORIG.      2" , 5" PRINT:   ORIGIN OF DATA
 UWI .       490251060100:   UNIQUE WELL ID
 DICO. A2D Technologies, Inc.:   DIGITIZING COMPANY
~OTHER INFORMATION
~A   DEPT      SPR         SN        ILD       CALD         GRD      CORR       RHOB       DPHI   
# ...
  344.0000   -26.6469     3.2689     3.0899     7.8659    74.8327     0.0275     2.4395     0.1292
  344.5000   -26.6467     3.5203     3.2203     7.8652    76.5926     0.0227     2.4507     0.1270
  345.0000   -26.6467     4.1913     3.4149     7.8644    76.5165     0.0173     2.4459     0.1300
  345.5000   -26.6467     4.7311     3.6619     7.8637    75.2418     0.0169     2.4426     0.1326
  346.0000   -26.6467     4.8495     4.1691     7.8629    76.0632     0.0168     2.4436     0.1311
  346.5000   -26.6478     4.9716     4.7483     7.8621    78.1990     0.0169     2.4457     0.1297
  347.0000   -26.6112     5.0956     4.9405     7.8616    80.4623     0.0168     2.4479     0.1282
  347.5000   -26.5656     5.2231     4.9801     7.8604    80.8717     0.0173     2.4497     0.1268
  348.0000   -26.5196     5.3374     5.0200     7.8597    78.1171     0.0184     2.4521     0.1263
  348.5000   -26.4736     5.4904     5.0602     7.8419    75.2925     0.0196     2.4515     0.1265
  349.0000   -26.4276     5.6612     5.1125     7.8186    73.0762     0.0208     2.4505     0.1268
  349.5000   -26.3817     5.8825     5.2598     7.7955    74.4702     0.0266     2.4495     0.1270
  350.0000   -26.3354     6.1582     5.4112     7.7729    76.3357     0.0335     2.4484     0.1270
  350.5000   -26.2888     6.4458     5.5671     7.7489    78.1814     0.0404     2.4506     0.1258
  351.0000   -26.2517     6.6619     5.7278     7.7394    78.2117     0.0407     2.4532     0.1242
  351.5000   -26.3434     6.6449     5.8932     7.7400    75.1166     0.0406     2.4559     0.1249
  352.0000   -26.4343     6.6197     6.0182     7.7391    73.5858     0.0440     2.4520     0.1277
  352.5000   -26.5245     6.5945     6.0090     7.7250    73.8521     0.0495     2.4479     0.1306
  353.0000   -26.6115     6.5695     5.9983     7.7139    74.0813     0.0616     2.4446     0.1304
  353.5000   -26.9121     6.5399     5.9876     7.7010    73.3398     0.0801     2.4485     0.1278
  354.0000   -27.3177     6.5475     5.9769     7.7062    72.2366     0.0834     2.4615     0.1216
  354.5000   -27.5931     6.5569     5.9662     7.7124    74.3239     0.0641     2.4758     0.1151
  355.0000   -27.2670     6.5663     5.9555     7.7192    78.1521     0.0475     2.4820     0.1127
  355.5000   -26.9539     6.5756     5.9448     7.7259    80.5741     0.0288     2.4707     0.1170
  356.0000   -26.6440     6.5849     5.9342     7.7321    79.7717     0.0197     2.4612     0.1229
  356.5000   -26.4501     6.5942     5.9236     7.7394    77.9636     0.0194     2.4535     0.1250
  357.0000   -26.4879     6.6004     5.9130     7.7399    76.5843     0.0181     2.4512     0.1260
  357.5000   -26.5224     6.5680     5.9025     7.7398    76.4175     0.0169     2.4484     0.1271
  358.0000   -26.5570     6.5334     5.8919     7.7404    76.3351     0.0183     2.4464     0.1282
  358.5000   -26.5917     6.4988     5.8814     7.7404    75.8976     0.0198     2.4441     0.1294
  359.0000   -26.6264     6.4644     5.8708     7.7755    77.7352     0.0214     2.4419     0.1294
  359.5000   -26.6611     6.4302     5.8604     7.8202    80.3218     0.0229     2.4409     0.1298
  360.0000   -26.6957     6.3961     5.8499     7.8652    82.3334     0.0245     2.4430     0.1302
  360.5000   -26.7304     6.3623     5.8394     7.9139    81.6526     0.0261     2.4452     0.1306
  361.0000   -26.7651     6.3286     5.8289     7.9378    80.5898     0.0277     2.4464     0.1310
  361.5000   -26.7996     6.3027     5.8184     7.9191    78.7714     0.0286     2.4462     0.1310
  362.0000   -26.8356     6.4017     5.8078     7.9050    76.7548     0.0275     2.4474     0.1267
  362.5000   -26.8236     6.4998     5.8000     7.8901    74.8404     0.0264     2.4504     0.1237
  363.0000   -26.7744     6.5994     5.8659     7.8747    72.7343     0.0253     2.4533     0.1229
  363.5000   -26.7248     6.7006     5.9217     7.8599    72.8808     0.0242     2.4561     0.1221
  364.0000   -26.6741     6.8029     5.9779     7.8447    73.3562     0.0231     2.4592     0.1213
  364.5000   -26.6563     6.9122     6.0346     7.8296    74.1504     0.0220     2.4592     0.1207
  365.0000   -26.9777     6.9355     6.0919     7.8146    72.8846     0.0208     2.4567     0.1221
  365.5000   -27.3084     6.9601     6.1303     7.7996    70.1370     0.0188     2.4546     0.1234
  366.0000   -27.6358     6.9847     6.1083     7.7845    70.0806     0.0166     2.4522     0.1247
  366.5000   -27.7750     7.0092     6.0915     7.7695    71.5850     0.0142     2.4501     0.1301
  367.0000   -27.5724     7.0416     6.0747     7.7545    72.4868     0.0143     2.4432     0.1359
  367.5000   -27.3752     6.9640     6.0581     7.7394    72.2280     0.0195     2.4379     0.1416
  368.0000   -27.1777     6.8068     6.0416     7.7244    70.8619     0.0179     2.4227     0.1455
  368.5000   -26.9800     6.6533     6.0250     7.7094    67.9249     0.0132     2.4197     0.1455
  369.0000   -26.7827     6.5032     6.0086     7.6943    67.8047     0.0091     2.4127     0.1579
  369.5000   -26.6207     6.4395     5.9921     7.6793    67.7781     0.0051     2.4006     0.1651
  370.0000   -26.5386     6.3483     5.9757     7.6643    67.7791     0.0074     2.3647     0.1743
  370.5000   -26.4563     6.2584     5.9485     7.6477    67.7956     0.0098     2.3313     0.2045
  371.0000   -26.3737     6.1873     5.8811     7.6305    67.7928     0.0259     2.2977     0.2389
  371.5000   -26.2912     5.7650     5.5202     7.6133    68.2784     0.0411     2.2651     0.2627
  372.0000   -26.1327     5.3240     4.8612     7.5961    73.7337     0.0526     2.2224     0.2864
  372.5000   -25.8849     4.7205     4.2809     7.5789    82.5767     0.0515     2.1761     0.2982
  373.0000   -25.6397     4.1589     3.8627     7.5616    91.0500     0.0506     2.1469     0.3072
  373.5000   -25.4342     3.5539     3.1957     7.5447    96.3673     0.0486     2.1539     0.3034
  374.0000   -25.3959     3.0105     2.6161     7.5273    96.4420     0.0580     2.1639     0.2943
  374.5000   -25.3532     2.7358     2.2644     7.5093    94.8530     0.0753     2.1760     0.2821
  375.0000   -25.3113     2.5547     2.1200     7.5000    92.8271     0.0666     2.1871     0.2474
  375.5000   -25.2683     2.3673     2.0232     7.5180    90.8598     0.0563     2.2645     0.2130
  376.0000   -25.4191     2.4854     2.0232     7.5350    83.6050     0.0558     2.3599     0.1786
  376.5000   -25.6979     2.7497     2.1834     7.5529    77.4656     0.0616     2.4054     0.1557
  377.0000   -25.9698     3.0420     2.3822     7.5705    70.7708     0.0653     2.4052     0.1557
  377.5000   -26.5690     3.4701     2.7852     7.5882    65.4642     0.0691     2.4048     0.1478
  378.0000   -27.2496     4.0081     3.3814     7.6060    63.1997     0.0740     2.4200     0.1421
  378.5000   -27.8486     5.9417     4.1051     7.6234    64.1641     0.0868     2.4245     0.1434
  379.0000   -27.8930     7.0663     5.1952     7.6415    65.6340     0.0941     2.4254     0.1452
  379.5000   -27.9326     7.8603     7.0324     7.6590    65.3688     0.0709     2.4373     0.1471
  380.0000   -27.9743     8.5413     7.8374     7.6757    63.0766     0.0507     2.4452     0.1487
  380.5000   -28.0121     8.9401     8.7121     7.6967    61.8604     0.0450     2.4002     0.1628
  381.0000   -27.9501     9.0364     8.7086     7.6764    61.9483     0.0480     2.3772     0.1741
  381.5000   -27.5685     9.0364     8.6285     7.6318    66.7561     0.0582     2.3635     0.1843
  382.0000   -27.1977     9.0364     8.7086     7.5914    70.8856     0.0722     2.3483     0.1954
  382.5000   -26.8276     8.8086     7.4206     7.5513    73.6500     0.0754     2.3279     0.2094
  383.0000   -26.4571     8.1409     6.5828     7.5091    78.0544     0.0742     2.3163     0.2222
  383.5000   -26.0858     7.5817     5.9080     7.4707    83.5433     0.0917     2.2956     0.2368
  384.0000   -25.7118     6.3224     5.3763     7.4302    87.6220     0.1062     2.2741     0.2156
