~VERSION INFORMATION
 VERS.                2.0:   CWLS LOG ASCII STANDARD - VERSION 2.0
 WRAP.                 NO:   ONE LINE PER DEPTH STEP
~WELL INFORMATION
#MNEM.UNIT      DATA TYPE    INFORMATION
#----------   ------------   ------------------------------
 STRT.F         1208.5000:   START DEPTH
 STOP.F         3816.0000:   STOP DEPTH
 STEP.F            0.5000:   STEP LENGTH
 NULL.          -999.2500:   NO VALUE
 COMP. BROWN JOHN E&C INC:   COMPANY
 WELL. NPR 3 STX-11 #13-11:   WELL
 FLD .             TEAPOT:   FIELD
 LOC .      S11 T38N R78W:   LOCATION
 CNTY.            NATRONA:   COUNTY
 STAT.            WYOMING:   STATE
 CTRY. UNITED STATES OF AMERICA:   COUNTRY
 SRVC.            Unknown:   SERVICE COMPANY
 DATE.        08-APR-1986:   LOGDATE
 API .       490251105000:   API NUMBER
~CURVE INFORMATION
#MNEM.UNIT       API CODE    CURVE DESCRIPTION
#----------   ------------   ------------------------------
 DEPT.F                  :   
 ROP .MIN/FT 91 810 01 00:   RATE OF DRILLING PENETRATION
 TGAS.UNITS  91 830 01 00:   TOTAL GAS FROM HOTWIRE
 GR  .GAPI   81 310 01 00:   GAMMA RAY
 TT  .US/F   81 520 00 00:   TRANSIT TIME
~PARAMETER INFORMATION
#MNEM.UNIT          VALUE    DESCRIPTION
#----------   ------------   ------------------------------
 PD  .                 GL:   PERMANENT DATUM
 EPD .F              5176:   ELEVATION PERMANENT DATUM
 LMF .                 KB:   LOG MEASURED FROM
 DAPD.F              11.8:   FEET ABOVE PERMANENT DATUM
 DMF .                 KB:   DRILLING MEASURED FROM
 EKB .F            5187.8:   KELLING BUSHING
 EGL .F              5176:   GROUND LEVEL
 DATE.             4-8-86:   RUN DATE
 RUN .                  1:   RUN NUMBER
 DD  .F              4051:   DEPTH DRILLER
 DL  .F              3815:   DEPTH LOGGER
 BLI .F              3815:   BOTTOM LOG INTERVAL
 TLI .F              2200:   TOP LOG INTERVAL
 CS  .IN              5.5:   CASING SIZE
 CBD .F              3861:   CASING BOTTOM DRILLER
 DFT .              WATER:   DRILLING FLUID TYPE
 BHT .F               167:   BOTTOM HOLE TEMPERATURE
 MRT .F               167:   MAXIMUM RECORDED TEMPERATURE
 LUN .            558/374:   LOGGING UNIT NUMBER
 LUL .             CASPER:   LOGGING UNIT LOCATION
 ENGI.             BAILEY:   RECORDING ENGINEER
 WITN.             BARRON:   WITNESSED BY
 CLNT.            A2DTECH:   CLIENT CODE
 ORIG.     2.5", 5" PRINT:   ORIGIN OF DATA
 UWI .       490251105000:   UNIQUE WELL ID
 DICO. A2D Technologies, Inc.:   DIGITIZING COMPANY
~OTHER INFORMATION
~A  DEPT         ROP     TGAS         GR         TT   
# ...
 1719.5000     0.7120     6.2069  -999.2500  -999.2500
 1720.0000     0.7038     6.2069  -999.2500  -999.2500
 1720.5000     0.6667     6.2069  -999.2500  -999.2500
 1721.0000     0.6292     6.2069  -999.2500  -999.2500
 1721.5000     0.5749     6.2069  -999.2500  -999.2500
 1722.0000     0.5677     6.2069  -999.2500  -999.2500
 1722.5000     0.5745     6.2069  -999.2500  -999.2500
 1723.0000     0.5932     6.2069  -999.2500  -999.2500
 1723.5000     0.5735     6.2069  -999.2500  -999.2500
 1724.0000     0.5538     6.2069  -999.2500  -999.2500
 1724.5000     0.5478     6.2069  -999.2500  -999.2500
 1725.0000     0.4952     6.2069  -999.2500  -999.2500
 1725.5000     0.4165     6.2069  -999.2500  -999.2500
 1726.0000     0.3700     6.2069  -999.2500  -999.2500
 1726.5000     0.3591     6.2069  -999.2500  -999.2500
 1727.0000     0.3715     6.2069  -999.2500  -999.2500
 1727.5000     0.3923     6.2069  -999.2500  -999.2500
 1728.0000     0.3962     6.2069  -999.2500  -999.2500
 1728.5000     0.4534     6.2069  -999.2500  -999.2500
 1729.0000     0.5140     6.2069  -999.2500  -999.2500
 1729.5000     0.5523     6.2069  -999.2500  -999.2500
 1730.0000     0.5731     6.2069  -999.2500  -999.2500
 1730.5000     0.5861     6.2069  -999.2500  -999.2500
 1731.0000     0.5758     6.2069  -999.2500  -999.2500
 1731.5000     0.5540     6.2069  -999.2500  -999.2500
 1732.0000     0.5462     6.2069  -999.2500  -999.2500
 1732.5000     0.5456     6.2069  -999.2500  -999.2500
 1733.0000     0.5067     6.2069  -999.2500  -999.2500
 1733.5000     0.4664     6.2069  -999.2500  -999.2500
 1734.0000     0.4288     6.2069  -999.2500  -999.2500
 1734.5000     0.4284     6.2069  -999.2500  -999.2500
 1735.0000     0.4212     6.2069  -999.2500  -999.2500
 1735.5000     0.3994     6.2069  -999.2500  -999.2500
 1736.0000     0.3885     6.2069  -999.2500  -999.2500
 1736.5000     0.3880     6.2069  -999.2500  -999.2500
 1737.0000     0.4023     6.2069  -999.2500  -999.2500
 1737.5000     0.4063     6.2069  -999.2500  -999.2500
 1738.0000     0.4250     6.2069  -999.2500  -999.2500
 1738.5000     0.4454     6.2069  -999.2500  -999.2500
 1739.0000     0.4626     6.2069  -999.2500  -999.2500
 1739.5000     0.4734     6.2069  -999.2500  -999.2500
 1740.0000     0.5077     6.2069  -999.2500  -999.2500
 1740.5000     0.5285     6.2069  -999.2500  -999.2500
 1741.0000     0.5610     6.2069  -999.2500  -999.2500
 1741.5000     0.6030     6.2069  -999.2500  -999.2500
 1742.0000     0.6711     6.2069  -999.2500  -999.2500
 1742.5000     0.6899     6.2069  -999.2500  -999.2500
 1743.0000     0.6685     6.2069  -999.2500  -999.2500
 1743.5000     0.6094     6.2069  -999.2500  -999.2500
 1744.0000     0.5785     6.2069  -999.2500  -999.2500
 1744.5000     0.5209     6.2069  -999.2500  -999.2500
 1745.0000     0.4779     6.2069  -999.2500  -999.2500
 1745.5000     0.4562     6.2069  -999.2500  -999.2500
 1746.0000     0.4558     6.2069  -999.2500  -999.2500
 1746.5000     0.4406     6.2069  -999.2500  -999.2500
 1747.0000     0.4548     6.2069  -999.2500  -999.2500
 1747.5000     0.4928     6.2069  -999.2500  -999.2500
 1748.0000     0.5338     6.2069  -999.2500  -999.2500
 1748.5000     0.5759     6.2069  -999.2500  -999.2500
 1749.0000     0.6067     6.2069  -999.2500  -999.2500
 1749.5000     0.6062     6.2069  -999.2500  -999.2500
 1750.0000     0.6058     6.2069  -999.2500  -999.2500
 1750.5000     0.6053     6.1635  -999.2500  -999.2500
 1751.0000     0.6048     5.8190  -999.2500  -999.2500
 1751.5000     0.6235     5.8190  -999.2500  -999.2500
 1752.0000     0.7192     5.6457  -999.2500  -999.2500
 1752.5000     0.7572     5.4310  -999.2500  -999.2500
 1753.0000     0.7617     5.4310  -999.2500  -999.2500
 1753.5000     0.7947     5.4310  -999.2500  -999.2500
 1754.0000     0.7942     5.4310  -999.2500  -999.2500
 1754.5000     0.7852     5.4310  -999.2500  -999.2500
 1755.0000     0.7635     5.4310  -999.2500  -999.2500
 1755.5000     0.7291     5.4310  -999.2500  -999.2500
 1756.0000     0.6862     5.4310  -999.2500  -999.2500
 1756.5000     0.6379     5.4310  -999.2500  -999.2500
 1757.0000     0.6183     5.4310  -999.2500  -999.2500
 1757.5000     0.5793     5.4310  -999.2500  -999.2500
 1758.0000     0.5596     5.4310  -999.2500  -999.2500
 1758.5000     0.5591     5.4310  -999.2500  -999.2500
 1759.0000     0.5587     5.4310  -999.2500  -999.2500
 1759.5000     0.5645     5.4310  -999.2500  -999.2500
 1760.0000     0.5853     5.4310  -999.2500  -999.2500
 1760.5000     0.6371     5.4310  -999.2500  -999.2500
 1761.0000     0.7216     5.4310  -999.2500  -999.2500
 1761.5000     0.8061     5.4310  -999.2500  -999.2500
 1762.0000     0.8086     5.4310  -999.2500  -999.2500
 1762.5000     0.7860     5.4310  -999.2500  -999.2500
 1763.0000     0.7651     5.4310  -999.2500  -999.2500
 1763.5000     0.7402     5.4310  -999.2500  -999.2500
 1764.0000     0.7077     5.4310  -999.2500  -999.2500
 1764.5000     0.7072     5.4310  -999.2500  -999.2500
 1765.0000     0.7067     5.4310  -999.2500  -999.2500
 1765.5000     0.7063     5.4310  -999.2500  -999.2500
 1766.0000     0.7058     5.4310  -999.2500  -999.2500
 1766.5000     0.7437     5.4310  -999.2500  -999.2500
 1767.0000     0.8586     5.4310  -999.2500  -999.2500
 1767.5000     0.9548     5.4310  -999.2500  -999.2500
 1768.0000     1.0137     5.4310  -999.2500  -999.2500
 1768.5000     1.0304     5.4310  -999.2500  -999.2500
 1769.0000     1.0044     5.4310  -999.2500  -999.2500
 1769.5000     0.9909     5.4310  -999.2500  -999.2500
 1770.0000     0.9699     5.4310  -999.2500  -999.2500
 1770.5000     0.9269     5.4310  -999.2500  -999.2500
 1771.0000     0.8982     5.4310  -999.2500  -999.2500
 1771.5000     0.8350     5.4310  -999.2500  -999.2500
 1772.0000     0.8154     5.4310  -999.2500  -999.2500
 1772.5000     0.7946     5.4310  -999.2500  -999.2500
 1773.0000     0.7760     5.4310  -999.2500  -999.2500
 1773.5000     0.7755     5.4310  -999.2500  -999.2500
 1774.0000     0.7894     5.4310  -999.2500  -999.2500
 1774.5000     0.8774     5.4310  -999.2500  -999.2500
 1775.0000     1.0032     5.4310  -999.2500  -999.2500
 1775.5000     1.0428     5.4310  -999.2500  -999.2500
 1776.0000     1.0422     5.4310  -999.2500  -999.2500
 1776.5000     1.0033     5.4310  -999.2500  -999.2500
 1777.0000     0.9640     5.4310  -999.2500  -999.2500
 1777.5000     0.8444     5.4310  -999.2500  -999.2500
 1778.0000     0.8014     5.4310  -999.2500  -999.2500
 1778.5000     0.7584     5.4310  -999.2500  -999.2500
 1779.0000     0.7317     5.4310  -999.2500  -999.2500
 1779.5000     0.7312     5.4310  -999.2500  -999.2500
 1780.0000     0.7186     5.4310  -999.2500  -999.2500
 1780.5000     0.7111     5.4310  -999.2500  -999.2500
 1781.0000     0.7105     5.4310  -999.2500  -999.2500
 1781.5000     0.7293     5.4310  -999.2500  -999.2500
 1782.0000     0.7288     5.4310  -999.2500  -999.2500
 1782.5000     0.7284     5.4310  -999.2500  -999.2500
 1783.0000     0.7329     5.4310  -999.2500  -999.2500
 1783.5000     0.7537     5.4310  -999.2500  -999.2500
 1784.0000     0.7472     5.4310  -999.2500  -999.2500
 1784.5000     0.6820     5.4310  -999.2500  -999.2500
 1785.0000     0.5965     5.4310  -999.2500  -999.2500
 1785.5000     0.4946     5.4310  -999.2500  -999.2500
 1786.0000     0.4365     5.4310  -999.2500  -999.2500
 1786.5000     0.4361     5.4310  -999.2500  -999.2500
 1787.0000     0.4588     5.4310  -999.2500  -999.2500
 1787.5000     0.4929     5.4310  -999.2500  -999.2500
 1788.0000     0.4923     5.4310  -999.2500  -999.2500
 1788.5000     0.4918     5.4310  -999.2500  -999.2500
 1789.0000     0.4712     5.4310  -999.2500  -999.2500
 1789.5000     0.4403     5.4310  -999.2500  -999.2500
 1790.0000     0.4327     5.4310  -999.2500  -999.2500
 1790.5000     0.4514     5.4310  -999.2500  -999.2500
 1791.0000     0.5856     5.4310  -999.2500  -999.2500
 1791.5000     0.6648     5.4310  -999.2500  -999.2500
 1792.0000     0.7193     5.4310  -999.2500  -999.2500
