~VERSION INFORMATION
 VERS.                2.0:   CWLS LOG ASCII STANDARD - VERSION 2.0
 WRAP.                 NO:   ONE LINE PER DEPTH STEP
~WELL INFORMATION
#MNEM.UNIT      DATA TYPE    INFORMATION
#----------   ------------   ------------------------------
 STRT.F           70.0000:   START DEPTH
 STOP.F          853.0000:   STOP DEPTH
 STEP.F            0.5000:   STEP LENGTH
 NULL.          -999.2500:   NO VALUE
 COMP. U S NAVY/INTEX OIL CO:   COMPANY
 WELL.     31S-2 NPR #3-2:   WELL
 FLD .             TEAPOT:   FIELD
 LOC .       S2 T38N R78W:   LOCATION
 CNTY.            NATRONA:   COUNTY
 STAT.            WYOMING:   STATE
 CTRY. UNITED STATES OF AMERICA:   COUNTRY
 SRVC.         Lane Wells:   SERVICE COMPANY
 DATE.        17-MAR-1960:   LOGDATE
 API .       490250648000:   API NUMBER
~CURVE INFORMATION
#MNEM.UNIT       API CODE    CURVE DESCRIPTION
#----------   ------------   ------------------------------
 DEPT.F                  :   
 ASN .OHMM   05 041 16 00:   AMPLIFIED SHORT NORMAL 16"
 CILD.MMHO   05 110 46 00:   CONDUCTIVITY INDUCTION LOG DEEP
 ILD .OHMM   05 120 46 00:   INDUCTION LOG DEEP
 SPR .MV     05 010 01 00:   SPONTANEOUS POTENTIAL FROM RES.
~PARAMETER INFORMATION
#MNEM.UNIT          VALUE    DESCRIPTION
#----------   ------------   ------------------------------
 PD  .                 GL:   PERMANENT DATUM
 EPD .F              5118:   ELEVATION PERMANENT DATUM
 LMF .                 KB:   LOG MEASURED FROM
 DAPD.F                 5:   FEET ABOVE PERMANENT DATUM
 DMF .                 KB:   DRILLING MEASURED FROM
 EKB .F              5123:   KELLING BUSHING
 EGL .F              5118:   GROUND LEVEL
 DATE.        17-MAR-1960:   RUN DATE
 RUN .                  1:   RUN NUMBER
 DD  .F               860:   DEPTH DRILLER
 DL  .F               855:   DEPTH LOGGER
 BLI .F               853:   BOTTOM LOG INTERVAL
 TLI .F                70:   TOP LOG INTERVAL
 CS  .IN            8.625:   CASING SIZE
 CBD .F                12:   CASING BOTTOM DRILLER
 BS  .IN            7.875:   BIT SIZE
 BSD .F               860:   BIT SIZE AT DEPTH
 DFT .  GEL- OIL EMULSION:   DRILLING FLUID TYPE
 DFD .                9.7:   DRILLING FLUID DENSITY
 DFV .                 40:   DRILLING FLUID VISCOSITY
 MSS .    CIRC.- FLOWLINE:   MUD SAMPLE SOURCE
 RMS .OHMM           1.75:   RESISTIVITY MUD SAMPLE
 MST .F                60:   MUD SAMPLE TEMPERATURE
 RMF .OHMM            1.2:   RESISTIVITY MUD FILTRATE SAMPLE
 MFST.F                60:   MUD FILTRATE SAMPLE TEMPERATURE
 RMC .OHMM            2.4:   RESISTIVITY MUD CAKE
 MCST.F                60:   MUD CAKE SAMPLE TEMPERATURE
 MFSS.                MUD:   MUD FILTRATE SAMPLE SOURCE
 MCSS.              PRESS:   MUD CAKE SAMPLE SOURCE
 RMB .OHMM            1.5:   RESISTIVITY MUD AT BHT
 BHT .F                70:   BOTTOM HOLE TEMPERATURE
 MRT .F                70:   MAXIMUM RECORDED TEMPERATURE
 LUN .            HL 4474:   LOGGING UNIT NUMBER
 LUL .             CASPER:   LOGGING UNIT LOCATION
 ENGI.             NELSON:   RECORDING ENGINEER
 WITN.   JORGENSEN-HUDSON:   WITNESSED BY
 CLNT.            A2DTECH:   CLIENT CODE
 ORIG.        2" 5" PRINT:   ORIGIN OF DATA
 UWI .       490250648000:   UNIQUE WELL ID
 DICO. A2D Technologies, Inc.:   DIGITIZING COMPANY
~OTHER INFORMATION
~A   DEPT        ASN      CILD         ILD      SPR   
# ...
  654.0000     6.2112   179.1044     5.8495   -35.0294
  654.5000     6.3576   173.6803     5.9134   -35.0320
  655.0000     6.5076   173.7615     5.9764   -35.0346
  655.5000     6.5569   173.8440     5.8379   -35.1713
  656.0000     6.5427   175.3180     5.7671   -35.3081
  656.5000     6.5287   175.3985     5.5627   -35.4448
  657.0000     6.4612   180.9836     5.4884   -35.4474
  657.5000     6.3135   185.1926     5.3535   -35.4506
  658.0000     5.8027   192.1538     5.2828   -35.3184
  658.5000     5.3988   196.3627     5.2789   -35.1869
  659.0000     5.1884   197.8193     5.4087   -35.0560
  659.5000     5.0942   199.3262     5.4727   -34.9238
  660.0000     5.1203   193.7616     5.6015   -34.7929
  660.5000     5.3068   189.5731     5.7982   -34.6613
  661.0000     5.7607   183.0238     5.9939   -34.3957
  661.5000     6.2595   178.9758     6.1906   -34.6672
  662.0000     6.7352   169.4233     6.3214   -34.8039
  662.5000     7.0153   162.6231     6.5839   -35.0747
  663.0000     7.2686   154.4467     6.7137   -35.2114
  663.5000     7.4284   151.7749     6.8436   -35.2140
  664.0000     7.5347   151.8554     6.9135   -35.2167
  664.5000     7.5876   151.9358     7.0354   -35.2199
  665.0000     7.6404   150.6402     7.0993   -35.4907
  665.5000     7.6797   149.3445     7.1613   -35.7615
  666.0000     7.7191   148.0690     7.2253   -35.8983
  666.5000     7.7454   146.7733     7.2873   -35.9008
  667.0000     7.7981   145.4777     7.2834   -36.0376
  667.5000     7.8509   144.1619     7.2126   -36.0402
  668.0000     7.8904   142.8864     7.2757   -35.9086
  668.5000     7.9311   141.5907     7.2050   -35.7771
  669.0000     7.9023   141.6712     7.2679   -35.7803
  669.5000     7.8482   141.7523     7.2631   -35.7829
  670.0000     7.7807   141.8349     7.2592   -35.6514
  670.5000     7.7399   141.9328     7.3222   -35.6539
  671.0000     7.6858   142.0133     7.3182   -35.7908
  671.5000     7.7386   142.0938     7.3135   -35.7939
  672.0000     7.9032   142.1743     7.3765   -35.7965
  672.5000     8.0714   142.2548     7.3726   -35.7991
  673.0000     8.1911   145.0875     7.1682   -35.8017
  673.5000     8.2707   149.2965     6.9675   -35.8042
  674.0000     8.2835   153.5054     6.7594   -35.8069
  674.5000     8.0555   160.5547     6.4872   -35.8101
  675.0000     7.5869   169.2663     6.2159   -35.8127
  675.5000     6.7851   182.6661     6.0115   -35.8152
  676.0000     5.8074   188.2511     5.9408   -35.8178
  676.5000     5.6597   186.9354     6.0048   -35.8204
  677.0000     5.6458   184.2635     6.1336   -35.8230
  677.5000     5.7520   176.1073     6.3391   -35.6915
  678.0000     6.0321   165.1786     6.7265   -35.5599
  678.5000     7.2967   154.2499     6.9900   -35.6973
  679.0000     8.6242   144.6974     7.2545   -35.8340
  679.5000     9.2653   134.8808     7.6507   -35.8366
  680.0000     9.5320   124.2363     8.0479   -35.8392
  680.5000     9.6116   118.8122     8.3783   -35.8418
  681.0000     9.6911   118.8927     8.7086   -35.6978
  681.5000     9.7573   118.9732     8.8385   -35.4452
  682.0000     9.8651   119.0536     8.9683   -35.4478
  682.5000     9.9971   117.7379     9.0981   -35.5845
  683.0000    10.5598   113.7100     9.2270   -35.5871
  683.5000    11.1225   109.6621     9.4905   -35.8579
  684.0000    11.6852   105.5775     9.7540   -35.9947
  684.5000    12.2479    98.6373    10.1671   -36.1314
  685.0000    12.8107    90.6576    10.8816   -36.4029
  685.5000    13.3734    82.4812    11.8804   -36.6737
  686.0000    14.4571    75.6810    12.8124   -37.3469
  686.5000    15.4592    70.2569    13.3433   -38.4225
  687.0000    16.3275    67.5650    14.1416   -39.3640
  687.5000    17.3964    64.9133    15.0735   -40.1714
  688.0000    18.5045    60.8653    16.0446   -41.1326
  688.5000    19.5340    56.8174    16.9365   -41.7867
  689.0000    20.0681    54.1456    17.7348   -42.1917
  689.5000    20.7359    51.4738    18.5330   -42.7308
  690.0000    21.5374    50.1781    19.1976   -43.0017
  690.5000    22.2720    48.8825    19.7953   -43.0042
  691.0000    23.8196    46.2107    20.4617   -42.8727
  691.5000    25.8134    46.3113    21.1235   -42.7418
  692.0000    27.0828    43.6193    21.7213   -42.4755
  692.5000    27.8843    42.3237    22.5864   -42.3440
  693.0000    28.3515    38.2959    23.3178   -42.7496
  693.5000    28.8188    37.0002    23.9824   -42.8863
  694.0000    29.4198    37.0826    24.5133   -43.2913
  694.5000    30.0278    35.7850    25.1849   -43.4351
  695.0000    30.6884    35.8856    26.1089   -43.9677
  695.5000    31.2893    34.5699    26.9071   -44.5068
  696.0000    32.0908    33.2742    27.3053   -44.9118
  696.5000    33.0929    33.3748    27.3005   -45.3168
  697.0000    34.2954    33.4553    27.1629   -45.5876
  697.5000    34.4998    33.5358    26.9585   -45.9926
  698.0000    34.2112    33.6163    26.7540   -46.1294
  698.5000    32.7559    35.0734    26.6156   -45.7302
  699.0000    31.3515    36.5321    26.6117   -45.4645
  699.5000    30.4150    36.6302    26.6078   -45.0640
  700.0000    29.8128    36.7107    26.6708   -44.7984
  700.5000    29.4779    36.7912    26.8181   -44.5327
  701.0000    29.2888    36.8716    26.8537   -44.2941
  701.5000    28.7352    36.9521    27.1309   -43.9940
  702.0000    28.8663    35.6363    27.3957   -43.5917
  702.5000    29.0029    35.6297    27.4599   -43.1893
  703.0000    29.2615    35.6011    27.2562   -43.0551
  703.5000    29.5263    38.3702    26.9862   -43.4575
  704.0000    29.6581    38.4102    26.4489   -43.8599
  704.5000    29.7217    38.4502    25.9115   -44.1282
  705.0000    29.8529    38.4902    25.1737   -43.9940
  705.5000    29.6497    38.5303    23.6337   -43.9940
  706.0000    28.2567    38.5703    22.1355   -43.4575
  706.5000    24.8311    40.6604    20.3525   -42.5186
  707.0000    23.2242    44.1560    19.2135   -41.7139
  707.5000    21.3500    48.3334    18.2083   -40.9091
  708.0000    20.0105    51.1257    17.4704   -40.2384
  708.5000    19.2058    55.2941    16.7325   -40.2454
  709.0000    18.7331    56.7103    16.1283   -40.6408
  709.5000    18.2642    58.1264    15.7834   -40.9091
  710.0000    18.0611    60.9188    15.4541   -41.3115
  710.5000    17.7911    60.9588    15.3178   -41.4456
  711.0000    17.5880    62.5411    15.3152   -41.4456
  711.5000    17.3849    63.8011    15.3126   -41.3115
  712.0000    17.3155    65.2173    15.3770   -41.0432
  712.5000    17.3128    65.2573    15.3743   -41.0432
  713.0000    17.3097    66.6697    15.3048   -40.9091
  713.5000    17.3071    66.7135    15.3017   -41.3115
  714.0000    17.2377    66.7535    15.2991   -41.7139
  714.5000    17.0346    66.7936    15.2297   -41.8480
  715.0000    16.9651    66.8349    15.1603   -41.9821
  715.5000    16.8289    66.8762    15.1284   -41.9821
  716.0000    16.7594    66.9236    15.0214   -41.9821
  716.5000    16.6835    66.9587    14.8845   -41.8480
  717.0000    16.5531    67.0000    14.8151   -41.9821
  717.5000    16.4837    68.4198    14.7456   -41.9821
  718.0000    16.4568    69.8359    14.6094   -41.9821
  718.5000    16.3154    70.5781    14.5677   -41.9821
  719.0000    16.2086    71.2936    14.4100   -41.9821
  719.5000    16.0717    71.3349    14.3342   -41.9821
  720.0000    15.9354    71.3821    14.2603   -41.8480
  720.5000    15.7991    71.4222    14.1948   -41.8480
  721.0000    15.6419    71.4587    14.0924   -41.8480
  721.5000    15.4598    71.5000    14.0561   -41.8480
  722.0000    15.3903    71.5422    14.0533   -41.9821
  722.5000    15.3190    71.5826    13.9171   -41.9978
  723.0000    15.1840    71.6239    13.8783   -42.2504
  723.5000    15.1150    71.6723    13.7776   -42.3845
  724.0000    14.9783    71.7064    13.7082   -42.5186
  724.5000    14.8420    71.7523    13.5719   -42.3845
  725.0000    14.7058    71.7890    13.5025   -42.3845
  725.5000    14.5695    71.8303    13.4330   -42.3845
  726.0000    14.2995    70.4962    13.3636   -42.3845
  726.5000    14.1626    70.5526    13.4279   -42.6528
