~VERSION INFORMATION
 VERS.                2.0:   CWLS LOG ASCII STANDARD - VERSION 2.0
 WRAP.                 NO:   ONE LINE PER DEPTH STEP
~WELL INFORMATION
#MNEM.UNIT      DATA TYPE    INFORMATION
#----------   ------------   ------------------------------
 STRT.F           26.0000:   START DEPTH
 STOP.F          655.0000:   STOP DEPTH
 STEP.F            0.5000:   STEP LENGTH
 NULL.          -999.2500:   NO VALUE
 COMP. FENIX & SCISSON, INCORPORATED:   COMPANY
 WELL. RES 3 TEAPOT DOM #22S-11:   WELL
 FLD .             TEAPOT:   FIELD
 LOC .      S11 T38N R78W:   LOCATION
 CNTY.            NATRONA:   COUNTY
 STAT.            WYOMING:   STATE
 CTRY. UNITED STATES OF AMERICA:   COUNTRY
 SRVC.            Unknown:   SERVICE COMPANY
 DATE.        03-FEB-1978:   LOGDATE
 API .       490251057200:   API NUMBER
~CURVE INFORMATION
#MNEM.UNIT       API CODE    CURVE DESCRIPTION
#----------   ------------   ------------------------------
 DEPT.F                  :   
 ILD .OHMM   05 120 46 00:   INDUCTION LOG DEEP
 SN  .OHMM   05 040 16 00:   SHORT NORMAL 16"
 SPR .MV     05 010 01 00:   SPONTANEOUS POTENTIAL.
 CALD.IN     45 280 60 00:   CALIPER FROM DENSITY LOG
 CORR.G/C3   45 356 01 00:   DENSITY CORRECTION
 DPHI.DEC    45 890 12 00:   DENSITY POROSITY SANDSTONE
 GRD .GAPI   45 310 01 00:   GAMMA RAY FROM DENSITY LOG
 RHOB.G/C3   45 350 01 00:   BULK DENSITY
~PARAMETER INFORMATION
#MNEM.UNIT          VALUE    DESCRIPTION
#----------   ------------   ------------------------------
 PD  .                 GL:   PERMANENT DATUM
 EPD .F              5168:   ELEVATION PERMANENT DATUM
 LMF .                 KB:   LOG MEASURED FROM
 DMF .                 KB:   DRILLING MEASURED FROM
 EKB .F              5171:   KELLING BUSHING
 EGL .F              5168:   GROUND LEVEL
 DATE.        03-FEB-1978:   RUN DATE
 RUN .                  1:   RUN NUMBER
 DD  .F               650:   DEPTH DRILLER
 DL  .F               655:   DEPTH LOGGER
 BLI .F               655:   BOTTOM LOG INTERVAL
 TLI .F                40:   TOP LOG INTERVAL
 CS  .IN            8.625:   CASING SIZE
 CBD .F                39:   CASING BOTTOM DRILLER
 CBL .F                40:   CASING BOTTOM LOGGER
 BS  .IN            7.875:   BIT SIZE
 BSD .F               650:   BIT SIZE AT DEPTH
 DFT .                KCL:   DRILLING FLUID TYPE
 DFD .                8.6:   DRILLING FLUID DENSITY
 DFV .                 31:   DRILLING FLUID VISCOSITY
 DFPH.                9.5:   DRILLING FLUID PH
 DFL .               12.8:   DRILLING FLUID LOSS
 MSS .           FLOWLINE:   MUD SAMPLE SOURCE
 RMS .OHMM           0.38:   RESISTIVITY MUD SAMPLE
 MST .F                62:   MUD SAMPLE TEMPERATURE
 RMF .OHMM            4.4:   RESISTIVITY MUD FILTRATE SAMPLE
 MFST.F                62:   MUD FILTRATE SAMPLE TEMPERATURE
 RMC .OHMM            0.8:   RESISTIVITY MUD CAKE
 MCST.F                62:   MUD CAKE SAMPLE TEMPERATURE
 MFSS.               MEAS:   MUD FILTRATE SAMPLE SOURCE
 RMB .OHMM           0.35:   RESISTIVITY MUD AT BHT
 BHT .F                68:   BOTTOM HOLE TEMPERATURE
 TCS .HRS               1:   TIME CURCULATED STOPPED
 MRT .F                68:   MAXIMUM RECORDED TEMPERATURE
 LUN .               2958:   LOGGING UNIT NUMBER
 LUL .             CASPER:   LOGGING UNIT LOCATION
 ENGI.           REYNOLDS:   RECORDING ENGINEER
 WITN.         HARRINGTON:   WITNESSED BY
 CLNT.            A2DTECH:   CLIENT CODE
 ORIG.           5" PRINT:   ORIGIN OF DATA
 UWI .       490251057200:   UNIQUE WELL ID
 DICO. A2D Technologies, Inc.:   DIGITIZING COMPANY
~OTHER INFORMATION
~A   DEPT      ILD         SN        SPR       CALD       CORR       DPHI         GRD      RHOB   
# ...
  390.5000     5.5237     6.0801   -69.8777     7.9637     0.0517     0.1215   111.3027     2.4651
  391.0000     5.4074     6.1209   -69.8894     7.9619     0.0574     0.1236   112.6403     2.4590
  391.5000     5.2951     6.0760   -69.9011     7.9633     0.0617     0.1237   114.4311     2.4545
  392.0000     5.1845     5.9471   -69.9128     7.9745     0.0661     0.1228   116.6751     2.4545
  392.5000     5.1116     5.6251   -69.7724     7.9725     0.0704     0.1252   118.0128     2.4529
  393.0000     5.0750     5.3939   -69.6328     7.9864     0.0793     0.1354   117.8398     2.4469
  393.5000     5.0736     5.1008   -69.4725     7.9849     0.0866     0.1418   116.0729     2.4363
  394.0000     5.0719     4.8911   -69.2010     7.9833     0.0925     0.1337   112.0504     2.4176
  394.5000     5.1062     4.8221   -68.9092     7.9816     0.0923     0.1259   106.5905     2.4263
  395.0000     5.1763     4.8879   -68.7692     7.9652     0.0875     0.1223   102.3390     2.4467
  395.5000     5.3207     4.9905   -68.7839     7.9572     0.0802     0.1205   101.8694     2.4452
  396.0000     5.5452     5.1631   -68.7956     7.9471     0.0771     0.1203   105.3164     2.4542
  396.5000     5.7797     5.4183   -68.8073     7.9454     0.0740     0.1170   113.4516     2.4594
  397.0000     6.0761     5.7656   -68.9712     7.9439     0.0709     0.1152   116.7530     2.4631
  397.5000     6.4552     6.0928   -68.9854     7.9425     0.0692     0.1146   112.7982     2.4646
  398.0000     6.6815     6.4833   -68.8425     7.9410     0.0676     0.1143   107.7914     2.4630
  398.5000     6.8679     6.8038   -68.8571     7.9395     0.0645     0.1144   105.3526     2.4622
  399.0000     6.9621     7.0930   -68.8688     7.9228     0.0674     0.1138   105.6329     2.4645
  399.5000     7.0088     7.3381   -68.8805     7.9210     0.0732     0.1123   106.6684     2.4711
  400.0000     7.0069     7.5422   -68.8923     7.9197     0.0791     0.1111   111.9324     2.4666
  400.5000     7.0534     7.4343   -68.7152     7.9037     0.0850     0.1096   112.8256     2.4722
  401.0000     7.0504     7.3789   -68.5381     7.8833     0.0878     0.1067   112.2082     2.4845
  401.5000     7.0484     7.3238   -68.3376     7.8716     0.0877     0.1049   110.1818     2.4949
  402.0000     7.0459     7.2684   -68.3537     7.8556     0.0816     0.1046   108.5565     2.4987
  402.5000     7.0433     7.2148   -68.3697     7.8548     0.0770     0.1058   111.5644     2.4881
  403.0000     7.0410     7.1605   -68.3858     7.8387     0.0709     0.1070   108.8289     2.4850
  403.5000     6.9863     7.1072   -68.4021     7.8227     0.0663     0.1074   105.6435     2.4842
  404.0000     6.8429     7.0055   -68.4220     7.8067     0.0617     0.1074   103.2134     2.4834
  404.5000     6.7933     6.9533   -68.4381     7.8057     0.0571     0.1074   107.5541     2.4833
  405.0000     6.6509     6.9014   -68.4542     7.8048     0.0525     0.1077   116.3269     2.4795
  405.5000     6.4665     6.7547   -68.4716     7.8038     0.0509     0.1090   117.5255     2.4727
  406.0000     6.2872     6.6120   -68.4877     7.8029     0.0478     0.1121   117.2069     2.4457
  406.5000     6.1129     6.4723   -68.5038     7.8020     0.0447     0.1201   115.3810     2.4441
  407.0000     5.9373     6.2917   -68.5190     7.8012     0.0356     0.1228   110.5340     2.4576
  407.5000     5.7382     6.1587   -68.5360     7.7852     0.0266     0.1256   109.9166     2.4614
  408.0000     5.5404     5.9858   -68.5524     7.7843     0.0219     0.1358   109.7523     2.4485
  408.5000     5.4244     5.8069   -68.4164     7.7832     0.0221     0.1382   109.5876     2.4376
  409.0000     5.4226     5.5787   -68.2808     7.7823     0.0322     0.1370   108.6653     2.4221
  409.5000     5.4586     5.5372   -68.1491     7.7814     0.0351     0.1329   106.0842     2.4280
  410.0000     5.6104     5.6507   -68.0095     7.7878     0.0289     0.1359   108.4879     2.4392
  410.5000     5.8875     5.8471   -68.0296     7.7950     0.0199     0.1368   110.5895     2.4399
  411.0000     6.1360     6.2206   -67.8938     7.7939     0.0138     0.1350   109.8211     2.4316
  411.5000     6.4396     6.6697   -67.9105     7.7930     0.0137     0.1347   107.0888     2.4241
  412.0000     6.7114     7.1383   -67.9301     7.7921     0.0196     0.1342   111.0752     2.4248
  412.5000     6.8981     7.3865   -67.7904     7.7912     0.0269     0.1276   115.6469     2.4302
  413.0000     6.9923     7.5388   -67.8119     7.7902     0.0282     0.1222   117.3212     2.4434
  413.5000     7.0387     7.6933   -67.8280     7.7893     0.0266     0.1186   114.2836     2.4523
  414.0000     7.0854     7.7957   -67.9958     7.7909     0.0250     0.1186   110.9472     2.4598
  414.5000     7.0824     7.8458   -67.8602     7.8085     0.0249     0.1190   108.5170     2.4575
  415.0000     7.0800     7.8415   -67.8756     7.8169     0.0218     0.1187   106.5423     2.4537
  415.5000     7.1276     7.8374   -67.8923     7.8312     0.0202     0.1187   109.6981     2.4476
  416.0000     7.1246     7.8939   -67.9090     7.8454     0.0216     0.1187   111.9507     2.4513
  416.5000     7.1192     7.9379   -67.9285     7.8618     0.0214     0.1185   112.2633     2.4550
  417.0000     7.0700     7.9335   -67.9446     7.8739     0.0213     0.1182   109.8096     2.4549
  417.5000     7.0676     7.9851   -67.9607     7.8879     0.0182     0.1182   110.2496     2.4534
  418.0000     7.0652     7.9246   -67.9768     7.8871     0.0151     0.1185   108.5715     2.4533
  418.5000     7.0629     7.8903   -67.9929     7.9015     0.0120     0.1203   105.9936     2.4563
  419.0000     7.0605     7.8059   -68.0091     7.9004     0.0074     0.1243   108.8483     2.4600
  419.5000     7.0582     7.7478   -68.0291     7.8995     0.0058     0.1258   111.7052     2.4539
  420.0000     7.0557     7.6901   -68.0452     7.8985     0.0087     0.1270   114.7132     2.4479
  420.5000     7.0528     7.6328   -68.0613     7.8977     0.0115     0.1277   111.3735     2.4441
  421.0000     7.0505     7.6287   -68.0773     7.8968     0.0114     0.1280   113.0219     2.4440
  421.5000     7.0481     7.6246   -68.0926     7.8958     0.0113     0.1256   117.8426     2.4424
  422.0000     7.0955     7.5677   -68.1095     7.8950     0.0127     0.1232   118.5880     2.4431
  422.5000     7.0925     7.6165   -68.1259     7.8941     0.0125     0.1220   115.2483     2.4438
  423.0000     7.0901     7.6114   -68.2975     7.8932     0.0109     0.1221   115.6888     2.4460
  423.5000     7.0872     7.6073   -68.3136     7.8923     0.0093     0.1239   114.6177     2.4490
  424.0000     7.0848     7.5506   -68.4814     7.8912     0.0077     0.1269   111.2084     2.4519
  424.5000     7.0334     7.5466   -68.4975     7.8903     0.0076     0.1281   112.9264     2.4526
  425.0000     6.8861     7.4386   -68.5136     7.8895     0.0104     0.1291   113.5174     2.4443
  425.5000     6.5571     7.3755   -68.3778     7.8887     0.0165     0.1300   115.4680     2.4435
  426.0000     6.1577     7.2262   -68.3945     7.9028     0.0206     0.1315   116.5155     2.4404
  426.5000     5.9454     7.0246   -68.2583     7.9171     0.0190     0.1340   118.4628     2.4374
  427.0000     5.9019     6.7813   -68.2785     7.9162     0.0234     0.1373   122.8303     2.4358
  427.5000     5.8590     6.3670   -68.2945     7.9153     0.0352     0.1370   123.1244     2.4313
  428.0000     5.8571     6.0618   -68.3106     7.9144     0.0441     0.1346   118.6688     2.4200
  428.5000     5.8146     5.8519   -68.3267     7.9287     0.0454     0.1307   117.1983     2.4237
  429.0000     5.7724     5.8083   -68.3429     7.9219     0.0483     0.1271   116.2788     2.4316
  429.5000     5.6909     5.9273   -68.3629     7.9116     0.0527     0.1239   114.1508     2.4400
  430.0000     5.6491     6.1875   -68.3790     7.9107     0.0540     0.1224   111.1165     2.4490
  430.5000     5.5308     6.3899   -68.3951     7.9098     0.0524     0.1256   110.3480     2.4549
