~VERSION INFORMATION
 VERS.                2.0:   CWLS LOG ASCII STANDARD - VERSION 2.0
 WRAP.                 NO:   ONE LINE PER DEPTH STEP
~WELL INFORMATION
#MNEM.UNIT      DATA TYPE    INFORMATION
#----------   ------------   ------------------------------
 STRT.F           35.0000:   START DEPTH
 STOP.F          977.0000:   STOP DEPTH
 STEP.F            0.5000:   STEP LENGTH
 NULL.          -999.2500:   NO VALUE
 COMP. FENIX & SCISSON INC:   COMPANY
 WELL.  NPR-3 "SX" #52-14:   WELL
 FLD .             TEAPOT:   FIELD
 LOC .      S14 T38N R78W:   LOCATION
 CNTY.            NATRONA:   COUNTY
 STAT.            WYOMING:   STATE
 CTRY. UNITED STATES OF AMERICA:   COUNTRY
 SRVC.            Unknown:   SERVICE COMPANY
 DATE.        13-MAR-1978:   LOGDATE
 API .       490251059900:   API NUMBER
~CURVE INFORMATION
#MNEM.UNIT       API CODE    CURVE DESCRIPTION
#----------   ------------   ------------------------------
 DEPT.F                  :   
 CALD.IN     45 280 60 00:   CALIPER FROM DENSITY LOG
 GRD .GAPI   45 310 01 00:   GAMMA RAY FROM DENSITY LOG
 CORR.G/C3   45 356 01 00:   DENSITY CORRECTION
 RHOB.G/C3   45 350 01 00:   BULK DENSITY
 DPHI.DEC    45 890 12 00:   DENSITY POROSITY SANDSTONE
 SPR .MV     07 010 01 00:   SPONTANEOUS POTENTIAL FROM RES. LOG
 ILD .OHMM   07 120 46 00:   INDUCTION LOG DEEP
 SN  .OHMM   07 040 16 00:   SHORT NORMAL 16'
~PARAMETER INFORMATION
#MNEM.UNIT          VALUE    DESCRIPTION
#----------   ------------   ------------------------------
 PD  .                 GL:   PERMANENT DATUM
 EPD .F              5223:   ELEVATION PERMANENT DATUM
 LMF .                 KB:   LOG MEASURED FROM
 DAPD.F                 4:   FEET ABOVE PERMANENT DATUM
 DMF .                 KB:   DRILLING MEASURED FROM
 EKB .F              5227:   KELLING BUSHING
 EGL .F              5223:   GROUND LEVEL
 DATE.            3-13-78:   RUN DATE
 RUN .                  1:   RUN NUMBER
 DD  .F               975:   DEPTH DRILLER
 DL  .F               977:   DEPTH LOGGER
 BLI .F               971:   BOTTOM LOG INTERVAL
 TLI .F                50:   TOP LOG INTERVAL
 CS  .IN            8.625:   CASING SIZE
 CBD .F                40:   CASING BOTTOM DRILLER
 CBL .F                40:   CASING BOTTOM LOGGER
 BS  .IN            7.875:   BIT SIZE
 BSD .F               975:   BIT SIZE AT DEPTH
 DFT .                KCL:   DRILLING FLUID TYPE
 DFD .                8.6:   DRILLING FLUID DENSITY
 DFV .                 33:   DRILLING FLUID VISCOSITY
 DFPH.               10.5:   DRILLING FLUID PH
 DFL .               11.6:   DRILLING FLUID LOSS
 MSS .          FLOW LINE:   MUD SAMPLE SOURCE
 RMS .OHMM            .34:   RESISTIVITY MUD SAMPLE
 MST .F                60:   MUD SAMPLE TEMPERATURE
 RMF .OHMM            .36:   RESISTIVITY MUD FILTRATE SAMPLE
 MFST.F                62:   MUD FILTRATE SAMPLE TEMPERATURE
 RMC .OHMM            .75:   RESISTIVITY MUD CAKE
 MCST.F                59:   MUD CAKE SAMPLE TEMPERATURE
 MFSS.               MEAS:   MUD FILTRATE SAMPLE SOURCE
 MCSS.               MEAS:   MUD CAKE SAMPLE SOURCE
 RMB .OHMM            .27:   RESISTIVITY MUD AT BHT
 BHT .F                75:   BOTTOM HOLE TEMPERATURE
 TCS .HRS               4:   TIME CURCULATED STOPPED
 MRT .F                75:   MAXIMUM RECORDED TEMPERATURE
 LUN .               2958:   LOGGING UNIT NUMBER
 LUL .               CASP:   LOGGING UNIT LOCATION
 ENGI.             MILLER:   RECORDING ENGINEER
 WITN.            RHOADES:   WITNESSED BY
 CLNT.            A2DTECH:   CLIENT CODE
 ORIG.       2", 5" PRINT:   ORIGIN OF DATA
 UWI .       490251059900:   UNIQUE WELL ID
 DICO. A2D Technologies, Inc.:   DIGITIZING COMPANY
~OTHER INFORMATION
~A   DEPT     CALD         GRD      CORR       RHOB       DPHI        SPR        ILD         SN   
# ...
  521.0000     7.8524    91.7925     0.0763     2.4813     0.1020   -51.8681     9.3158    10.3795
  521.5000     7.8905    93.0014     0.0817     2.4721     0.0956   -52.0000     9.3285    10.3795
  522.0000     7.9457    93.0917     0.1067     2.4681     0.0872   -52.1322     9.3411    10.3795
  522.5000     8.0379    93.2078     0.1089     2.5098     0.0927   -52.2648     9.3538    10.3794
  523.0000     8.1290    94.0030     0.0526     2.4885     0.1009   -52.3972     9.3665    10.3795
  523.5000     8.1978    95.2246     0.0315     2.4628     0.1076   -52.5296     9.3765    10.3399
  524.0000     8.1956    92.4157     0.0335     2.4647     0.1006   -52.6175     9.2968    10.2751
  524.5000     8.1947    89.6201     0.0357     2.4737     0.0964   -52.6629     9.2182    10.2107
  525.0000     8.1939    92.6904     0.0175     2.4815     0.1047   -52.7083     9.1403    10.1468
  525.5000     8.1931    95.9312     0.0046     2.4600     0.1097   -52.7534     9.0629    10.0921
  526.0000     8.1923    95.7842     0.0062     2.4576     0.1100   -52.7986     8.9863    10.0735
  526.5000     8.1914    94.4850     0.0078     2.4609     0.1061   -52.8438     8.9103    10.0549
  527.0000     8.1906    93.5961     0.0093     2.4670     0.1022   -52.8890     8.8350    10.0364
  527.5000     8.1898    93.9998     0.0108     2.4704     0.0983   -52.9341     8.7846    10.0179
  528.0000     8.1890    94.5856     0.0124     2.4736     0.0956   -52.9793     8.7593     9.9995
  528.5000     8.1882    94.3102     0.0139     2.4798     0.0952   -53.0245     8.7341     9.9810
  529.0000     8.1874    94.0194     0.0139     2.4846     0.0916   -53.0697     8.7090     9.9627
  529.5000     8.1866    94.4183     0.0130     2.4742     0.0964   -53.1149     8.6839     9.9443
  530.0000     8.1857    95.6723     0.0121     2.4801     0.0952   -53.1600     8.6589     9.9260
  530.5000     8.1849   100.3313     0.0111     2.4763     0.1052   -53.2052     8.6340     9.9077
  531.0000     8.1841   102.9953     0.0102     2.4699     0.0972   -53.2504     8.6092     9.8894
  531.5000     8.1833    99.1277     0.0093     2.4769     0.0982   -53.2956     8.5844     9.8712
  532.0000     8.1825    94.9676     0.0083     2.4726     0.0998   -53.3408     8.5597     9.8530
  532.5000     8.1817    95.5060     0.0156     2.4674     0.0919   -53.3848     8.5496     9.8349
  533.0000     8.1808    94.0749     0.0257     2.4855     0.0863   -53.4293     8.5575     9.8198
  533.5000     8.1800    93.9542     0.0271     2.5004     0.0835   -53.4718     8.5637     9.8772
  534.0000     8.1792    97.7662     0.0275     2.4979     0.0860   -53.5146     8.5699     9.9265
  534.5000     8.1784    95.4138     0.0281     2.4918     0.0805   -53.5574     8.5761     9.9761
  535.0000     8.1776    92.4255     0.0284     2.5015     0.0800   -53.6001     8.5823    10.0260
  535.5000     8.1768    92.8136     0.0134     2.5105     0.0900   -53.6429     8.5885    10.0762
  536.0000     8.1658    93.9560    -0.0034     2.4950     0.0978   -53.6856     8.5947    10.1268
  536.5000     8.1450    94.3126    -0.0128     2.4739     0.1056   -53.7284     8.6009    10.1895
  537.0000     8.1239    95.7910    -0.0080     2.4593     0.1134   -53.7711     8.6071    10.1453
  537.5000     8.1163    97.5710    -0.0035     2.4518     0.1130   -53.8139     8.6135    10.0783
  538.0000     8.1162    97.8468     0.0010     2.4511     0.1116   -53.8566     8.6194     9.9628
  538.5000     8.1162    96.4167     0.0057     2.4572     0.1079   -53.8994     8.6285     9.6641
  539.0000     8.1162    94.4120     0.0061     2.4639     0.1044   -53.9421     8.4961     9.3435
  539.5000     8.1162    93.6568     0.0055     2.4692     0.1053   -53.9849     8.2585     9.2483
  540.0000     8.1162    95.8723     0.0048     2.4638     0.1092   -54.0276     8.0275     9.1667
  540.5000     8.1162   101.0379    -0.0005     2.4563     0.1134   -54.0703     7.8029     9.0967
  541.0000     8.1163   105.5026    -0.0137     2.4404     0.1160   -54.1128     7.5847     9.0061
  541.5000     8.1162   102.8784    -0.0059     2.4285     0.1158   -54.1558     7.4267     8.7852
  542.0000     8.1128    98.0024     0.0020     2.4477     0.1160   -54.2289     7.3068     8.5696
  542.5000     8.0964    97.0635     0.0101     2.4527     0.1092   -54.4543     7.1889     8.4246
  543.0000     8.0961    99.6925     0.0128     2.4663     0.1028   -54.6803     6.9768     8.3155
  543.5000     8.0962    98.2775     0.0152     2.4715     0.1028   -54.9067     7.0000     8.3387
  544.0000     8.0962    96.4395     0.0176     2.4681     0.1033   -55.1433     7.0448     8.3708
  544.5000     8.0962    95.0662     0.0214     2.4738     0.0972   -54.9810     7.0877     8.4679
  545.0000     8.0962    95.4728     0.0258     2.4813     0.0997   -54.7070     7.1307     8.7053
  545.5000     8.0966    94.6314     0.0299     2.4701     0.1036   -54.4318     7.2362     8.9495
  546.0000     8.0949    90.5770     0.0525     2.4641     0.0985   -54.2682     7.3521     9.1202
  546.5000     8.0322    87.1687     0.0815     2.4775     0.0893   -54.7548     7.5168     9.1202
  547.0000     7.9652    86.9806     0.0935     2.4831     0.0860   -53.6160     7.6841     9.1202
  547.5000     7.9557    87.2665     0.0954     2.5024     0.0942   -53.0022     7.9401     9.1202
  548.0000     7.9534    89.6065     0.1006     2.4880     0.1009   -52.9958     7.8895     9.1202
  548.5000     7.9502    92.7355     0.1109     2.4826     0.0787   -52.9927     7.7909     9.1202
  549.0000     7.9468    94.9946     0.0997     2.5081     0.0863   -53.0469     7.6936     9.1202
  549.5000     7.9434    93.7110     0.0807     2.4773     0.0940   -53.5392     7.5974     9.1202
  550.0000     7.9401    91.6104     0.0833     2.4675     0.1018   -53.3907     7.5120     9.1202
  550.5000     7.9365    90.3545     0.0855     2.4789     0.1057   -52.9854     7.5227     9.1202
  551.0000     7.9411    90.2846     0.0769     2.4813     0.1033   -52.9506     7.5346     9.1202
  551.5000     7.9480    91.0936     0.0687     2.4643     0.1003   -52.9122     7.5465     9.1202
  552.0000     7.9546    92.9867     0.0659     2.4678     0.0980   -52.8759     7.5585     9.1202
  552.5000     7.9679    95.5059     0.0676     2.4786     0.1008   -52.8393     7.5705     9.1202
  553.0000     7.9816    95.7214     0.0738     2.4704     0.1008   -52.8089     7.5817     9.1200
  553.5000     7.9967    93.0568     0.0749     2.4937     0.0962   -52.9972     7.6838     9.1203
  554.0000     8.0469    86.9769     0.0403     2.5071     0.0914   -53.8342     7.7803     9.1187
  554.5000     8.0996    85.8686     0.0308     2.4907     0.0889   -54.5709     7.8783     9.2513
  555.0000     8.1537    89.8969     0.0371     2.4916     0.0876   -54.4009     7.9775     9.5500
  555.5000     8.1575    90.8739     0.0428     2.5042     0.0876   -54.8174     8.0778     9.9109
  556.0000     8.1579    91.5623     0.0282     2.4992     0.0952   -55.1985     8.2384     9.8731
  556.5000     8.1586    93.5495     0.0077     2.4854     0.1032   -54.5568     8.2144     9.8279
  557.0000     8.1594    93.5063     0.0066     2.4718     0.1024   -53.9824     8.1585     9.5361
  557.5000     8.1602    94.3712     0.0065     2.4692     0.1008   -54.1637     8.1026     9.2049
  558.0000     8.1610    96.3164     0.0065     2.4729     0.1076   -54.3311     8.0470     9.1377
  558.5000     8.1618    95.0907     0.0065     2.4665     0.1067   -54.4977     7.8859     9.0717
  559.0000     8.1626    93.6266     0.0065     2.4618     0.1041   -54.6675     7.5754     9.0062
  559.5000     8.1634    93.7542     0.0065     2.4673     0.1039   -54.7677     7.5077     8.9412
  560.0000     8.1642    94.1819     0.0065     2.4716     0.1052   -53.9413     7.5006     8.8765
  560.5000     8.1650    94.6162     0.0065     2.4687     0.1050   -53.8837     7.4934     8.8124
  561.0000     8.1658    95.0414     0.0060     2.4650     0.1058   -53.9866     7.4862     8.7487
