~VERSION INFORMATION
 VERS.                2.0:   CWLS LOG ASCII STANDARD - VERSION 2.0
 WRAP.                 NO:   ONE LINE PER DEPTH STEP
~WELL INFORMATION
#MNEM.UNIT      DATA TYPE    INFORMATION
#----------   ------------   ------------------------------
 STRT.F            0.0000:   START DEPTH
 STOP.F          962.0000:   STOP DEPTH
 STEP.F            0.5000:   STEP LENGTH
 NULL.          -999.2500:   NO VALUE
 COMP. FENIX & SCISSON INC:   COMPANY
 WELL.      NPR #3 #51-14:   WELL
 FLD .             TEAPOT:   FIELD
 LOC .      S14 T38N R78W:   LOCATION
 CNTY.            NATRONA:   COUNTY
 STAT.            WYOMING:   STATE
 CTRY. UNITED STATES OF AMERICA:   COUNTRY
 SRVC.              Welex:   SERVICE COMPANY
 DATE.        03-MAR-1977:   LOGDATE
 API .       490251029700:   API NUMBER
~CURVE INFORMATION
#MNEM.UNIT       API CODE    CURVE DESCRIPTION
#----------   ------------   ------------------------------
 DEPT.F                  :   
 SGRD.OHMM   07 220 05 00:   SHALLOW RESISTIVITY
 ILM .OHMM   07 120 44 00:   INDUCTION LOG MEDIUM
 ILD .OHMM   07 120 46 00:   INDUCTION LOG DEEP
 SPR .MV     07 010 01 00:   SPONTANEOUS POTENTIAL
 DPHI.DEC    45 890 12 00:   DENSITY POROSITY SANDSTONE
 RHOB.G/C3   45 350 01 00:   BULK DENSITY
 CORR.G/C3   45 356 01 00:   DENSITY CORRECTION
 CALD.IN     45 280 60 00:   CALIPER
 GRD .GAPI   45 310 01 00:   GAMMA RAY FROM DENSITY LOG
~PARAMETER INFORMATION
#MNEM.UNIT          VALUE    DESCRIPTION
#----------   ------------   ------------------------------
 PD  .                 GL:   PERMANENT DATUM
 EPD .F            5221.8:   ELEVATION PERMANENT DATUM
 LMF .                 GL:   LOG MEASURED FROM
 DMF .                 GL:   DRILLING MEASURED FROM
 EGL .F            5221.8:   GROUND LEVEL
 DATE.             3-3-77:   RUN DATE
 RUN .                  1:   RUN NUMBER
 DD  .F               967:   DEPTH DRILLER
 DL  .F               964:   DEPTH LOGGER
 BLI .F               962:   BOTTOM LOG INTERVAL
 TLI .F                42:   TOP LOG INTERVAL
 CS  .IN            8.625:   CASING SIZE
 CBD .F                42:   CASING BOTTOM DRILLER
 CBL .F                42:   CASING BOTTOM LOGGER
 BS  .IN            7.875:   BIT SIZE
 BSD .F               967:   BIT SIZE AT DEPTH
 DFT .           CHEM-GEL:   DRILLING FLUID TYPE
 DFD .                8.7:   DRILLING FLUID DENSITY
 DFV .                 33:   DRILLING FLUID VISCOSITY
 DFPH.                7.2:   DRILLING FLUID PH
 DFL .                 10:   DRILLING FLUID LOSS
 MSS .          FLOW LINE:   MUD SAMPLE SOURCE
 RMS .OHMM           .422:   RESISTIVITY MUD SAMPLE
 MST .F                56:   MUD SAMPLE TEMPERATURE
 RMF .OHMM           .372:   RESISTIVITY MUD FILTRATE SAMPLE
 MFST.F                56:   MUD FILTRATE SAMPLE TEMPERATURE
 RMC .OHMM           .484:   RESISTIVITY MUD CAKE
 MCST.F                56:   MUD CAKE SAMPLE TEMPERATURE
 MFSS.           MEASURED:   MUD FILTRATE SAMPLE SOURCE
 MCSS.           MEASURED:   MUD CAKE SAMPLE SOURCE
 RMB .OHMM           .284:   RESISTIVITY MUD AT BHT
 BHT .F                83:   BOTTOM HOLE TEMPERATURE
 TCS .HRS               2:   TIME CURCULATED STOPPED
 MRT .F                83:   MAXIMUM RECORDED TEMPERATURE
 LUN .               8611:   LOGGING UNIT NUMBER
 LUL .           GILLETTE:   LOGGING UNIT LOCATION
 ENGI.          D. LAWSON:   RECORDING ENGINEER
 WITN.         STUEBINGER:   WITNESSED BY
 CLNT.            A2DTECH:   CLIENT CODE
 ORIG.        2" 5" PRINT:   ORIGIN OF DATA
 UWI .       490251029700:   UNIQUE WELL ID
 DICO. A2D Technologies, Inc.:   DIGITIZING COMPANY
~OTHER INFORMATION
~A    DEPT    SGRD        ILM        ILD        SPR       DPHI       RHOB       CORR       CALD        GRD   
# ...
  255.5000     5.0061     4.1512     3.1233   -44.8935     0.1675     2.3697     0.0617     8.3186   108.2896
  256.0000     4.0575     3.7998     2.9722   -44.7803     0.1873     2.3298     0.0541     8.3293   106.8696
  256.5000     3.3989     3.5275     2.8817   -44.6674     0.1943     2.3372     0.0465     8.3200   105.4376
  257.0000     4.0879     3.8979     2.9995   -44.5546     0.1582     2.3822     0.0504     8.2894   104.7833
  257.5000     5.1855     4.2492     3.0900   -44.4417     0.1306     2.4427     0.0560     8.2643   107.4952
  258.0000     7.0944     4.6013     3.2049   -44.3288     0.1164     2.4672     0.0561     8.2393   111.1270
  258.5000     6.8233     4.8186     3.3867   -44.2160     0.1202     2.4538     0.0540     8.2141   114.2780
  259.0000     6.3267     4.9040     3.5789   -44.1031     0.1231     2.4377     0.0518     8.1889   116.0049
  259.5000     6.0610     4.9970     3.7819   -43.9902     0.1253     2.4251     0.0524     8.1636   115.7251
  260.0000     6.5793     5.0930     3.9971   -43.8774     0.1224     2.4393     0.0533     8.1383   115.2798
  260.5000     6.9253     5.1908     4.1376   -43.7644     0.1195     2.4533     0.0542     8.1376   114.8144
  261.0000     7.0137     5.2905     4.1744   -43.6508     0.1177     2.4651     0.0551     8.1384   113.0322
  261.5000     6.8916     5.3921     4.1982   -43.5350     0.1196     2.4594     0.0560     8.1391   111.4091
  262.0000     6.7098     5.4792     4.0966   -43.6463     0.1222     2.4535     0.0569     8.1397   112.2282
  262.5000     6.5333     5.4792     4.0210   -43.7842     0.1231     2.4490     0.0578     8.1404   113.0043
  263.0000     6.3615     5.3238     3.9466   -43.9222     0.1222     2.4506     0.0586     8.1410   110.2793
  263.5000     6.1943     5.2141     3.8754   -44.0595     0.1214     2.4522     0.0595     8.1417   107.4054
  264.0000     6.0563     5.0770     3.7386   -44.1968     0.1205     2.4538     0.0620     8.1423   105.7764
  264.5000     5.9248     4.8756     3.6005   -44.3341     0.1223     2.4469     0.0648     8.1430   106.5749
  265.0000     5.7642     4.6824     3.4669   -44.4715     0.1273     2.4387     0.0651     8.1436   107.6615
  265.5000     5.5549     4.4968     3.3382   -44.6088     0.1323     2.4305     0.0641     8.1443   109.9339
  266.0000     5.3531     4.3186     3.2143   -44.7463     0.1369     2.4218     0.0613     8.1449   111.7511
  266.5000     5.1587     4.1474     3.0951   -44.8853     0.1487     2.4019     0.0562     8.1456   112.5479
  267.0000     4.7518     3.9825     2.9791   -45.0207     0.1600     2.3853     0.0508     8.1462   112.5237
  267.5000     4.3532     3.8253     2.9081   -45.0091     0.1550     2.3988     0.0528     8.1469   111.5568
  268.0000     3.9880     3.7602     2.9762   -44.5201     0.1407     2.4208     0.0572     8.1475   109.1695
  268.5000     3.7258     3.9195     3.0473   -44.0518     0.1252     2.4425     0.0617     8.1482   106.5222
  269.0000     4.6601     4.1432     3.1890   -43.5826     0.1123     2.4567     0.0628     8.1488   106.1912
  269.5000     5.9548     4.3796     3.3373   -43.1299     0.1139     2.4553     0.0612     8.1495   107.1007
  270.0000     7.0209     4.6295     3.4925   -42.8994     0.1155     2.4542     0.0596     8.1501   109.2278
  270.5000     7.0928     4.8937     3.6549   -42.6826     0.1168     2.4531     0.0580     8.1508   111.3006
  271.0000     7.1511     5.0660     3.8249   -42.5275     0.1164     2.4529     0.0586     8.1514   112.3605
  271.5000     7.0609     5.2141     4.0027   -42.5302     0.1160     2.4529     0.0597     8.1521   112.3475
  272.0000     6.9583     5.3666     4.1888   -42.5290     0.1156     2.4532     0.0608     8.1527   111.3927
  272.5000     6.8301     5.5236     4.3827   -42.5297     0.1153     2.4542     0.0619     8.1534   110.1136
  273.0000     6.9981     5.6853     4.4791   -42.5773     0.1149     2.4551     0.0631     8.1540   110.4730
  273.5000     7.2836     5.8524     4.4787   -42.7991     0.1194     2.4553     0.0622     8.1547   111.1088
  274.0000     7.2111     5.9513     4.4039   -43.0136     0.1247     2.4430     0.0591     8.1553   111.7547
  274.5000     7.1214     5.8465     4.2623   -43.2286     0.1300     2.4315     0.0559     8.1560   112.2698
  275.0000     7.0328     5.6193     4.0520   -43.4416     0.1353     2.4235     0.0539     8.1566   111.3496
  275.5000     6.9278     5.3779     3.8542   -43.7877     0.1406     2.4159     0.0552     8.1580   110.5529
  276.0000     6.4094     5.0088     3.6657   -44.2104     0.1459     2.4083     0.0564     8.1613   112.2949
  276.5000     5.7122     4.6632     3.4864   -44.6302     0.1513     2.4001     0.0576     8.1645   115.2151
  277.0000     5.0890     4.3421     3.3159   -44.9655     0.1566     2.3913     0.0534     8.1678   116.9036
  277.5000     4.5413     4.0431     3.1538   -45.0988     0.1642     2.3796     0.0486     8.1710   118.5978
  278.0000     3.9567     3.7949     3.0151   -44.9068     0.1552     2.3951     0.0486     8.1743   117.3336
  278.5000     3.6143     3.7932     3.0032   -44.6324     0.1392     2.4174     0.0498     8.1775   114.6010
  279.0000     4.4118     3.9607     2.9889   -44.3568     0.1232     2.4400     0.0511     8.1808   112.0428
  279.5000     6.0014     4.1118     3.0769   -44.0819     0.1172     2.4520     0.0523     8.1840   112.9845
  280.0000     6.0616     4.2685     3.1913   -43.8057     0.1177     2.4467     0.0535     8.1873   114.0784
  280.5000     5.9640     4.4310     3.3100   -43.5342     0.1168     2.4460     0.0548     8.1905   114.5783
  281.0000     5.8969     4.5997     3.4330   -43.4855     0.1137     2.4569     0.0560     8.1938   114.2219
  281.5000     6.0388     4.7749     3.5607   -43.4474     0.1107     2.4643     0.0573     8.1968   114.7759
  282.0000     6.1672     4.9567     3.6930   -43.4079     0.1107     2.4608     0.0560     8.1968   115.3754
  282.5000     6.3023     5.1381     3.8304   -43.3670     0.1122     2.4574     0.0535     8.1968   114.6903
  283.0000     6.6124     5.2766     3.9721   -43.3312     0.1138     2.4541     0.0509     8.1968   114.0210
  283.5000     6.8418     5.4135     4.1084   -43.5245     0.1154     2.4508     0.0496     8.1968   112.6237
  284.0000     6.8633     5.4792     4.2383   -43.7363     0.1164     2.4482     0.0496     8.1968   110.4430
  284.5000     6.8844     5.3715     4.2209   -43.9472     0.1158     2.4522     0.0504     8.1968   108.5966
  285.0000     6.8931     5.2922     4.1998   -44.1579     0.1151     2.4561     0.0565     8.1968   107.6097
  285.5000     6.7221     5.2141     4.1789   -44.3686     0.1145     2.4566     0.0621     8.1968   107.9591
  286.0000     6.3492     5.1373     4.1589   -44.5791     0.1149     2.4544     0.0636     8.1968   108.4096
  286.5000     5.9969     5.0607     4.0149   -44.7897     0.1156     2.4553     0.0653     8.1968   108.8759
  287.0000     5.5297     4.9518     3.8847   -45.0019     0.1144     2.4622     0.0694     8.1968   108.1461
  287.5000     5.6193     4.9539     3.7594   -45.2501     0.1130     2.4687     0.0740     8.1968   107.2380
  288.0000     5.7774     4.7277     3.6382   -45.5509     0.1210     2.4620     0.0767     8.1968   108.7300
  288.5000     5.8969     4.5906     3.5209   -45.8510     0.1311     2.4346     0.0702     8.1969   110.3126
  289.0000     5.1669     4.4574     3.4074   -46.1518     0.1413     2.4110     0.0640     8.1968   111.2090
  289.5000     4.3745     4.3538     3.2976   -46.4575     0.1486     2.4080     0.0577     8.1891   109.4439
  290.0000     3.9368     4.2757     3.1913   -46.5553     0.1378     2.4279     0.0571     8.1521   107.3632
  290.5000     4.3955     4.1989     3.0884   -46.6069     0.1275     2.4566     0.0593     8.1165   109.8274
  291.0000     6.6387     4.1235     2.9888   -46.6578     0.1201     2.4432     0.0615     8.1161   113.7007
  291.5000     6.0224     4.0412     2.8925   -46.7093     0.1344     2.4224     0.0637     8.1557   116.5845
