~VERSION INFORMATION
 VERS.                2.0:   CWLS LOG ASCII STANDARD - VERSION 2.0
 WRAP.                 NO:   ONE LINE PER DEPTH STEP
~WELL INFORMATION
#MNEM.UNIT      DATA TYPE    INFORMATION
#----------   ------------   ------------------------------
 STRT.F          250.0000:   START DEPTH
 STOP.F         1798.0000:   STOP DEPTH
 STEP.F            0.5000:   STEP LENGTH
 NULL.          -999.2500:   NO VALUE
 COMP. BROWN JOHN E&C INC:   COMPANY
 WELL. NPR 3 STX-10 #57-10:   WELL
 FLD .  TEAPOT DOME NPR 3:   FIELD
 LOC .      S10 T38N R78W:   LOCATION
 CNTY.            NATRONA:   COUNTY
 STAT.            WYOMING:   STATE
 CTRY. UNITED STATES OF AMERICA:   COUNTRY
 SRVC.           BIRDWELL:   SERVICE COMPANY
 DATE.        24-FEB-1979:   LOGDATE
 API .       490251096900:   API NUMBER
~CURVE INFORMATION
#MNEM.UNIT       API CODE    CURVE DESCRIPTION
#----------   ------------   ------------------------------
 DEPT.F                  :   
 GRD .GAPI   45 310 01 00:   GAMMA RAY FROM DENSITY LOG
 CALD.IN     45 280 60 00:   CALIPER
 RHOB.G/C3   45 350 01 00:   BULK DENSITY
 DPHI.DEC    45 890 12 00:   DENSITY POROSITY SANDSTONE
 CORR.G/C3   45 356 01 00:   DENSITY CORRECTION
~PARAMETER INFORMATION
#MNEM.UNIT          VALUE    DESCRIPTION
#----------   ------------   ------------------------------
 PD  .                 GL:   PERMANENT DATUM
 EPD .F              5201:   ELEVATION PERMANENT DATUM
 LMF .                 KB:   LOG MEASURED FROM
 DAPD.F                10:   FEET ABOVE PERMANENT DATUM
 DMF .                 KB:   DRILLING MEASURED FROM
 EKB .F              5211:   KELLING BUSHING
 EGL .F              5201:   GROUND LEVEL
 RUN .                  1:   RUN NUMBER
 DD  .F              1802:   DEPTH DRILLER
 DL  .F              1793:   DEPTH LOGGER
 BLI .F              1793:   BOTTOM LOG INTERVAL
 TLI .F               250:   TOP LOG INTERVAL
 CS  .IN            9.625:   CASING SIZE
 CBD .F               500:   CASING BOTTOM DRILLER
 CBL .F               490:   CASING BOTTOM LOGGER
 BS  .IN             8.75:   BIT SIZE
 BSD .F              1802:   BIT SIZE AT DEPTH
 DFT .                OIL:   DRILLING FLUID TYPE
 BHT .F                90:   BOTTOM HOLE TEMPERATURE
 TCS .HRS               4:   TIME CURCULATED STOPPED
 MRT .F                90:   MAXIMUM RECORDED TEMPERATURE
 LUN .               3029:   LOGGING UNIT NUMBER
 LUL .             CASPER:   LOGGING UNIT LOCATION
 ENGI.            ROLLINS:   RECORDING ENGINEER
 WITN.              AMEND:   WITNESSED BY
 CLNT.            A2DTECH:   CLIENT CODE
 ORIG.       2", 5" PRINT:   ORIGIN OF DATA
 UWI .       490251096900:   UNIQUE WELL ID
 DICO. A2D Technologies, Inc.:   DIGITIZING COMPANY
~OTHER INFORMATION
~A   DEPT       GRD        CALD       RHOB       DPHI      CORR  
# ...
  372.0000    54.2440     9.4284     2.2372     0.1929    -0.1770
  372.5000    55.3752     9.4299     2.2318     0.1931    -0.1719
  373.0000    54.3209     9.4314     2.2267     0.1915    -0.1669
  373.5000    53.2399     9.4329     2.2315     0.1900    -0.1679
  374.0000    52.1679     9.4344     2.2380     0.1888    -0.1698
  374.5000    51.1992     9.4359     2.2446     0.1893    -0.1716
  375.0000    51.2818     9.4366     2.2451     0.1903    -0.1734
  375.5000    53.1589     9.4360     2.2394     0.1913    -0.1753
  376.0000    54.9719     9.4355     2.2337     0.1924    -0.1771
  376.5000    56.7685     9.4350     2.2280     0.1936    -0.1784
  377.0000    58.5756     9.4344     2.2258     0.1903    -0.1765
  377.5000    60.4335     9.4339     2.2494     0.1756    -0.1745
  378.0000    60.6647     9.4334     2.2734     0.1609    -0.1725
  378.5000    60.6017     9.4328     2.2973     0.1462    -0.1704
  379.0000    57.1634     9.4323     2.3210     0.1315    -0.1719
  379.5000    52.8648     9.4318     2.3452     0.1158    -0.1736
  380.0000    48.4624     9.4312     2.3585     0.1090    -0.1752
  380.5000    47.4961     9.4307     2.3685     0.0998    -0.1769
  381.0000    50.6234     9.4302     2.3784     0.0987    -0.1786
  381.5000    54.4543     9.4296     2.3884     0.0996    -0.1803
  382.0000    58.3409     9.4291     2.3983     0.1001    -0.1821
  382.5000    61.9118     9.4286     2.4083     0.0902    -0.1794
  383.0000    59.1872     9.4280     2.4182     0.0726    -0.1756
  383.5000    57.7553     9.4275     2.4281     0.0721    -0.1732
  384.0000    60.5528     9.4270     2.4365     0.0716    -0.1797
  384.5000    62.6954     9.4264     2.4356     0.0713    -0.1802
  385.0000    64.2542     9.4259     2.4262     0.0710    -0.1767
  385.5000    61.1793     9.4254     2.4109     0.0762    -0.1730
  386.0000    58.0055     9.4248     2.3954     0.1006    -0.1735
  386.5000    54.8431     9.4243     2.3801     0.1114    -0.1749
  387.0000    52.8551     9.4238     2.3595     0.1091    -0.1763
  387.5000    53.7905     9.4232     2.3737     0.0995    -0.1751
  388.0000    54.8829     9.4227     2.3985     0.0842    -0.1739
  388.5000    54.8583     9.4222     2.4103     0.0895    -0.1729
  389.0000    53.7530     9.4216     2.4018     0.1025    -0.1718
  389.5000    52.6969     9.4211     2.3831     0.1155    -0.1707
  390.0000    55.2183     9.4206     2.3645     0.1285    -0.1705
  390.5000    58.0486     9.4200     2.3460     0.1387    -0.1707
  391.0000    60.1694     9.4195     2.3296     0.1395    -0.1710
  391.5000    59.3325     9.4190     2.3089     0.1372    -0.1712
  392.0000    57.1654     9.4184     2.3164     0.1349    -0.1715
  392.5000    55.0290     9.4179     2.3356     0.1327    -0.1717
  393.0000    52.9307     9.4173     2.3432     0.1305    -0.1719
  393.5000    51.6521     9.4168     2.3406     0.1282    -0.1722
  394.0000    54.4780     9.4165     2.3348     0.1275    -0.1724
  394.5000    57.2406     9.4176     2.3290     0.1310    -0.1702
  395.0000    59.9955     9.4186     2.3229     0.1344    -0.1670
  395.5000    60.2577     9.4197     2.3231     0.1378    -0.1638
  396.0000    58.9334     9.4208     2.3258     0.1387    -0.1605
  396.5000    57.6192     9.4219     2.3286     0.1307    -0.1574
  397.0000    56.3120     9.4229     2.3309     0.1318    -0.1540
  397.5000    55.0115     9.4240     2.3251     0.1332    -0.1553
  398.0000    53.7047     9.4251     2.3193     0.1339    -0.1612
  398.5000    53.0293     9.4261     2.3138     0.1330    -0.1642
  399.0000    55.5087     9.4272     2.3340     0.1316    -0.1609
  399.5000    58.3742     9.4283     2.3627     0.1307    -0.1576
  400.0000    61.3365     9.4293     2.3988     0.1394    -0.1544
  400.5000    60.9004     9.4304     2.3780     0.1474    -0.1512
  401.0000    60.2164     9.4315     2.3468     0.1554    -0.1480
  401.5000    59.5465     9.4326     2.3152     0.1634    -0.1478
  402.0000    58.8814     9.4336     2.2836     0.1713    -0.1509
  402.5000    58.2138     9.4347     2.2519     0.1793    -0.1540
  403.0000    57.5671     9.4358     2.2263     0.1856    -0.1562
  403.5000    57.3951     9.4368     2.2208     0.1868    -0.1554
  404.0000    58.7389     9.4379     2.2392     0.1770    -0.1547
  404.5000    60.0199     9.4390     2.2641     0.1621    -0.1578
  405.0000    61.2897     9.4401     2.3017     0.1473    -0.1652
  405.5000    61.2843     9.4411     2.3557     0.1268    -0.1959
  406.0000    57.1858     9.4422     2.4095     0.1032    -0.2386
  406.5000    53.0416     9.4433     2.4267     0.0754    -0.2811
  407.0000    48.9369     9.4443     2.4127     0.0849    -0.3088
  407.5000    49.1409     9.4454     2.3863     0.1008    -0.3012
  408.0000    50.2730     9.4465     2.3602     0.1221    -0.2438
  408.5000    51.3733     9.4475     2.3341     0.1434    -0.1933
  409.0000    52.4674     9.4486     2.3080     0.1607    -0.1931
  409.5000    53.5636     9.4497     2.2814     0.1619    -0.1961
  410.0000    54.6617     9.4508     2.2784     0.1602    -0.1986
  410.5000    55.7426     9.4518     2.2813     0.1584    -0.2013
  411.0000    56.6657     9.4529     2.2841     0.1566    -0.2006
  411.5000    55.9228     9.4540     2.2870     0.1548    -0.1976
  412.0000    54.7440     9.4550     2.2899     0.1530    -0.1945
  412.5000    53.5701     9.4561     2.2929     0.1515    -0.1914
  413.0000    52.5437     9.4562     2.2958     0.1515    -0.1884
  413.5000    54.1350     9.4548     2.3063     0.1514    -0.1869
  414.0000    55.3231     9.4534     2.3229     0.1446    -0.1889
  414.5000    53.4612     9.4520     2.3396     0.1317    -0.1909
  415.0000    51.6706     9.4506     2.3563     0.1169    -0.1928
  415.5000    50.9235     9.4492     2.3732     0.1011    -0.1947
  416.0000    52.6854     9.4478     2.3908     0.0962    -0.1961
  416.5000    54.6665     9.4464     2.3828     0.1020    -0.1935
  417.0000    53.3390     9.4450     2.3717     0.1110    -0.1908
  417.5000    50.7009     9.4436     2.3608     0.1215    -0.1881
  418.0000    48.3138     9.4422     2.3470     0.1320    -0.1855
  418.5000    51.3642     9.4407     2.3303     0.1426    -0.1828
  419.0000    55.2653     9.4393     2.3135     0.1531    -0.1804
  419.5000    56.1785     9.4379     2.2967     0.1636    -0.1812
  420.0000    53.8747     9.4365     2.2800     0.1735    -0.1848
  420.5000    51.9712     9.4351     2.2634     0.1745    -0.1883
  421.0000    50.0734     9.4337     2.2528     0.1750    -0.1918
  421.5000    48.1786     9.4323     2.2498     0.1744    -0.1944
  422.0000    46.2744     9.4309     2.2468     0.1738    -0.1914
  422.5000    44.3795     9.4295     2.2529     0.1732    -0.1884
  423.0000    43.7842     9.4281     2.2600     0.1726    -0.1854
  423.5000    45.6568     9.4267     2.2671     0.1720    -0.1865
  424.0000    47.8251     9.4253     2.2743     0.1654    -0.1898
  424.5000    49.9808     9.4239     2.2814     0.1591    -0.1931
  425.0000    52.1342     9.4225     2.2892     0.1574    -0.1928
  425.5000    53.2967     9.4211     2.2993     0.1557    -0.1902
  426.0000    54.0818     9.4197     2.3096     0.1539    -0.1876
  426.5000    54.8791     9.4183     2.3197     0.1390    -0.1850
  427.0000    55.6602     9.4168     2.3290     0.1319    -0.1825
  427.5000    55.5428     9.4174     2.3321     0.1306    -0.1846
  428.0000    51.5228     9.4187     2.3360     0.1290    -0.1870
  428.5000    49.9680     9.4199     2.3410     0.1288    -0.1893
  429.0000    51.5528     9.4212     2.3441     0.1294    -0.1885
  429.5000    53.6588     9.4225     2.3360     0.1299    -0.1831
  430.0000    55.7756     9.4237     2.3307     0.1280    -0.1776
  430.5000    57.8552     9.4250     2.3416     0.1253    -0.1766
  431.0000    58.7804     9.4262     2.3510     0.1227    -0.1785
  431.5000    57.0815     9.4275     2.3498     0.1200    -0.1805
  432.0000    56.2273     9.4288     2.3482     0.1174    -0.1825
  432.5000    57.6243     9.4300     2.3589     0.1146    -0.1844
