~VERSION INFORMATION
 VERS.                2.0:   CWLS LOG ASCII STANDARD - VERSION 2.0
 WRAP.                 NO:   ONE LINE PER DEPTH STEP
~WELL INFORMATION
#MNEM.UNIT      DATA TYPE    INFORMATION
#----------   ------------   ------------------------------
 STRT.F           52.5000:   START DEPTH
 STOP.F         2929.0000:   STOP DEPTH
 STEP.F            0.5000:   STEP LENGTH
 NULL.          -999.2500:   NO VALUE
 COMP.   FLUOR DANIEL INC:   COMPANY
 WELL. NAVAL PETROLEUM RESERVE 3 X-23 #52-23:   WELL
 FLD .            WILDCAT:   FIELD
 LOC .      S23 T38N R78W:   LOCATION
 CNTY.            NATRONA:   COUNTY
 STAT.            WYOMING:   STATE
 CTRY. UNITED STATES OF AMERICA:   COUNTRY
 SRVC.            Unknown:   SERVICE COMPANY
 DATE.        23-APR-1995:   LOGDATE
 API .       490252271500:   API NUMBER
~CURVE INFORMATION
#MNEM.UNIT       API CODE    CURVE DESCRIPTION
#----------   ------------   ------------------------------
 DEPT.F                  :   
 ROP .MIN/FT 91 810 01 00:   RAT OF DRILLING PENETRATION
 TGAS.UNITS  91 830 01 00:   TOTAL GAS FROM HOTWIRE
~PARAMETER INFORMATION
#MNEM.UNIT          VALUE    DESCRIPTION
#----------   ------------   ------------------------------
 EKB .F              5344:   KELLING BUSHING
 EGL .F              5334:   GROUND LEVEL
 DATE.            4-23-95:   RUN DATE
 DD  .F              2929:   DEPTH DRILLER
 CS  .IN            9.625:   CASING SIZE
 CBD .F                53:   CASING BOTTOM DRILLER
 BS  .IN             8.75:   BIT SIZE
 BSD .F              2929:   BIT SIZE AT DEPTH
 ENGI.              TOWER:   RECORDING ENGINEER
 WITN.               HUSK:   WITNESSED BY
 CLNT.            A2DTECH:   CLIENT CODE
 ORIG.           5" PRINT:   ORIGIN OF DATA
 UWI .       490252271500:   UNIQUE WELL ID
 DICO. A2D Technologies, Inc.:   DIGITIZING COMPANY
~OTHER INFORMATION
~A   DEPT        ROP     TGAS   
# ...
 2118.0000     0.9611     2.5524
 2118.5000     0.7559     2.5187
 2119.0000     0.7559     2.4849
 2119.5000     0.7559     2.4512
 2120.0000     0.7559     2.4175
 2120.5000     0.7464     2.3838
 2121.0000     0.7493     2.3628
 2121.5000     0.7521     2.3628
 2122.0000     0.7550     2.3628
 2122.5000     0.6052     2.3628
 2123.0000     0.6061     2.3628
 2123.5000     0.6071     2.3628
 2124.0000     0.6080     2.3628
 2124.5000     0.6090     2.3628
 2125.0000     0.6100     2.3628
 2125.5000     0.6109     2.3628
 2126.0000     0.6119     2.3628
 2126.5000     0.6128     2.3628
 2127.0000     0.6138     2.3628
 2127.5000     0.6148     2.3628
 2128.0000     0.6157     2.3628
 2128.5000     0.6167     2.3628
 2129.0000     0.6177     2.3628
 2129.5000     0.6166     2.3628
 2130.0000     0.6156     2.3628
 2130.5000     0.6145     2.3628
 2131.0000     0.6134     2.3628
 2131.5000     0.6123     2.3628
 2132.0000     0.6112     2.3628
 2132.5000     0.6102     2.3628
 2133.0000     0.6091     2.3628
 2133.5000     0.6080     2.3628
 2134.0000     0.6458     2.3628
 2134.5000     0.7349     2.3628
 2135.0000     0.7328     2.3628
 2135.5000     0.7306     2.3628
 2136.0000     0.7285     2.3628
 2136.5000     0.7263     2.3628
 2137.0000     0.7242     2.3628
 2137.5000     0.7220     2.3628
 2138.0000     0.7198     2.3628
 2138.5000     0.7177     2.3628
 2139.0000     0.7155     2.3628
 2139.5000     0.7117     2.3628
 2140.0000     0.7054     2.3628
 2140.5000     0.6991     2.3628
 2141.0000     0.6927     2.3628
 2141.5000     0.6864     2.3628
 2142.0000     0.6801     2.3628
 2142.5000     0.6746     2.3628
 2143.0000     0.6719     2.3628
 2143.5000     0.6692     2.3628
 2144.0000     0.6665     2.3628
 2144.5000     0.6638     2.3628
 2145.0000     0.6611     2.3596
 2145.5000     0.6584     2.3486
 2146.0000     0.5616     2.3376
 2146.5000     0.5616     2.3266
 2147.0000     0.5616     2.3156
 2147.5000     0.5616     2.3046
 2148.0000     0.5616     2.2936
 2148.5000     0.5616     2.2826
 2149.0000     0.5616     2.2716
 2149.5000     0.5616     2.2606
 2150.0000     0.5616     2.2496
 2150.5000     0.5616     2.2386
 2151.0000     0.5616     2.2276
 2151.5000     0.5616     2.2166
 2152.0000     0.5616     2.2055
 2152.5000     0.5616     2.1945
 2153.0000     0.5616     2.1835
 2153.5000     0.5616     2.1725
 2154.0000     0.5616     2.1615
 2154.5000     0.5616     2.1505
 2155.0000     0.5616     2.1653
 2155.5000     0.5616     2.1877
 2156.0000     0.5616     2.2102
 2156.5000     0.5616     2.2327
 2157.0000     0.5616     2.2552
 2157.5000     0.5616     2.2777
 2158.0000     0.5616     2.3001
 2158.5000     0.5616     2.3226
 2159.0000     0.5616     2.3451
 2159.5000     0.5616     2.3676
 2160.0000     0.5616     2.3901
 2160.5000     0.5616     2.4126
 2161.0000     0.5616     2.4350
 2161.5000     0.5616     2.4575
 2162.0000     0.5616     2.4800
 2162.5000     0.5616     2.5025
 2163.0000     0.5616     2.5250
 2163.5000     0.5616     2.5474
 2164.0000     0.5616     2.5699
 2164.5000     0.5640     2.5407
 2165.0000     0.5672     2.4849
 2165.5000     0.5705     2.4290
 2166.0000     0.5737     2.3732
 2166.5000     0.5770     2.3173
 2167.0000     0.5802     2.2615
 2167.5000     0.5818     2.2056
 2168.0000     0.5810     2.1480
 2168.5000     0.5802     2.1973
 2169.0000     0.5794     2.2484
 2169.5000     0.5786     2.2994
 2170.0000     0.5778     2.3504
 2170.5000     0.5769     2.4014
 2171.0000     0.5761     2.4524
 2171.5000     0.5753     2.5034
 2172.0000     0.5745     2.5544
 2172.5000     0.5737     2.6054
 2173.0000     0.5729     2.6565
 2173.5000     0.5721     2.7075
 2174.0000     0.5713     2.7585
 2174.5000     0.5705     2.7924
 2175.0000     0.5697     2.7924
 2175.5000     0.5688     2.7924
 2176.0000     0.5680     2.7924
 2176.5000     0.5672     2.7924
 2177.0000     0.5664     2.7924
 2177.5000     0.5656     2.7924
 2178.0000     0.5648     2.7924
 2178.5000     0.5640     2.7924
 2179.0000     0.5632     2.7924
 2179.5000     0.5624     2.7924
 2180.0000     0.5616     2.7924
 2180.5000     0.5607     2.7924
 2181.0000     0.5599     2.7924
 2181.5000     0.5591     2.7924
 2182.0000     0.5583     2.7924
 2182.5000     0.6649     2.7924
 2183.0000     0.6622     2.7924
 2183.5000     0.6595     2.7801
 2184.0000     0.6568     2.7566
 2184.5000     0.6541     2.7332
 2185.0000     0.6514     2.7097
 2185.5000     0.6487     2.6862
 2186.0000     0.6460     2.6627
 2186.5000     0.6433     2.6393
 2187.0000     0.6406     2.6158
 2187.5000     0.6379     2.5923
 2188.0000     0.6352     2.5776
 2188.5000     0.6325     2.5776
 2189.0000     0.6298     2.5776
 2189.5000     0.6271     2.5776
 2190.0000     0.6244     2.5062
 2190.5000     0.6217     2.4343
 2191.0000     0.6190     2.3625
 2191.5000     0.6163     2.2906
 2192.0000     0.6134     2.2188
 2192.5000     0.6142     2.1470
 2193.0000     0.6150     2.0751
 2193.5000     0.6158     2.0033
 2194.0000     0.6166     1.9315
 2194.5000     0.6174     1.8596
 2195.0000     0.6183     1.7878
 2195.5000     0.6191     1.7160
 2196.0000     0.6199     1.6441
 2196.5000     0.6207     1.5723
 2197.0000     0.6215     1.5036
 2197.5000     0.6223     1.5331
 2198.0000     0.6231     1.5614
 2198.5000     0.6239     1.5897
 2199.0000     0.6247     1.6179
 2199.5000     0.6255     1.6462
 2200.0000     0.6263     1.6745
 2200.5000     0.6272     1.7028
 2201.0000     0.6280     1.7311
 2201.5000     0.6288     1.7594
 2202.0000     0.6296     1.7877
 2202.5000     0.6304     1.8159
 2203.0000     0.6312     1.8442
 2203.5000     0.6320     1.8725
 2204.0000     0.6328     1.9008
 2204.5000     0.6336     1.9332
 2205.0000     0.6344     1.8741
 2205.5000     0.6353     1.8049
 2206.0000     0.6361     1.7358
 2206.5000     0.6369     1.7184
 2207.0000     0.6377     1.7184
 2207.5000     0.6385     1.7184
 2208.0000     0.6393     1.7184
 2208.5000     0.6401     1.7184
 2209.0000     0.6409     1.7184
 2209.5000     0.6417     1.7184
 2210.0000     0.6425     1.7184
 2210.5000     0.6434     1.7184
 2211.0000     0.6442     1.7184
 2211.5000     0.6450     1.7184
 2212.0000     0.6458     1.7184
 2212.5000     0.6466     1.7184
 2213.0000     0.6474     1.7077
 2213.5000     0.6482     1.6921
 2214.0000     0.5824     1.6766
 2214.5000     0.4968     1.6610
 2215.0000     0.4968     1.6454
 2215.5000     0.4968     1.6298
 2216.0000     0.4968     1.6143
 2216.5000     0.4968     1.5987
 2217.0000     0.4968     1.5831
 2217.5000     0.4968     1.5675
 2218.0000     0.4968     1.5520
 2218.5000     0.4968     1.5364
 2219.0000     0.4968     1.5208
 2219.5000     0.4968     1.5036
 2220.0000     0.4968     1.5036
 2220.5000     0.4968     1.5036
 2221.0000     0.4968     1.5036
 2221.5000     0.4968     1.5036
 2222.0000     0.4968     1.5036
 2222.5000     0.4968     1.5036
 2223.0000     0.4968     1.5036
 2223.5000     0.4968     1.5036
 2224.0000     0.4966     1.5036
 2224.5000     0.4961     1.5036
 2225.0000     0.4957     1.5036
 2225.5000     0.4952     1.5036
 2226.0000     0.4947     1.5036
 2226.5000     0.4943     1.5369
 2227.0000     0.4938     1.6030
 2227.5000     0.4933     1.6690
 2228.0000     0.4928     1.7350
 2228.5000     0.4924     1.8011
 2229.0000     0.4919     1.8671
 2229.5000     0.4914     1.9331
 2230.0000     0.4909     1.9991
 2230.5000     0.4905     2.0652
 2231.0000     0.4900     2.1312
 2231.5000     0.4895     2.1972
 2232.0000     0.4890     2.2339
 2232.5000     0.4886     2.2554
 2233.0000     0.4881     2.2769
 2233.5000     0.4876     2.2983
 2234.0000     0.4872     2.3198
 2234.5000     0.4867     2.3413
 2235.0000     0.4862     2.3628
 2235.5000     0.4863     2.3842
 2236.0000     0.4869     2.4057
 2236.5000     0.4875     2.4272
 2237.0000     0.4881     2.4487
 2237.5000     0.4888     2.4702
 2238.0000     0.4894     2.4916
 2238.5000     0.4900     2.5131
 2239.0000     0.4907     2.5346
