~VERSION INFORMATION
 VERS.                2.0:   CWLS LOG ASCII STANDARD - VERSION 2.0
 WRAP.                 NO:   ONE LINE PER DEPTH STEP
~WELL INFORMATION
#MNEM.UNIT      DATA TYPE    INFORMATION
#----------   ------------   ------------------------------
 STRT.F           36.0000:   START DEPTH
 STOP.F         3160.0000:   STOP DEPTH
 STEP.F            0.5000:   STEP LENGTH
 NULL.          -999.2500:   NO VALUE
 COMP.    FENIX & SCISSON:   COMPANY
 WELL.        NPR-3 #28-3:   WELL
 FLD .             TEAPOT:   FIELD
 LOC .       S3 T38N R78W:   LOCATION
 CNTY.            NATRONA:   COUNTY
 STAT.            WYOMING:   STATE
 CTRY. UNITED STATES OF AMERICA:   COUNTRY
 SRVC.            Unknown:   SERVICE COMPANY
 DATE.        01-JUL-1978:   LOGDATE
 API .       490251066500:   API NUMBER
~CURVE INFORMATION
#MNEM.UNIT       API CODE    CURVE DESCRIPTION
#----------   ------------   ------------------------------
 DEPT.F                  :   
 ILD .OHMM   05 120 46 00:   INDUCTION LOG DEEP
 SN  .OHMM   05 040 16 00:   SHORT NORMAL 16"
 SPR .MV     05 010 01 00:   SPONTANEOUS POTENTIAL FROM RES.
 CALD.IN     45 280 60 00:   CALIPER FROM DENSITY LOG
 CORR.G/C3   45 356 01 00:   DENSITY CORRECTION
 DPHI.DEC    45 890 12 00:   DENSITY POROSITY SANDSTONE
 GRD .GAPI   45 310 01 00:   GAMMA RAY FROM DENSITY LOG
 RHOB.G/C3   45 350 01 00:   BULK DENSITY
 GR  .GAPI   30 310 01 00:   GAMMA RAY
~PARAMETER INFORMATION
#MNEM.UNIT          VALUE    DESCRIPTION
#----------   ------------   ------------------------------
 PD  .                 GL:   PERMANENT DATUM
 EPD .F              5264:   ELEVATION PERMANENT DATUM
 LMF .                 KB:   LOG MEASURED FROM
 DAPD.F                 4:   FEET ABOVE PERMANENT DATUM
 DMF .                 KB:   DRILLING MEASURED FROM
 EKB .F              5268:   KELLING BUSHING
 EGL .F              5264:   GROUND LEVEL
 DATE.        01-JUL-1978:   RUN DATE
 RUN .                  1:   RUN NUMBER
 DD  .F               630:   DEPTH DRILLER
 DL  .F               636:   DEPTH LOGGER
 BLI .F               630:   BOTTOM LOG INTERVAL
 TLI .F                50:   TOP LOG INTERVAL
 CS  .IN            8.625:   CASING SIZE
 CBD .F                40:   CASING BOTTOM DRILLER
 BS  .IN            7.875:   BIT SIZE
 BSD .F               630:   BIT SIZE AT DEPTH
 DFT .                KCL:   DRILLING FLUID TYPE
 DFD .                8.6:   DRILLING FLUID DENSITY
 DFV .                 32:   DRILLING FLUID VISCOSITY
 DFPH.                9.5:   DRILLING FLUID PH
 MSS .           FLOWLINE:   MUD SAMPLE SOURCE
 BHT .F                74:   BOTTOM HOLE TEMPERATURE
 TCS .HRS               1:   TIME CURCULATED STOPPED
 MRT .F                74:   MAXIMUM RECORDED TEMPERATURE
 LUN .               2958:   LOGGING UNIT NUMBER
 LUL .               CASP:   LOGGING UNIT LOCATION
 ENGI.             MILLER:   RECORDING ENGINEER
 WITN.           MCGINLEY:   WITNESSED BY
 CLNT.            A2DTECH:   CLIENT CODE
 ORIG.        2" 5" PRINT:   ORIGIN OF DATA
 UWI .       490251066500:   UNIQUE WELL ID
 DICO. A2D Technologies, Inc.:   DIGITIZING COMPANY
~OTHER INFORMATION
~A   DEPT      ILD         SN        SPR       CALD       CORR       DPHI         GRD      RHOB         GR   
# ...
  255.0000    10.3027     9.5549   -38.6328     7.5366     0.0008     0.1404    88.7469     2.4518  -999.2500
  255.5000    10.3767     9.6853   -38.4880     7.4780     0.0008     0.1374    90.2562     2.4518  -999.2500
  256.0000    10.5837     9.8182   -38.4933     7.4043     0.0009     0.1362    90.7155     2.4563  -999.2500
  256.5000    10.6545     9.8831   -38.3474     7.3901     0.0010     0.1380    90.4310     2.4616  -999.2500
  257.0000    10.7249    10.0868   -38.3516     7.3615     0.0040     0.1400    90.0007     2.4594  -999.2500
  257.5000    10.7948    10.1547   -38.5060     7.3475     0.0086     0.1361    85.6803     2.4557  -999.2500
  258.0000    10.8661    10.2225   -38.5113     7.3486     0.0131     0.1290    84.2000     2.4594  -999.2500
  258.5000    11.0138    10.3614   -38.5156     7.3496     0.0132     0.1266    84.0686     2.4686  -999.2500
  259.0000    11.1625    10.4305   -38.3697     7.3509     0.0088     0.1265    83.6347     2.4767  -999.2500
  259.5000    11.3272    10.4271   -38.3739     7.3519     0.0014     0.1265    83.0512     2.4752  -999.2500
  260.0000    11.7071    10.4244   -38.3792     7.3678     0.0000     0.1268    80.6741     2.4730  -999.2500
  260.5000    12.0312    10.4940   -38.3835     7.3689     0.0001     0.1342    76.9517     2.4693  -999.2500
  261.0000    12.2792    10.4905   -38.3877     7.3848     0.0002     0.1354    75.7703     2.4626  -999.2500
  261.5000    12.4531    10.4878   -38.3920     7.4008     0.0002     0.1378    76.2332     2.4625  -999.2500
  262.0000    12.6151    10.4850   -38.3973     7.4317     0.0003     0.1330    77.6293     2.4649  -999.2500
  262.5000    12.6985    10.4823   -38.4015     7.4639     0.0004     0.1306    79.5543     2.4687  -999.2500
  263.0000    12.6933    10.4789   -38.4058     7.5087    -0.0010     0.1303    81.2130     2.4702  -999.2500
  263.5000    12.6818    10.4762   -38.4100     7.5396    -0.0039     0.1294    81.3733     2.4710  -999.2500
  264.0000    12.5099    10.4735   -38.4144     7.5705    -0.0083     0.1288    78.1029     2.4702  -999.2500
  264.5000    12.3343    10.3987   -38.4196     7.5865    -0.0113     0.1358    74.9784     2.4621  -999.2500
  265.0000    11.9941    10.1820   -38.4238     7.5875    -0.0142     0.1413    76.7866     2.4561  -999.2500
  265.5000    11.7374    10.0397   -38.4281     7.5885    -0.0126     0.1418    78.7623     2.4532  -999.2500
  266.0000    11.4986    10.0370   -38.4324     7.5746    -0.0110     0.1430    80.6487     2.4510  -999.2500
  266.5000    11.2591     9.9653   -38.4376     7.5607    -0.0110     0.1454    82.9622     2.4487  -999.2500
  267.0000    11.1779     9.8254   -38.4419     7.5619    -0.0094     0.1430    83.2720     2.4465  -999.2500
  267.5000    11.1742     9.8228   -38.4461     7.5478    -0.0063     0.1474    81.0480     2.4443  -999.2500
  268.0000    11.1697     9.7526   -38.4505     7.5640    -0.0063     0.1459    79.4182     2.4429  -999.2500
  268.5000    11.1661     9.6830   -38.3044     7.5650    -0.0122     0.1485    78.9842     2.4421  -999.2500
  269.0000    11.1625     9.6798   -38.3098     7.5660    -0.0195     0.1498    79.1482     2.4407  -999.2500
  269.5000    11.0819     9.6773   -38.3140     7.5670    -0.0210     0.1486    79.1629     2.4385  -999.2500
  270.0000    11.0021     9.6748   -38.3183     7.5680    -0.0194     0.1569    79.1808     2.4348  -999.2500
  270.5000    11.0748     9.6418   -38.3236     7.5840    -0.0148     0.1623    78.2984     2.4242  -999.2500
  271.0000    11.0703     9.5364   -38.4780     7.5853    -0.0126     0.1547    76.0707     2.4184  -999.2500
  271.5000    11.0666     9.5340   -38.6323     7.5863    -0.0102     0.1500    74.1420     2.4267  -999.2500
  272.0000    11.0622     9.4658   -38.7868     7.5721    -0.0101     0.1491    75.5018     2.4379  -999.2500
  272.5000    11.0586     9.3982   -38.9422     7.5734    -0.0101     0.1449    80.1500     2.4454  -999.2500
  273.0000    11.0550     9.3305   -39.0966     7.5594    -0.0100     0.1392    82.5561     2.4521  -999.2500
  273.5000    11.0514     9.2638   -39.2510     7.5604    -0.0099     0.1362    80.3796     2.4574  -999.2500
  274.0000    11.0469     9.2614   -39.1051     7.5764    -0.0114     0.1415    77.2075     2.4604  -999.2500
  274.5000    10.8918     9.1952   -39.1104     7.5774    -0.0128     0.1487    75.7272     2.4483  -999.2500
  275.0000    10.8133     9.1290   -39.1146     7.5934    -0.0127     0.1460    76.3396     2.4425  -999.2500
  275.5000    10.8097     9.0013   -39.1189     7.5946    -0.0126     0.1470    77.4004     2.4411  -999.2500
  276.0000    10.7310     8.9990   -38.9730     7.6106    -0.0110     0.1513    78.9097     2.4374  -999.2500
  276.5000    10.7275     8.9347   -39.1284     7.6266    -0.0092     0.1531    80.5684     2.4337  -999.2500
  277.0000    10.7240     8.9318   -39.1327     7.6276    -0.0064     0.1551    82.0838     2.4285  -999.2500
  277.5000    10.7204     8.9295   -39.1369     7.6436    -0.0019     0.1575    80.9492     2.4263  -999.2500
  278.0000    10.6424     8.9272   -39.1412     7.6446     0.0012     0.1584    74.6364     2.4278  -999.2500
  278.5000    10.5656     8.9248   -39.2966     7.6306     0.0043     0.1545    75.5477     2.4301  -999.2500
  279.0000    10.3455     8.9219   -39.3009     7.6167     0.0073     0.1515    76.4591     2.4324  -999.2500
  279.5000    10.1943     8.9199   -39.3051     7.6180     0.0074     0.1521    76.1710     2.4339  -999.2500
  280.0000    10.0562     8.9173   -39.3094     7.6190     0.0075     0.1533    75.2922     2.4354  -999.2500
  280.5000    10.0529     8.9150   -39.4648     7.6200     0.0075     0.1517    72.9151     2.4354  -999.2500
  281.0000    10.0496     8.9121   -39.7694     7.6058     0.0076     0.1490    71.8832     2.4354  -999.2500
  281.5000     9.9771     8.9098   -40.2241     7.6071     0.0092     0.1457    74.4424     2.4384  -999.2500
  282.0000     9.9731     8.9074   -40.2283     7.6081     0.0093     0.1436    76.4001     2.4437  -999.2500
  282.5000     9.9699     8.9051   -40.2327     7.5942     0.0093     0.1448    77.6104     2.4467  -999.2500
  283.0000    10.0366     8.9022   -40.2379     7.5802     0.0094     0.1436    78.8207     2.4460  -999.2500
  283.5000    10.0267     8.8999   -40.3923     7.5516     0.0095     0.1412    78.0877     2.4528  -999.2500
  284.0000     9.8227     8.8976   -40.3965     7.4480     0.0066     0.1406    76.1590     2.4543  -999.2500
  284.5000     9.6180     8.8953   -40.5511     7.3294     0.0007     0.1409    74.9777     2.4543  -999.2500
  285.0000     9.4829     8.8924   -40.5562     7.2109    -0.0038     0.1381    75.9193     2.4543  -999.2500
  285.5000     9.5510     8.8901   -40.5605     7.1222    -0.0066     0.1357    77.2524     2.4573  -999.2500
  286.0000     9.6086     8.8266   -40.5647     7.1082    -0.0051     0.1396    77.8648     2.4626  -999.2500
  286.5000     9.5386     8.8243   -40.5691     7.1093     0.0010     0.1432    76.5340     2.4664  -999.2500
  287.0000     9.4046     8.6404   -40.5743     7.1103     0.0055     0.1473    72.2136     2.4483  -999.2500
  287.5000     9.1400     8.4610   -40.7287     7.1116     0.0116     0.1536    71.3276     2.4403  -999.2500
  288.0000     8.8312     8.3427   -40.7329     7.1126     0.0161     0.1604    73.5879     2.4276  -999.2500
  288.5000     8.6472     8.2260   -40.7372     7.1136     0.0177     0.1652    77.9447     2.4135  -999.2500
  289.0000     8.4087     8.1667   -40.7425     7.1295     0.0178     0.1589    81.4739     2.4158  -999.2500
  289.5000     8.2906     8.1646   -40.7467     7.1455     0.0133     0.1559    82.7530     2.4233  -999.2500
  290.0000     8.2873     8.1625   -40.7510     7.1764     0.0073     0.1535    81.5717     2.4300  -999.2500
  290.5000     8.2846     8.1042   -40.9054     7.1924     0.0001     0.1541    79.9419     2.4345  -999.2500
  291.0000     8.3636     8.1577   -41.0608     7.2101    -0.0028     0.1585    81.0027     2.4343  -999.2500
