~VERSION INFORMATION
 VERS.                2.0:   CWLS LOG ASCII STANDARD - VERSION 2.0
 WRAP.                 NO:   ONE LINE PER DEPTH STEP
~WELL INFORMATION
#MNEM.UNIT      DATA TYPE    INFORMATION
#----------   ------------   ------------------------------
 STRT.F           88.0000:   START DEPTH
 STOP.F          991.0000:   STOP DEPTH
 STEP.F            0.5000:   STEP LENGTH
 NULL.          -999.2500:   NO VALUE
 COMP. US NAVY /INTEX OIL CO.:   COMPANY
 WELL.    NPR #3 #S-11 63:   WELL
 FLD .             TEAPOT:   FIELD
 LOC .      S11 T38N R78W:   LOCATION
 CNTY.            NATRONA:   COUNTY
 STAT.            WYOMING:   STATE
 CTRY. UNITED STATES OF AMERICA:   COUNTRY
 SRVC.       Schlumberger:   SERVICE COMPANY
 DATE.        24-JUL-1964:   LOGDATE
 API .       490250636200:   API NUMBER
~CURVE INFORMATION
#MNEM.UNIT       API CODE    CURVE DESCRIPTION
#----------   ------------   ------------------------------
 DEPT.F                  :   
 SPR .MV     05 010 01 00:   SPONTANEOUS POTENTIAL FROM RES.
 ASN .OHMM   05 041 16 00:   AMPLIFIED SHORT NORMAL 16"
 ILD .OHMM   05 120 46 00:   INDUCTION LOG DEEP
 CILD.MMHO   05 110 46 00:   CONDUCTIVITY INDUCTION LOG DEEP
 CALS.IN     60 280 50 00:   CALIPER FROM SONIC LOG
 DT  .US/F   60 520 33 00:   INTERVAL TRANSIT TIME
 GR  .GAPI   30 310 01 00:   GAMMA RAY
~PARAMETER INFORMATION
#MNEM.UNIT          VALUE    DESCRIPTION
#----------   ------------   ------------------------------
 PD  .                 GL:   PERMANENT DATUM
 LMF .                 KB:   LOG MEASURED FROM
 DAPD.F                 5:   FEET ABOVE PERMANENT DATUM
 DMF .                 KB:   DRILLING MEASURED FROM
 EKB .F              5914:   KELLING BUSHING
 DATE.          7-24-1964:   RUN DATE
 RUN .                  1:   RUN NUMBER
 DD  .F               990:   DEPTH DRILLER
 DL  .F               992:   DEPTH LOGGER
 BLI .F               991:   BOTTOM LOG INTERVAL
 TLI .F               990:   TOP LOG INTERVAL
 CS  .IN            8.625:   CASING SIZE
 CBD .F                15:   CASING BOTTOM DRILLER
 BS  .IN             6.75:   BIT SIZE
 BSD .F               990:   BIT SIZE AT DEPTH
 DFT .            GEL OIL:   DRILLING FLUID TYPE
 DFD .                9.2:   DRILLING FLUID DENSITY
 DFV .                 47:   DRILLING FLUID VISCOSITY
 MSS .            MUD PIT:   MUD SAMPLE SOURCE
 RMS .OHMM           1.24:   RESISTIVITY MUD SAMPLE
 MST .F                75:   MUD SAMPLE TEMPERATURE
 RMF .OHMM           .801:   RESISTIVITY MUD FILTRATE SAMPLE
 MFST.F                80:   MUD FILTRATE SAMPLE TEMPERATURE
 MFSS.                 FP:   MUD FILTRATE SAMPLE SOURCE
 RMB .OHMM           1.09:   RESISTIVITY MUD AT BHT
 BHT .F                85:   BOTTOM HOLE TEMPERATURE
 TCS .HRS              .5:   TIME CURCULATED STOPPED
 MRT .F                85:   MAXIMUM RECORDED TEMPERATURE
 LUN .               2572:   LOGGING UNIT NUMBER
 LUL .                 MC:   LOGGING UNIT LOCATION
 ENGI.             BOWLER:   RECORDING ENGINEER
 WITN.          JORGENSEN:   WITNESSED BY
 CLNT.            A2DTECH:   CLIENT CODE
 ORIG.      2" & 5" PRINT:   ORIGIN OF DATA
 UWI .       490250636200:   UNIQUE WELL ID
 DICO. A2D Technologies, Inc.:   DIGITIZING COMPANY
~OTHER INFORMATION
~A   DEPT      SPR          ASN        ILD      CILD      CALS         DT         GR   
# ...
  725.0000   -27.6160     7.6238     6.5105   150.0000     6.8227   103.5885    74.8499
  725.5000   -27.6132     7.6392     6.5112   149.2239     6.8226   103.5856    78.1691
  726.0000   -27.4651     7.6096     6.5119   148.4419     6.8225   103.6579    80.1330
  726.5000   -27.4622     7.5651     6.5126   149.1664     6.8367   103.8039    74.8679
  727.0000   -27.1686     7.4906     6.4390   149.1299     6.8366   104.0981    69.7534
  727.5000   -27.1652     7.5060     6.2167   151.3396     6.8365   104.3186    74.7293
  728.0000   -26.8717     7.4765     6.0684   152.8031     6.8075   104.5391    85.7292
  728.5000   -26.8688     7.3708     5.9203   155.0127     6.7929   104.7655    87.3919
  729.0000   -27.0121     7.2226     5.6978   157.9687     6.7928   105.0538    87.5484
  729.5000   -27.1546     7.0431     5.4755   163.1635     6.7782   105.2742    87.1026
  730.0000   -27.1511     6.8336     5.2530   172.0896     6.7781   105.7181    83.9460
  730.5000   -27.1482     6.6992     5.0305   182.0601     6.7924   106.2364    81.2411
  731.0000   -27.1607     6.5197     4.6553   196.6509     6.7922   106.5314    82.4520
  731.5000   -27.5786     6.2952     4.2775   213.7859     6.7921   106.6781    82.1567
  732.0000   -27.7212     5.9508     3.8424   227.9359     6.7919   107.6425    80.3473
  732.5000   -27.4270     5.5915     3.5455   244.3247     6.7918   108.6820    82.6205
  733.0000   -27.1334     5.2573     3.2486   249.5267     6.7916   111.7047    84.2832
  733.5000   -27.1306     4.8961     3.2493   247.9978     6.7915   114.5276    83.9713
  734.0000   -27.1278     4.7833     3.3245   245.7299     6.7913   114.0337    75.2549
  734.5000   -27.1250     4.8437     3.5484   241.2232     6.7768   113.5841    75.1144
  735.0000   -27.2772     5.0690     3.8467   233.7313     6.7767   112.9855    78.6547
  735.5000   -27.5554     5.6242     4.1521   219.6767     6.7909   111.7912    83.1477
  736.0000   -27.6979     6.1644     4.6041   188.1434     6.7908   107.0973    83.4157
  736.5000   -27.6944     6.5396     5.0396   173.1889     6.7906   104.9351    83.9115
  737.0000   -27.9822     6.7349     5.5611   164.2046     6.7905   104.5599    89.6282
  737.5000   -28.1255     6.9153     5.9339   159.6978     6.7903   104.3336    95.3577
  738.0000   -28.1219     7.0705     6.2322   155.9374     6.8046   104.2561    97.2949
  738.5000   -28.1191     7.2911     6.4562   152.9232     6.8333   104.1037    91.8807
  739.0000   -28.1163     7.4415     6.6057   150.6553     6.8331   104.0263    87.9710
  739.5000   -28.0920     7.5768     6.6808   148.3873     6.8330   103.9490    88.2782
  740.0000   -27.9646     7.6822     6.8303   147.6119     6.8184   103.7227    89.9394
  740.5000   -27.8164     7.8176     6.8312   146.8359     6.7318   103.3475    84.2225
  741.0000   -27.6683     7.9230     6.8320   146.0539     6.7893   102.8978    83.7782
  741.5000   -27.6654     8.0284     6.8327   145.2785     6.8036   102.4481    77.0070
  742.0000   -27.6626     8.1187     6.8334   144.5031     6.8179   102.2219    74.6034
  742.5000   -27.8051     8.2091     6.8341   142.9814     6.8322   101.9906    72.9528
  743.0000   -27.9477     8.2721     6.8349   142.2061     6.8320   101.8437    73.7118
  743.5000   -28.0902     8.3451     6.9100   141.4306     6.8463   101.7657    75.8262
  744.0000   -28.0867     8.4354     6.9107   139.9090     6.8461   101.8380    78.6936
  744.5000   -27.9385     8.4959     6.9114   139.1336     6.8460   101.9833    77.6454
  745.0000   -27.6450     8.5413     6.9868   138.3582     6.8314   102.0555    76.4451
  745.5000   -27.4968     8.6017     6.9875   137.5073     6.8312   102.1271    75.6996
  746.0000   -27.4940     8.6471     7.0626   136.0539     6.8167   101.9745    77.5128
  746.5000   -27.4912     8.6925     7.0633   135.2785     6.8021   101.7483    78.4209
  747.0000   -27.4883     8.7079     7.1385   134.5031     6.7876   101.5200    74.9645
  747.5000   -27.4855     8.7384     7.1392   133.7277     6.7875   101.2956    75.7235
  748.0000   -27.4820     8.7539     7.1399   133.6986     6.7873   101.2921    79.6452
  748.5000   -27.4792     8.7693     7.1406   132.9232     6.7872   101.2892    80.1030
  749.0000   -27.6217     8.7248     7.1413   132.8941     6.7870   101.2863    81.1632
  749.5000   -27.6189     8.6353     7.0677   132.8649     6.8013   101.2834    80.1135
  750.0000   -27.5846     8.5360     6.9856   132.8358     6.8011   101.2067    82.2294
  750.5000   -27.3865     8.3844     6.8821   134.1108     6.8129   101.7249    77.2607
  751.0000   -27.3226     8.2318     6.7786   135.3859     6.8055   102.1694    76.3582
  751.5000   -27.3212     8.0823     6.6964   136.5000     6.7981   102.5395    76.5107
  752.0000   -27.3197     7.9328     6.4732   136.4770     6.7908   102.9096    73.1989
  752.5000   -27.1729     7.8134     6.1756   139.4400     6.7875   103.2797    64.4655
  753.0000   -26.8808     7.6939     5.9514   144.6466     6.7876   103.6498    62.9609
  753.5000   -26.8794     7.5584     5.5710   149.1916     6.7878   104.0944    63.5648
  754.0000   -26.7326     7.3159     5.1250   156.7161     6.8023   104.7623    62.5121
  754.5000   -26.5858     7.0048     4.7356   169.9937     6.8025   105.2813    61.3084
  755.0000   -26.4389     6.3788     4.0923   193.0555     6.8026   105.7259    67.7862
  755.5000   -26.2919     5.6422     3.5714   216.1677     6.8171   106.3193    69.1431
  756.0000   -26.4361     5.2229     3.0506   243.7576     6.8029   107.6574    74.2651
  756.5000   -26.2890     4.7286     2.6786   280.3027     6.7886   109.8890    73.6642
  757.0000   -26.2876     4.0843     2.3065   347.4448     6.7888   111.5994    68.6958
  757.5000   -26.2861     3.6050     1.9345   389.9600     6.7745   113.3097    65.6853
  758.0000   -26.1393     3.2906     1.7113   443.6693     6.7458   116.1102    69.1506
  758.5000   -26.1379     3.1431     1.4881   473.4980     6.7172   123.7068    70.1040
  759.0000   -25.8458     2.9467     1.4137   487.6550     6.6884   128.1135    66.8946
  759.5000   -25.6990     2.7972     1.4881   492.1161     6.6742   131.1852    62.6792
  760.0000   -25.6976     2.7676     1.7857   472.6855     6.6744   133.0306    56.3554
  760.5000   -25.6961     2.8431     2.0089   443.5589     6.6745   128.4858    63.1341
  761.0000   -25.9854     3.0085     2.3065   403.0345     6.6746   125.9520    73.6777
  761.5000   -26.2747     3.2938     2.6786   343.5129     6.6748   121.5566    81.5106
  762.0000   -26.7093     3.8189     3.1270   291.2520     6.6893   112.5447   103.0482
  762.5000   -26.9985     4.2842     3.5032   248.6927     6.7039   108.8939   102.5979
  763.0000   -27.1424     4.8243     3.8690   215.8347     6.7184   106.8813   102.4488
  763.5000   -27.1410     5.5294     4.1667   194.9172     6.7330   106.0600   104.2734
  764.0000   -27.1396     5.8897     4.4643   178.4772     6.7331   105.6111   104.7108
  764.5000   -27.1381     6.0401     4.6131   171.7387     6.7333   106.6513   105.2917
  765.0000   -26.9669     6.1305     4.7619   168.7313     6.7479   107.0219   115.7479
  765.5000   -26.8442     6.1159     4.8363   167.1491     6.7480   107.0942   120.8540
  766.0000   -26.6974     6.0854     4.9107   165.7015     6.7482   107.0914   119.6894
  766.5000   -26.6960     6.2217     4.9107   167.9135     6.7483   107.0148   112.3991
  767.0000   -26.5492     6.3731     4.8363   179.8317     6.7484   106.8636   116.6174
  767.5000   -26.4024     6.4938     4.6131   192.4962     6.7486   106.8614   112.1712
  768.0000   -26.2556     6.4719     4.4643   202.1756     6.7487   107.0826   111.3493
  768.5000   -26.2542     6.2276     4.1667   210.3625     6.7633   108.0484   110.2611
  769.0000   -26.3981     5.7293     3.9435   223.7733     6.7634   110.9501   104.4969
  769.5000   -26.3967     5.3699     3.8690   235.6915     6.7636   112.2172   106.1577
  770.0000   -26.2499     5.2205     3.7946   243.1321     6.7637   112.8121   109.2469
