~VERSION INFORMATION
 VERS.                2.0:   CWLS LOG ASCII STANDARD - VERSION 2.0
 WRAP.                 NO:   ONE LINE PER DEPTH STEP
~WELL INFORMATION
#MNEM.UNIT      DATA TYPE    INFORMATION
#----------   ------------   ------------------------------
 STRT.F            8.0000:   START DEPTH
 STOP.F          500.0000:   STOP DEPTH
 STEP.F            0.5000:   STEP LENGTH
 NULL.          -999.2500:   NO VALUE
 COMP. FENIX & SCISSON INC:   COMPANY
 WELL. 65 12 SX 3FI #65-3:   WELL
 FLD .             TEAPOT:   FIELD
 LOC .       S3 T38N R78W:   LOCATION
 CNTY.            NATRONA:   COUNTY
 STAT.            WYOMING:   STATE
 CTRY. UNITED STATES OF AMERICA:   COUNTRY
 SRVC.              Welex:   SERVICE COMPANY
 DATE.        01-JUN-1980:   LOGDATE
 API .       490251082400:   API NUMBER
~CURVE INFORMATION
#MNEM.UNIT       API CODE    CURVE DESCRIPTION
#----------   ------------   ------------------------------
 DEPT.F                  :   
 GRD .GAPI   45 310 01 00:   GAMMA RAY FROM DENSITY LOG
 CALD.IN     45 280 60 00:   CALIPER
 RHOB.G/C3   45 350 01 00:   BULK DENSITY
 CORR.G/C3   45 356 01 00:   DENSITY CORRECTION
 DPHI.DEC    45 890 12 00:   DENSITY POROSITY SANDSTONE
 NPHI.DEC    42 890 03 00:   NEUTRON POROSITY SANDSTONE
 SPR .MV     07 010 01 00:   SPONTANEOUS POTENTIAL
 SGRD.OHMM   07 220 05 00:   SHALLOW GUARD RESISTIVITY
 ILD .OHMM   07 120 46 00:   INDUCTION LOG DEEP
 ILM .OHMM   07 120 44 00:   INDUCTION LOG MEDIUM
~PARAMETER INFORMATION
#MNEM.UNIT          VALUE    DESCRIPTION
#----------   ------------   ------------------------------
 PD  .                 GL:   PERMANENT DATUM
 EPD .F              5155:   ELEVATION PERMANENT DATUM
 LMF .                 KB:   LOG MEASURED FROM
 DAPD.F                 4:   FEET ABOVE PERMANENT DATUM
 DMF .                 KB:   DRILLING MEASURED FROM
 EKB .F              5159:   KELLING BUSHING
 EGL .F              5155:   GROUND LEVEL
 DATE.             6-1-80:   RUN DATE
 RUN .                  1:   RUN NUMBER
 DD  .F               505:   DEPTH DRILLER
 DL  .F               502:   DEPTH LOGGER
 BLI .F               500:   BOTTOM LOG INTERVAL
 TLI .F                20:   TOP LOG INTERVAL
 BS  .IN            9.875:   BIT SIZE
 BSD .F               505:   BIT SIZE AT DEPTH
 DFT .      OIL BASED MUD:   DRILLING FLUID TYPE
 MSS .            MUD PIT:   MUD SAMPLE SOURCE
 RMS .OHMM             .9:   RESISTIVITY MUD SAMPLE
 MST .F                65:   MUD SAMPLE TEMPERATURE
 RMF .OHMM            .72:   RESISTIVITY MUD FILTRATE SAMPLE
 MFST.F                65:   MUD FILTRATE SAMPLE TEMPERATURE
 RMC .OHMM           1.08:   RESISTIVITY MUD CAKE
 MCST.F                65:   MUD CAKE SAMPLE TEMPERATURE
 MFSS.           MEASURED:   MUD FILTRATE SAMPLE SOURCE
 MCSS.           MEASURED:   MUD CAKE SAMPLE SOURCE
 RMB .OHMM            .71:   RESISTIVITY MUD AT BHT
 BHT .F                76:   BOTTOM HOLE TEMPERATURE
 TCS .HRS               2:   TIME CURCULATED STOPPED
 MRT .F                76:   MAXIMUM RECORDED TEMPERATURE
 LUN .               9685:   LOGGING UNIT NUMBER
 LUL .             CASPER:   LOGGING UNIT LOCATION
 ENGI.               REIN:   RECORDING ENGINEER
 WITN.            RHOADES:   WITNESSED BY
 CLNT.            A2DTECH:   CLIENT CODE
 ORIG.        2" 5" PRINT:   ORIGIN OF DATA
 UWI .       490251082400:   UNIQUE WELL ID
 DICO. A2D Technologies, Inc.:   DIGITIZING COMPANY
~OTHER INFORMATION
~A    DEPT     GRD       CALD       RHOB       CORR       DPHI       NPHI        SPR        SGRD         ILD        ILM 
# ...
  175.5000   100.7673    10.2083     2.4559     0.0286     0.1392     0.3096   -20.4701     7.8186     6.0159     7.1549
  176.0000   102.3005    10.2096     2.4452     0.0113     0.1334     0.3148   -20.5371     7.7258     5.9871     7.1010
  176.5000   103.9575    10.1823     2.4530     0.0169     0.1275     0.3157   -20.6042     7.6335     5.9879     7.0145
  177.0000   105.1108    10.1554     2.4625     0.0318     0.1218     0.3175   -20.6714     7.5431     5.7914     6.8082
  177.5000   105.7085    10.1287     2.4795     0.0444     0.1186     0.3192   -20.7393     7.1869     5.5659     6.6093
  178.0000   105.0698    10.1019     2.4664     0.0413     0.1306     0.3237   -20.8041     6.8006     5.3492     6.4162
  178.5000   104.4479    10.0752     2.4528     0.0293     0.1400     0.3281   -20.7097     6.4352     5.1410     6.2287
  179.0000   103.8592    10.0484     2.4392     0.0131     0.1435     0.3295   -20.6035     6.0894     4.9408     5.8851
  179.5000   104.1302    10.0461     2.4343     0.0146     0.1458     0.3275   -20.4978     5.6653     4.7775     4.9825
  180.0000   104.4464    10.0689     2.4327     0.0243     0.1464     0.3251   -20.3924     6.1107     4.6898     5.3129
  180.5000   104.7486    10.0918     2.4321     0.0222     0.1412     0.3227   -20.2869     6.8158     4.6299     5.8287
  181.0000   104.8737    10.1147     2.4392     0.0184     0.1381     0.3203   -20.1815     7.6682     4.7070     6.0189
  181.5000   104.3090    10.1376     2.4433     0.0188     0.1457     0.3149   -20.0761     7.9168     4.7804     6.0655
  182.0000   103.4488    10.1602     2.4337     0.0099     0.1404     0.3125   -19.9706     8.1880     4.9494     6.2086
  182.5000   102.5852    10.1713     2.4420    -0.0084     0.1315     0.3160   -19.8652     8.4809     5.1244     6.5545
  183.0000   101.8512    10.1605     2.4624     0.0029     0.1221     0.3187   -19.7598     8.3417     5.3056     6.9304
  183.5000   101.0926    10.1501     2.4839     0.0179     0.1123     0.3161   -19.6543     8.1927     5.4932     7.0532
  184.0000    99.5371    10.1397     2.4880     0.0301     0.1151     0.3191   -19.5484     8.1021     5.6874     7.1814
  184.5000    98.2726    10.1293     2.4892     0.0206     0.1037     0.3202   -19.4416     8.3076     5.8885     7.3120
  185.0000    97.6006    10.1188     2.5038     0.0297     0.0964     0.3184   -19.4672     8.4602     6.0967     7.3920
  185.5000    96.8854    10.1084     2.5124     0.0420     0.1026     0.3136   -19.5133     8.6156     6.1766     7.4825
  186.0000    97.4505    10.0979     2.5063     0.0358     0.1088     0.3081   -19.5599     8.7738     6.2576     7.6170
  186.5000    98.3626    10.0873     2.4968     0.0224     0.1151     0.3027   -19.6062     8.9350     6.3397     7.7539
  187.0000    99.2756    10.0774     2.4874     0.0089     0.1210     0.2990   -19.6524     8.9982     6.4229     7.8933
  187.5000    99.2070    10.0984     2.4779    -0.0025     0.1190     0.2954   -19.6987     9.0414     6.5071     8.0281
  188.0000    98.8749    10.1215     2.4763     0.0045     0.1243     0.2920   -19.7450     9.0849     6.5924     8.0281
  188.5000    97.1113    10.1448     2.4735     0.0124     0.1310     0.2898   -19.7905     9.1285     6.7239     8.0281
  189.0000    97.8226    10.1483     2.4641     0.0183     0.1397     0.2941   -19.8131     9.1723     6.7735     8.0281
  189.5000    99.2401    10.1363     2.4488     0.0085     0.1420     0.2974   -19.7801     9.2125     6.8075     8.0281
  190.0000   100.2374    10.1240     2.4331    -0.0016     0.1381     0.2935   -19.7481     9.2721     6.8417     8.0953
  190.5000   102.0739    10.1118     2.4383    -0.0068     0.1504     0.2978   -19.7160     9.3395     6.8760     8.1931
  191.0000   102.3630    10.0995     2.4304    -0.0129     0.1356     0.2982   -19.6839     9.4073     6.9106     8.2921
  191.5000   101.0652    10.0872     2.4281    -0.0223     0.1223     0.2990   -19.6518     9.4756     6.9453     8.3923
  192.0000   100.3305    10.0750     2.4692     0.0026     0.1090     0.2941   -19.6198     9.5445     6.9801     8.4937
  192.5000    99.6331    10.0627     2.4889     0.0318     0.1128     0.2901   -19.5877     9.6142     6.9961     8.5606
  193.0000   104.2332    10.0503     2.4987     0.0371     0.1176     0.2883   -19.5556     9.6455     6.9719     8.4565
  193.5000   103.5165    10.0380     2.4911     0.0358     0.1196     0.2912   -19.5236     9.4273     6.9540     8.3801
  194.0000   103.3194    10.0455     2.4785     0.0189     0.1167     0.2942   -19.4912     9.2695     6.9361     8.3043
  194.5000   105.5072    10.0545     2.4749     0.0171     0.1147     0.2978   -19.4581     9.1147     6.9107     8.2292
  195.0000   106.2570    10.0634     2.4832     0.0236     0.1127     0.3015   -19.4345     8.9624     6.8833     8.1548
  195.5000   105.6002    10.0723     2.4830     0.0293     0.1111     0.3051   -19.5956     8.8127     6.8560     8.0810
  196.0000   104.5157    10.0812     2.4925     0.0259     0.1055     0.3054   -19.7624     8.6655     6.8289     8.0080
  196.5000   103.4252    10.0901     2.5013     0.0305     0.1032     0.3081   -19.9278     8.5546     6.8018     7.9356
  197.0000   102.2355    10.0990     2.4960     0.0362     0.1070     0.3177   -20.0942     8.4525     6.7748     7.8638
  197.5000   100.6028    10.1079     2.4924     0.0413     0.1081     0.3260   -20.2855     8.3516     6.7480     7.8102
  198.0000    98.8968    10.1182     2.4939     0.0413     0.1115     0.3216   -20.5880     8.2519     6.6450     7.5751
  198.5000    97.3741    10.1366     2.4900     0.0466     0.1186     0.3165   -20.8834     8.1534     6.5305     7.3577
  199.0000    96.1457    10.1553     2.4788     0.0392     0.1126     0.3134   -21.1784     7.9108     6.4181     7.1466
  199.5000    96.8277    10.1743     2.4859     0.0371     0.1095     0.3088   -21.4736     7.5227     6.3075     6.9415
  200.0000    97.7488    10.1921     2.4922     0.0499     0.1190     0.3065   -21.7687     7.1537     6.1989     6.7427
  200.5000    98.6758    10.1453     2.4725     0.0459     0.1336     0.3104   -22.0638     6.8028     6.0921     6.5487
  201.0000    99.5426    10.0948     2.4495     0.0282     0.1482     0.3129   -22.3589     6.4691     5.6838     6.3106
  201.5000   100.6855    10.0944     2.4265     0.0090     0.1574     0.3195   -22.6540     6.1517     5.0492     5.7340
  202.0000   102.2779    10.0930     2.4066     0.0012     0.1641     0.3275   -22.9492     5.8514     4.6801     5.2101
  202.5000   103.9886    10.0915     2.3948    -0.0021     0.1706     0.3311   -23.2445     5.3999     4.3082     4.7341
  203.0000   104.9106    10.0900     2.3869     0.0047     0.1777     0.3294   -23.5388     4.8626     3.9658     4.3016
  203.5000   105.2572    10.0884     2.3792     0.0122     0.1862     0.3339   -23.8363     4.3779     3.6507     3.9086
  204.0000   104.0658    10.0869     2.3591     0.0170     0.1992     0.3440   -23.8924     3.9418     3.3606     3.5515
  204.5000   103.0623    10.0853     2.3344     0.0120     0.2123     0.3534   -23.7709     3.5492     3.0936     3.2270
  205.0000   103.4640    10.0838     2.3094     0.0071     0.2237     0.3549   -23.6468     3.1957     2.8477     2.9321
  205.5000   103.8701    10.0823     2.2915     0.0081     0.2312     0.3511   -23.5222     2.8212     2.6215     2.7183
  206.0000   102.2655    10.0807     2.2833     0.0185     0.2298     0.3468   -23.3981     3.0724     2.4132     2.5504
  206.5000   100.6988    10.0792     2.2954     0.0297     0.2214     0.3455   -23.2737     3.5306     2.2623     2.6684
  207.0000   101.4675    10.0777     2.3053     0.0438     0.2239     0.3497   -23.1388     4.0570     2.2624     2.8691
  207.5000   100.5319    10.0820     2.3007     0.0275     0.2206     0.3485   -22.9541     4.6299     2.2823     3.0849
  208.0000    99.6777    10.0994     2.3070     0.0071     0.2051     0.3457   -22.7708     4.9825     2.4319     3.3168
  208.5000   105.6069    10.1165     2.3422     0.0059     0.1902     0.3426   -22.5877     4.1094     2.6387     3.5484
