~VERSION INFORMATION
 VERS.                2.0:   CWLS LOG ASCII STANDARD - VERSION 2.0
 WRAP.                 NO:   ONE LINE PER DEPTH STEP
~WELL INFORMATION
#MNEM.UNIT      DATA TYPE    INFORMATION
#----------   ------------   ------------------------------
 STRT.F            0.0000:   START DEPTH
 STOP.F          820.0000:   STOP DEPTH
 STEP.F            0.5000:   STEP LENGTH
 NULL.          -999.2500:   NO VALUE
 COMP. LAWRENCE/ALLISON INC:   COMPANY
 WELL.       44 SX #16-11:   WELL
 FLD .             TEAPOT:   FIELD
 LOC .      S11 T38N R78W:   LOCATION
 CNTY.            NATRONA:   COUNTY
 STAT.            WYOMING:   STATE
 CTRY. UNITED STATES OF AMERICA:   COUNTRY
 SRVC.           Gearhart:   SERVICE COMPANY
 DATE.        26-AUG-1988:   LOGDATE
 API .       490251124600:   API NUMBER
~CURVE INFORMATION
#MNEM.UNIT       API CODE    CURVE DESCRIPTION
#----------   ------------   ------------------------------
 DEPT.F                  :   
 GRR .GAPI   07 310 01 00:   GAMMA RAY FROM RES. LOG.
 RILD.OHMM   07 120 46 00:   INDUCTION LOG DEEP RESISTIVITY
 RILM.OHMM   07 120 44 00:   INDUCTION LOG MEDIUM RESISTIVITY
~PARAMETER INFORMATION
#MNEM.UNIT          VALUE    DESCRIPTION
#----------   ------------   ------------------------------
 PD  .                 GL:   PERMANENT DATUM
 EPD .F              5197:   ELEVATION PERMANENT DATUM
 LMF .                 KB:   LOG MEASURED FROM
 DAPD.F                10:   FEET ABOVE PERMANENT DATUM
 DMF .                 KB:   DRILLING MEASURED FROM
 EKB .F              5207:   KELLING BUSHING
 EDF .F              5206:   DRILLING FLOOR
 EGL .F              5197:   GROUND LEVEL
 DATE.            8-26-88:   RUN DATE
 RUN .                  1:   RUN NUMBER
 DD  .F               820:   DEPTH DRILLER
 DL  .F               819:   DEPTH LOGGER
 BLI .F               811:   BOTTOM LOG INTERVAL
 TLI .F                50:   TOP LOG INTERVAL
 CS  .IN            9.625:   CASING SIZE
 CBD .F                50:   CASING BOTTOM DRILLER
 CBL .F                50:   CASING BOTTOM LOGGER
 BS  .IN             8.75:   BIT SIZE
 BSD .F               820:   BIT SIZE AT DEPTH
 DFT .                AIR:   DRILLING FLUID TYPE
 BHT .F                70:   BOTTOM HOLE TEMPERATURE
 TCS .HRS            0200:   TIME CURCULATED STOPPED
 TLAB.HRS            0342:   TIME LOGGER AT BOTTOM
 MRT .F                70:   MAXIMUM RECORDED TEMPERATURE
 LUN .               7609:   LOGGING UNIT NUMBER
 LUL .           GILLETTE:   LOGGING UNIT LOCATION
 ENGI.           JOHNSTON:   RECORDING ENGINEER
 WITN.             STRONG:   WITNESSED BY
 CLNT.            A2DTECH:   CLIENT CODE
 ORIG.        2" 5" PRINT:   ORIGIN OF DATA
 UWI .       490251124600:   UNIQUE WELL ID
 DICO. A2D Technologies, Inc.:   DIGITIZING COMPANY
~OTHER INFORMATION
~A    DEPT      GRR      RILD       RILM   
# ...
  364.0000   144.1905     8.5023     8.1732
  364.5000   142.4173     8.5742     8.2580
  365.0000   139.9558     8.6095     8.3437
  365.5000   137.3905     8.6909     8.4303
  366.0000   136.1038     8.6909     8.5178
  366.5000   135.1406     8.6910     8.6095
  367.0000   134.2467     8.6909     8.6690
  367.5000   133.7135     8.6910     8.7313
  368.0000   133.1688     8.6909     8.7941
  368.5000   132.6296     8.6909     8.8562
  369.0000   132.5211     8.6026     8.8208
  369.5000   133.0070     8.4961     8.7855
  370.0000   134.8871     8.3909     8.7505
  370.5000   136.9521     8.2871     8.7157
  371.0000   138.4762     8.2135     8.6811
  371.5000   138.4482     8.1660     8.6467
  372.0000   138.4395     8.1131     8.6095
  372.5000   138.8656     8.0604     8.4273
  373.0000   139.0857     8.0081     8.2331
  373.5000   138.5188     7.9561     8.0433
  374.0000   137.9867     7.9045     7.8579
  374.5000   138.3998     7.8532     7.6768
  375.0000   140.5418     7.8022     7.4999
  375.5000   140.2628     7.7622     7.3270
  376.0000   139.2125     7.7622     7.1581
  376.5000   138.3819     7.7884     7.0646
  377.0000   140.0264     7.8298     7.0646
  377.5000   141.9251     7.8714     7.1684
  378.0000   141.6525     7.9098     7.2912
  378.5000   139.7506     7.9611     7.4162
  379.0000   138.2488     8.0087     7.5433
  379.5000   136.7719     8.0566     7.6726
  380.0000   134.6448     8.1047     7.8041
  380.5000   132.2559     8.1879     7.9379
  381.0000   130.2211     8.3376     8.0739
  381.5000   130.8582     8.4901     8.2123
  382.0000   132.5236     8.6453     8.3531
  382.5000   132.5621     8.8033     8.4962
  383.0000   126.9752     8.9642     8.6297
  383.5000   121.1823     9.0260     8.7217
  384.0000   118.6602     8.9710     8.7732
  384.5000   128.2185     8.9080     8.6864
  385.0000   136.8815     8.8451     8.6176
  385.5000   141.1017     8.7827     8.5493
  386.0000   138.0015     8.7208     8.4526
  386.5000   134.7672     8.6466     8.3446
  387.0000   131.4230     8.5610     8.2380
  387.5000   130.7872     8.4762     8.1328
  388.0000   134.7213     8.3923     8.0289
  388.5000   138.9434     8.2912     7.9847
  389.0000   141.0928     8.3696     7.9847
  389.5000   141.6891     8.3696     8.0253
  390.0000   140.6311     8.3697     8.0665
  390.5000   137.0408     8.3689     8.1078
  391.0000   133.4671     8.3683     8.1494
  391.5000   132.4777     8.4611     8.1901
  392.0000   135.8131     8.6060     8.2802
  392.5000   138.8964     8.7523     8.4242
  393.0000   136.2305     8.8999     8.5707
  393.5000   133.0675     9.0472     8.7198
  394.0000   129.7674     9.1969     8.8714
  394.5000   128.9146     9.3491     9.0257
  395.0000   128.7308     9.5038     9.1827
  395.5000   128.6252     9.6610     9.3570
  396.0000   128.6173     9.8228     9.5603
  396.5000   129.2400    10.0058     9.7679
  397.0000   129.9843    10.2421     9.9800
  397.5000   129.2013    10.4838    10.1968
  398.0000   123.7861    10.7315    10.4183
  398.5000   118.7958    10.9848    10.6445
  399.0000   118.1292    11.2442    10.8757
  399.5000   121.1136    11.5097    11.1118
  400.0000   124.2237    11.7815    11.3525
  400.5000   123.7222    12.0842    11.5998
  401.0000   121.0786    12.1235    11.8492
  401.5000   118.3972    12.1786    11.9749
  402.0000   116.5051    12.2340    12.0050
  402.5000   115.2023    12.3139    12.0351
  403.0000   113.9150    12.2902    12.0654
  403.5000   113.6179    12.2485    12.0842
  404.0000   117.1023    12.2069    11.8794
  404.5000   120.7068    12.0649    11.7332
  405.0000   123.8683    11.8996    11.5886
  405.5000   126.7710    11.7366    11.4459
  406.0000   126.5402    11.5758    11.3050
  406.5000   122.5782    11.4172    11.1658
  407.0000   119.3058    11.2606    11.0283
  407.5000   116.7152    11.1062    10.8923
  408.0000   116.4034    10.9972    10.7581
  408.5000   117.2759    11.0174    10.6913
  409.0000   118.1419    11.0564    10.7218
  409.5000   119.0316    11.0955    10.7644
  410.0000   118.9690    11.1347    10.8073
  410.5000   118.6276    11.1741    10.8503
  411.0000   118.2803    11.2072    10.8950
  411.5000   118.0200    11.1299    10.8138
  412.0000   118.2368    11.0638    10.7302
  412.5000   118.5318    10.9981    10.6473
  413.0000   119.2319    10.9332    10.5650
  413.5000   119.9306    10.8472    10.4834
  414.0000   120.0420    10.7352    10.4024
  414.5000   120.0400    10.6237    10.3220
  415.0000   120.0287    10.5135    10.2422
  415.5000   120.1141    10.4044    10.1595
  416.0000   121.6926    10.2966    10.0734
  416.5000   123.2957    10.1995     9.9881
  417.0000   122.6977    10.1711     9.9034
  417.5000   121.2057    10.1450     9.8195
  418.0000   120.9785    10.1189     9.7363
  418.5000   121.9003    10.0929     9.6538
  419.0000   121.4782    10.0669     9.5720
  419.5000   119.5573    10.0411     9.4909
  420.0000   117.2702    10.0148     9.4104
  420.5000   116.4456    10.0092     9.3301
  421.0000   118.9664    10.0857     9.2834
  421.5000   121.6248    10.1501     9.3209
  422.0000   124.2666    10.2000     9.3483
  422.5000   125.8084    10.1170     9.3757
  423.0000   124.7287    10.0370     9.4031
  423.5000   123.5534     9.9576     9.4306
  424.0000   120.7526     9.9158     9.4581
  424.5000   117.7890     9.9524     9.4858
  425.0000   115.1517     9.9777     9.5135
  425.5000   115.7301    10.0096     9.5492
  426.0000   117.8369     9.7250     9.3571
  426.5000   119.9127     9.3406     9.0953
  427.0000   122.0519     9.0029     8.8404
  427.5000   122.2977     8.8787     8.5927
  428.0000   122.0502     8.7730     8.3520
  428.5000   121.7696     8.4997     8.1181
  429.0000   122.9370     8.1594     7.8907
  429.5000   125.1348     7.8360     7.6697
  430.0000   127.3301     7.6866     7.4549
  430.5000   129.1185     7.5415     7.2461
  431.0000   126.3746     7.4052     7.0646
  431.5000   122.2687     7.4052     7.0845
  432.0000   118.1217     7.4519     7.1637
  432.5000   114.5536     7.5233     7.2438
  433.0000   114.4819     7.5953     7.3248
  433.5000   118.8226     7.6681     7.4067
  434.0000   125.3710     7.7253     7.4895
  434.5000   131.0680     7.7763     7.5577
  435.0000   133.9251     7.8275     7.5938
  435.5000   133.1038     7.8792     7.6300
  436.0000   131.5543     7.9311     7.6665
  436.5000   129.7340     7.9847     7.7256
  437.0000   126.6190     8.1093     7.8236
  437.5000   123.4829     8.2392     7.9229
  438.0000   122.9667     8.3712     8.0236
  438.5000   125.4643     8.5052     8.1255
  439.0000   127.7591     8.6414     8.2287
  439.5000   127.2096     8.7798     8.3326
  440.0000   124.2026     8.8562     8.3964
  440.5000   121.3736     8.8030     8.4532
  441.0000   119.2184     8.7666     8.5283
  441.5000   121.4469     8.7303     8.4740
  442.0000   126.0107     8.6909     8.3927
  442.5000   130.5811     8.6144     8.3131
  443.0000   134.5941     8.5080     8.2342
  443.5000   134.9904     8.4029     8.1561
  444.0000   133.8221     8.2993     8.0788
  444.5000   131.2033     8.2126     8.0021
  445.0000   129.7978     8.2127     7.9847
  445.5000   128.6533     8.2135     7.9847
  446.0000   129.0868     8.2135     7.9847
  446.5000   130.5968     8.2135     7.9847
  447.0000   129.9956     8.2141     7.9844
  447.5000   129.4331     8.1861     7.9711
  448.0000   128.8800     8.1528     7.9393
  448.5000   128.4908     8.1199     7.9080
  449.0000   127.5054     8.0871     7.8767
  449.5000   124.3792     8.0544     7.8455
  450.0000   121.4832     8.0218     7.8145
  450.5000   122.2403     7.9894     7.7836
  451.0000   124.1975     7.9571     7.7528
  451.5000   126.1554     7.9250     7.7221
  452.0000   128.1813     7.9098     7.6895
  452.5000   130.8742     7.9098     7.6518
  453.0000   132.9346     7.9098     7.6115
  453.5000   132.2209     7.9098     7.5715
  454.0000   129.2157     7.9098     7.5320
  454.5000   128.3429     7.7405     7.4919
