~VERSION INFORMATION
 VERS.                2.0:   CWLS LOG ASCII STANDARD - VERSION 2.0
 WRAP.                 NO:   ONE LINE PER DEPTH STEP
~WELL INFORMATION
#MNEM.UNIT      DATA TYPE    INFORMATION
#----------   ------------   ------------------------------
 STRT.F           27.0000:   START DEPTH
 STOP.F          670.0000:   STOP DEPTH
 STEP.F            0.5000:   STEP LENGTH
 NULL.          -999.2500:   NO VALUE
 COMP. LAWRENCE/ALLISON INC:   COMPANY
 WELL. SX 11 WP 26 #26-11:   WELL
 FLD .           N.P.R #3:   FIELD
 LOC .      S11 T38N R78W:   LOCATION
 CNTY.            NATRONA:   COUNTY
 STAT.            WYOMING:   STATE
 CTRY. UNITED STATES OF AMERICA:   COUNTRY
 SRVC.            Unknown:   SERVICE COMPANY
 DATE.        11-SEP-1984:   LOGDATE
 API .       490251097700:   API NUMBER
~CURVE INFORMATION
#MNEM.UNIT       API CODE    CURVE DESCRIPTION
#----------   ------------   ------------------------------
 DEPT.F                  :   
 CNC .DEC    42 890 03 00:   NEUTRON POROSITY SANDSTONE
 AC  .US/F   60 520 00 00:   ACCOUSTIC SONIC
 SPR .MV     07 010 01 00:   SPONTANEOUS POTENTIAL
 RILD.OHMM   07 120 46 00:   INDUCTION LOG DEEP RESISTIVITY
 RILM.OHMM   07 120 44 00:   INDUCTION LOG MEDIUM RESISTIVITY
 RFOC.OHMM   07 220 04 00:   RESISTIVITY FOCUSED LOG
 GRD .GAPI   45 310 01 00:   GAMMA RAY FROM DENSITY LOG
 CALD.IN     45 280 60 00:   CALIPER FROM DENSITY LOG
 DEN .G/C3   45 350 01 00:   COMPENSATED BULK DENSTIY
 CORR.G/C3   45 356 01 00:   DENSITY CORRECTION
 PORD.DEC    45 890 12 00:   POROSITY DENSITY SANDSTONE
~PARAMETER INFORMATION
#MNEM.UNIT          VALUE    DESCRIPTION
#----------   ------------   ------------------------------
 PD  .                 GL:   PERMANENT DATUM
 EPD .F              5186:   ELEVATION PERMANENT DATUM
 LMF .                 GL:   LOG MEASURED FROM
 DMF .                 GL:   DRILLING MEASURED FROM
 EGL .F              5186:   GROUND LEVEL
 DATE.            9-11-84:   RUN DATE
 RUN .                  1:   RUN NUMBER
 DD  .F               672:   DEPTH DRILLER
 DL  .F               668:   DEPTH LOGGER
 BLI .F               668:   BOTTOM LOG INTERVAL
 TLI .F                45:   TOP LOG INTERVAL
 CS  .IN            8.625:   CASING SIZE
 CBD .F                42:   CASING BOTTOM DRILLER
 CBL .F                45:   CASING BOTTOM LOGGER
 BS  .IN            7.875:   BIT SIZE
 BSD .F               672:   BIT SIZE AT DEPTH
 DFT .          KCL WATER:   DRILLING FLUID TYPE
 MSS .               TANK:   MUD SAMPLE SOURCE
 RMS .OHMM            .36:   RESISTIVITY MUD SAMPLE
 MST .F                82:   MUD SAMPLE TEMPERATURE
 MFSS.                  C:   MUD FILTRATE SAMPLE SOURCE
 MCSS.                  C:   MUD CAKE SAMPLE SOURCE
 TCS .HRS               3:   TIME CURCULATED STOPPED
 MRT .F               100:   MAXIMUM RECORDED TEMPERATURE
 LUN .            HL 6307:   LOGGING UNIT NUMBER
 LUL .           GILLETTE:   LOGGING UNIT LOCATION
 ENGI.      FAHLSING/MACK:   RECORDING ENGINEER
 WITN.            JOHNSON:   WITNESSED BY
 CLNT.            A2DTECH:   CLIENT CODE
 ORIG.       2", 5" PRINT:   ORIGIN OF DATA
 UWI .       490251097700:   UNIQUE WELL ID
 DICO. A2D Technologies, Inc.:   DIGITIZING COMPANY
~OTHER INFORMATION
~A   DEPT      CNC          AC       SPR       RILD       RILM       RFOC        GRD       CALD        DEN       CORR       PORD   
# ...
  606.5000     0.2852    94.5360   -34.3510     8.5100     8.9350    11.0020   105.7940     7.7500     2.4740     0.0060     0.1220
  607.0000     0.2821    94.4530   -34.2000     8.3740     8.7880    11.0420   104.1170     7.7480     2.4770     0.0030     0.1200
  607.5000     0.2666    94.6070   -34.0490     8.2380     8.6410    10.9480   102.4600     7.7470     2.4810     0.0070     0.1190
  608.0000     0.2653    94.8380   -33.8970     8.1000     8.4940    10.8400   101.5730     7.7460     2.4900     0.0150     0.1120
  608.5000     0.2655    95.1020   -33.7460     7.9560     8.3470    10.8700   103.3220     7.7450     2.4980     0.0220     0.1060
  609.0000     0.2711    95.5360   -33.5950     7.8120     8.2010    10.9260   105.0820     7.7440     2.5060     0.0280     0.1010
  609.5000     0.2754    95.9690   -33.4450     7.6680     8.0540    10.9400   104.9900     7.7430     2.5150     0.0210     0.0980
  610.0000     0.2750    96.3570   -33.3940     7.5240     7.9070    10.4150   104.5060     7.7420     2.5230     0.0220     0.0940
  610.5000     0.2853    96.5390   -33.4970     7.3800     7.7790    10.0670   105.1250     7.7410     2.5260     0.0410     0.0930
  611.0000     0.2947    96.7230   -33.5960     7.2280     7.7630     9.7100   105.9890     7.7400     2.5170     0.0410     0.0960
  611.5000     0.2996    96.8970   -33.6950     7.2170     7.7480     9.3860   106.9130     7.7390     2.5060     0.0330     0.1030
  612.0000     0.2874    97.0720   -33.7940     7.2040     7.7320     9.0630   107.8610     7.7380     2.4950     0.0250     0.1090
  612.5000     0.2846    97.2480   -33.8930     7.1920     7.7170     8.8520   108.7800     7.7380     2.4950     0.0330     0.1100
  613.0000     0.2824    97.4240   -33.9860     7.1800     7.7100     9.2570   107.1890     7.7370     2.4970     0.0420     0.1090
  613.5000     0.2795    97.5990   -34.3650     7.1670     7.6390     9.5580   105.3550     7.7360     2.4990     0.0480     0.1090
  614.0000     0.2745    97.7750   -34.7340     7.0960     7.4550     9.8590   106.9860     7.7360     2.4980     0.0410     0.1100
  614.5000     0.2720    97.9510   -35.1020     6.8740     7.2120    10.1590   112.9030     7.7350     2.4940     0.0340     0.1110
  615.0000     0.2717    98.3780   -35.4680     6.5920     6.9680    10.3520   114.7110     7.7340     2.4940     0.0270     0.1110
  615.5000     0.2766    99.4540   -35.8340     6.3100     6.7250    10.3520   111.7100     7.7330     2.4960     0.0270     0.1120
  616.0000     0.2997   101.2040   -36.1990     6.0270     6.4810    10.2570   108.2810     7.7330     2.4910     0.0270     0.1150
  616.5000     0.3055   102.8980   -36.5660     5.7950     6.1240     9.4790   105.4470     7.7320     2.4820     0.0270     0.1190
  617.0000     0.3144   103.6720   -36.6350     5.8460     6.2370     8.2670   107.1170     7.7310     2.4640     0.0240     0.1300
  617.5000     0.3203   102.7070   -36.4050     5.9380     6.5430     6.6530   108.9300     7.7310     2.4440     0.0170     0.1410
  618.0000     0.3066   100.8950   -36.1770     6.0290     6.8500     7.2710   110.1550     7.7300     2.4320     0.0090     0.1470
  618.5000     0.2881    98.9860   -35.9480     6.1670     7.1560     8.3550   104.4960     7.7290     2.4450     0.0010     0.1420
  619.0000     0.2796    97.5490   -35.7170     6.3390     7.4630     9.4380   101.6340     7.7280     2.4590     0.0200     0.1330
  619.5000     0.2777    96.3670   -35.4670     6.5740     7.7700    10.5450   100.4370     7.7280     2.4730     0.0420     0.1240
  620.0000     0.2804    95.4980   -35.1390     7.0030     8.0760    10.6930   101.4950     7.7270     2.4870     0.0480     0.1160
  620.5000     0.2822    94.9980   -34.8160     7.4310     8.3830    10.8830   105.0080     7.7260     2.4880     0.0320     0.1140
  621.0000     0.2837    94.5840   -34.4940     7.7810     8.6890    11.0730   108.5240     7.7260     2.4850     0.0160     0.1160
  621.5000     0.2741    94.4590   -34.1730     8.1490     8.9960    11.2630   108.9870     7.7250     2.4820     0.0050     0.1180
  622.0000     0.2691    94.0960   -33.8510     8.4580     9.1840    11.4560   105.5640     7.7240     2.4780    -0.0010     0.1190
  622.5000     0.2687    93.6350   -33.5290     8.4830     9.1630    11.2470   102.0480     7.7240     2.4790    -0.0070     0.1160
  623.0000     0.2687    93.2760   -33.3140     8.5070     9.1370    11.3250    99.0770     7.7230     2.4890     0.0010     0.1110
  623.5000     0.2717    93.1740   -33.2080     8.5320     9.1110    11.4570   100.9060     7.7220     2.5010     0.0120     0.1030
  624.0000     0.2797    93.2460   -33.1000     8.5560     9.0850    11.5890   102.9710     7.7210     2.5110     0.0230     0.0970
  624.5000     0.2821    93.4690   -32.9930     8.5810     9.0580    11.6690   105.0480     7.7210     2.5210     0.0200     0.0940
  625.0000     0.2799    93.6910   -32.8860     8.6110     9.0320    11.5260   107.2340     7.7200     2.5230     0.0230     0.0960
  625.5000     0.2732    93.9340   -32.7720     8.5240     9.0160    11.3830   107.1330     7.7190     2.5190     0.0290     0.0990
  626.0000     0.2708    93.7570   -32.9200     8.4160     9.0160    11.2400   105.8910     7.7190     2.5150     0.0350     0.1010
  626.5000     0.2810    93.5620   -33.1320     8.3080     9.0160    11.0960   104.6220     7.7180     2.5110     0.0400     0.1020
  627.0000     0.2883    93.3660   -33.3450     8.2230     9.0160    10.9530   104.1550     7.7170     2.5090     0.0420     0.1010
  627.5000     0.2775    93.1700   -33.5590     8.2630     9.0160    10.8400   103.8880     7.7160     2.5110     0.0450     0.1000
  628.0000     0.2687    93.1300   -33.7720     8.2970     9.0160    11.0250   104.4200     7.7160     2.5140     0.0440     0.0980
  628.5000     0.2718    93.4360   -33.9850     8.3300     9.0160    11.2070   104.8750     7.7150     2.5160     0.0380     0.0970
  629.0000     0.2733    93.8630   -34.1990     8.3630     9.0150    11.3510   104.4820     7.7140     2.5180     0.0320     0.1000
  629.5000     0.2742    94.1640   -34.4120     8.3760     9.0160    11.1200   102.6360     7.7140     2.5130     0.0270     0.1060
  630.0000     0.2741    94.3920   -34.6250     8.3760     8.9340    10.8370   100.8920     7.7130     2.5070     0.0210     0.1080
  630.5000     0.2744    94.6310   -34.8380     8.3760     8.7660    10.4520   101.9420     7.7120     2.5020     0.0230     0.1100
  631.0000     0.2771    94.8490   -35.0520     8.2290     8.4970    10.4710   103.1280     7.7110     2.4970     0.0250     0.1110
  631.5000     0.2897    95.0800   -35.1930     7.9940     8.2270    10.5080   101.4490     7.7110     2.4940     0.0270     0.1120
  632.0000     0.2943    95.5150   -35.2620     7.7590     7.9530    10.5450    98.5010     7.7100     2.4930     0.0270     0.1130
  632.5000     0.2936    96.3200   -35.3310     7.5230     7.6720    10.1600    97.3670     7.7090     2.4920     0.0270     0.1140
  633.0000     0.2917    97.1260   -35.4010     7.2880     7.3910     9.7860   100.7460     7.7090     2.4910     0.0270     0.1150
  633.5000     0.2820    97.9310   -35.4690     7.0530     7.1100     9.4120   103.9900     7.7080     2.4860     0.0300     0.1170
  634.0000     0.2895    98.9060   -35.5300     6.6090     6.8400     9.0370   104.0230     7.7070     2.4820     0.0370     0.1190
  634.5000     0.2953    99.9310   -36.0420     5.8950     6.2410     8.6630   105.2710     7.7070     2.4820     0.0410     0.1180
  635.0000     0.2997   100.9560   -36.7210     5.2510     5.6010     8.3420   108.1810     7.7060     2.4820     0.0290     0.1180
  635.5000     0.3021   101.9810   -37.4020     4.6470     4.9610     8.0890   110.8190     7.7050     2.4820     0.0180     0.1180
  636.0000     0.3047   104.8920   -38.0840     4.0440     4.2860     7.7440   109.6160     7.7040     2.4740     0.0070     0.1240
  636.5000     0.3316   108.4480   -38.7670     3.4400     3.5920     7.1700   107.5330     7.7040     2.4580     0.0050     0.1380
