~VERSION INFORMATION
 VERS.                2.0:   CWLS LOG ASCII STANDARD - VERSION 2.0
 WRAP.                 NO:   ONE LINE PER DEPTH STEP
~WELL INFORMATION
#MNEM.UNIT      DATA TYPE    INFORMATION
#----------   ------------   ------------------------------
 STRT.F           22.0000:   START DEPTH
 STOP.F          453.0000:   STOP DEPTH
 STEP.F            0.5000:   STEP LENGTH
 NULL.          -999.2500:   NO VALUE
 COMP. LAWRENCE/ALLISON INC:   COMPANY
 WELL.    53-41 SX #10-10:   WELL
 FLD .             TEAPOT:   FIELD
 LOC .      S10 T38N R78W:   LOCATION
 CNTY.            NATRONA:   COUNTY
 STAT.            WYOMING:   STATE
 CTRY. UNITED STATES OF AMERICA:   COUNTRY
 SRVC.           Gearhart:   SERVICE COMPANY
 DATE.        29-MAY-1988:   LOGDATE
 API .       490251122500:   API NUMBER
~CURVE INFORMATION
#MNEM.UNIT       API CODE    CURVE DESCRIPTION
#----------   ------------   ------------------------------
 DEPT.F                  :   
 GRR .GAPI   07 310 01 00:   GAMMA RAY
 ILD .OHMM   07 120 46 00:   INDUCTION LOG DEEP
 ILM .OHMM   07 120 44 00:   INDUCTION LOG MEDIUM
~PARAMETER INFORMATION
#MNEM.UNIT          VALUE    DESCRIPTION
#----------   ------------   ------------------------------
 PD  .                 GL:   PERMANENT DATUM
 EPD .F              5172:   ELEVATION PERMANENT DATUM
 LMF .                 KB:   LOG MEASURED FROM
 DAPD.F                 5:   FEET ABOVE PERMANENT DATUM
 DMF .                 KB:   DRILLING MEASURED FROM
 EKB .F              5177:   KELLING BUSHING
 EGL .F              5172:   GROUND LEVEL
 DATE.        29-MAY-1988:   RUN DATE
 RUN .                  1:   RUN NUMBER
 DD  .F               470:   DEPTH DRILLER
 DL  .F               461:   DEPTH LOGGER
 BLI .F               453:   BOTTOM LOG INTERVAL
 CS  .IN            8.625:   CASING SIZE
 CBD .F                43:   CASING BOTTOM DRILLER
 CBL .F                43:   CASING BOTTOM LOGGER
 BS  .IN            7.875:   BIT SIZE
 BSD .F               470:   BIT SIZE AT DEPTH
 DFT .                AIR:   DRILLING FLUID TYPE
 TLAB.HRS            0530:   TIME LOGGER AT BOTTOM
 MRT .F                70:   MAXIMUM RECORDED TEMPERATURE
 LUN .               7597:   LOGGING UNIT NUMBER
 LUL .           GILLETTE:   LOGGING UNIT LOCATION
 ENGI.          HUCKFELDT:   RECORDING ENGINEER
 WITN.             STRONG:   WITNESSED BY
 CLNT.            A2DTECH:   CLIENT CODE
 ORIG.       2", 5" PRINT:   ORIGIN OF DATA
 UWI .       490251122500:   UNIQUE WELL ID
 DICO. A2D Technologies, Inc.:   DIGITIZING COMPANY
~OTHER INFORMATION
~A   DEPT       GRR       ILD        ILM   
# ...
  386.0000    99.5069    11.8494    12.0497
  386.5000    98.6109    11.6085    11.8862
  387.0000    97.7120    11.3722    11.6314
  387.5000    96.7880    11.2178    11.2475
  388.0000    96.5212    11.1421    10.9406
  388.5000    96.8391    10.9153    10.7169
  389.0000    97.1542    10.7558    10.4977
  389.5000    98.0762    10.5472    10.2057
  390.0000    99.3223    10.1895     9.8643
  390.5000   100.5302     9.3097     8.8842
  391.0000   101.7557     8.9934     8.2287
  391.5000   104.4987     8.0689     7.4631
  392.0000   109.3661     7.0515     6.9105
  392.5000   114.5978     6.8119     5.8461
  393.0000   120.9248     6.6265     5.5680
  393.5000   123.6678     6.6746     5.9324
  394.0000   124.2834     6.7255     6.4997
  394.5000   116.7106     6.9637     7.0222
  395.0000   111.8159     7.1623     7.7229
  395.5000   103.3831     7.8983     8.9781
  396.0000   101.5737     9.1451    10.0452
  396.5000   101.5853     9.5380    10.6273
  397.0000   101.2934     9.9484    10.8564
  397.5000   101.6085    10.3038    10.9363
  398.0000   101.6229    10.5979    11.0951
  398.5000   101.6742    10.7494    11.2552
  399.0000   102.2530    10.8274    11.4177
  399.5000   102.8716    11.0814    11.5825
  400.0000   103.4901    11.3746    11.8322
  400.5000   103.5046    11.2986    12.0883
  401.0000   103.8197    11.6217    12.2628
  401.5000   104.4382    11.8704    12.4398
  402.0000   105.0568    12.2098    12.7080
  402.5000   105.3718    12.5581    12.9598
  403.0000   105.9933    12.8267    13.3441
  403.5000   106.6118    13.1023    13.5349
  404.0000   104.8024    13.2893    13.6333
  404.5000   103.2966    13.2928    13.7317
  405.0000   101.7907    13.3892    13.7345
  405.5000    99.9842    13.5807    13.9309
  406.0000    99.0853    13.6801    14.0321
  406.5000    98.7905    13.6837    14.1335
  407.0000    99.4119    13.6873    14.2355
  407.5000   100.0305    13.6909    14.3384
  408.0000   100.6495    13.8876    14.3419
  408.5000    99.8300    14.1846    14.4455
  409.0000    98.9650    14.2876    14.5498
  409.5000    97.4647    14.4918    14.6550
  410.0000    96.2636    14.6992    14.7615
  410.5000    96.2975    14.7039    14.6607
  411.0000    98.7345    14.7078    14.5613
  411.5000    97.5377    14.7116    14.4633
  412.0000    96.3366    14.7156    14.3653
  412.5000    95.4477    14.6181    14.2679
  413.0000    97.2901    14.3195    14.1719
  413.5000    98.5212    14.2229    14.1212
  414.0000    99.4488    14.2276    14.0786
  414.5000   100.6800    14.1325    13.9832
  415.0000   101.6119    13.9406    13.8884
  415.5000   102.2361    13.7513    13.6909
  416.0000   101.0393    13.5655    13.4175
  416.5000   100.4492    13.3822    13.2336
  417.0000   101.0780    13.1996    13.0516
  417.5000   102.0056    12.9309    12.7835
  418.0000   102.0228    12.6667    12.6083
  418.5000   102.3435    12.3227    12.3494
  419.0000   101.7537    11.9871    12.1802
  419.5000   102.3821    11.8244    12.0906
  420.0000   100.5741    11.5829    11.9318
  420.5000   103.0235    11.2675    11.6862
  421.0000   104.8862    11.1922    11.4462
  421.5000   107.6145    10.9643    11.2106
  422.0000   109.4526    10.6658    11.0570
  422.5000   109.7732    10.5209    10.9055
  423.0000   110.1062    10.5244    10.8315
  423.5000   111.3293    10.5272    10.7586
  424.0000   110.4361    10.5299    10.7613
  424.5000   109.5428    10.5328    10.6878
  425.0000   108.9530    10.5362    10.6159
  425.5000   108.6666    10.5389    10.6181
  426.0000   108.9916    10.5417    10.6206
  426.5000   109.6158    10.5445    10.5481
  427.0000   110.2399    10.6217    10.5507
  427.5000   109.9579    10.4775    10.5467
  428.0000   108.1499    10.5535    10.4813
  428.5000   109.9923    10.5563    10.4103
  429.0000   111.5269    10.4136    10.3397
  429.5000   111.8519    10.1301    10.3422
  430.0000   111.8690     9.9232    10.2010
  430.5000   111.8862     9.7205    10.1319
  431.0000   111.2964     9.4564    10.0627
  431.5000   110.7066     9.1351     9.9892
  432.0000   110.4203     9.1375     9.8580
  432.5000   109.5313     9.3982     9.7229
  433.0000   108.6380     9.2712     9.5228
  433.5000   106.8343     9.0818     9.3218
  434.0000   108.3732     8.7123     8.9459
  434.5000   110.5148     8.4751     8.6399
  435.0000   112.6564     8.1721     8.2285
  435.5000   113.9119     7.7458     7.8276
  436.0000   114.8195     7.6935     7.3087
  436.5000   114.8367     7.8586     7.5177
  437.0000   114.0152     7.8658     7.8416
  437.5000  -999.2500     7.9736     8.1273
  438.0000  -999.2500     8.0876     8.3552
  438.5000  -999.2500     8.2606     8.6545
  439.0000  -999.2500     8.6187     8.9644
  439.5000  -999.2500     9.1123     9.3563
  440.0000  -999.2500     9.6371     9.8227
  440.5000  -999.2500    10.1214    10.1745
  441.0000  -999.2500    10.4112    10.4654
  441.5000  -999.2500    10.6336    10.6151
  442.0000  -999.2500    10.7856    10.6922
  442.5000  -999.2500    11.0163    10.6944
  443.0000  -999.2500    11.0192    10.6965
  443.5000  -999.2500    11.0228    10.6240
  444.0000  -999.2500    10.9485    10.6266
  444.5000  -999.2500    10.8753    10.5546
  445.0000  -999.2500    10.8033    10.5566
  445.5000  -999.2500    10.6567    10.5588
  446.0000  -999.2500    10.6602    10.5613
  446.5000  -999.2500    10.5882    10.5634
  447.0000  -999.2500    10.5917    10.5655
  447.5000  -999.2500    10.5946    10.4939
  448.0000  -999.2500    10.4513    10.4965
  448.5000  -999.2500    10.4541    10.4253
  449.0000  -999.2500    10.4567    10.4274
  449.5000  -999.2500  -999.2500    10.4295
  450.0000  -999.2500  -999.2500    10.4320
  450.5000  -999.2500  -999.2500    10.3613
  451.0000  -999.2500  -999.2500    10.3634
  451.5000  -999.2500  -999.2500    10.3655
  452.0000  -999.2500  -999.2500    10.4408
  452.5000  -999.2500  -999.2500    10.4427
  453.0000  -999.2500  -999.2500    10.4449
