~VERSION INFORMATION
 VERS.                2.0:   CWLS LOG ASCII STANDARD - VERSION 2.0
 WRAP.                 NO:   ONE LINE PER DEPTH STEP
~WELL INFORMATION
#MNEM.UNIT      DATA TYPE    INFORMATION
#----------   ------------   ------------------------------
 STRT.F           70.0000:   START DEPTH
 STOP.F          884.0000:   STOP DEPTH
 STEP.F            0.5000:   STEP LENGTH
 NULL.          -999.2500:   NO VALUE
 COMP. U S NAVY/INTEX OIL CO:   COMPANY
 WELL.   NPR#3 "S" #16-35:   WELL
 FLD .             TEAPOT:   FIELD
 LOC .      S35 T39N R78W:   LOCATION
 CNTY.            NATRONA:   COUNTY
 STAT.            WYOMING:   STATE
 CTRY. UNITED STATES OF AMERICA:   COUNTRY
 SRVC.         Lane Wells:   SERVICE COMPANY
 DATE.        21-MAR-1960:   LOGDATE
 API .       490250651800:   API NUMBER
~CURVE INFORMATION
#MNEM.UNIT       API CODE    CURVE DESCRIPTION
#----------   ------------   ------------------------------
 DEPT.F                  :   
 SPR .MV     05 010 01 00:   SPONTANEOUS POTENTIAL FROM RES.
 ASN .OHMM   05 040 16 00:   AMPLIFIED SHORT NORMAL 16"
 ILD .OHMM   05 120 46 00:   INDUCTION LOG DEEP
 CILD.MMHO   05 110 46 00:   CONDUCTIVITY INDUCTION LOG DEEP
 GR  .GAPI   30 310 01 00:   GAMMA RAY
~PARAMETER INFORMATION
#MNEM.UNIT          VALUE    DESCRIPTION
#----------   ------------   ------------------------------
 PD  .                 GL:   PERMANENT DATUM
 EPD .F              5091:   ELEVATION PERMANENT DATUM
 LMF .                 KB:   LOG MEASURED FROM
 DAPD.F                 5:   FEET ABOVE PERMANENT DATUM
 DMF .                 KB:   DRILLING MEASURED FROM
 EKB .F              5096:   KELLING BUSHING
 EGL .F              5091:   GROUND LEVEL
 DATE.          3-21-1960:   RUN DATE
 RUN .                  1:   RUN NUMBER
 DD  .F               913:   DEPTH DRILLER
 DL  .F               885:   DEPTH LOGGER
 BLI .F               883:   BOTTOM LOG INTERVAL
 TLI .F                70:   TOP LOG INTERVAL
 CS  .IN            8.625:   CASING SIZE
 CBD .F                12:   CASING BOTTOM DRILLER
 BS  .IN            7.875:   BIT SIZE
 BSD .F               913:   BIT SIZE AT DEPTH
 DFT .   GEL-OIL EMULSION:   DRILLING FLUID TYPE
 DFD .                9.9:   DRILLING FLUID DENSITY
 DFV .                 40:   DRILLING FLUID VISCOSITY
 MSS .           FLOWLINE:   MUD SAMPLE SOURCE
 RMS .OHMM              3:   RESISTIVITY MUD SAMPLE
 MST .F                64:   MUD SAMPLE TEMPERATURE
 RMF .OHMM            2.2:   RESISTIVITY MUD FILTRATE SAMPLE
 MFST.F                64:   MUD FILTRATE SAMPLE TEMPERATURE
 RMC .OHMM              4:   RESISTIVITY MUD CAKE
 MCST.F                64:   MUD CAKE SAMPLE TEMPERATURE
 MFSS.                MUD:   MUD FILTRATE SAMPLE SOURCE
 MCSS.              PRESS:   MUD CAKE SAMPLE SOURCE
 RMB .OHMM            2.7:   RESISTIVITY MUD AT BHT
 BHT .F                70:   BOTTOM HOLE TEMPERATURE
 MRT .F                70:   MAXIMUM RECORDED TEMPERATURE
 LUN .             L-4474:   LOGGING UNIT NUMBER
 LUL .             CASPER:   LOGGING UNIT LOCATION
 ENGI.             NELSON:   RECORDING ENGINEER
 WITN.          JORGENSEN:   WITNESSED BY
 CLNT.            A2DTECH:   CLIENT CODE
 ORIG.      2" & 5" PRINT:   ORIGIN OF DATA
 UWI .       490250651800:   UNIQUE WELL ID
 DICO. A2D Technologies, Inc.:   DIGITIZING COMPANY
~OTHER INFORMATION
~A   DEPT      SPR          ASN      ILD        CILD        GR   
# ...
  375.0000   -27.3109     7.4716     5.6973   184.5138  -999.2500
  375.5000   -27.2200     7.2630     5.6914   184.2887  -999.2500
  376.0000   -27.3181     7.0620     5.6855   185.4265  -999.2500
  376.5000   -27.6508     6.8511     5.6796   186.5953  -999.2500
  377.0000   -27.9546     6.6560     5.6737   187.7654  -999.2500
  377.5000   -28.2770     6.4314     5.6678   188.9371  -999.2500
  378.0000   -28.5823     6.3060     5.6618   190.1100  -999.2500
  378.5000   -28.9186     6.3579     5.6559   191.2826  -999.2500
  379.0000   -29.1222     6.7421     5.6498   192.4518  -999.2500
  379.5000   -28.7160     7.1758     5.6439   192.2303  -999.2500
  380.0000   -28.2380     7.6278     5.6382   190.6047  -999.2500
  380.5000   -28.2400     7.8265     5.6309   189.0282  -999.2500
  381.0000   -28.5548     7.8080     5.6340   187.4517  -999.2500
  381.5000   -28.8133     7.8219     5.7046   185.8752  -999.2500
  382.0000   -28.8367     7.8405     5.7748   184.2986  -999.2500
  382.5000   -27.9860     7.9985     5.8457   182.7221  -999.2500
  383.0000   -27.6651     8.1475     5.9157   181.1456  -999.2500
  383.5000   -28.2092     8.2899     5.9864   179.5690  -999.2500
  384.0000   -28.6473     8.4572     6.0567   177.9925  -999.2500
  384.5000   -29.1275     8.5417     6.1273   176.4160  -999.2500
  385.0000   -28.7081     8.4935     6.1978   174.8394  -999.2500
  385.5000   -28.1981     8.4587     6.2682   173.2629  -999.2500
  386.0000   -27.6000     8.4862     6.3388   171.6864  -999.2500
  386.5000   -27.5885     8.5791     6.4092   170.1098  -999.2500
  387.0000   -28.1875     8.6629     6.4795   168.5333  -999.2500
  387.5000   -28.5823     8.7209     6.5513   166.9568  -999.2500
  388.0000   -28.4121     8.6227     6.6098   165.3802  -999.2500
  388.5000   -28.1701     8.4351     6.5693   163.8037  -999.2500
  389.0000   -27.9466     8.2605     6.5202   162.3649  -999.2500
  389.5000   -27.7141     8.0801     6.4715   163.8775  -999.2500
  390.0000   -27.4914     7.9022     6.4233   165.2686  -999.2500
  390.5000   -27.2563     7.7245     6.3744   166.6597  -999.2500
  391.0000   -27.2411     7.5429     6.3261   168.0507  -999.2500
  391.5000   -27.3401     7.4054     6.2772   169.4418  -999.2500
  392.0000   -27.4123     7.4175     6.2291   170.8328  -999.2500
  392.5000   -27.4961     7.5195     6.1802   172.2239  -999.2500
  393.0000   -27.5740     7.6187     6.1322   173.1247  -999.2500
  393.5000   -27.6549     7.7106     6.0825   172.9857  -999.2500
  394.0000   -27.7346     7.6652     6.0824   172.8467  -999.2500
  394.5000   -27.8149     7.5771     6.0908   172.7076  -999.2500
  395.0000   -27.8947     7.4961     6.0978   172.5686  -999.2500
  395.5000   -27.9746     7.4115     6.1051   172.4296  -999.2500
  396.0000   -28.0547     7.3969     6.1124   172.2905  -999.2500
  396.5000   -28.1334     7.4166     6.1197   172.1515  -999.2500
  397.0000   -28.2181     7.4305     6.1270   172.0125  -999.2500
  397.5000   -28.2612     7.4475     6.1343   171.8735  -999.2500
  398.0000   -28.0647     7.4622     6.1415   171.7344  -999.2500
  398.5000   -27.8664     7.4798     6.1487   171.5954  -999.2500
  399.0000   -27.6661     7.4923     6.1559   171.4564  -999.2500
  399.5000   -27.4677     7.5231     6.1632   171.3174  -999.2500
  400.0000   -27.2690     7.5644     6.1704   171.1783  -999.2500
  400.5000   -27.0690     7.6012     6.1776   171.0393  -999.2500
  401.0000   -26.8701     7.6441     6.1848   170.9003  -999.2500
  401.5000   -26.6791     7.7388     6.1921   170.7612  -999.2500
  402.0000   -26.7463     7.8458     6.1993   170.6222  -999.2500
  402.5000   -26.8564     7.9617     6.2066   170.4832  -999.2500
  403.0000   -26.9606     8.0014     6.2140   170.3441  -999.2500
  403.5000   -27.0659     7.9859     6.2212   170.2051  -999.2500
  404.0000   -27.1713     7.9672     6.2288   170.0661  -999.2500
  404.5000   -27.2764     8.0549     6.2358   169.9271  -999.2500
  405.0000   -27.3820     8.2401     6.2435   169.7880  -999.2500
  405.5000   -27.4874     8.1861     6.2512   169.6490  -999.2500
  406.0000   -27.5926     8.0303     6.2503   171.1525  -999.2500
  406.5000   -27.6977     7.8797     6.1492   174.9610  -999.2500
  407.0000   -27.8033     7.7257     6.0293   178.7695  -999.2500
  407.5000   -27.9071     7.5741     5.9134   182.5780  -999.2500
  408.0000   -28.0172     7.4236     5.7944   186.3866  -999.2500
  408.5000   -28.0852     7.3437     5.6787   190.1951  -999.2500
  409.0000   -27.9504     7.3645     5.5511   194.0036  -999.2500
  409.5000   -27.8165     7.3841     5.5343   196.5786  -999.2500
  410.0000   -27.6795     7.4103     5.5371   196.5786  -999.2500
  410.5000   -27.5456     7.3826     5.5365   196.5786  -999.2500
  411.0000   -27.4095     7.3131     5.5367   196.5786  -999.2500
  411.5000   -27.2747     7.2475     5.5369   196.5786  -999.2500
  412.0000   -27.1393     7.1819     5.5370   196.5786  -999.2500
  412.5000   -27.0037     7.1395     5.5371   196.5786  -999.2500
  413.0000   -26.8689     7.1534     5.5370   196.5786  -999.2500
  413.5000   -26.7322     7.1936     5.5370   196.5786  -999.2500
  414.0000   -26.5997     7.2596     5.5368   196.5786  -999.2500
  414.5000   -26.4589     7.3467     5.5367   196.5786  -999.2500
  415.0000   -26.3340     7.4300     5.5369   196.5786  -999.2500
  415.5000   -26.1752     7.5149     5.5354   194.0344  -999.2500
  416.0000   -26.1826     7.5995     5.5458   191.4286  -999.2500
  416.5000   -26.4029     7.6833     5.6399   188.8227  -999.2500
  417.0000   -26.5945     7.7689     5.7357   186.2169  -999.2500
  417.5000   -26.8040     7.8518     5.8305   183.6111  -999.2500
  418.0000   -26.9995     7.9416     5.9277   181.0052  -999.2500
  418.5000   -27.2102     7.9391     6.0193   178.3960  -999.2500
  419.0000   -27.3981     7.9254     6.1237   175.7879  -999.2500
  419.5000   -27.6338     7.8798     6.1593   173.1602  -999.2500
  420.0000   -27.6834     7.7974     6.1191   173.8480  -999.2500
  420.5000   -27.4424     7.7173     6.0914   175.1710  -999.2500
  421.0000   -27.2338     7.6402     6.0572   176.4944  -999.2500
  421.5000   -27.0061     7.5502     6.0265   177.8199  -999.2500
  422.0000   -26.7877     7.4941     5.9940   179.1500  -999.2500
  422.5000   -26.5674     7.5015     5.9624   180.4818  -999.2500
  423.0000   -26.3418     7.5004     5.9303   181.8065  -999.2500
  423.5000   -26.1311     7.5434     5.8985   183.1312  -999.2500
  424.0000   -25.8828     7.5923     5.8667   184.4559  -999.2500
  424.5000   -25.7371     7.6417     5.8345   185.7806  -999.2500
  425.0000   -25.7640     7.6906     5.8079   187.1053  -999.2500
  425.5000   -25.8843     7.7398     5.8071   186.0388  -999.2500
  426.0000   -26.0520     7.7889     5.8076   183.6585  -999.2500
  426.5000   -26.2068     7.8382     5.8530   181.2781  -999.2500
  427.0000   -26.3676     7.8870     5.9189   178.8978  -999.2500
  427.5000   -26.5261     7.9368     5.9816   176.5175  -999.2500
  428.0000   -26.6856     7.9845     6.0461   174.1371  -999.2500
  428.5000   -26.8452     8.0362     6.1090   171.7568  -999.2500
  429.0000   -27.0032     8.0807     6.1739   169.5678  -999.2500
  429.5000   -27.1645     8.1381     6.2354   170.4822  -999.2500
  430.0000   -27.3177     8.0990     6.3042   171.3285  -999.2500
  430.5000   -27.4899     7.9966     6.3267   172.1749  -999.2500
  431.0000   -27.5480     7.9120     6.2479   173.1693  -999.2500
  431.5000   -27.2932     7.8188     6.1690   174.1275  -999.2500
  432.0000   -27.0249     7.7316     6.0876   176.8479  -999.2500
  432.5000   -26.7633     7.6384     6.0074   179.5683  -999.2500
  433.0000   -26.4785     7.5534     5.9276   182.2886  -999.2500
  433.5000   -26.3725     7.4553     5.8452   185.0090  -999.2500
  434.0000   -26.6571     7.4614     5.7691   187.7458  -999.2500
  434.5000   -26.9316     7.5410     5.6768   190.4705  -999.2500
  435.0000   -27.2309     7.6056     5.6292   191.1956  -999.2500
  435.5000   -27.4995     7.6751     5.6651   191.1899  -999.2500
