~VERSION INFORMATION
 VERS.                2.0:   CWLS LOG ASCII STANDARD - VERSION 2.0
 WRAP.                 NO:   ONE LINE PER DEPTH STEP
~WELL INFORMATION
#MNEM.UNIT      DATA TYPE    INFORMATION
#----------   ------------   ------------------------------
 STRT.F          100.0000:   START DEPTH
 STOP.F          812.0000:   STOP DEPTH
 STEP.F            0.5000:   STEP LENGTH
 NULL.          -999.2500:   NO VALUE
 COMP.               NAVY:   COMPANY
 WELL. RES 3 TEAPOT DOM #42S-11:   WELL
 FLD .             TEAPOT:   FIELD
 LOC .      S11 T38N R78W:   LOCATION
 CNTY.            NATRONA:   COUNTY
 STAT.            WYOMING:   STATE
 CTRY. UNITED STATES OF AMERICA:   COUNTRY
 SRVC.       Schlumberger:   SERVICE COMPANY
 DATE.        02-AUG-1961:   LOGDATE
 API .       490250636700:   API NUMBER
~CURVE INFORMATION
#MNEM.UNIT       API CODE    CURVE DESCRIPTION
#----------   ------------   ------------------------------
 DEPT.F                  :   
 SPR .MV     05 010 01 00:   SPONTANEOUS POTENTIAL FROM RES.
 ILD .OHMM   05 120 46 00:   INDUCTION LOG DEEP
 ASN .OHMM   05 041 16 00:   AMPLIFIED SHORT NORMAL 16"
 CILD.MMHO   05 110 46 00:   CONDUCTIVITY INDUCTION LOG DEEP
 GR  .GAPI   30 310 01 00:   GAMMA RAY
~PARAMETER INFORMATION
#MNEM.UNIT          VALUE    DESCRIPTION
#----------   ------------   ------------------------------
 PD  .                 GL:   PERMANENT DATUM
 EPD .F              5172:   ELEVATION PERMANENT DATUM
 LMF .                 KB:   LOG MEASURED FROM
 DAPD.F                 5:   FEET ABOVE PERMANENT DATUM
 DMF .                 KB:   DRILLING MEASURED FROM
 EKB .F              5177:   KELLING BUSHING
 EGL .F              5172:   GROUND LEVEL
 DATE.             8-2-61:   RUN DATE
 RUN .                  1:   RUN NUMBER
 DD  .F               810:   DEPTH DRILLER
 DL  .F               813:   DEPTH LOGGER
 BLI .F               812:   BOTTOM LOG INTERVAL
 TLI .F               100:   TOP LOG INTERVAL
 BS  .IN             6.75:   BIT SIZE
 BSD .F               810:   BIT SIZE AT DEPTH
 DFT .       OIL EMULSION:   DRILLING FLUID TYPE
 DFD .                9.2:   DRILLING FLUID DENSITY
 DFV .                 56:   DRILLING FLUID VISCOSITY
 MFSS.                  M:   MUD FILTRATE SAMPLE SOURCE
 MCSS.                  M:   MUD CAKE SAMPLE SOURCE
 RMB .OHMM            .70:   RESISTIVITY MUD AT BHT
 BHT .F                80:   BOTTOM HOLE TEMPERATURE
 TCS .HRS               1:   TIME CURCULATED STOPPED
 MRT .F                80:   MAXIMUM RECORDED TEMPERATURE
 LUN .               2552:   LOGGING UNIT NUMBER
 LUL .                RIV:   LOGGING UNIT LOCATION
 ENGI.             RANDLE:   RECORDING ENGINEER
 WITN.          VORGENSON:   WITNESSED BY
 CLNT.            A2DTECH:   CLIENT CODE
 ORIG.       2", 5" PRINT:   ORIGIN OF DATA
 UWI .       490250636700:   UNIQUE WELL ID
 DICO. A2D Technologies, Inc.:   DIGITIZING COMPANY
~OTHER INFORMATION
~A   DEPT      SPR        ILD        ASN        CILD        GR   
# ...
  466.0000   -38.0361     7.8828     8.8691   137.1859  -999.2500
  466.5000   -38.0375     7.8401     8.8757   137.1859  -999.2500
  467.0000   -38.0353     7.7965     8.8307   137.1859  -999.2500
  467.5000   -38.0402     7.7530     8.7811   137.5951  -999.2500
  468.0000   -38.0027     7.7097     8.7264   138.6806  -999.2500
  468.5000   -37.8976     7.6630     8.6934   139.7660  -999.2500
  469.0000   -37.7946     7.6561     8.6755   140.8514  -999.2500
  469.5000   -37.6905     7.6567     8.6533   141.9368  -999.2500
  470.0000   -37.5852     7.6356     8.6339   143.2161  -999.2500
  470.5000   -37.4835     7.6087     8.6129   143.0305  -999.2500
  471.0000   -37.3679     7.5815     8.5927   142.7325  -999.2500
  471.5000   -37.3849     7.5576     8.5792   142.4345  -999.2500
  472.0000   -37.4673     7.5628     8.6221   142.2111  -999.2500
  472.5000   -37.5404     7.6845     8.6900   140.2136  -999.2500
  473.0000   -37.6184     7.8466     8.8086   138.3141  -999.2500
  473.5000   -37.6937     7.9956     8.9397   136.1809  -999.2500
  474.0000   -37.7706     8.1601     9.1218   133.8238  -999.2500
  474.5000   -37.8463     8.2950     9.3462   131.1361  -999.2500
  475.0000   -37.9237     8.5097     9.5210   128.4484  -999.2500
  475.5000   -37.9977     8.7783     9.6842   125.7606  -999.2500
  476.0000   -38.0841     9.0142     9.9828   123.0729  -999.2500
  476.5000   -38.2159     9.2637    10.3720   120.3852  -999.2500
  477.0000   -38.3572     9.5058    10.4577   117.6975  -999.2500
  477.5000   -38.4870     9.7524    10.5544   115.0097  -999.2500
  478.0000   -38.6409     9.9707    10.7686   112.3220  -999.2500
  478.5000   -38.7030    10.1195    10.9655   110.0502  -999.2500
  479.0000   -38.6475    10.2623    11.1643   108.8804  -999.2500
  479.5000   -38.6021    10.4583    11.3605   107.8673  -999.2500
  480.0000   -38.5633    10.6742    11.5578   107.0352  -999.2500
  480.5000   -38.4973    10.9030    11.7282   104.7965  -999.2500
  481.0000   -38.5345    11.0731    11.8757   102.9310  -999.2500
  481.5000   -38.7675    11.2496    12.0395   101.0891  -999.2500
  482.0000   -39.1748    11.4300    12.1748    99.2471  -999.2500
  482.5000   -39.6244    11.5592    12.3048    97.4052  -999.2500
  483.0000   -40.0876    11.5772    12.4407    95.9799  -999.2500
  483.5000   -40.3215    11.6169    12.5464    95.9799  -999.2500
  484.0000   -40.2386    11.6348    12.4524    95.9799  -999.2500
  484.5000   -40.1621    11.6781    12.3415    97.1363  -999.2500
  485.0000   -40.0839    11.5032    12.2294    98.9240  -999.2500
  485.5000   -39.9974    11.2782    12.1244   100.7118  -999.2500
  486.0000   -39.9365    11.0846    11.9667   102.4996  -999.2500
  486.5000   -39.7935    10.8728    11.7556   104.2873  -999.2500
  487.0000   -39.5993    10.6707    11.5460   106.0581  -999.2500
  487.5000   -39.6243    10.4632    11.3647   108.0247  -999.2500
  488.0000   -39.6111    10.2585    11.2900   108.5743  -999.2500
  488.5000   -39.6194    10.0706    11.2280   109.1842  -999.2500
  489.0000   -39.6136    10.0610    11.1640   109.7931  -999.2500
  489.5000   -39.6194    10.0484    11.1770   110.4003  -999.2500
  490.0000   -39.5859    10.1533    11.2212   111.0446  -999.2500
  490.5000   -39.4699    10.3287    11.2572   109.9120  -999.2500
  491.0000   -39.3628    10.4338    11.3000   108.6963  -999.2500
  491.5000   -39.2319    10.5539    11.3339   107.4806  -999.2500
  492.0000   -39.1646    10.6690    11.4243   106.2649  -999.2500
  492.5000   -39.2420    10.7562    11.5952   105.0251  -999.2500
  493.0000   -39.3040    10.6777    11.7192   105.5791  -999.2500
  493.5000   -39.3737    10.5615    11.6329   106.5289  -999.2500
  494.0000   -39.3894    10.4518    11.4508   107.4786  -999.2500
  494.5000   -39.3554    10.3362    11.2795   108.0402  -999.2500
  495.0000   -39.3188    10.2282    11.1070   109.2663  -999.2500
  495.5000   -39.2819    10.0618    10.9285   110.0502  -999.2500
  496.0000   -39.2452     9.8519    10.7634   113.3628  -999.2500
  496.5000   -39.2081     9.6496    10.5471   116.0643  -999.2500
  497.0000   -39.1705     9.4512    10.4614   118.5509  -999.2500
  497.5000   -39.1602     9.2472    10.3564   120.3929  -999.2500
  498.0000   -39.1151     9.1475    10.1402   122.1105  -999.2500
  498.5000   -39.0632     9.1164     9.9678   122.5116  -999.2500
  499.0000   -39.0159     9.0547     9.8496   122.8872  -999.2500
  499.5000   -38.9626     9.0047     9.7621   123.2629  -999.2500
  500.0000   -38.9244     8.9487     9.6687   123.6386  -999.2500
  500.5000   -38.6999     8.8942     9.6115   124.0143  -999.2500
  501.0000   -38.4317     8.7864     9.5683   124.3899  -999.2500
  501.5000   -38.1501     8.6783     9.5274   124.7656  -999.2500
  502.0000   -38.0354     8.6534     9.4860   125.1413  -999.2500
  502.5000   -38.0918     8.6654     9.4448   125.5169  -999.2500
  503.0000   -38.1203     8.6749     9.4034   125.8926  -999.2500
  503.5000   -38.1643     8.6874     9.3623   126.1307  -999.2500
  504.0000   -38.1982     8.6982     9.3204   126.7100  -999.2500
  504.5000   -38.2417     8.7102     9.2824   127.3071  -999.2500
  505.0000   -38.2641     8.7210     9.2782   127.9042  -999.2500
  505.5000   -38.2612     8.7338     9.2739   128.1407  -999.2500
  506.0000   -38.2636     8.7428     9.2701   127.3521  -999.2500
  506.5000   -38.2608     8.7597     9.2649   126.5713  -999.2500
  507.0000   -38.2652     8.7397     9.2630   126.1307  -999.2500
  507.5000   -38.2594     8.5710     9.2484   127.5265  -999.2500
  508.0000   -38.2579     8.4212     9.2250   129.2357  -999.2500
  508.5000   -37.9975     8.2676     9.1978   131.6398  -999.2500
  509.0000   -37.7940     8.1173     9.1212   134.0439  -999.2500
  509.5000   -37.9939     7.9637     9.0368   136.4480  -999.2500
  510.0000   -37.9325     7.8146     8.8554   138.8522  -999.2500
  510.5000   -37.7342     7.6527     8.6416   141.2563  -999.2500
  511.0000   -37.5642     7.4755     8.4345   143.6604  -999.2500
  511.5000   -37.3898     7.4367     8.3193   146.2312  -999.2500
  512.0000   -37.2047     7.2852     8.2138   150.1675  -999.2500
  512.5000   -37.1472     7.1827     8.0968   151.7274  -999.2500
  513.0000   -37.2269     7.0677     8.1666   152.2613  -999.2500
  513.5000   -37.2878     7.0572     8.4464   152.2613  -999.2500
  514.0000   -37.3537     7.0501     8.3961   150.9548  -999.2500
  514.5000   -37.3583     7.1314     8.2718   149.2630  -999.2500
  515.0000   -37.3584     7.1629     8.1430   148.7051  -999.2500
  515.5000   -37.3588     7.1538     8.0704   149.8763  -999.2500
  516.0000   -37.3589     7.1578     8.0827   151.2563  -999.2500
  516.5000   -37.3585     7.1564     8.0982   151.2563  -999.2500
  517.0000   -37.3685     7.1549     8.1227   151.2563  -999.2500
  517.5000   -37.5471     7.1937     8.1435   150.3230  -999.2500
  518.0000   -37.7840     7.3418     8.1649   147.9397  -999.2500
  518.5000   -37.7517     7.3536     8.1997   144.6811  -999.2500
  519.0000   -37.6663     7.4208     8.2797   143.5099  -999.2500
  519.5000   -37.5981     7.5468     8.3684   142.2111  -999.2500
  520.0000   -37.5105     7.6511     8.4557   141.1558  -999.2500
  520.5000   -37.4559     7.7661     8.5458   139.6332  -999.2500
  521.0000   -37.3100     7.8732     8.6306   138.1105  -999.2500
  521.5000   -37.1184     7.9920     8.7278   136.5879  -999.2500
  522.0000   -37.1189     8.0729     8.7888   136.7443  -999.2500
  522.5000   -37.0668     7.9759     8.8004   137.5133  -999.2500
  523.0000   -37.0407     7.8350     8.7822   138.2823  -999.2500
  523.5000   -37.0024     7.7136     8.7330   139.0513  -999.2500
  524.0000   -36.9680     7.5734     8.6665   139.8203  -999.2500
  524.5000   -36.9364     7.5544     8.6007   140.5893  -999.2500
  525.0000   -36.9002     7.5598     8.5217   141.2060  -999.2500
  525.5000   -36.9791     7.5727     8.4960   140.8643  -999.2500
  526.0000   -37.1242     7.5868     8.4978   140.5827  -999.2500
  526.5000   -37.2585     7.6001     8.5150   140.3022  -999.2500
