~VERSION INFORMATION
 VERS.                2.0:   CWLS LOG ASCII STANDARD - VERSION 2.0
 WRAP.                 NO:   ONE LINE PER DEPTH STEP
~WELL INFORMATION
#MNEM.UNIT      DATA TYPE    INFORMATION
#----------   ------------   ------------------------------
 STRT.F           24.0000:   START DEPTH
 STOP.F          464.0000:   STOP DEPTH
 STEP.F            0.5000:   STEP LENGTH
 NULL.          -999.2500:   NO VALUE
 COMP.    FENIX & SCISSON:   COMPANY
 WELL.       NPR #62-S-10:   WELL
 FLD .             TEAPOT:   FIELD
 LOC .      S10 T38N R78W:   LOCATION
 CNTY.            NATRONA:   COUNTY
 STAT.            WYOMING:   STATE
 CTRY. UNITED STATES OF AMERICA:   COUNTRY
 SRVC.              Welex:   SERVICE COMPANY
 DATE.        12-APR-1977:   LOGDATE
 API .       490251033300:   API NUMBER
~CURVE INFORMATION
#MNEM.UNIT       API CODE    CURVE DESCRIPTION
#----------   ------------   ------------------------------
 DEPT.F                  :   
 SPR .MV     07 010 01 00:   SPONTANEOUS POTENTIAL
 ILD .OHMM   07 120 46 00:   INDUCTION LOG DEEP
 ILM .OHMM   07 120 44 00:   INDUCTION LOG MEDIUM
 SGRD.OHMM   07 221 05 00:   SHALLOW SHORT GUARD RESISTIVITY
 GRD .GAPI   45 310 01 00:   GAMMA RAY FROM DENSITY LOG
 CALD.IN     45 280 60 00:   CALIPER FROM DENSITY LOG
 CORR.G/C3   45 356 01 00:   DENSITY CORRECTION
 RHOB.G/C3   45 350 01 00:   BULK DENSITY
 DPHI.DEC    45 890 12 00:   DENSITY POROSITY SANDSTONE
~PARAMETER INFORMATION
#MNEM.UNIT          VALUE    DESCRIPTION
#----------   ------------   ------------------------------
 PD  .                 GL:   PERMANENT DATUM
 EPD .F              5155:   ELEVATION PERMANENT DATUM
 LMF .                 GL:   LOG MEASURED FROM
 DMF .                 GL:   DRILLING MEASURED FROM
 EGL .F              5155:   GROUND LEVEL
 DATE.        12-APR-1977:   RUN DATE
 RUN .                  1:   RUN NUMBER
 DD  .F               460:   DEPTH DRILLER
 DL  .F               464:   DEPTH LOGGER
 BLI .F               462:   BOTTOM LOG INTERVAL
 TLI .F                30:   TOP LOG INTERVAL
 CS  .IN            8.625:   CASING SIZE
 BS  .IN            7.875:   BIT SIZE
 BSD .F               460:   BIT SIZE AT DEPTH
 DFT .            KCL GEL:   DRILLING FLUID TYPE
 DFD .                8.8:   DRILLING FLUID DENSITY
 TCS .HRS            0100:   TIME CURCULATED STOPPED
 MRT .F                65:   MAXIMUM RECORDED TEMPERATURE
 ENGI.        E. CALLAHAN:   RECORDING ENGINEER
 WITN.            R. LYON:   WITNESSED BY
 CLNT.            A2DTECH:   CLIENT CODE
 ORIG.           5" PRINT:   ORIGIN OF DATA
 UWI .       490251033300:   UNIQUE WELL ID
 DICO. A2D Technologies, Inc.:   DIGITIZING COMPANY
~OTHER INFORMATION
~A   DEPT      SPR        ILD        ILM       SGRD        GRD       CALD       CORR       RHOB       DPHI   
# ...
  133.5000   -28.6001     8.3320     8.9745    11.5830   122.4198     8.0812     0.0338     2.4616     0.1167
  134.0000   -28.7371     8.2735     8.9116    11.5890   122.2719     8.0680     0.0323     2.4557     0.1197
  134.5000   -28.8659     8.1733     8.7948    11.5938   122.6072     8.0548     0.0325     2.4512     0.1209
  135.0000   -29.1480     8.0582     8.6118    11.4393   121.2594     8.0416     0.0340     2.4444     0.1230
  135.5000   -29.1316     7.9526     8.2745    11.1318   119.6428     8.0738     0.0371     2.4391     0.1263
  136.0000   -29.1153     7.7525     7.9902    10.6838   121.6102     8.0906     0.0372     2.4346     0.1303
  136.5000   -29.2522     7.4948     7.6090    10.1832   120.9795     8.0923     0.0388     2.4266     0.1352
  137.0000   -29.2318     7.1460     7.2691     9.5727   119.2509     8.1091     0.0389     2.4199     0.1390
  137.5000   -29.0661     6.6737     7.0265     9.1242   117.9194     8.1258     0.0390     2.4110     0.1423
  138.0000   -29.0498     6.0207     6.6906     8.6367   116.4379     8.1426     0.0376     2.3967     0.1462
  138.5000   -28.8841     5.7010     6.2904     8.0630   115.5517     8.1443     0.0345     2.3757     0.1651
  139.0000   -28.7185     5.3242     5.9066     7.6848   115.5740     8.1461     0.0303     2.3554     0.1816
  139.5000   -28.7021     4.8366     5.5220     7.2674   116.3414     8.1479     0.0244     2.3292     0.1951
  140.0000   -28.5365     4.1861     5.1352     6.5517   117.1088     8.1347     0.0170     2.2991     0.2146
  140.5000   -28.5201     3.8291     4.5056     6.0287   117.5764     8.1365     0.0096     2.2781     0.2260
  141.0000   -28.3545     3.5072     3.9807     5.5046   117.4398     8.1233     0.0006     2.2443     0.2368
  141.5000   -28.1889     3.0880     3.5907     4.9550   117.3121     8.1105    -0.0068     2.2217     0.2464
  142.0000   -28.0232     2.9435     3.1944     3.9817   116.4304     8.1123    -0.0127     2.2226     0.2563
  142.5000   -27.8576     2.8643     3.1304     3.2031   116.7480     8.0987    -0.0141     2.2445     0.2452
  143.0000   -27.8412     2.8459     3.1768     3.0952   117.8153     8.0709    -0.0095     2.2912     0.2187
  143.5000   -27.6756     2.8873     3.3599     3.2956   119.3324     8.0727    -0.0049     2.3448     0.1780
  144.0000   -27.5100     3.0111     3.6032     3.7083   120.6995     8.0745     0.0012     2.3903     0.1631
  144.5000   -27.1951     3.1402     3.9724     5.0990   122.8162     8.0763     0.0043     2.4138     0.1416
  145.0000   -27.1642     3.3434     4.4714     6.8674   124.6331     8.0781     0.0089     2.4320     0.1324
  145.5000   -27.3119     3.5846     4.9297     6.2790   126.3001     8.0798     0.0059     2.4399     0.1282
  146.0000   -27.5937     3.9166     5.5875     8.6348   127.9671     8.0816     0.0015     2.4249     0.1324
  146.5000   -27.7269     4.3389     6.0335     9.4508   129.3433     8.0684    -0.0014     2.4235     0.1372
  147.0000   -27.8597     4.6818     6.6060     9.5864   130.8845     8.0702    -0.0012     2.4288     0.1354
  147.5000   -28.1416     5.2064     6.8908     9.5232   132.5887     8.0720     0.0049     2.4334     0.1317
  148.0000   -28.1252     5.8048     7.0403     9.3325   134.9348     8.0737     0.0096     2.4395     0.1284
  148.5000   -28.1060     6.2533     7.1433     9.0191   133.9076     8.0755     0.0157     2.4448     0.1248
  149.0000   -28.0865     6.6132     7.1979     8.8980   133.6211     8.0773     0.0216     2.4487     0.1205
  149.5000   -28.0632     6.8447     7.2529     8.9026   134.0931     8.0791     0.0232     2.4540     0.1193
  150.0000   -27.6119     6.8480     7.2569     9.0929   135.2940     8.0958     0.0249     2.4548     0.1204
  150.5000   -27.6044     6.7107     7.3110     9.4828   137.1257     8.1038     0.0279     2.4466     0.1234
  151.0000   -27.7463     6.4858     7.3146     9.8212   138.3428     8.1117     0.0265     2.4339     0.1276
  151.5000   -28.0373     6.2253     7.2175     9.8941   139.8598     8.0994     0.0206     2.4241     0.1345
  152.0000   -28.1791     5.9752     6.9274     9.6957   138.9780     8.1008     0.0087     2.4129     0.1423
  152.5000   -28.3209     5.7351     6.6030     8.2742   137.7964     8.1020     0.0028     2.4002     0.1513
  153.0000   -28.4627     5.5047     6.3816     6.1059   136.4648     8.1032     0.0015     2.4010     0.1537
  153.5000   -28.4549     5.2836     6.1250     7.1135   133.7362     8.1044     0.0016     2.4071     0.1503
  154.0000   -28.4474     5.1420     5.9606     8.0047   130.5033     8.1055     0.0047     2.4161     0.1398
  154.5000   -28.4398     5.1084     6.0887     7.6302   133.6702     8.0915     0.0095     2.4267     0.1316
  155.0000   -28.7308     5.1470     6.2626     6.4221   131.4428     8.1079     0.0157     2.4456     0.1229
  155.5000   -28.7233     5.2574     6.4416     7.7440   132.5101     8.0938     0.0246     2.4660     0.1126
  156.0000   -28.8669     5.4450     6.5799     9.3381   134.1770     8.0953     0.0307     2.4857     0.1045
  156.5000   -29.0087     5.6784     6.8622     9.0515   133.4451     8.0965     0.0353     2.4971     0.0958
  157.0000   -29.1504     5.9219     7.2563     8.6019   132.1135     8.1126     0.0384     2.5001     0.0915
  157.5000   -29.2922     6.1332     7.6730     9.4465   132.4312     8.1138     0.0400     2.5010     0.0900
  158.0000   -29.4339     6.3520     7.9470    10.3178   133.1985     8.1150     0.0417     2.5043     0.0884
  158.5000   -29.5757     6.6243     8.0617    10.5306   133.6616     8.1162     0.0433     2.5063     0.0878
  159.0000   -29.7174     6.8607     8.1216    10.7543   131.7348     8.1473     0.0434     2.5041     0.0887
  159.5000   -29.7080     7.0079     8.1820    11.0602   132.6521     8.1485     0.0420     2.5004     0.0914
  160.0000   -29.8516     7.2079     8.3577    11.2976   135.3685     8.1497     0.0391     2.4944     0.0961
  160.5000   -29.6930     7.4137     8.7163    11.3031   133.7371     8.1511     0.0362     2.4975     0.0964
  161.0000   -29.6855     7.5728     8.9034    11.2305   133.2803     8.1224     0.0409     2.4998     0.0946
  161.5000   -29.8291     7.7889     8.5455    11.0816   134.2224     8.1083     0.0470     2.5006     0.0925
  162.0000   -29.8197     7.8468     8.3163    10.8597   135.4395     8.0945     0.0411     2.4984     0.0939
  162.5000   -29.8122     7.6895     8.1484    10.7144   136.8066     8.0807     0.0247     2.4752     0.1089
  163.0000   -29.8047     7.4833     8.0403    10.5009   136.3746     8.0822     0.0219     2.4602     0.1155
  163.5000   -29.7972     7.3333     7.9887    10.2903   137.2919     8.0834     0.0220     2.4474     0.1212
  164.0000   -29.7896     7.1862     7.9375    10.0840   136.2602     8.0846     0.0268     2.4535     0.1176
  164.5000   -29.7821     7.0421     7.9423     9.8818   138.5312     8.0857     0.0327     2.4649     0.1137
  165.0000   -29.7761     6.9009     7.7830     9.6169   137.6494     8.0869     0.0263     2.4650     0.1152
  165.5000   -29.7687     6.7159     7.6788     9.4241   136.9176     8.0881     0.0180     2.4522     0.1191
  166.0000   -29.7612     6.5804     7.4737     9.1715   135.8858     8.0893     0.0061     2.4370     0.1256
  166.5000   -29.7537     6.4048     7.2732     9.0488   135.0040     8.0754    -0.0043     2.4248     0.1358
  167.0000   -29.5970     6.2756     6.9808     8.8684   135.9213     8.0617    -0.0146     2.4098     0.1469
  167.5000   -29.5896     6.1421     6.7002     8.6307   136.9841     8.0629    -0.0220     2.3967     0.1529
  168.0000   -29.5821     5.9307     6.2552     8.0025   135.5071     8.0790    -0.0249     2.3975     0.1544
  168.5000   -29.5746     5.6943     6.0867     7.3181   134.3254     8.0952    -0.0263     2.4089     0.1468
  169.0000   -29.5671     5.4338     6.2613     6.2021   133.5936     8.0964    -0.0232     2.4270     0.1369
  169.5000   -29.5596     5.2922     6.4849     5.4405   133.4570     8.0826    -0.0171     2.4444     0.1295
