~VERSION INFORMATION
 VERS.                2.0:   CWLS LOG ASCII STANDARD - VERSION 2.0
 WRAP.                 NO:   ONE LINE PER DEPTH STEP
~WELL INFORMATION
#MNEM.UNIT      DATA TYPE    INFORMATION
#----------   ------------   ------------------------------
 STRT.F           80.0000:   START DEPTH
 STOP.F          820.0000:   STOP DEPTH
 STEP.F            0.5000:   STEP LENGTH
 NULL.          -999.2500:   NO VALUE
 COMP. U S NAVY/INTEX OIL CO:   COMPANY
 WELL.      GOVT #15-S-35:   WELL
 FLD .        EAST TEAPOT:   FIELD
 LOC .      S35 T39N R78W:   LOCATION
 CNTY.            NATRONA:   COUNTY
 STAT.            WYOMING:   STATE
 CTRY. UNITED STATES OF AMERICA:   COUNTRY
 SRVC.       Schlumberger:   SERVICE COMPANY
 DATE.        12-FEB-1961:   LOGDATE
 API .       490250654500:   API NUMBER
~CURVE INFORMATION
#MNEM.UNIT       API CODE    CURVE DESCRIPTION
#----------   ------------   ------------------------------
 DEPT.F                  :   
 SPR .MV     05 010 01 00:   SPONTANEOUS POTENTIAL FROM RES.
 ASN .OHMM   05 041 16 00:   AMPLIFIED SHORT NORMAL 16"
 ILD .OHMM   05 120 46 00:   INDUCTION LOG DEEP
 CILD.MMHO   05 110 46 00:   CONDUCTIVITY INDUCTION LOG DEEP
 GR  .GAPI   30 310 01 00:   GAMMA RAY
~PARAMETER INFORMATION
#MNEM.UNIT          VALUE    DESCRIPTION
#----------   ------------   ------------------------------
 PD  .                 GL:   PERMANENT DATUM
 EPD .F              5069:   ELEVATION PERMANENT DATUM
 LMF .                 KB:   LOG MEASURED FROM
 DAPD.F                 4:   FEET ABOVE PERMANENT DATUM
 DMF .                 KB:   DRILLING MEASURED FROM
 EKB .F              5073:   KELLING BUSHING
 EGL .F              5069:   GROUND LEVEL
 DATE.            2-12-61:   RUN DATE
 RUN .                  1:   RUN NUMBER
 DD  .F               820:   DEPTH DRILLER
 DL  .F               820:   DEPTH LOGGER
 BLI .F               819:   BOTTOM LOG INTERVAL
 TLI .F                90:   TOP LOG INTERVAL
 CBD .F                12:   CASING BOTTOM DRILLER
 BS  .IN            7.875:   BIT SIZE
 BSD .F               820:   BIT SIZE AT DEPTH
 DFT .   GEL OIL EMULSION:   DRILLING FLUID TYPE
 DFD .                9.5:   DRILLING FLUID DENSITY
 DFV .                 50:   DRILLING FLUID VISCOSITY
 DFPH.                  8:   DRILLING FLUID PH
 DFL .                  9:   DRILLING FLUID LOSS
 MSS .          FLOW LINE:   MUD SAMPLE SOURCE
 RMS .OHMM           1.04:   RESISTIVITY MUD SAMPLE
 MST .F                56:   MUD SAMPLE TEMPERATURE
 MFSS.                  C:   MUD FILTRATE SAMPLE SOURCE
 MCSS.                  C:   MUD CAKE SAMPLE SOURCE
 RMB .OHMM           2.78:   RESISTIVITY MUD AT BHT
 BHT .F                77:   BOTTOM HOLE TEMPERATURE
 TCS .HRS               1:   TIME CURCULATED STOPPED
 MRT .F                77:   MAXIMUM RECORDED TEMPERATURE
 LUN .               2523:   LOGGING UNIT NUMBER
 LUL .               CSPR:   LOGGING UNIT LOCATION
 ENGI.             KNOBEL:   RECORDING ENGINEER
 WITN.          JORGENSEN:   WITNESSED BY
 CLNT.            A2DTECH:   CLIENT CODE
 ORIG.       2", 5" PRINT:   ORIGIN OF DATA
 UWI .       490250654500:   UNIQUE WELL ID
 DICO. A2D Technologies, Inc.:   DIGITIZING COMPANY
~OTHER INFORMATION
~A   DEPT      SPR          ASN        ILD      CILD        GR   
# ...
  629.0000   -23.9577     7.5858     6.4448   156.5073    81.4549
  629.5000   -23.9092     7.6374     6.3607   160.8566    78.2723
  630.0000   -23.8592     7.7547     6.1113   165.5379    81.6544
  630.5000   -23.8073     7.7414     5.7262   170.8167    79.3617
  631.0000   -23.7556     7.6828     5.3396   184.8822    75.3692
  631.5000   -23.7039     7.5523     4.9488   199.9480    75.1133
  632.0000   -23.6522     7.3741     4.5464   215.0139    77.7436
  632.5000   -23.6005     6.8255     4.3929   230.0797    78.5274
  633.0000   -23.5488     6.2737     4.2469   243.3144    79.4734
  633.5000   -23.4971     5.8240     4.0989   252.4430    83.0695
  634.0000   -23.4454     5.6540     3.9502   261.5733    86.2189
  634.5000   -23.3936     5.5472     3.8006   270.7035    84.1294
  635.0000   -23.3421     5.5097     3.6541   276.3944    82.1590
  635.5000   -23.2904     5.7417     3.8017   271.9190    83.9753
  636.0000   -23.2354     6.0072     3.9931   261.4343    80.1419
  636.5000   -23.2854     6.2083     4.2130   246.5837    75.3981
  637.0000   -23.3794     6.3974     4.5338   231.7331    73.2161
  637.5000   -23.4747     6.7424     4.8507   216.8825    76.4121
  638.0000   -23.5701     7.1140     5.1674   203.2681    74.6709
  638.5000   -23.6646     7.4863     5.4842   189.8734    76.6537
  639.0000   -23.7584     7.8587     5.8010   176.4788    80.1749
  639.5000   -23.7616     8.2314     6.1178   165.2888    84.1417
  640.0000   -23.6384     8.6016     6.4350   157.0385    79.3659
  640.5000   -23.5162     8.9335     6.7527   148.7882    77.8364
  641.0000   -23.3934     9.0759     7.0674   140.5064    75.4508
  641.5000   -23.2703     9.1638     7.3292   138.4283    73.9642
  642.0000   -23.1464     9.2099     7.3204   137.9567    77.0283
  642.5000   -23.0286     9.1335     7.2571   140.9055    79.0227
  643.0000   -23.0872     9.0539     7.0915   144.9356    77.0094
  643.5000   -23.1537     8.9262     6.9214   148.7435    79.8303
  644.0000   -23.2195     8.7902     6.6517   152.5513    83.0314
  644.5000   -23.2850     8.6408     6.3742   156.3592    81.6310
  645.0000   -23.3505     8.4551     6.0968   160.1670    80.7965
  645.5000   -23.4160     8.2658     5.8196   168.3189    80.3465
  646.0000   -23.4816     8.0768     5.5424   179.9209    78.9251
  646.5000   -23.5482     7.8913     5.2652   191.5230    79.2087
  647.0000   -23.6126     7.5526     4.9880   203.1250    77.5573
  647.5000   -23.5030     7.1678     4.7105   214.7270    72.7664
  648.0000   -23.3797     6.7795     4.4306   226.3291    75.4256
  648.5000   -23.2568     6.3777     4.1418   237.1437    76.6972
  649.0000   -23.1341     6.1107     4.2421   238.9778    77.4831
  649.5000   -23.0116     6.0673     4.3983   234.0318    80.9579
  650.0000   -22.8890     6.2693     4.5542   227.9740    82.2971
  650.5000   -22.7662     6.5007     4.7961   220.8066    78.8139
  651.0000   -22.6432     7.0126     5.1258   211.9033    77.3211
  651.5000   -22.5220     7.5588     5.4554   198.7596    81.7064
  652.0000   -22.4516     8.1043     5.7858   185.6052    84.2892
  652.5000   -22.5544     8.4345     6.1149   172.4826    84.2914
  653.0000   -22.6529     8.5339     6.4430   160.2191    89.6972
  653.5000   -22.7493     8.6273     6.6424   152.5437    93.3071
  654.0000   -22.8060     8.7209     6.6871   151.2156    89.2330
  654.5000   -22.6931     8.8303     6.7321   149.8754    91.2666
  655.0000   -22.5854     8.9422     6.7759   148.5573    84.7434
  655.5000   -22.4765     9.0543     6.8198   147.2313    88.1710
  656.0000   -22.5890     9.1659     6.8638   145.9026    91.8991
  656.5000   -22.8492     9.2682     6.9079   144.5751    90.1730
  657.0000   -23.1117     9.3255     6.9517   143.2470    93.5664
  657.5000   -23.3757     9.3740     6.9952   141.9323    90.7909
  658.0000   -23.6378     9.3724     7.0217   142.7135    92.0441
  658.5000   -23.8080     9.3522     7.0218   143.4870    89.7108
  659.0000   -23.7309     9.3006     7.0219   144.2605    86.7286
  659.5000   -23.6569     9.2493     7.0220   145.0339    92.1155
  660.0000   -23.5832     9.1980     7.0249   145.8074    78.1289
  660.5000   -23.5092     9.1465     6.9290   146.5809    80.2148
  661.0000   -23.4354     9.0943     6.8111   147.2456    76.4761
  661.5000   -23.3615     9.0457     6.6918   148.1456    83.7419
  662.0000   -23.2877     8.9967     6.5732   147.9084    81.2903
  662.5000   -23.2139     8.9460     6.4604   150.6118    80.3521
  663.0000   -23.1402     8.8521     6.1201   161.4458    84.0476
  663.5000   -23.0667     8.6318     5.7167   178.9018    82.3224
  664.0000   -22.9849     8.3369     5.3110   196.4413    82.7018
  664.5000   -22.8911     7.7887     4.9070   213.9302    84.7960
  665.0000   -22.7974     7.2045     4.6019   222.7007    85.5297
  665.5000   -22.7045     6.6021     4.5209   223.1797    81.6877
  666.0000   -22.6273     6.4035     4.4365   223.7274    74.3652
  666.5000   -22.6976     6.3331     4.5207   224.3098    71.9094
  667.0000   -22.7693     6.3703     4.6211   223.1195    75.4783
  667.5000   -22.8404     6.9806     4.7713   215.7945    76.4758
  668.0000   -22.9116     7.5703     4.9282   203.9664    74.6116
  668.5000   -22.9827     7.9611     5.0858   192.1559    75.8481
  669.0000   -23.0539     8.0102     5.2225   189.9745    78.7579
  669.5000   -23.1250     7.9117     5.0984   193.1928    77.7872
  670.0000   -23.1962     7.6231     4.9725   198.4213    78.1785
  670.5000   -23.2674     7.2374     4.8478   203.6190    80.9039
  671.0000   -23.3391     6.9452     4.7263   208.8167    83.5303
  671.5000   -23.4095     6.8791     4.6804   211.6534    83.3317
  672.0000   -23.3307     6.9608     4.9215   207.9811    80.8329
  672.5000   -23.2289     7.1165     5.1540   198.8237    78.3375
  673.0000   -23.1267     7.5592     5.3706   184.1103    75.8573
  673.5000   -23.0247     7.9966     5.9394   168.7470    75.1010
  674.0000   -22.9228     8.4333     6.5549   153.3928    75.9612
  674.5000   -22.8209     8.8704     7.1753   138.0459    77.2805
  675.0000   -22.7189     9.3070     7.7834   129.1924    77.4838
  675.5000   -22.6166     9.7425     8.4510   124.5976    75.7259
  676.0000   -22.5156    10.0628     8.7626   120.0008    73.5733
  676.5000   -22.4342    10.1971     8.8998   116.6629    71.6645
  677.0000   -22.4764    10.3520     9.0333   113.6631    70.8336
  677.5000   -22.5159    10.5827     9.1655   110.6628    71.1836
  678.0000   -22.5549    10.8158     9.2982   107.6633    68.0561
  678.5000   -22.5941    11.0484     9.4316   104.6632    66.4949
  679.0000   -22.6332    11.2830     9.5659   101.6630    71.2313
  679.5000   -22.6723    11.5177     9.6977    99.1036    71.4207
  680.0000   -22.7115    11.7551     9.6998   101.1554    69.1314
  680.5000   -22.7508    11.9944     8.9052   110.8974    68.0939
  681.0000   -22.7905    11.9560     8.1057   122.2829    74.1188
  681.5000   -22.8230    11.7625     7.3105   135.8343    74.8064
  682.0000   -22.7539    10.6110     6.5127   154.3490    72.5467
  682.5000   -22.6849    10.0408     6.0356   170.5646    71.8602
  683.0000   -22.6165     8.8755     6.0657   168.3363    71.5649
  683.5000   -22.5483     8.2010     6.1100   166.0676    67.6791
  684.0000   -22.4800     8.2929     6.1567   168.7981    64.6748
  684.5000   -22.4116     8.7835     6.2033   165.9163    61.6240
  685.0000   -22.3434    10.6256     6.5304   159.2630    60.3948
  685.5000   -22.2758     9.9594     7.5076   150.1150    61.9239
  686.0000   -22.2589    13.0688     8.6623   125.7035    60.1099
  686.5000   -22.3300    14.0679     9.8140   101.5537    62.5532
  687.0000   -22.3997    14.3768    10.9627    88.2899    65.7517
  687.5000   -22.4696    14.6213    11.8302    80.1793    68.3789
  688.0000   -22.5395    14.7409    11.8596    79.0977    68.3760
  688.5000   -22.6094    14.8604    11.6536    81.1360    70.5380
  689.0000   -22.6793    14.9806    11.4360    83.1744    72.3292
  689.5000   -22.7496    15.0989    11.6602    85.1435    68.8119
