~VERSION INFORMATION
 VERS.                2.0:   CWLS LOG ASCII STANDARD - VERSION 2.0
 WRAP.                 NO:   ONE LINE PER DEPTH STEP
~WELL INFORMATION
#MNEM.UNIT      DATA TYPE    INFORMATION
#----------   ------------   ------------------------------
 STRT.F           86.0000:   START DEPTH
 STOP.F          770.0000:   STOP DEPTH
 STEP.F            0.5000:   STEP LENGTH
 NULL.          -999.2500:   NO VALUE
 COMP.           U S NAVY:   COMPANY
 WELL. NPR 3 TEAPOT DOM #85-S-34:   WELL
 FLD .        TEAPOT DOME:   FIELD
 LOC .      S34 T39N R78W:   LOCATION
 CNTY.            NATRONA:   COUNTY
 STAT.            WYOMING:   STATE
 CTRY. UNITED STATES OF AMERICA:   COUNTRY
 SRVC. Schlumberger Well Surveying Corp:   SERVICE COMPANY
 DATE.        31-JUL-1963:   LOGDATE
 API .       490250652800:   API NUMBER
~CURVE INFORMATION
#MNEM.UNIT       API CODE    CURVE DESCRIPTION
#----------   ------------   ------------------------------
 DEPT.F                  :   
 ASN .OHMM   05 041 16 00:   AMPLIFIED SHORT NORMAL 16"
 CILD.MMHO   05 110 46 00:   CONDUCTIVITY INDUCTION LOG DEEP
 ILD .OHMM   05 120 46 00:   INDUCTION LOG DEEP
 SPR .MV     05 010 01 00:   SPONTANEOUS POTENTIAL FROM RES.
 GR  .GAPI   30 310 01 00:   GAMMA RAY
~PARAMETER INFORMATION
#MNEM.UNIT          VALUE    DESCRIPTION
#----------   ------------   ------------------------------
 PD  .                 GL:   PERMANENT DATUM
 EPD .F              5071:   ELEVATION PERMANENT DATUM
 LMF .                 KB:   LOG MEASURED FROM
 DAPD.F                 5:   FEET ABOVE PERMANENT DATUM
 DMF .                 KB:   DRILLING MEASURED FROM
 EKB .F              5076:   KELLING BUSHING
 EGL .F              5071:   GROUND LEVEL
 DATE.        31-JUL-1963:   RUN DATE
 RUN .                  1:   RUN NUMBER
 DD  .F               770:   DEPTH DRILLER
 DL  .F               771:   DEPTH LOGGER
 BLI .F               770:   BOTTOM LOG INTERVAL
 TLI .F                86:   TOP LOG INTERVAL
 CS  .IN            8.625:   CASING SIZE
 CBD .F                10:   CASING BOTTOM DRILLER
 BS  .IN             6.75:   BIT SIZE
 BSD .F               770:   BIT SIZE AT DEPTH
 DFT .          GEL & OIL:   DRILLING FLUID TYPE
 DFD .                9.6:   DRILLING FLUID DENSITY
 DFV .                 39:   DRILLING FLUID VISCOSITY
 DFPH.                9.0:   DRILLING FLUID PH
 DFL .                8.8:   DRILLING FLUID LOSS
 MSS .           FLOWLINE:   MUD SAMPLE SOURCE
 RMS .OHMM           3.06:   RESISTIVITY MUD SAMPLE
 MST .F                94:   MUD SAMPLE TEMPERATURE
 RMF .OHMM           2.64:   RESISTIVITY MUD FILTRATE SAMPLE
 MFST.F                94:   MUD FILTRATE SAMPLE TEMPERATURE
 MFSS.               MEAS:   MUD FILTRATE SAMPLE SOURCE
 TCS .HRS               1:   TIME CURCULATED STOPPED
 MRT .F           LESS 80:   MAXIMUM RECORDED TEMPERATURE
 LUN .               4507:   LOGGING UNIT NUMBER
 LUL .               CSPR:   LOGGING UNIT LOCATION
 ENGI.            WINKLER:   RECORDING ENGINEER
 WITN.          JORGENSON:   WITNESSED BY
 CLNT.            A2DTECH:   CLIENT CODE
 ORIG.           5" PRINT:   ORIGIN OF DATA
 UWI .       490250652800:   UNIQUE WELL ID
 DICO. A2D Technologies, Inc.:   DIGITIZING COMPANY
~OTHER INFORMATION
~A   DEPT        ASN      CILD         ILD      SPR         GR   
# ...
  208.0000     8.0640   120.7895     8.2162   -32.2024  -999.2500
  208.5000     8.2050   116.0655     8.2938   -32.9982  -999.2500
  209.0000     8.2832   116.0734     8.3716   -34.1079  -999.2500
  209.5000     8.3143   116.0813     8.3706   -34.9037  -999.2500
  210.0000     8.2669   116.0891     8.3698   -35.8565  -999.2500
  210.5000     8.0457   117.6743     8.3691   -35.7103  -999.2500
  211.0000     7.9502   119.2594     8.3683   -35.5615  -999.2500
  211.5000     7.8389   122.4218     7.6622   -36.2030  -999.2500
  212.0000     7.5184   131.8934     6.7993   -36.9988  -999.2500
  212.5000     6.9990   155.5606     5.7797   -37.4806  -999.2500
  213.0000     6.4910   203.6757     4.9169   -37.4915  -999.2500
  213.5000     5.6901   262.8318     3.8189   -36.6991  -999.2500
  214.0000     4.7792   314.8902     2.4859   -33.3898  -999.2500
  214.5000     3.7742   384.2986     2.0933   -31.8362  -999.2500
  215.0000     3.6012   441.0889     1.9357   -30.6018  -999.2500
  215.5000     3.4282   483.6834     1.8566   -29.5422  -999.2500
  216.0000     3.2866   514.4484     1.8558   -28.7681  -999.2500
  216.5000     3.2392   519.9767     1.8550   -28.6219  -999.2500
  217.0000     3.3143   499.8959     1.9326   -28.7898  -999.2500
  217.5000     3.5788   446.1757     2.1016   -28.8006  -999.2500
  218.0000     3.7406   396.4661     2.4013   -28.8115  -999.2500
  218.5000     3.8345   338.6823     2.6354   -29.4503  -999.2500
  219.0000     4.0225   286.9984     3.3400   -30.8740  -999.2500
  219.5000     4.8386   220.1500     4.2796   -31.9838  -999.2500
  220.0000     7.6012   158.0457     5.8463   -32.4656  -999.2500
  220.5000     8.1974   116.2555     7.4913   -32.7904  -999.2500
  221.0000     8.7780    92.6040    10.0767   -33.1152  -999.2500
  221.5000     9.2800    86.3008    10.8596   -34.2250  -999.2500
  222.0000     9.8606    84.7314    11.2507   -35.8057  -999.2500
  222.5000     9.9702    84.7412    11.2499   -36.6015  -999.2500
  223.0000     9.9698    84.7490    11.2491   -37.0833  -999.2500
  223.5000     9.8753    91.0661    10.3863   -37.4082  -999.2500
  224.0000     9.6552   110.0014     8.5046   -36.4459  -999.2500
  224.5000     9.1055   140.7663     6.7013   -34.5861  -999.2500
  225.0000     8.5086   169.9540     5.6034   -33.6211  -999.2500
  225.5000     7.6606   181.7915     5.2108   -32.9017  -999.2500
  226.0000     6.3416   182.5880     5.1316   -32.7528  -999.2500
  226.5000     6.4041   183.3845     5.0525   -32.7664  -999.2500
  227.0000     6.8904   185.7583     5.0517   -33.0912  -999.2500
  227.5000     6.5290   188.9207     5.0509   -34.0440  -999.2500
  228.0000     6.5068   189.7153     5.2069   -34.8398  -999.2500
  228.5000     7.7843   158.9680     5.8331   -36.2635  -999.2500
  229.0000     8.9143   138.4711     7.2429   -36.7453  -999.2500
  229.5000     9.4477   118.7629     8.4177   -36.5964  -999.2500
  230.0000     9.7143   105.3638     8.9655   -36.6100  -999.2500
  230.5000     9.9029    99.8512     9.2025   -37.2488  -999.2500
  231.0000    10.0064    99.0684     9.4342   -37.7306  -999.2500
  231.5000    10.1178    99.0783     9.5980   -37.5840  -999.2500
  232.0000    10.2292    99.0861     9.7565   -38.2233  -999.2500
  232.5000    10.3407    97.5167     9.9804   -39.4900  -999.2500
  233.0000    10.4189    95.9473    10.1362   -39.5113  -999.2500
  233.5000    10.5755    94.3778    10.2140   -37.3139  -999.2500
  234.0000    10.7322    92.0198    10.2916   -37.3250  -999.2500
  234.5000    10.8104    91.2370    10.3692   -37.6682  -999.2500
  235.0000    10.8885    92.8241    10.5249   -38.0011  -999.2500
  235.5000    10.8882    92.8320    10.5242   -38.7729  -999.2500
  236.0000    10.8879    93.6285    10.6020   -39.5687  -999.2500
  236.5000    10.8876    92.8457    10.6796   -40.2075  -999.2500
  237.0000    11.0443    92.8556    10.6786   -40.5323  -999.2500
  237.5000    11.2009    92.8634    10.8347   -40.5432  -999.2500
  238.0000    11.3577    91.2940    10.9905   -40.8680  -999.2500
  238.5000    11.5143    90.5113    11.0681   -40.5649  -999.2500
  239.0000    11.6709    88.1551    11.2241   -38.0640  -999.2500
  239.5000    11.6706    85.7971    11.3018   -36.5050  -999.2500
  240.0000    11.8274    83.4390    11.4578   -35.8852  -999.2500
  240.5000    11.9840    83.4469    11.4568   -35.8987  -999.2500
  241.0000    11.9837    82.6641    11.4561   -35.9096  -999.2500
  241.5000    12.1403    82.6740    11.4553   -36.2344  -999.2500
  242.0000    12.1400    82.6818    11.4545   -36.8732  -999.2500
  242.5000    12.2182    82.6897    11.4537   -38.7679  -999.2500
  243.0000    12.2179    82.6975    11.5313   -40.0346  -999.2500
  243.5000    12.2961    82.7054    11.4522   -40.5191  -999.2500
  244.0000    12.2958    82.7132    11.4514   -40.8414  -999.2500
  244.5000    12.4524    82.7211    11.4506   -41.0094  -999.2500
  245.0000    12.6091    82.7290    11.6066   -41.0204  -999.2500
  245.5000    12.7684    81.9480    11.7625   -41.0335  -999.2500
  246.0000    12.9225    80.3785    11.9185   -40.5734  -999.2500
  246.5000    13.0870    79.5980    11.9961   -40.1133  -999.2500
  247.0000    13.3247    79.6058    12.0737   -39.8102  -999.2500
  247.5000    13.5495    79.6137    12.2297   -39.8210  -999.2500
  248.0000    13.7846    78.8328    12.3854   -40.1459  -999.2500
  248.5000    14.1767    77.2635    12.7765   -40.9417  -999.2500
  249.0000    14.5689    74.1168    13.3243   -42.0514  -999.2500
  249.5000    15.1180    69.3928    14.1072   -43.3181  -999.2500
  250.0000    15.3846    63.8827    15.0471   -44.1123  -999.2500
  250.5000    15.9648    62.3284    15.6896   -41.2980  -999.2500
  251.0000    17.0316    60.7895    16.4508   -40.6792  -999.2500
  251.5000    18.4438    59.2377    16.6829   -39.7465  -999.2500
  252.0000    19.5421    57.6025    16.6799   -38.1858  -999.2500
  252.5000    19.3845    56.1496    16.7559   -37.0960  -999.2500
  253.0000    18.6775    55.3917    16.7521   -36.6342  -999.2500
  253.5000    18.7555    54.6337    16.5924   -36.9900  -999.2500
  254.0000    18.2838    56.2493    16.1975   -38.5387  -999.2500
  254.5000    17.3413    59.4346    15.6332   -39.8037  -999.2500
  255.0000    16.5557    62.6198    14.6232   -40.4409  -999.2500
  255.5000    16.2333    66.5937    14.0716   -41.5489  -999.2500
  256.0000    15.9264    68.2019    13.9118   -42.9710  -999.2500
  256.5000    15.8473    68.2334    13.8304   -42.9801  -999.2500
  257.0000    15.6112    68.2707    13.7490   -42.9893  -999.2500
  257.5000    15.5321    68.3014    13.7459   -42.9985  -999.2500
  258.0000    15.5315    68.3321    13.7429   -43.1646  -999.2500
  258.5000    15.5309    68.3627    13.7398   -43.0168  -999.2500
  259.0000    15.4518    68.3934    13.7367   -43.0283  -999.2500
  259.5000    15.2942    68.4241    13.7330   -42.7212  -999.2500
  260.0000    14.9796    69.2434    13.7300   -42.4164  -999.2500
  260.5000    14.5002    70.0631    13.7269   -41.4859  -999.2500
  261.0000    14.3503    70.0946    13.7239   -39.6112  -999.2500
  261.5000    14.3497    70.1318    13.7208   -38.0505  -999.2500
  262.0000    14.3490    70.9511    13.7178   -37.7457  -999.2500
  262.5000    14.3484    73.3477    13.5580   -37.7551  -999.2500
  263.0000    14.3478    76.5329    12.4295   -37.7664  -999.2500
  263.5000    13.5623    84.4500    11.4352   -37.6185  -999.2500
  264.0000    12.1488    94.7331    10.7268   -37.4684  -999.2500
  264.5000    11.7557   101.0729    10.0184   -37.3229  -999.2500
  265.0000    11.5196   108.3068     8.9966   -36.2332  -999.2500
  265.5000    10.1846   120.8580     8.2098   -34.6725  -999.2500
  266.0000     9.4146   135.0843     7.5014   -31.5419  -999.2500
  266.5000     8.8175   145.3673     6.8714   -31.8651  -999.2500
  267.0000     8.4087   152.4958     6.6332   -32.9848  -999.2500
  267.5000     7.9999   155.6810     6.5511   -33.2963  -999.2500
  268.0000     7.7638   156.5004     6.5481   -32.5228  -999.2500
  268.5000     7.6690   155.7413     6.4667   -32.2157  -999.2500
