~VERSION INFORMATION
 VERS.                2.0:   CWLS LOG ASCII STANDARD - VERSION 2.0
 WRAP.                 NO:   ONE LINE PER DEPTH STEP
~WELL INFORMATION
#MNEM.UNIT      DATA TYPE    INFORMATION
#----------   ------------   ------------------------------
 STRT.F           57.5000:   START DEPTH
 STOP.F         4049.0000:   STOP DEPTH
 STEP.F            0.5000:   STEP LENGTH
 NULL.          -999.2500:   NO VALUE
 COMP. LAWRENCE/ALLISON INC:   COMPANY
 WELL.     NPR #3` #13-11:   WELL
 FLD .             NPR #3:   FIELD
 LOC .      S11 T38N R78W:   LOCATION
 CNTY.            NATRONA:   COUNTY
 STAT.            WYOMING:   STATE
 CTRY. UNITED STATES OF AMERICA:   COUNTRY
 SRVC.      Dresser Atlas:   SERVICE COMPANY
 DATE.        13-MAR-1986:   LOGDATE
 API .       490251106500:   API NUMBER
~CURVE INFORMATION
#MNEM.UNIT       API CODE    CURVE DESCRIPTION
#----------   ------------   ------------------------------
 DEPT.F                  :   
 CALR.IN     07 280 01 00:   CALIPER FROM RESISTIVITY
 GRR .GAPI   07 310 01 00:   GAMMA RAY FROM RESISTIVITY
 RILD.OHMM   07 120 46 00:   RESISTIVITY INDUCTION LOG DEEP
 RILM.OHMM   07 120 44 00:   RESISTIVITY INDUCTION LOG MEDIUM
 RFOC.OHMM   07 220 04 00:   RESISTIVITY FOCUSED LOG
 SPR .MV     07 010 01 00:   SPONTANEOUS POTENTIAL FROM RES.
 PORD.DEC    45 890 12 00:   POROSITY DENSITY SANDSTONE
 CNC .DEC    42 890 03 00:   COMPENSATED NEUTRON POROSITY SANDSTONE
 CORR.G/C3   45 356 01 00:   DENSITY CORRECTION
 DEN .G/C3   45 350 01 00:   COMPENSATED BULK DENSTIY
 DT  .US/F   60 520 00 00:   INTERVAL TRANSIT TIME
~PARAMETER INFORMATION
#MNEM.UNIT          VALUE    DESCRIPTION
#----------   ------------   ------------------------------
 PD  .                 GL:   PERMANENT DATUM
 EPD .F              5176:   ELEVATION PERMANENT DATUM
 LMF .                 KB:   LOG MEASURED FROM
 DAPD.F              11.8:   FEET ABOVE PERMANENT DATUM
 DMF .                 KB:   DRILLING MEASURED FROM
 EKB .F            5187.8:   KELLING BUSHING
 EGL .F              5176:   GROUND LEVEL
 DATE.        13-MAR-1986:   RUN DATE
 RUN .                  1:   RUN NUMBER
 DD  .F              4051:   DEPTH DRILLER
 DL  .F              4051:   DEPTH LOGGER
 BLI .F              4049:   BOTTOM LOG INTERVAL
 TLI .F               564:   TOP LOG INTERVAL
 CS  .IN            8.625:   CASING SIZE
 CBD .F               564:   CASING BOTTOM DRILLER
 CBL .F               564:   CASING BOTTOM LOGGER
 BS  .IN            7.875:   BIT SIZE
 BSD .F              4051:   BIT SIZE AT DEPTH
 DFT .          POLY- KCL:   DRILLING FLUID TYPE
 DFD .                8.9:   DRILLING FLUID DENSITY
 DFV .                 36:   DRILLING FLUID VISCOSITY
 DFPH.                8.5:   DRILLING FLUID PH
 DFL .               13.5:   DRILLING FLUID LOSS
 MSS .           FLOWLINE:   MUD SAMPLE SOURCE
 RMS .OHMM           .275:   RESISTIVITY MUD SAMPLE
 MST .F                55:   MUD SAMPLE TEMPERATURE
 RMF .OHMM           .206:   RESISTIVITY MUD FILTRATE SAMPLE
 MFST.F                55:   MUD FILTRATE SAMPLE TEMPERATURE
 RMC .OHMM           .344:   RESISTIVITY MUD CAKE
 MCST.F                55:   MUD CAKE SAMPLE TEMPERATURE
 MFSS.               CALC:   MUD FILTRATE SAMPLE SOURCE
 MCSS.               CALC:   MUD CAKE SAMPLE SOURCE
 RMB .OHMM           .092:   RESISTIVITY MUD AT BHT
 BHT .F               164:   BOTTOM HOLE TEMPERATURE
 TCS .HRS            0400:   TIME CURCULATED STOPPED
 MRT .F               164:   MAXIMUM RECORDED TEMPERATURE
 LUN .               6274:   LOGGING UNIT NUMBER
 LUL .           GILLETTE:   LOGGING UNIT LOCATION
 ENGI.             MILLER:   RECORDING ENGINEER
 WITN.             STRONG:   WITNESSED BY
 CLNT.            A2DTECH:   CLIENT CODE
 ORIG.         2.5" PRINT:   ORIGIN OF DATA
 UWI .       490251106500:   UNIQUE WELL ID
 DICO. A2D Technologies, Inc.:   DIGITIZING COMPANY
~OTHER INFORMATION
~A   DEPT     CALR         GRR      RILD       RILM       RFOC        SPR       PORD        CNC       CORR        DEN         DT   
# ...
 2406.0000    11.0960    93.1043     5.9209     5.7107     6.4970   -41.6566  -999.2500  -999.2500  -999.2500  -999.2500  -999.2500
 2406.5000    11.1257    94.9325     5.8385     5.7365     6.0613   -41.8872  -999.2500  -999.2500  -999.2500  -999.2500  -999.2500
 2407.0000    11.1553    95.5337     5.8376     5.7896     5.7338   -42.2012  -999.2500  -999.2500  -999.2500  -999.2500  -999.2500
 2407.5000    11.1544    96.1350     5.8368     5.9244     5.5765   -42.2104  -999.2500  -999.2500  -999.2500  -999.2500  -999.2500
 2408.0000    11.1841   101.6442     5.9178     6.0067     5.7330   -42.2195  -999.2500  -999.2500  -999.2500  -999.2500  -999.2500
 2408.5000    11.1832   101.6319     5.9998     6.0902     6.0596   -42.2287  -999.2500  -999.2500  -999.2500  -999.2500  -999.2500
 2409.0000    11.1823    99.1656     6.0827     6.2324     6.3167   -42.2378  -999.2500  -999.2500  -999.2500  -999.2500  -999.2500
 2409.5000    11.2119    97.3129     6.0818     6.2314     6.3218   -42.6246  -999.2500  -999.2500  -999.2500  -999.2500  -999.2500
 2410.0000    11.2110    96.6871     6.0309     6.2305     6.1430   -43.1707  -999.2500  -999.2500  -999.2500  -999.2500  -999.2500
 2410.5000    11.2407    97.2883     5.9470     6.1725     6.0579   -43.4848  -999.2500  -999.2500  -999.2500  -999.2500  -999.2500
 2411.0000    11.2703    97.2761     5.8645     6.0296     5.8106   -43.4939  -999.2500  -999.2500  -999.2500  -999.2500  -999.2500
 2411.5000    11.3000    99.1043     5.8305     5.9729     5.8102   -43.8079  -999.2500  -999.2500  -999.2500  -999.2500  -999.2500
 2412.0000    11.2991   100.3190     5.7493     5.9446     5.7298   -43.8171  -999.2500  -999.2500  -999.2500  -999.2500  -999.2500
 2412.5000    11.3287    99.6933     5.7485     5.8348     5.7294   -43.8262  -999.2500  -999.2500  -999.2500  -999.2500  -999.2500
 2413.0000    11.3584    96.6135     5.7477     5.6996     5.9724   -43.5296  -999.2500  -999.2500  -999.2500  -999.2500  -999.2500
 2413.5000    11.3881    91.6932     5.7469     5.6460     6.4009   -43.5396  -999.2500  -999.2500  -999.2500  -999.2500  -999.2500
 2414.0000    11.4177    88.0000     5.7461     5.7246     6.8601   -43.5488  -999.2500  -999.2500  -999.2500  -999.2500  -999.2500
 2414.5000    11.4168    87.3742     5.8256     5.8311     6.8596   -43.5579  -999.2500  -999.2500  -999.2500  -999.2500  -999.2500
 2415.0000    11.4159    89.2025     5.8710     5.9673     6.4889   -43.5671  -999.2500  -999.2500  -999.2500  -999.2500  -999.2500
 2415.5000    11.4150    92.2577     6.0353     6.0502     5.7270   -43.6306  -999.2500  -999.2500  -999.2500  -999.2500  -999.2500
 2416.0000    11.4446   100.8344     6.1186     6.1342     5.4851   -43.8902  -999.2500  -999.2500  -999.2500  -999.2500  -999.2500
 2416.5000    11.4437    99.5951     6.1551     6.1049     5.7262   -44.2557  -999.2500  -999.2500  -999.2500  -999.2500  -999.2500
 2417.0000    11.4734    97.7423     6.1542     6.0196     6.1370   -44.5679  -999.2500  -999.2500  -999.2500  -999.2500  -999.2500
 2417.5000    11.5031    98.9571     6.1534     5.8805     6.4867   -44.8323  -999.2500  -999.2500  -999.2500  -999.2500  -999.2500
 2418.0000    11.5327   100.1718     6.1062     5.8525     6.8563   -45.1463  -999.2500  -999.2500  -999.2500  -999.2500  -999.2500
 2418.5000    11.5318   100.7730     6.0668     5.8790     6.7614   -45.1555  -999.2500  -999.2500  -999.2500  -999.2500  -999.2500
 2419.0000    11.5309   100.1472     6.0660     5.9606     6.3960   -45.1646  -999.2500  -999.2500  -999.2500  -999.2500  -999.2500
 2419.5000    11.5299    98.2945     6.1106     6.0434     5.9670   -45.1738  -999.2500  -999.2500  -999.2500  -999.2500  -999.2500
 2420.0000    11.5290    95.8282     6.1950     6.1559     5.8033   -45.1829  -999.2500  -999.2500  -999.2500  -999.2500  -999.2500
 2420.5000    11.5281    93.9755     6.3215     6.2414     5.7230   -45.1921  -999.2500  -999.2500  -999.2500  -999.2500  -999.2500
 2421.0000    11.5272    89.6687     6.4090     6.2988     5.8025   -45.2012  -999.2500  -999.2500  -999.2500  -999.2500  -999.2500
 2421.5000    11.5263    86.5890     6.3197     6.2977     6.1332   -45.2104  -999.2500  -999.2500  -999.2500  -999.2500  -999.2500
 2422.0000    11.5253    90.2577     6.2735     6.2969     6.7581   -45.2542  -999.2500  -999.2500  -999.2500  -999.2500  -999.2500
 2422.5000    11.5244    93.3129     6.1864     6.2089     7.0447   -45.5665  -999.2500  -999.2500  -999.2500  -999.2500  -999.2500
 2423.0000    11.5235    93.9141     6.1440     6.0938     7.0594   -45.8476  -999.2500  -999.2500  -999.2500  -999.2500  -999.2500
 2423.5000    11.5226    93.2883     6.0999     5.9530     6.8510   -45.8567  -999.2500  -999.2500  -999.2500  -999.2500  -999.2500
 2424.0000    11.5217    92.6626     6.0575     5.7619     6.7562   -45.8659  -999.2500  -999.2500  -999.2500  -999.2500  -999.2500
 2424.5000    11.5208    94.4908     6.0146     5.6028     6.5709   -45.9020  -999.2500  -999.2500  -999.2500  -999.2500  -999.2500
 2425.0000    11.5198    96.3190     5.9723     5.3975     6.3907   -46.1890  -999.2500  -999.2500  -999.2500  -999.2500  -999.2500
 2425.5000    11.5189    95.6932     5.8891     5.3968     6.1298   -46.1982  -999.2500  -999.2500  -999.2500  -999.2500  -999.2500
 2426.0000    11.5180    95.0675     5.8883     5.3214     5.9616   -46.2073  -999.2500  -999.2500  -999.2500  -999.2500  -999.2500
 2426.5000    11.5171    95.0552     5.8461     5.3206     5.9467   -46.2165  -999.2500  -999.2500  -999.2500  -999.2500  -999.2500
 2427.0000    11.5162    96.2699     5.8867     5.3199     6.1285   -46.2256  -999.2500  -999.2500  -999.2500  -999.2500  -999.2500
 2427.5000    11.5152    96.8712     5.8466     5.3191     6.1281   -46.2348  -999.2500  -999.2500  -999.2500  -999.2500  -999.2500
 2428.0000    11.4837    96.8589     5.8038     5.3184     5.7969   -46.2437  -999.2500  -999.2500  -999.2500  -999.2500  -999.2500
 2428.5000    11.4522    96.2331     5.8030     5.3177     5.5602   -45.9480  -999.2500  -999.2500  -999.2500  -999.2500  -999.2500
 2429.0000    11.4208    95.6074     5.7222     5.3169     5.4833   -45.9573  -999.2500  -999.2500  -999.2500  -999.2500  -999.2500
 2429.5000    11.4198    95.5951     5.6059     5.3411     5.6371   -45.9665  -999.2500  -999.2500  -999.2500  -999.2500  -999.2500
 2430.0000    11.4189    92.5153     5.4871     5.3154     5.8762   -45.9756  -999.2500  -999.2500  -999.2500  -999.2500  -999.2500
 2430.5000    11.4180    86.9816     5.4106     5.1931     6.1255   -45.9848  -999.2500  -999.2500  -999.2500  -999.2500  -999.2500
 2431.0000    11.4477    89.4233     5.4099     5.0027     6.1428   -45.9939  -999.2500  -999.2500  -999.2500  -999.2500  -999.2500
 2431.5000    11.4467    94.3190     5.4091     4.8194     5.8750   -46.0030  -999.2500  -999.2500  -999.2500  -999.2500  -999.2500
 2432.0000    11.4765    97.3742     5.4084     4.8188     5.7139   -46.0122  -999.2500  -999.2500  -999.2500  -999.2500  -999.2500
 2432.5000    11.4755    99.2025     5.4076     4.8181     5.4806   -46.0213  -999.2500  -999.2500  -999.2500  -999.2500  -999.2500
 2433.0000    11.4746    99.8037     5.4069     4.8174     5.2568   -46.0305  -999.2500  -999.2500  -999.2500  -999.2500  -999.2500
 2433.5000    11.4736   100.4049     5.4061     4.8393     5.1841   -46.0396  -999.2500  -999.2500  -999.2500  -999.2500  -999.2500
 2434.0000    11.5034   101.0061     5.3308     4.9065     5.2562   -46.0488  -999.2500  -999.2500  -999.2500  -999.2500  -999.2500
 2434.5000    11.5024   100.3804     5.1840     5.0211     5.3292   -45.7531  -999.2500  -999.2500  -999.2500  -999.2500  -999.2500
 2435.0000    11.4709    99.7546     4.9814     5.0203     5.3288   -45.7623  -999.2500  -999.2500  -999.2500  -999.2500  -999.2500
 2435.5000    11.4394    98.5153     4.7779     4.9048     5.3284   -45.4665  -999.2500  -999.2500  -999.2500  -999.2500  -999.2500
 2436.0000    11.4691    97.2761     4.5826     4.5741     5.3281   -45.4757  -999.2500  -999.2500  -999.2500  -999.2500  -999.2500
