~VERSION INFORMATION
 VERS.                2.0:   CWLS LOG ASCII STANDARD - VERSION 2.0
 WRAP.                 NO:   ONE LINE PER DEPTH STEP
~WELL INFORMATION
#MNEM.UNIT      DATA TYPE    INFORMATION
#----------   ------------   ------------------------------
 STRT.F           14.0000:   START DEPTH
 STOP.F          581.5000:   STOP DEPTH
 STEP.F            0.5000:   STEP LENGTH
 NULL.          -999.2500:   NO VALUE
 COMP. LAWRENCE/ALLISON INC:   COMPANY
 WELL.   41-11 STX #10-10:   WELL
 FLD .              NPR 3:   FIELD
 LOC .      S10 T38N R78W:   LOCATION
 CNTY.            NATRONA:   COUNTY
 STAT.            WYOMING:   STATE
 CTRY. UNITED STATES OF AMERICA:   COUNTRY
 SRVC.           Gearhart:   SERVICE COMPANY
 DATE.        03-JUL-1986:   LOGDATE
 API .       490251107900:   API NUMBER
~CURVE INFORMATION
#MNEM.UNIT       API CODE    CURVE DESCRIPTION
#----------   ------------   ------------------------------
 DEPT.F                  :   
 GRR .GAPI   07 310 01 00:   GAMMA RAY FROM RES. LOG.
 RILM.OHMM   07 120 44 00:   INDUCTION LOG MEDIUM RESISTIVITY
 RILD.OHMM   07 120 46 00:   INDUCTION LOG DEEP RESISTIVITY
~PARAMETER INFORMATION
#MNEM.UNIT          VALUE    DESCRIPTION
#----------   ------------   ------------------------------
 PD  .                 GL:   PERMANENT DATUM
 EPD .F              5233:   ELEVATION PERMANENT DATUM
 LMF .                 KB:   LOG MEASURED FROM
 DAPD.F                 5:   FEET ABOVE PERMANENT DATUM
 DMF .                 KB:   DRILLING MEASURED FROM
 EKB .F              5238:   KELLING BUSHING
 EGL .F              5233:   GROUND LEVEL
 DATE.             7-3-86:   RUN DATE
 RUN .                  1:   RUN NUMBER
 DD  .F               590:   DEPTH DRILLER
 DL  .F               591:   DEPTH LOGGER
 BLI .F               581:   BOTTOM LOG INTERVAL
 TLI .F                14:   TOP LOG INTERVAL
 CS  .IN            8.625:   CASING SIZE
 CBD .F                47:   CASING BOTTOM DRILLER
 CBL .F                47:   CASING BOTTOM LOGGER
 BS  .IN            7.875:   BIT SIZE
 BSD .F               590:   BIT SIZE AT DEPTH
 DFT .                AIR:   DRILLING FLUID TYPE
 TCS .HRS            0900:   TIME CURCULATED STOPPED
 TLAB.HRS            1100:   TIME LOGGER AT BOTTOM
 MRT .F                80:   MAXIMUM RECORDED TEMPERATURE
 LUN .               7609:   LOGGING UNIT NUMBER
 LUL .           GILLETTE:   LOGGING UNIT LOCATION
 ENGI.              BAUER:   RECORDING ENGINEER
 WITN.              FIVAS:   WITNESSED BY
 CLNT.            A2DTECH:   CLIENT CODE
 ORIG.       2", 5" PRINT:   ORIGIN OF DATA
 UWI .       490251107900:   UNIQUE WELL ID
 DICO. A2D Technologies, Inc.:   DIGITIZING COMPANY
~OTHER INFORMATION
~A   DEPT       GRR      RILM       RILD   
# ...
  469.0000    88.1425    13.0741    13.4923
  469.5000    85.4696    13.0753    13.4253
  470.0000    86.4764    13.0752    13.3588
  470.5000    88.3038    13.0751    13.3217
  471.0000    90.2196    13.0751    13.3527
  471.5000    90.3265    13.0751    13.3822
  472.0000    89.8485    13.0752    13.4116
  472.5000    89.2366    13.0752    13.4473
  473.0000    88.0889    13.0663    13.4002
  473.5000    86.9204    13.0229    13.3251
  474.0000    87.6749    12.9809    13.2508
  474.5000    89.1800    12.9390    13.1768
  475.0000    90.7016    12.8972    13.1033
  475.5000    92.2263    12.8556    13.0302
  476.0000    93.7421    12.7738    12.9576
  476.5000    93.7583    12.6455    12.8854
  477.0000    92.3063    12.5184    12.8137
  477.5000    90.8301    12.3926    12.7416
  478.0000    90.2762    12.2680    12.6034
  478.5000    90.5530    12.1572    12.4194
  479.0000    91.2226    12.0176    12.2544
  479.5000    91.8191    11.8797    12.0946
  480.0000    89.1893    11.7434    11.9378
  480.5000    86.3019    11.6086    11.7830
  481.0000    84.6015    11.4754    11.6290
  481.5000    85.8636    11.3437    11.4487
  482.0000    88.3236    11.2135    11.2522
  482.5000    89.8932    10.9740    11.0604
  483.0000    90.7653    10.6514    10.8717
  483.5000    91.5737    10.3520    10.6863
  484.0000    94.3974    10.0701    10.5041
  484.5000    98.1451     9.7878     9.9004
  485.0000   101.8920     9.0782     9.1614
  485.5000   102.0227     8.3687     8.4769
  486.0000   101.3274     7.7144     7.8456
  486.5000   101.6704     7.1100     7.4045
  487.0000   106.6214     6.5589     7.0169
  487.5000   113.9650     6.2366     6.6493
  488.0000   120.3246     6.1006     6.4288
  488.5000   120.1586     5.9659     6.6231
  489.0000   109.1657     5.9634     6.7917
  489.5000   103.0200     5.9620     6.9652
  490.0000   101.8305     6.3919     7.1422
  490.5000   101.4194     6.9488     7.4668
  491.0000   101.0397     7.5546     8.0691
  491.5000   101.1789     8.2133     8.7199
  492.0000   101.9991     8.9293     9.4232
  492.5000   102.8546     9.6424    10.1832
  493.0000   102.8375     9.9323    10.6252
  493.5000   102.6636    10.2313    10.8483
  494.0000   102.3648    10.5396    11.0761
  494.5000   102.0745    10.7646    11.3086
  495.0000   101.7402    10.9479    11.5472
  495.5000    99.9806    11.1341    11.7962
  496.0000    97.7342    11.3234    11.9496
  496.5000    95.4641    11.5800    12.1468
  497.0000    95.0769    11.6538    12.3485
  497.5000    96.6693    11.9397    12.5536
  498.0000    98.3413    12.2327    12.7621
  498.5000    99.8963    12.5328    12.9740
  499.0000    97.9402    12.8331    13.1896
  499.5000    95.9569    12.9441    13.4086
  500.0000    95.4922    13.1201    13.6313
  500.5000    95.0828    13.2985    13.8289
  501.0000    94.6651    13.4793    13.8742
  501.5000    93.9954    13.6635    13.9578
  502.0000    92.0874    13.7004    14.0420
  502.5000    90.3300    13.8013    14.1267
  503.0000    90.2427    13.9014    14.2122
  503.5000    89.7821    14.0021    14.2220
  504.0000    88.8099    14.0896    14.2220
  504.5000    87.8641    14.0896    14.2219
  505.0000    88.0880    14.0096    14.2219
  505.5000    91.2699    13.9277    14.2219
  506.0000    94.9286    13.8462    14.2231
  506.5000    98.0439    13.7652    14.1446
  507.0000    96.5006    13.6847    14.0728
  507.5000    92.9817    13.6046    14.0010
  508.0000    89.5784    13.5251    13.9296
  508.5000    90.0730    13.4467    13.8584
  509.0000    91.9657    13.4270    13.7877
  509.5000    94.0498    13.3809    13.7173
  510.0000    95.4448    13.3350    13.6473
  510.5000    94.9011    13.1756    13.5729
  511.0000    94.3922    13.0007    13.4568
  511.5000    93.9944    12.8281    13.2459
  512.0000    96.4837    12.6578    13.0384
  512.5000    99.1146    12.4898    12.8340
  513.0000   101.6712    12.3240    12.6329
  513.5000   102.8417    12.1604    12.4349
  514.0000   102.8989    11.9990    12.2400
  514.5000   100.2198    11.8397    12.0482
  515.0000    98.8201    11.6826    11.8594
  515.5000   100.8546    11.5275    11.6735
  516.0000   104.4192    11.3745    11.4906
  516.5000   104.4415    11.2235    11.3105
  517.0000   101.9844    11.0745    11.1332
  517.5000   102.0250    10.9275    11.0317
  518.0000   102.0220    10.7825    10.9736
  518.5000   102.0237    10.6393    10.9157
  519.0000   102.5364    10.4981    10.8581
  519.5000   105.3047    10.5473    10.8009
  520.0000   107.0201    10.4411    10.7439
  520.5000   105.6407    10.3577    10.6873
  521.0000   104.3011    10.2558    10.6310
  521.5000   104.9351    10.2795    10.5749
  522.0000   106.0885    10.3104    10.5191
  522.5000   106.0536    10.3415    10.4637
  523.0000   102.8083    10.3520    10.4085
  523.5000    99.6783    10.1370    10.3536
  524.0000    97.2025    10.0305    10.2990
  524.5000    98.4031     9.9239    10.2447
  525.0000    99.7690     9.7878    10.1907
  525.5000    99.0227     9.7266    10.1370
  526.0000    97.6050     9.6658    10.0825
  526.5000    98.5513     9.6055     9.9319
  527.0000   101.2613     9.5150     9.7311
  527.5000   104.6350     9.5208     9.5361
  528.0000   106.0101     9.2095     9.3412
  528.5000   105.9487     8.9844     9.1474
  529.0000   105.8524     8.7649     8.9539
  529.5000   105.7544     8.5507     8.7645
  530.0000   105.8350     8.3417     8.5791
  530.5000   107.3507     8.1379     8.3976
  531.0000   108.8716     7.9696     8.2199
  531.5000   108.3940     7.7078     8.0458
  532.0000   107.4522     7.4446     7.8758
  532.5000   107.6252     7.1904     7.7494
  533.0000   109.2050     7.0583     7.8179
  533.5000   110.7367     7.1914     7.8989
  534.0000   112.1447     7.4560     8.0444
  534.5000   109.6439     7.8405     8.1995
  535.0000   106.2857     8.2449     8.6473
  535.5000   103.5592     8.6702     9.1191
  536.0000   105.5633     9.1085     9.6202
  536.5000   107.8810     9.5574     9.9628
  537.0000   107.0261     9.7684    10.1429
  537.5000   105.5676    10.0969    10.3252
  538.0000   105.6456    10.4364    10.5108
  538.5000   106.1178    10.6581    10.6998
  539.0000   106.0249    10.7245    10.8470
  539.5000   103.6616    10.7490    10.8470
  540.0000   101.9924    10.7581    10.8206
  540.5000   101.9646    10.7678    10.7305
  541.0000   105.1197    10.7774    10.6411
  541.5000   108.9553    10.7870    10.5524
  542.0000   111.0481    10.7966    10.4492
  542.5000   110.4145    10.8063    10.4626
  543.0000   108.4120    10.8159    10.4789
  543.5000   104.4245    10.8256    10.4951
  544.0000   100.4541    10.8353    10.5114
  544.5000   100.5142    10.8470    10.5277
  545.0000   102.7553    10.7832    10.5443
  545.5000   105.2269    10.7016    10.5475
  546.0000   105.9852    10.6206    10.5108
  546.5000   105.8633    10.5473    10.4811
  547.0000   105.7192    10.2890    10.4492
  547.5000   105.4311    10.0074    10.1282
  548.0000   104.2204     9.7337     9.7123
  548.5000   102.3385     9.4668     9.3123
  549.0000   102.0075     9.2122     8.7079
  549.5000   102.1171     8.7586     8.0068
  550.0000   104.2825     8.1671     7.3651
  550.5000   106.4128     7.3284     6.5331
  551.0000   106.5445     6.5742     5.7115
  551.5000   105.1251     5.8151     4.9928
  552.0000   103.4336     5.0922     4.3639
  552.5000   101.7457     4.4607     3.8178
  553.0000   100.3841     3.9075     3.5075
  553.5000   100.4910     3.4229     3.3535
  554.0000   100.5672     2.9648     3.1906
  554.5000   100.6406     2.9281     3.1315
  555.0000   100.7170     2.9310     3.1609
  555.5000   100.7778     2.9312     3.4020
  556.0000   101.5621     3.3425     3.7246
  556.5000   102.6380     3.7555     4.1097
  557.0000  -999.2500     4.2184     4.6211
  557.5000  -999.2500     4.7379     5.1930
  558.0000  -999.2500     5.3215     5.8357
  558.5000  -999.2500     5.9769     6.5579
  559.0000  -999.2500     6.7130     7.3696
  559.5000  -999.2500     7.2124     7.6645
