~VERSION INFORMATION
 VERS.                2.0:   CWLS LOG ASCII STANDARD - VERSION 2.0
 WRAP.                 NO:   ONE LINE PER DEPTH STEP
~WELL INFORMATION
#MNEM.UNIT      DATA TYPE    INFORMATION
#----------   ------------   ------------------------------
 STRT.F            0.0000:   START DEPTH
 STOP.F          675.0000:   STOP DEPTH
 STEP.F            0.5000:   STEP LENGTH
 NULL.          -999.2500:   NO VALUE
 COMP.       F D SERV INC:   COMPANY
 WELL. NAVEL PETROLEUM RESERVE 3 SX-2 #18-1-2:   WELL
 FLD .             TEAPOT:   FIELD
 LOC .       S2 T38N R78W:   LOCATION
 CNTY.            NATRONA:   COUNTY
 STAT.            WYOMING:   STATE
 CTRY. UNITED STATES OF AMERICA:   COUNTRY
 SRVC.     Atlas Wireline:   SERVICE COMPANY
 DATE.        23-DEC-1991:   LOGDATE
 API .       490252247200:   API NUMBER
~CURVE INFORMATION
#MNEM.UNIT       API CODE    CURVE DESCRIPTION
#----------   ------------   ------------------------------
 DEPT.F                  :   
 GRR .GAPI   07 310 01 00:   GAMMA RAY FROM RES. LOG.
 SPR .MV     07 010 01 00:   SPONTANEOUS POTENTIAL
 SFL .OHMM   07 220 01 00:   SHALLOW FOCUSED LOG RESISTIVITY
 ILD .OHMM   07 120 46 00:   INDUCTION LOG DEEP
 ILM .OHMM   07 120 44 00:   INDUCTION LOG MEDIUM
~PARAMETER INFORMATION
#MNEM.UNIT          VALUE    DESCRIPTION
#----------   ------------   ------------------------------
 PD  .                 GL:   PERMANENT DATUM
 EPD .F              5148:   ELEVATION PERMANENT DATUM
 LMF .                 KB:   LOG MEASURED FROM
 DAPD.F                10:   FEET ABOVE PERMANENT DATUM
 DMF .                 KB:   DRILLING MEASURED FROM
 EKB .F              5158:   KELLING BUSHING
 EGL .F              5148:   GROUND LEVEL
 DATE.        23-DEC-1991:   RUN DATE
 RUN .                  1:   RUN NUMBER
 DD  .F               630:   DEPTH DRILLER
 DL  .F               678:   DEPTH LOGGER
 BLI .F               675:   BOTTOM LOG INTERVAL
 CS  .IN            9.625:   CASING SIZE
 CBD .F                44:   CASING BOTTOM DRILLER
 CBL .F                48:   CASING BOTTOM LOGGER
 BS  .IN             8.75:   BIT SIZE
 BSD .F               680:   BIT SIZE AT DEPTH
 DFT .           CHEM GEL:   DRILLING FLUID TYPE
 DFD .                9.7:   DRILLING FLUID DENSITY
 DFV .                 79:   DRILLING FLUID VISCOSITY
 DFPH.                  9:   DRILLING FLUID PH
 DFL .                 10:   DRILLING FLUID LOSS
 MSS .           MUD TANK:   MUD SAMPLE SOURCE
 RMS .OHMM            .82:   RESISTIVITY MUD SAMPLE
 MST .F                54:   MUD SAMPLE TEMPERATURE
 RMF .OHMM           1.02:   RESISTIVITY MUD FILTRATE SAMPLE
 MFST.F                54:   MUD FILTRATE SAMPLE TEMPERATURE
 RMC .OHMM            .51:   RESISTIVITY MUD CAKE
 MCST.F                54:   MUD CAKE SAMPLE TEMPERATURE
 MFSS.               CALC:   MUD FILTRATE SAMPLE SOURCE
 MCSS.               CALC:   MUD CAKE SAMPLE SOURCE
 RMB .OHMM            .43:   RESISTIVITY MUD AT BHT
 BHT .F               102:   BOTTOM HOLE TEMPERATURE
 TCS .HRS               2:   TIME CURCULATED STOPPED
 MRT .F               102:   MAXIMUM RECORDED TEMPERATURE
 LUN .            HL-6307:   LOGGING UNIT NUMBER
 LUL .             CASPER:   LOGGING UNIT LOCATION
 ENGI.            WADDELL:   RECORDING ENGINEER
 WITN.              FJVAS:   WITNESSED BY
 CLNT.            A2DTECH:   CLIENT CODE
 ORIG.      2" & 5" PRINT:   ORIGIN OF DATA
 UWI .       490252247200:   UNIQUE WELL ID
 DICO. A2D Technologies, Inc.:   DIGITIZING COMPANY
~OTHER INFORMATION
~A    DEPT      GRR       SPR        SFL        ILD        ILM   
# ...
   61.0000    70.4406    -5.7294     4.4385     3.4404     3.5227
   61.5000    69.8394    -6.5148     4.2757     3.5569     3.6553
   62.0000    67.9034    -7.2170     4.4876     3.6773     3.7930
   62.5000    66.5408    -7.8221     4.7017     3.8018     3.9358
   63.0000    68.3979    -7.9791     4.8294     3.8973     4.0845
   63.5000    70.6301    -8.1249     4.8545     4.0182     4.2286
   64.0000    72.0843    -9.4343     4.9567     4.1361     4.3545
   64.5000    70.9147   -11.8373     5.1530     4.2575     4.4829
   65.0000    71.2976   -15.3764     5.3571     4.3825     4.6154
   65.5000    74.2239   -17.1037     5.5938     4.5111     4.7518
   66.0000    76.4197   -17.3943     5.5311     4.6435     4.9413
   66.5000    76.4195   -15.9349     5.4474     4.7798     5.1911
   67.0000    75.8808   -13.6952     5.5835     4.9201     5.4599
   67.5000    76.5125   -11.9842     5.7725     5.0645     5.6409
   68.0000    76.7109   -12.4995     5.9679     5.2132     5.7913
   68.5000    75.4846   -14.8788     6.0568     5.3662     5.9728
   69.0000    75.8290   -15.6685     6.2315     5.5564     6.1369
   69.5000    77.6009   -14.8686     6.5255     5.7842     6.4336
   70.0000    79.6521   -13.9368     6.7446     6.0214     6.7691
   70.5000    81.7693   -13.2234     6.9683     6.2682     7.1222
   71.0000    83.7736   -12.7784     7.1994     6.5252     7.4937
   71.5000    85.3193   -12.1125     7.4383     6.8617     7.7884
   72.0000    87.2147   -11.3564     7.7333     6.8576     8.1055
   72.5000    89.2362   -10.5278     8.1325     6.8583     7.8817
   73.0000    91.2590    -9.3673     8.5505     6.6102     7.4635
   73.5000    93.2343    -8.2371     8.6466     6.4047     7.1236
   74.0000    96.1289    -7.1116     7.6084     6.2057     6.7992
   74.5000   101.5247    -6.0531     6.5389     6.0128     6.4892
   75.0000   106.3362    -5.0479     5.7872     5.8259     6.1943
   75.5000   107.7789    -4.0839     5.6985     5.6459     5.9668
   76.0000   108.4382    -3.8250     5.9392     5.5742     5.9999
   76.5000   109.0022    -3.5441     6.2517     5.4911     6.0310
   77.0000   107.7978    -3.2589     6.3745     5.5438     6.0623
   77.5000   106.4803    -2.9749     6.4542     5.6030     6.0938
   78.0000   105.4647    -2.7406     6.5349     5.6433     6.1369
   78.5000   106.8518    -2.9154     6.5659     5.6985     6.0956
   79.0000   107.1350    -3.0861     6.5938     5.6795     6.0314
   79.5000   106.2937    -3.2552     6.6091     5.6502     5.9678
   80.0000   106.7031    -3.4242     6.3128     5.6210     5.9049
   80.5000   110.1871    -3.5936     6.0858     5.5939     5.8579
   81.0000   111.6603    -3.7646     5.9687     5.6076     5.9356
   81.5000   108.9734    -3.9293     6.1590     5.6207     6.0244
   82.0000   106.0250    -3.7691     6.2920     5.6340     6.1150
   82.5000   103.9379    -3.5864     6.4278     5.6459     6.2069
   83.0000   103.5013    -3.4046     6.5666     5.7077     6.3099
   83.5000   104.0399    -3.2234     6.6361     5.7650     6.2558
   84.0000   105.4165    -3.0444     6.6705     5.8051     6.1792
   84.5000   106.4809    -2.9590     6.6380     5.7815     6.1034
   85.0000   105.8033    -3.0475     6.6087     5.7636     6.0285
   85.5000   105.1534    -3.1233     6.5793     5.7421     5.9546
   86.0000   104.5127    -2.9332     6.5482     5.6677     5.8816
   86.5000   104.0133    -2.7275     6.4634     5.5942     5.8051
   87.0000   103.6661    -2.5277     6.3736     5.5217     5.7461
   87.5000   102.8808    -2.6708     6.2845     5.4501     5.7257
   88.0000   102.3535    -2.8557     6.1935     5.3898     5.7090
   88.5000   104.9559    -3.0408     6.2172     5.3978     5.6985
   89.0000   107.2117    -3.2267     6.3099     5.4461     5.8106
   89.5000   107.6328    -3.4723     6.1098     5.4947     5.9089
   90.0000   107.6697    -3.8145     6.0205     5.5437     6.0086
   90.5000   105.4231    -3.9361     6.2430     5.5938     6.1111
   91.0000    99.6562    -3.9297     7.2829     5.6261     6.2502
   91.5000    92.1402    -4.3207     8.7320     5.6792     6.5482
   92.0000    84.9344    -4.7872     9.4861     5.7639     6.3553
   92.5000    85.4077    -4.8313     7.5575     5.8502     6.1677
   93.0000    98.2896    -4.6558     6.5920     5.9375     6.0243
   93.5000   109.2129    -4.4786     6.1369     6.0243     6.1686
   94.0000   113.1617    -4.4215     6.3551     6.0078     6.3140
   94.5000   111.8094    -4.8065     6.6219     5.9878     6.4629
   95.0000   111.8278    -5.1406     6.8999     5.9687     6.6154
   95.5000   113.5966    -5.0200     7.1583     6.0737     6.7716
   96.0000   113.7783    -4.9316     7.3864     6.1765     6.8707
   96.5000   111.8921    -4.8923     7.2747     6.2810     6.8974
   97.0000   108.4550    -4.8531     7.0520     6.3873     6.9243
   97.5000   106.4588    -4.8133     7.1782     6.4878     6.9515
   98.0000   104.9022    -4.7761     7.3720     6.5482     6.9864
   98.5000   103.6995    -4.8253     7.5946     6.4073     6.9227
   99.0000   103.7896    -5.1591     7.5003     6.3449     6.8267
   99.5000   104.3718    -5.4795     7.3948     6.2830     6.7330
  100.0000   103.9634    -5.7996     7.2908     6.2218     6.6405
  100.5000   103.5708    -6.0607     7.1883     6.1611     6.5493
  101.0000   104.1318    -6.2628     7.0858     6.1011     6.4594
  101.5000   104.9328    -6.4647     6.9819     6.0243     6.3706
  102.0000   105.9632    -6.6668     6.8796     6.0417     6.3099
  102.5000   105.0993    -6.7197     6.7774     6.0665     6.4686
  103.0000   102.1847    -6.6231     6.6692     6.0914     6.5926
  103.5000    99.4480    -6.5265     6.6680     6.1164     6.7190
  104.0000    97.0412    -6.4324     7.4180     6.1416     6.8587
  104.5000    97.2626    -6.4748     8.0350     6.1669     6.7927
  105.0000    98.7865    -6.8742     8.0342     6.1939     6.7214
  105.5000   102.7836    -7.2675     7.2497     6.1774     6.6509
  106.0000   107.0446    -7.6703     6.7954     6.1590     6.5811
  106.5000   106.1062    -7.5228     6.8420     6.1407     6.5482
  107.0000   104.2607    -7.1639     6.9315     6.1225     6.5482
  107.5000   103.3801    -6.8025     7.0222     6.1044     6.5482
  108.0000   103.0945    -6.9445     7.1140     6.0863     6.5482
  108.5000   102.9424    -7.1949     7.2071     6.0683     6.5482
  109.0000   104.3165    -7.3524     7.2508     6.0504     6.5481
  109.5000   106.9545    -7.2642     7.1335     6.0246     6.5482
  110.0000   106.5597    -7.1803     7.0469     6.0393     6.5482
  110.5000   104.7297    -7.5078     6.9613     6.0675     6.5854
  111.0000   102.8056    -8.1821     6.8587     6.0957     6.6548
  111.5000   101.5371    -8.8532     6.9124     6.1240     6.7249
  112.0000   103.2261    -9.5306     6.9526     6.1525     6.7958
  112.5000   106.6436    -9.9994     7.0143     6.1812     6.8674
  113.0000   107.5128    -9.9993     7.2000     6.2099     6.9398
  113.5000   107.8603   -10.0007     7.3919     6.2388     6.9870
  114.0000   108.2087   -10.0003     7.5936     6.2517     6.8113
  114.5000   108.2541   -10.0049     7.4158     6.2517     6.6843
  115.0000   108.0006    -9.7493     7.2301     6.2517     6.5597
  115.5000   107.9434    -9.3941     7.0506     6.1695     6.4374
  116.0000   109.4286    -9.0383     6.8755     6.0630     6.3173
  116.5000   108.7521    -8.7490     6.7246     5.9584     6.1996
  117.0000   103.4937    -8.6329     6.6755     5.8556     6.0803
  117.5000   100.1020    -8.5126     6.6267     5.7545     6.0551
  118.0000   101.4233    -8.3975     6.5783     5.6545     6.0290
  118.5000   107.0781    -8.6485     6.5482     5.5913     6.0033
  119.0000   109.6909    -8.9448     6.5915     5.5733     5.9775
  119.5000   109.4378    -9.2411     6.6232     5.5563     5.9519
  120.0000   107.6746    -9.5368     6.6551     5.5392     5.9263
  120.5000   106.7816    -9.8325     6.6872     5.5220     5.9009
  121.0000   106.2206   -10.1282     6.7328     5.5050     5.8756
  121.5000   105.3845   -10.4240     6.6907     5.4880     5.8504
