~VERSION INFORMATION
 VERS.                2.0:   CWLS LOG ASCII STANDARD - VERSION 2.0
 WRAP.                 NO:   ONE LINE PER DEPTH STEP
~WELL INFORMATION
#MNEM.UNIT      DATA TYPE    INFORMATION
#----------   ------------   ------------------------------
 STRT.F           30.0000:   START DEPTH
 STOP.F         1178.5000:   STOP DEPTH
 STEP.F            0.5000:   STEP LENGTH
 NULL.          -999.2500:   NO VALUE
 COMP. FENIX & SCISSON INC:   COMPANY
 WELL.     64-S-14 #14-14:   WELL
 FLD .        TEAPOT DOME:   FIELD
 LOC .      S14 T38N R78W:   LOCATION
 CNTY.            NATRONA:   COUNTY
 STAT.            WYOMING:   STATE
 CTRY. UNITED STATES OF AMERICA:   COUNTRY
 SRVC.            Unknown:   SERVICE COMPANY
 DATE.        19-APR-1978:   LOGDATE
 API .       490251061400:   API NUMBER
~CURVE INFORMATION
#MNEM.UNIT       API CODE    CURVE DESCRIPTION
#----------   ------------   ------------------------------
 DEPT.F                  :   
 SPR .MV     05 010 01 00:   SPONTANEOUS POTENTIAL
 SN  .OHMM   05 040 16 00:   SHORT NORMAL 16'
 ILD .OHMM   05 120 46 00:   INDUCTION LOG DEEP
 CALD.IN     45 280 60 00:   CALIPER
 GRD .GAPI   45 310 01 00:   GAMMA RAY FROM DENSITY LOG
 RHOB.G/C3   45 350 01 00:   BULK DENSITY
 DPHI.DEC    45 890 12 00:   DENSITY POROSITY SANDSTONE
 CORR.G/C3   45 356 01 00:   DENSITY CORRECTION
~PARAMETER INFORMATION
#MNEM.UNIT          VALUE    DESCRIPTION
#----------   ------------   ------------------------------
 PD  .                 GL:   PERMANENT DATUM
 EPD .F              5235:   ELEVATION PERMANENT DATUM
 LMF .                 KB:   LOG MEASURED FROM
 DMF .                 KB:   DRILLING MEASURED FROM
 EKB .F              5299:   KELLING BUSHING
 EGL .F              5295:   GROUND LEVEL
 DATE.          4-19-1978:   RUN DATE
 RUN .                  1:   RUN NUMBER
 DD  .F              1180:   DEPTH DRILLER
 DL  .F              1182:   DEPTH LOGGER
 BLI .F              1176:   BOTTOM LOG INTERVAL
 TLI .F                50:   TOP LOG INTERVAL
 CS  .IN            8.625:   CASING SIZE
 CBD .F                40:   CASING BOTTOM DRILLER
 CBL .F                50:   CASING BOTTOM LOGGER
 BS  .IN            7.875:   BIT SIZE
 BSD .F              1180:   BIT SIZE AT DEPTH
 DFT .                KCL:   DRILLING FLUID TYPE
 DFD .                8.7:   DRILLING FLUID DENSITY
 DFV .                 33:   DRILLING FLUID VISCOSITY
 DFPH.               10.5:   DRILLING FLUID PH
 DFL .               12.3:   DRILLING FLUID LOSS
 MSS .            MUD PIT:   MUD SAMPLE SOURCE
 RMS .OHMM            .54:   RESISTIVITY MUD SAMPLE
 MST .F                62:   MUD SAMPLE TEMPERATURE
 RMF .OHMM            .65:   RESISTIVITY MUD FILTRATE SAMPLE
 MFST.F                60:   MUD FILTRATE SAMPLE TEMPERATURE
 RMC .OHMM            .35:   RESISTIVITY MUD CAKE
 MCST.F                60:   MUD CAKE SAMPLE TEMPERATURE
 MFSS.           MEASURED:   MUD FILTRATE SAMPLE SOURCE
 RMB .OHMM            .42:   RESISTIVITY MUD AT BHT
 BHT .F                80:   BOTTOM HOLE TEMPERATURE
 TCS .HRS               2:   TIME CURCULATED STOPPED
 MRT .F                80:   MAXIMUM RECORDED TEMPERATURE
 LUN .               2955:   LOGGING UNIT NUMBER
 LUL .               CASP:   LOGGING UNIT LOCATION
 ENGI.             MILLER:   RECORDING ENGINEER
 WITN.           MCGINLEY:   WITNESSED BY
 CLNT.            A2DTECH:   CLIENT CODE
 ORIG.      2" & 5" PRINT:   ORIGIN OF DATA
 UWI .       490251061400:   UNIQUE WELL ID
 DICO. A2D Technologies, Inc.:   DIGITIZING COMPANY
~OTHER INFORMATION
~A   DEPT      SPR         SN        ILD       CALD         GRD      RHOB       DPHI       CORR   
# ...
  273.0000   -44.5490     6.8211     6.6062     7.5867    86.3495     2.4261     0.1457     0.0028
  273.5000   -44.5447     6.8692     6.6477     7.5472    84.4754     2.4227     0.1469     0.0026
  274.0000   -44.5403     6.9177     6.6895     7.5302    82.6192     2.4197     0.1449     0.0063
  274.5000   -44.5360     6.9666     6.7316     7.5383    81.0226     2.4239     0.1432     0.0101
  275.0000   -44.5317     7.0157     6.7823     7.5898    82.8477     2.4285     0.1434     0.0101
  275.5000   -44.5274     7.0356     6.7774     7.6409    83.5031     2.4284     0.1439     0.0091
  276.0000   -44.5231     7.0356     6.7712     7.6918    83.7110     2.4268     0.1444     0.0084
  276.5000   -44.5187     7.0356     6.7650     7.7415    85.2876     2.4255     0.1448     0.0134
  277.0000   -44.5144     7.0356     6.7588     7.8029    86.6494     2.4267     0.1436     0.0200
  277.5000   -44.5101     7.0356     6.7526     7.8647    85.9339     2.4338     0.1394     0.0266
  278.0000   -44.5058     7.0356     6.7464     7.9266    85.2017     2.4413     0.1360     0.0314
  278.5000   -44.5015     7.0356     6.7403     7.9885    84.7035     2.4454     0.1363     0.0332
  279.0000   -44.4972     7.0356     6.7341     8.0497    84.4890     2.4418     0.1366     0.0353
  279.5000   -44.4928     7.0357     6.7280     8.0863    84.5004     2.4383     0.1377     0.0375
  280.0000   -44.4885     7.0366     6.7220     8.0674    84.7600     2.4411     0.1396     0.0351
  280.5000   -44.4842     7.0235     6.7089     7.9460    85.2248     2.4457     0.1389     0.0345
  281.0000   -44.4799     6.9549     6.6433     7.8181    84.6412     2.4410     0.1392     0.0352
  281.5000   -44.4756     6.8870     6.5785     7.6906    83.5352     2.4348     0.1404     0.0373
  282.0000   -44.4712     6.8198     6.5144     7.5636    82.5194     2.4326     0.1401     0.0393
  282.5000   -44.4669     6.7533     6.4508     7.4586    83.0606     2.4331     0.1397     0.0380
  283.0000   -44.4626     6.6874     6.3879     7.4183    85.6231     2.4334     0.1417     0.0312
  283.5000   -44.4583     6.6222     6.3256     7.3776    88.0932     2.4290     0.1448     0.0246
  284.0000   -44.4540     6.5577     6.2639     7.3373    89.4853     2.4211     0.1517     0.0179
  284.5000   -44.4497     6.4939     6.2029     7.3150    88.7040     2.4102     0.1584     0.0112
  285.0000   -44.4453     6.4132     6.1149     7.3435    85.9843     2.3998     0.1616     0.0064
  285.5000   -44.4410     6.3282     6.0198     7.4270    83.2391     2.3911     0.1634     0.0067
  286.0000   -44.4367     6.2443     5.9261     7.4344    81.8574     2.3896     0.1640     0.0088
  286.5000   -44.4324     6.1615     5.8340     7.4378    81.8405     2.3900     0.1628     0.0109
  287.0000   -44.4281     6.0799     5.7431     7.4416    82.1748     2.3904     0.1630     0.0129
  287.5000   -44.4238     5.9993     5.6537     7.4454    82.5113     2.3908     0.1637     0.0137
  288.0000   -44.4194     5.9198     5.5656     7.4479    82.4867     2.3912     0.1626     0.0087
  288.5000   -44.4151     5.8414     5.5148     7.5043    82.0249     2.3903     0.1629     0.0039
  289.0000   -44.4108     5.7640     5.4762     7.5670    81.8330     2.3844     0.1650    -0.0009
  289.5000   -44.4067     5.6938     5.4414     7.6298    82.4886     2.3826     0.1657    -0.0031
  290.0000   -44.4066     5.6614     5.4287     7.6925    84.4870     2.3832     0.1665    -0.0022
  290.5000   -44.4066     5.6291     5.4159     7.7568    86.3512     2.3820     0.1692    -0.0013
  291.0000   -44.4066     5.5970     5.4033     7.7765    86.3406     2.3790     0.1721    -0.0004
  291.5000   -44.4066     5.5651     5.3906     7.7848    85.8761     2.3765     0.1725     0.0005
  292.0000   -44.4066     5.5334     5.3780     7.7912    84.5495     2.3772     0.1691     0.0014
  292.5000   -44.4066     5.5018     5.3654     7.8277    83.0863     2.3823     0.1656     0.0023
  293.0000   -44.4066     5.4705     5.3529     7.8654    81.6915     2.3884     0.1621     0.0032
  293.5000   -44.4066     5.4357     5.3353     7.9034    80.8327     2.3946     0.1605     0.0041
  294.0000   -44.4066     5.3761     5.2635     7.9458    80.0027     2.3942     0.1615     0.0050
  294.5000   -44.4066     5.3173     5.1926     7.9430    79.0935     2.3927     0.1624     0.0058
  295.0000   -44.4066     5.2591     5.1227     7.9320    78.8753     2.3911     0.1634     0.0067
  295.5000   -44.4066     5.2015     5.0538     7.9212    79.1867     2.3895     0.1633     0.0076
  296.0000   -44.4066     5.1445     4.9857     7.9103    80.4072     2.3896     0.1625     0.0085
  296.5000   -44.4066     5.0882     4.9186     7.9019    81.6637     2.3917     0.1616     0.0094
  297.0000   -44.4066     5.0325     4.8524     7.8934    82.8579     2.3983     0.1578     0.0103
  297.5000   -44.4066     4.9774     4.7871     7.8849    82.7422     2.4068     0.1533     0.0125
  298.0000   -44.4066     4.9229     4.7227     7.8764    82.5657     2.4154     0.1488     0.0150
  298.5000   -44.4066     4.8690     4.6591     7.8713    82.6886     2.4185     0.1495     0.0175
  299.0000   -44.4066     4.7878     4.5733     7.8787    83.5390     2.4185     0.1505     0.0200
  299.5000   -44.4066     4.7878     4.5733     7.8858    85.0927     2.4187     0.1482     0.0225
  300.0000   -44.4066     4.7878     4.5733     7.8928    86.6105     2.4232     0.1455     0.0250
  300.5000   -44.4066     4.8554     4.6853     7.8999    88.1320     2.4265     0.1429     0.0275
  301.0000   -44.4066     4.9176     4.7894     7.9068    89.6438     2.4293     0.1403     0.0300
  301.5000   -44.4066     4.9806     4.8958     7.9329    89.5680     2.4378     0.1391     0.0325
  302.0000   -44.4066     5.0445     5.0052     7.9742    86.9879     2.4408     0.1380     0.0350
  302.5000   -44.4066     5.1091     5.1530     7.9808    83.9847     2.4411     0.1370     0.0360
  303.0000   -44.4066     5.1746     5.1528     7.9666    82.3362     2.4406     0.1377     0.0345
  303.5000   -44.4066     5.2408     5.1486     7.9520    82.4058     2.4400     0.1384     0.0330
  304.0000   -44.4066     5.3081     5.1438     7.9373    82.5740     2.4397     0.1360     0.0315
  304.5000   -44.4066     5.3444     5.1395     7.9366    82.3157     2.4445     0.1340     0.0301
  305.0000   -44.4066     5.3444     5.1351     7.9493    80.9893     2.4487     0.1354     0.0286
  305.5000   -44.4066     5.3444     5.1308     7.9618    79.6606     2.4438     0.1380     0.0265
  306.0000   -44.4066     5.3443     5.1265     7.9598    79.1616     2.4377     0.1400     0.0243
  306.5000   -44.4066     5.3444     5.1221     7.9315    81.6750     2.4391     0.1387     0.0221
  307.0000   -44.4066     5.3444     5.1178     7.9035    84.0678     2.4418     0.1373     0.0200
  307.5000   -44.4066     5.3445     5.1134     7.8753    84.1691     2.4455     0.1360     0.0178
  308.0000   -44.4066     5.3445     5.1093     7.8513    80.2073     2.4677     0.1329     0.0156
  308.5000   -44.4066     5.3441     5.1051     7.8743    78.3507     2.4801     0.1299     0.0151
  309.0000   -44.4066     5.3840     5.1366     7.8974    80.9450     2.4665     0.1272     0.0202
  309.5000   -44.4066     5.4224     5.1671     7.9201    82.9557     2.4599     0.1276     0.0236
  310.0000   -44.4066     5.4612     5.1980     7.9182    83.0980     2.4578     0.1363     0.0158
  310.5000   -44.4066     5.5003     5.2290     7.8860    83.1292     2.4410     0.1408     0.0212
  311.0000   -44.4066     5.5396     5.2473     7.8542    84.2824     2.4308     0.1404     0.0297
  311.5000   -44.4066     5.5793     5.2473     7.8311    85.5097     2.4371     0.1400     0.0338
  312.0000   -44.4066     5.5950     5.1791     7.8398    84.7416     2.4265     0.1435     0.0318
  312.5000   -44.4066     5.5397     5.0960     7.8482    80.6099     2.4250     0.1462     0.0300
  313.0000   -44.4066     5.4044     5.0141     7.8403    76.9884     2.4244     0.1459     0.0281
