~VERSION INFORMATION
 VERS.                2.0:   CWLS LOG ASCII STANDARD - VERSION 2.0
 WRAP.                 NO:   ONE LINE PER DEPTH STEP
~WELL INFORMATION
#MNEM.UNIT      DATA TYPE    INFORMATION
#----------   ------------   ------------------------------
 STRT.F           83.0000:   START DEPTH
 STOP.F         3044.0000:   STOP DEPTH
 STEP.F            0.5000:   STEP LENGTH
 NULL.          -999.2500:   NO VALUE
 COMP.   TESORO PETROLEUM:   COMPANY
 WELL.  NPR # 3  AX #81-4:   WELL
 FLD .        TEAPOT DOME:   FIELD
 LOC .       S4 T38N R78W:   LOCATION
 CNTY.            NATRONA:   COUNTY
 STAT.            WYOMING:   STATE
 CTRY. UNITED STATES OF AMERICA:   COUNTRY
 SRVC.       Schlumberger:   SERVICE COMPANY
 DATE.        31-JUL-1969:   LOGDATE
 API .       490251002700:   API NUMBER
~CURVE INFORMATION
#MNEM.UNIT       API CODE    CURVE DESCRIPTION
#----------   ------------   ------------------------------
 DEPT.F                  :   
 CILD.MMHO   05 110 46 00:   CONDUCTIVITY INDUCTION LOG DEEP
 ILD .OHMM   05 120 46 00:   INDUCTION LOG DEEP
 SN  .OHMM   05 040 16 00:   SHORT NORMAL 16"
 SPR .MV     05 010 01 00:   SPONTANEOUS POTENTIAL FROM RES.
 CALD.IN     45 280 60 00:   CALIPER FROM DENSITY
 DPHI.DEC    45 890 12 00:   DENSITY POROSITY SANDSTONE
 GRD .GAPI   45 310 01 00:   GAMMA RAY FROM DENSITY LOG
 RHOB.G/C3   45 350 01 00:   BULK DENSITY
 DRHO.G/C3   45 356 01 00:   DENSITY CORRECTION
~PARAMETER INFORMATION
#MNEM.UNIT          VALUE    DESCRIPTION
#----------   ------------   ------------------------------
 PD  .                 GL:   PERMANENT DATUM
 EPD .F              5170:   ELEVATION PERMANENT DATUM
 LMF .                 KB:   LOG MEASURED FROM
 DAPD.F                13:   FEET ABOVE PERMANENT DATUM
 DMF .                 KB:   DRILLING MEASURED FROM
 EKB .F              5183:   KELLING BUSHING
 EGL .F              5170:   GROUND LEVEL
 DATE.            7-31-69:   RUN DATE
 RUN .                  2:   RUN NUMBER
 DD  .F              3047:   DEPTH DRILLER
 DL  .F              3044:   DEPTH LOGGER
 BLI .F              3043:   BOTTOM LOG INTERVAL
 TLI .F               626:   TOP LOG INTERVAL
 CS  .IN            10.75:   CASING SIZE
 CBD .F               625:   CASING BOTTOM DRILLER
 CBL .F               626:   CASING BOTTOM LOGGER
 BS  .IN             6.25:   BIT SIZE
 BSD .F              3047:   BIT SIZE AT DEPTH
 DFT .      FRESH GEL MUD:   DRILLING FLUID TYPE
 DFD .                9.7:   DRILLING FLUID DENSITY
 DFV .                 50:   DRILLING FLUID VISCOSITY
 DFPH.                9.5:   DRILLING FLUID PH
 DFL .                  8:   DRILLING FLUID LOSS
 MSS .          FLOW LINE:   MUD SAMPLE SOURCE
 RMS .OHMM           1.35:   RESISTIVITY MUD SAMPLE
 MST .F                74:   MUD SAMPLE TEMPERATURE
 RMF .OHMM            .81:   RESISTIVITY MUD FILTRATE SAMPLE
 MFST.F                74:   MUD FILTRATE SAMPLE TEMPERATURE
 MFSS.                  M:   MUD FILTRATE SAMPLE SOURCE
 RMB .OHMM            .83:   RESISTIVITY MUD AT BHT
 BHT .F               121:   BOTTOM HOLE TEMPERATURE
 TCS .HRS               4:   TIME CURCULATED STOPPED
 MRT .F               121:   MAXIMUM RECORDED TEMPERATURE
 LUN .               4507:   LOGGING UNIT NUMBER
 LUL .               CSPR:   LOGGING UNIT LOCATION
 ENGI.               MIXA:   RECORDING ENGINEER
 WITN.                MAY:   WITNESSED BY
 CLNT.            A2DTECH:   CLIENT CODE
 ORIG.     1", 2.5" PRINT:   ORIGIN OF DATA
 UWI .       490251002700:   UNIQUE WELL ID
 DICO. A2D Technologies, Inc.:   DIGITIZING COMPANY
~OTHER INFORMATION
~A   DEPT      CILD       ILD         SN        SPR       CALD       DPHI        GRD       RHOB       DRHO   
# ...
 1871.5000   205.6477     4.8810     6.1526   -20.7832     9.2602     0.1032   112.6506     2.4773     0.0019
 1872.0000   188.7649     5.0433     6.4642   -21.0742     9.2603     0.1086   119.2771     2.4503     0.0019
 1872.5000   184.3880     5.2058     6.4642   -21.0725     9.2605     0.0982   122.8916     2.4789     0.0019
 1873.0000   185.1852     5.3682     6.7757   -21.1188     9.2307     0.0894   126.5060     2.4889     0.0037
 1873.5000   182.6078     5.4133     6.9334   -21.4365     9.2309     0.0928   131.3253     2.5089     0.0062
 1874.0000   176.8928     5.7248     7.1028   -21.7541     9.2310     0.1059   133.1505     2.4250     0.0094
 1874.5000   170.4940     5.7263     7.4124   -22.0718     9.2312     0.0900   133.7349     2.5149     0.0143
 1875.0000   165.1235     6.0373     7.5740   -22.2994     9.2313     0.0690   131.0245     2.5289     0.0198
 1875.5000   163.5802     6.0388     7.7103   -22.2978     9.2238     0.0747   128.3958     2.5129     0.0242
 1876.0000   163.5802     6.3499     7.7103   -22.2963     9.2018     0.0767   125.1086     2.5067     0.0317
 1876.5000   163.5802     6.3514     7.7103   -22.4164     9.2019     0.0724   121.4836     2.5190     0.0386
 1877.0000   163.5802     6.3480     7.7103   -22.4696     9.1900     0.0689   118.7080     2.5377     0.0435
 1877.5000   163.5802     6.1777     7.7103   -22.2917     9.1588     0.0648   118.3435     2.5421     0.0482
 1878.0000   163.5802     5.8405     7.7103   -22.2901     9.1427     0.0566   120.6204     2.5458     0.0496
 1878.5000   163.5802     5.3826     7.7103   -22.2886     9.1428     0.0587   120.5845     2.5439     0.0378
 1879.0000   165.1235     5.0624     7.7103   -22.1127     9.1430     0.0690   118.3647     2.5245     0.0250
 1879.5000   165.1235     4.7775     7.6382   -21.7919     9.1431     0.0798   118.4682     2.5115     0.0177
 1880.0000   171.3994     4.6181     7.4766   -21.6667     9.1433     0.0844   119.6385     2.5059     0.0167
 1880.5000   174.8140     4.4115     7.2313   -21.2531     9.1434     0.0796   120.6597     2.5153     0.0169
 1881.0000   181.8738     4.1981     6.9081   -21.0463     9.1436     0.0820   120.2470     2.5229     0.0242
 1881.5000   196.4384     4.1997     6.5849   -21.0448     9.1736     0.0790   119.4321     2.5274     0.0334
 1882.0000   217.8703     4.2012     6.2617   -20.8056     9.2036     0.0766   117.8493     2.5274     0.0422
 1882.5000   219.4702     4.2028     5.9384   -20.7327     9.2037     0.0909   116.8675     2.5019     0.0470
 1883.0000   220.6790     4.2043     5.6153   -20.7312     9.2039     0.0897   116.8675     2.4945     0.0483
 1883.5000   221.1266     4.2059     5.5296   -20.7297     9.2040     0.0940   116.8675     2.5020     0.0495
 1884.0000   222.2222     4.2972     5.6854   -20.7283     9.2014     0.1075   117.4699     2.4256     0.0520
 1884.5000   222.2222     4.4596     5.8411   -20.7268     9.1702     0.1138   119.2937     2.4632     0.0505
 1885.0000   215.4321     4.6221     6.1526   -20.7253     9.1447     0.1038   119.8795     2.5010     0.0473
 1885.5000   199.8551     4.7845     6.3084   -20.7238     9.1449     0.0835   118.9819     2.5314     0.0431
 1886.0000   191.4404     5.0610     6.4642   -20.7222     9.1451     0.0716   116.5601     2.5375     0.0386
 1886.5000   188.2408     5.1440     6.4642   -20.7207     9.1452     0.0698   114.7981     2.5312     0.0360
 1887.0000   186.7284     4.9910     6.6238   -20.7191     9.1338     0.0710   113.6958     2.5305     0.0420
 1887.5000   191.2288     4.6829     6.7757   -20.7176     9.1157     0.0615   113.6296     2.5399     0.0491
 1888.0000   197.3148     4.5296     6.7757   -20.7160     9.1303     0.0517   116.1933     2.5525     0.0565
 1888.5000   205.1540     4.3763     6.7971   -20.6484     9.1458     0.0482   120.2592     2.5587     0.0626
 1889.0000   214.7522     4.3778     6.9587   -20.4043     9.1460     0.0516   120.5904     2.5533     0.0658
 1889.5000   218.7193     4.3793     7.0210   -20.4028     9.1461     0.0572   118.0661     2.5385     0.0554
 1890.0000   215.5863     4.3808     6.6589   -20.4012     9.1463     0.0739   115.8733     2.5201     0.0451
 1890.5000   211.4198     4.3961     6.2636   -20.3997     9.1683     0.0883   114.7003     2.4994     0.0313
 1891.0000   208.3333     4.5387     6.1526   -20.3981     9.1998     0.1021   114.4578     2.4815     0.0171
 1891.5000   211.4198     4.5402     6.2656   -20.5260     9.2064     0.0985   114.8749     2.4695     0.0065
 1892.0000   217.5926     4.6057     6.5888   -20.7037     9.2066     0.0892   114.6144     2.4755     0.0031
 1892.5000   220.6790     4.8910     6.9120   -20.5517     9.2067     0.0809   113.9834     2.5059     0.0046
 1893.0000   199.0741     5.1416     7.1612   -20.3920     9.2069     0.0727   113.8554     2.5236     0.0090
 1893.5000   178.7608     5.5756     7.4026   -20.7336     9.1473     0.0792   114.4578     2.5206     0.0148
 1894.0000   167.6544     5.8988     7.6402   -21.0062     9.1475     0.0667   116.8675     2.5451     0.0203
 1894.5000   158.3540     6.2221     7.8933   -21.0046     9.1476     0.0581   124.0964     2.5463     0.0246
 1895.0000   152.1613     6.5454     8.1192   -21.2063     9.1478     0.0620   124.7290     2.5445     0.0271
 1895.5000   147.3607     6.7198     8.2807   -21.3102     9.1479     0.0602   125.9036     2.5556     0.0299
 1896.0000   142.8805     6.7214     8.4424   -21.5329     9.1481     0.0489   125.2288     2.5638     0.0320
 1896.5000   141.1830     6.7229     8.6040   -21.6157     9.1482     0.0470   124.6988     2.5632     0.0321
 1897.0000   144.3831     6.7245     8.6449   -21.9225     9.1484     0.0593   128.0605     2.5477     0.0292
 1897.5000   147.5822     6.7260     8.6449   -22.2297     9.1485     0.0710   133.1026     2.5288     0.0246
 1898.0000   150.7819     6.6228     8.6449   -22.2282     9.1487     0.0726   130.9518     2.5230     0.0209
 1898.5000   155.1853     6.4635     8.4891   -22.5353     9.1643     0.0703   131.1974     2.5262     0.0209
 1899.0000   160.2673     6.1873     8.3333   -22.5338     9.1958     0.0712   134.1085     2.5254     0.0250
 1899.5000   163.4669     6.1130     8.0218   -22.2237     9.2088     0.0756   135.8147     2.5185     0.0284
 1900.0000   166.6667     5.8052     7.7103   -22.2222     9.1891     0.0796   136.1446     2.5107     0.0303
 1900.5000   169.8660     5.6519     7.5487   -21.9014     9.1793     0.0623   136.4744     2.5465     0.0313
 1901.0000   173.9503     5.4986     7.3988   -21.6019     9.1566     0.0664   139.2560     2.5360     0.0313
 1901.5000   178.7499     5.5001     7.5720   -21.5687     9.1497     0.0664   144.4471     2.5331     0.0301
 1902.0000   183.5494     5.3468     7.7103   -21.2480     9.1499     0.0621   155.1148     2.5406     0.0250
 1902.5000   188.3489     5.1890     7.7103   -20.9799     9.1202     0.0596   161.7022     2.5467     0.0202
 1903.0000   192.0372     5.0401     7.7103   -20.9784     9.1203     0.0574   162.6506     2.5482     0.0165
 1903.5000   192.9012     5.0252     7.6694   -20.9769     9.1204     0.0587   167.4699     2.5398     0.0134
 1904.0000   189.8148     4.8883     7.4610   -20.8910     9.1206     0.0665   172.8916     2.5218     0.0149
 1904.5000   186.3548     4.8901     7.1904   -20.5702     9.1207     0.0849   172.2892     2.5052     0.0172
 1905.0000   184.5293     4.8916     7.0872   -20.3549     9.1209     0.0981   174.0964     2.4834     0.0178
 1905.5000   191.1275     4.8932     7.2800   -20.3534     9.1210     0.1031   180.2018     2.4813     0.0165
 1906.0000   201.1261     4.8947     7.8350   -20.3519     9.1212     0.0990   183.7349     2.4990     0.0140
 1906.5000   203.3076     4.8963     8.2535   -20.3503     9.1213     0.0892   182.2467     2.5110     0.0118
 1907.0000   193.4828     4.8978     8.1698   -20.1656     9.1215     0.0867   179.9217     2.5074     0.0118
 1907.5000   179.3383     4.8994     7.8466   -20.0849     9.1216     0.0950   178.7877     2.4846     0.0175
