~VERSION INFORMATION
 VERS.                2.0:   CWLS LOG ASCII STANDARD - VERSION 2.0
 WRAP.                 NO:   ONE LINE PER DEPTH STEP
~WELL INFORMATION
#MNEM.UNIT      DATA TYPE    INFORMATION
#----------   ------------   ------------------------------
 STRT.F           24.5000:   START DEPTH
 STOP.F          576.0000:   STOP DEPTH
 STEP.F            0.5000:   STEP LENGTH
 NULL.          -999.2500:   NO VALUE
 COMP. FENIX & SCISSON INC:   COMPANY
 WELL.    NPR-3 SX #61-15:   WELL
 FLD .             TEAPOT:   FIELD
 LOC .      S15 T38N R78W:   LOCATION
 CNTY.            NATRONA:   COUNTY
 STAT.            WYOMING:   STATE
 CTRY. UNITED STATES OF AMERICA:   COUNTRY
 SRVC.            Unknown:   SERVICE COMPANY
 DATE.        29-MAY-1978:   LOGDATE
 API .       490251062300:   API NUMBER
~CURVE INFORMATION
#MNEM.UNIT       API CODE    CURVE DESCRIPTION
#----------   ------------   ------------------------------
 DEPT.F                  :   
 GRD .GAPI   45 310 01 00:   GAMMA RAY FROM DENSITY LOG
 CALD.IN     45 280 60 00:   CALIPER FROM DENSITY LOG
 SN  .OHMM   05 040 16 00:   SHORT NORMAL 16'
 SPR .MV     05 010 01 00:   SPONTANEOUS POTENTIAL
 ILD .OHMM   05 120 46 00:   INDUCTION LOG DEEP
 RHOB.G/C3   45 350 01 00:   BULK DENSITY
 DPHI.DEC    45 890 12 00:   DENSITY POROSITY SANDSTONE
 CORR.G/C3   45 356 01 00:   DENSITY CORRECTION
~PARAMETER INFORMATION
#MNEM.UNIT          VALUE    DESCRIPTION
#----------   ------------   ------------------------------
 PD  .                 GL:   PERMANENT DATUM
 EPD .F              5221:   ELEVATION PERMANENT DATUM
 LMF .                 KB:   LOG MEASURED FROM
 DAPD.F                 4:   FEET ABOVE PERMANENT DATUM
 DMF .                 KB:   DRILLING MEASURED FROM
 EKB .F              5225:   KELLING BUSHING
 EGL .F              5221:   GROUND LEVEL
 DATE.          5-29-1978:   RUN DATE
 RUN .                  1:   RUN NUMBER
 DD  .F               565:   DEPTH DRILLER
 DL  .F               578:   DEPTH LOGGER
 BLI .F               570:   BOTTOM LOG INTERVAL
 TLI .F                40:   TOP LOG INTERVAL
 CS  .IN            8.625:   CASING SIZE
 CBD .F                40:   CASING BOTTOM DRILLER
 CBL .F                40:   CASING BOTTOM LOGGER
 BS  .IN            7.875:   BIT SIZE
 BSD .F               565:   BIT SIZE AT DEPTH
 DFT .                KCL:   DRILLING FLUID TYPE
 DFD .                8.7:   DRILLING FLUID DENSITY
 DFV .                 34:   DRILLING FLUID VISCOSITY
 DFPH.                9.5:   DRILLING FLUID PH
 DFL .               10.4:   DRILLING FLUID LOSS
 BHT .F                76:   BOTTOM HOLE TEMPERATURE
 TCS .HRS               3:   TIME CURCULATED STOPPED
 MRT .F                76:   MAXIMUM RECORDED TEMPERATURE
 LUN .               2958:   LOGGING UNIT NUMBER
 LUL .              CASP.:   LOGGING UNIT LOCATION
 ENGI.             MILLER:   RECORDING ENGINEER
 WITN.           MCGINLEY:   WITNESSED BY
 CLNT.            A2DTECH:   CLIENT CODE
 ORIG.      2" , 5" PRINT:   ORIGIN OF DATA
 UWI .       490251062300:   UNIQUE WELL ID
 DICO. A2D Technologies, Inc.:   DIGITIZING COMPANY
~OTHER INFORMATION
~A   DEPT       GRD      CALD         SN        SPR        ILD       RHOB       DPHI       CORR   
# ...
  429.5000    65.7837     7.9382    13.0983     0.5644    15.2684     2.4236     0.1448     0.0305
  430.0000    66.2368     7.9382    13.0735     0.5756    15.1589     2.4228     0.1469     0.0305
  430.5000    65.7040     7.9382    12.9993     0.5867    15.0502     2.4225     0.1489     0.0316
  431.0000    65.6029     7.9382    12.9255     0.5978    14.9422     2.4223     0.1509     0.0329
  431.5000    65.5766     7.9382    12.8521     0.6089    14.7253     2.4221     0.1482     0.0342
  432.0000    64.9052     7.9382    12.7791     0.6201    14.4390     2.4221     0.1427     0.0355
  432.5000    64.2027     7.9382    12.7065     0.6312    14.1905     2.4240     0.1376     0.0367
  433.0000    65.7711     7.9382    12.6344     0.6423    14.0390     2.4317     0.1298     0.0380
  433.5000    68.2856     7.9382    12.5626     0.6535    13.8897     2.4396     0.1279     0.0393
  434.0000    70.8296     7.9382    12.4913     0.6646    13.7412     2.4476     0.1314     0.0406
  434.5000    70.7863     7.9382    12.4204     0.6757    13.5893     2.4467     0.1336     0.0419
  435.0000    70.2066     7.9382    12.3498     0.6868    13.5455     2.4448     0.1318     0.0432
  435.5000    69.7732     7.9382    12.2797     0.6980    13.4882     2.4430     0.1288     0.0445
  436.0000    71.0741     7.9382    12.2100     0.7091    13.4311     2.4460     0.1356     0.0457
  436.5000    73.7570     7.9382    12.1407     0.7202    13.3743     2.4467     0.1445     0.0455
  437.0000    74.1003     7.9382    12.0717     0.7313    13.3177     2.4392     0.1464     0.0387
  437.5000    70.9085     7.9382    12.0032     0.7425    13.2614     2.4319     0.1383     0.0344
  438.0000    69.3696     7.9382    11.9350     0.7536    13.2053     2.4303     0.1324     0.0418
  438.5000    67.4610     7.9382    11.8672     0.7647    13.1494     2.4432     0.1265     0.0544
  439.0000    67.1976     7.9382    11.8374     0.7758    13.0938     2.4502     0.1220     0.0587
  439.5000    67.2127     7.9382    11.8321     0.7870    13.0384     2.4546     0.1225     0.0593
  440.0000    68.3181     7.9382    11.8043     0.7981    12.9832     2.4624     0.1228     0.0604
  440.5000    69.4862     7.9382    11.7765     0.8092    12.9283     2.4688     0.1211     0.0619
  441.0000    70.5390     7.9382    11.7488     0.8204    12.8736     2.4690     0.1186     0.0656
  441.5000    70.0821     7.9382    11.7211     0.8315    12.8191     2.4699     0.1160     0.0679
  442.0000    69.5900     7.9382    11.6936     0.8426    12.7649     2.4738     0.1138     0.0701
  442.5000    69.1055     7.9382    11.6661     0.8537    12.7109     2.4775     0.1118     0.0730
  443.0000    68.6159     7.9382    11.6386     0.8649    12.6571     2.4813     0.1096     0.0745
  443.5000    68.4400     7.9382    11.6211     0.8760    12.6035     2.4837     0.1080     0.0746
  444.0000    68.7436     7.9382    11.6209     0.8871    12.5502     2.4840     0.1103     0.0746
  444.5000    69.7260     7.9383    11.6995     0.8982    12.5093     2.4815     0.1133     0.0746
  445.0000    70.7468     7.9383    11.7646     0.9094    12.5093     2.4772     0.1164     0.0766
  445.5000    70.4573     7.9385    11.8300     0.9205    12.5167     2.4728     0.1164     0.0809
  446.0000    69.0911     7.9284    11.8958     0.9316    12.5238     2.4720     0.1144     0.0863
  446.5000    67.9576     7.9158    11.9619     0.9428    12.5308     2.4739     0.1160     0.0907
  447.0000    68.0211     7.9032    12.0284     0.9539    12.5378     2.4751     0.1198     0.0891
  447.5000    68.4867     7.8906    12.0573     0.9650    12.5449     2.4721     0.1208     0.0816
  448.0000    68.9880     7.8781    12.1687     0.9761    12.5519     2.4686     0.1198     0.0805
  448.5000    70.0086     7.8648    12.1621     0.9873    12.5589     2.4659     0.1176     0.0811
  449.0000    70.6912     7.8436    12.1513     0.9984    12.5660     2.4679     0.1193     0.0824
  449.5000    71.3739     7.8443    12.1405     1.0095    12.5730     2.4699     0.1219     0.0846
  450.0000    71.9781     7.8573    12.1297     1.0206    12.5801     2.4681     0.1236     0.0874
  450.5000    71.6295     7.8700    12.1189     1.0318    12.5871     2.4639     0.1236     0.0907
  451.0000    71.2548     7.8826    12.1082     1.0429    12.5942     2.4629     0.1233     0.0940
  451.5000    69.9134     7.8957    12.0974     1.0540    12.6013     2.4643     0.1228     0.0972
  452.0000    65.5514     7.8985    12.0867     1.0651    12.6083     2.4662     0.1203     0.1004
  452.5000    64.5571     7.8991    12.0759     1.0759    12.6152     2.4677     0.1182     0.1037
  453.0000    65.6761     7.8742    12.0652     1.0874    12.6225     2.4680     0.1151     0.1069
  453.5000    67.9685     7.8432    12.0564     1.1214    12.6250     2.4681     0.1132     0.1102
  454.0000    70.2447     7.8122    12.0552     1.2385    12.7417     2.4720     0.1145     0.1127
  454.5000    72.4918     7.7812    12.0573     1.3521    12.9783     2.4758     0.1156     0.1126
  455.0000    73.6088     7.7502    12.2812     1.4690    13.4914     2.4740     0.1189     0.1122
  455.5000    69.5562     7.7192    12.6596     1.4979    14.2697     2.4652     0.1268     0.1112
  456.0000    66.6400     7.6883    13.0740     1.5034    15.0929     2.4567     0.1347     0.1102
  456.5000    65.6030     7.6573    13.5026     1.5083    15.9635     2.4481     0.1485     0.1092
  457.0000    65.4362     7.6258    13.9449     1.5134    17.6429     2.4389     0.1709     0.1072
  457.5000    65.7791     7.5968    14.4017     1.5186    20.1840     2.4109     0.1646     0.1043
  458.0000    64.9859     7.5974    14.8735     1.5238    23.0981     2.3831     0.1534     0.1205
  458.5000    60.9074     7.5991    15.3607     1.5290    24.7194     2.4073     0.1422     0.1365
  459.0000    59.0376     7.5997    15.9565     1.5341    24.7137     2.4273     0.1366     0.1197
  459.5000    59.3007     7.5995    16.6280     1.5393    24.7137     2.4290     0.1348     0.1194
  460.0000    60.9156     7.5958    16.9474     1.5445    24.3806     2.4338     0.1348     0.1304
  460.5000    62.4801     7.5866    17.2098     1.5497    24.0951     2.4402     0.1453     0.1414
  461.0000    58.6610     7.5798    17.3454     1.5548    23.8130     2.4373     0.1661     0.1400
  461.5000    55.6599     7.5932    17.5827     1.5600    23.5342     2.4133     0.1853     0.1390
  462.0000    55.6659     7.6228    17.5827     1.5652    23.2586     2.3900     0.1853     0.1403
  462.5000    55.8337     7.6523    17.5633     1.5704    22.9599     2.3666     0.1513     0.1684
  463.0000    56.0025     7.6819    17.4972     1.5755    22.9599     2.3871     0.1513     0.1816
  463.5000    55.9458     7.7124    17.4314     1.5807    23.4927     2.4026     0.1734     0.1396
  464.0000    55.6874     7.7191    17.3659     1.5859    24.2423     2.3894     0.1925     0.0951
  464.5000    54.6748     7.7191    17.3005     1.5911    25.0157     2.3461     0.1841     0.0743
  465.0000    54.4484     7.7124    17.2354     1.5963    25.8138     2.3543     0.1758     0.0896
  465.5000    54.6899     7.6938    17.1706     1.6014    26.8605     2.3682     0.1708     0.0946
  466.0000    55.1849     7.6755    17.1061     1.6066    27.5780     2.3810     0.1727     0.0907
  466.5000    56.0495     7.6570    17.0417     1.6118    27.8607     2.3814     0.1785     0.0868
  467.0000    56.9087     7.6386    16.9780     1.6170    27.1890     2.3789     0.1757     0.0845
  467.5000    57.7803     7.6202    16.8748     1.6221    26.5929     2.3761     0.1709     0.0841
  468.0000    58.9021     7.6018    16.7386     1.6273    26.0098     2.3793     0.1718     0.0827
  468.5000    60.3400     7.5991    16.6030     1.6325    24.4801     2.3838     0.1707     0.0793
  469.0000    61.6838     7.5979    16.4687     1.6377    23.3012     2.3839     0.1656     0.0751
  469.5000    61.9383     7.6283    16.3355     1.6428    22.1792     2.3849     0.1681     0.0708
