~VERSION INFORMATION
 VERS.                2.0:   CWLS LOG ASCII STANDARD - VERSION 2.0
 WRAP.                 NO:   ONE LINE PER DEPTH STEP
~WELL INFORMATION
#MNEM.UNIT      DATA TYPE    INFORMATION
#----------   ------------   ------------------------------
 STRT.F            0.0000:   START DEPTH
 STOP.F          964.0000:   STOP DEPTH
 STEP.F            0.5000:   STEP LENGTH
 NULL.          -999.2500:   NO VALUE
 COMP. LAWRENCE/ALLISON INC:   COMPANY
 WELL.  NPR 3 #58-16-SX-2:   WELL
 FLD .           NPR NO.3:   FIELD
 LOC .       S2 T38N R78W:   LOCATION
 CNTY.            NATRONA:   COUNTY
 STAT.            WYOMING:   STATE
 CTRY. UNITED STATES OF AMERICA:   COUNTRY
 SRVC.           Gearhart:   SERVICE COMPANY
 DATE.        07-MAY-1987:   LOGDATE
 API .       490251113700:   API NUMBER
~CURVE INFORMATION
#MNEM.UNIT       API CODE    CURVE DESCRIPTION
#----------   ------------   ------------------------------
 DEPT.F                  :   
 GRR .GAPI   07 310 01 00:   GAMMA RAY FROM RES. LOG.
 RILD.OHMM   07 120 46 00:   INDUCTION LOG DEEP RESISTIVITY
 RILM.OHMM   07 120 44 00:   INDUCTION LOG MEDIUM RESISTIVITY
~PARAMETER INFORMATION
#MNEM.UNIT          VALUE    DESCRIPTION
#----------   ------------   ------------------------------
 PD  .                 GL:   PERMANENT DATUM
 EPD .F              5173:   ELEVATION PERMANENT DATUM
 LMF .                 GL:   LOG MEASURED FROM
 DMF .                 GL:   DRILLING MEASURED FROM
 EGL .F              5173:   GROUND LEVEL
 DATE.           5-7-1987:   RUN DATE
 RUN .                  1:   RUN NUMBER
 DD  .F               971:   DEPTH DRILLER
 DL  .F               971:   DEPTH LOGGER
 BLI .F               963:   BOTTOM LOG INTERVAL
 TLI .F                37:   TOP LOG INTERVAL
 CS  .IN            8.625:   CASING SIZE
 CBD .F                44:   CASING BOTTOM DRILLER
 CBL .F                37:   CASING BOTTOM LOGGER
 BS  .IN            7.875:   BIT SIZE
 BSD .F               971:   BIT SIZE AT DEPTH
 TCS .HRS            2100:   TIME CURCULATED STOPPED
 TLAB.HRS            2338:   TIME LOGGER AT BOTTOM
 MRT .F                80:   MAXIMUM RECORDED TEMPERATURE
 LUN .               7597:   LOGGING UNIT NUMBER
 LUL .           GILLETTE:   LOGGING UNIT LOCATION
 ENGI.         WEATHERMON:   RECORDING ENGINEER
 WITN. STRONG/TAYLOR/LOWE:   WITNESSED BY
 CLNT.            A2DTECH:   CLIENT CODE
 ORIG.           5" PRINT:   ORIGIN OF DATA
 UWI .       490251113700:   UNIQUE WELL ID
 DICO. A2D Technologies, Inc.:   DIGITIZING COMPANY
~OTHER INFORMATION
~A    DEPT      GRR      RILD       RILM   
# ...
  637.0000   116.7980     2.3940     2.1763
  637.5000   113.4600     2.3929     2.0771
  638.0000   109.4010     2.4166     2.0575
  638.5000   106.7008     2.5857     2.2118
  639.0000   106.9739     2.7685     2.4272
  639.5000   110.2056     3.0047     2.7115
  640.0000   114.1672     3.4475     3.0291
  640.5000   118.2147     3.9530     3.5119
  641.0000   119.4175     4.5327     4.0331
  641.5000   120.0114     4.9601     4.5233
  642.0000   121.2848     5.4218     5.0524
  642.5000   124.0402     5.6535     5.2745
  643.0000   125.5274     5.8410     5.5528
  643.5000   124.7051     6.0348     5.7418
  644.0000   122.8550     6.1042     5.8063
  644.5000   121.7226     6.1042     5.8715
  645.0000   123.3768     6.1042     5.9335
  645.5000   123.8054     6.0021     5.7499
  646.0000   122.6762     5.7868     5.5437
  646.5000   121.5320     5.5793     5.3450
  647.0000   123.1012     5.3793     5.1533
  647.5000   125.0558     5.1864     4.9685
  648.0000   127.0189     5.0004     4.7903
  648.5000   129.0050     4.8211     4.6186
  649.0000   129.6266     4.6483     4.4679
  649.5000   128.2082     4.5532     4.3842
  650.0000   126.6404     4.7351     4.3381
  650.5000   125.0657     4.8805     4.5222
  651.0000   123.4240     5.0304     4.7250
  651.5000   123.6976     5.1977     4.9376
  652.0000   124.9013     5.4749     5.1597
  652.5000   126.8381     5.7919     5.3918
  653.0000   128.7378     6.1320     5.6343
  653.5000   129.8269     6.3547     5.8877
  654.0000   129.2381     6.5409     6.1526
  654.5000   128.6797     6.7325     6.3751
  655.0000   128.1111     6.9298     6.5870
  655.5000   127.5705     7.1328     6.8060
  656.0000   127.8303     7.3056     6.9990
  656.5000   129.4393     7.2504     7.1013
  657.0000   129.8338     7.2037     6.9968
  657.5000   128.3570     7.1569     6.8649
  658.0000   126.9028     7.1116     6.7355
  658.5000   125.5481     6.9559     6.6589
  659.0000   125.7242     6.7778     6.5959
  659.5000   125.9462     6.6042     6.4072
  660.0000   126.1692     6.4351     6.1961
  660.5000   126.6036     6.2760     5.9930
  661.0000   127.8373     6.1285     5.7253
  661.5000   129.0333     5.8459     5.3981
  662.0000   130.2277     5.4093     5.0283
  662.5000   131.4274     5.0054     4.6960
  663.0000   132.6244     4.5104     4.3857
  663.5000   133.6946     4.5402     4.1695
  664.0000   132.7862     4.5859     3.9758
  664.5000   129.8660     4.6320     3.9511
  665.0000   127.0121     4.6787     4.1716
  665.5000   124.8165     4.9361     4.3900
  666.0000   124.8382     5.2385     4.7201
  666.5000   125.0201     5.5594     5.1299
  667.0000   125.0909     5.9558     5.6062
  667.5000   126.1160     6.4064     5.8667
  668.0000   127.8566     6.8911     6.1687
  668.5000   129.6026     7.0434     6.4864
  669.0000   131.3670     7.0714     6.7734
  669.5000   132.0337     7.0995     6.7848
  670.0000   132.0566     7.1276     6.8195
  670.5000   131.9675     7.1560     6.8543
  671.0000   129.9372     7.1844     6.8894
  671.5000   127.8564     7.2128     6.9246
  672.0000   125.9548     7.2368     6.9683
  672.5000   126.3371     7.2164     6.9556
  673.0000   128.3353     7.1988     6.9391
  673.5000   130.2473     7.1813     6.9226
  674.0000   131.4135     7.1638     6.9061
  674.5000   130.3164     7.1463     6.8897
  675.0000   129.2829     7.1290     6.8734
  675.5000   128.2678     7.1113     6.8570
  676.0000   127.6649     7.1014     6.8377
  676.5000   128.6506     7.1285     6.8643
  677.0000   130.8885     7.1480     6.8969
  677.5000   133.1875     7.1674     6.9298
  678.0000   133.2542     7.1870     6.9629
  678.5000   132.7005     7.2065     6.9961
  679.0000   132.5251     7.2261     7.0345
  679.5000   132.6470     7.2369     6.7561
  680.0000   132.7897     6.7853     6.4423
  680.5000   133.7498     6.4907     6.1991
  681.0000   136.1380     6.3169     6.1173
  681.5000   138.5092     6.2690     6.0371
  682.0000   140.8525     6.2215     5.9580
  682.5000   141.5547     6.1743     5.9332
  683.0000   137.8131     6.1275     5.9334
  683.5000   134.1170     5.9493     5.9337
  684.0000   132.4847     5.6505     5.9975
  684.5000   133.6037     5.3796     6.0468
  685.0000   134.7474     5.2192     5.5534
  685.5000   134.7232     5.0524     5.0403
  686.0000   134.4748     5.0603     4.5365
  686.5000   135.2159     5.0689     4.1034
  687.0000   136.0493     5.0775     4.1565
  687.5000   135.5195     5.0862     4.2957
  688.0000   133.5190     5.0948     4.5319
  688.5000   130.9816     5.2118     4.8082
  689.0000   128.4568     5.5346     5.1704
  689.5000   126.0460     5.8779     5.5605
  690.0000   124.0335     6.2401     5.9763
  690.5000   122.9069     6.4355     6.2032
  691.0000   124.4908     6.4907     6.3115
  691.5000   126.3435     6.5489     6.4606
  692.0000   127.5634     6.5839     6.1990
  692.5000   127.5280     6.2178     5.8867
  693.0000   127.6185     5.9290     5.5901
  693.5000   130.4487     5.6536     5.3084
  694.0000   135.1585     5.3910     4.9916
  694.5000   139.8286     5.2876     4.5532
  695.0000   143.9710     5.2729     4.5532
  695.5000   144.3185     5.2581     4.5532
  696.0000   142.7402     5.2471     4.8414
  696.5000   138.4106     5.6078     5.3981
  697.0000   129.9725     5.9135     5.6971
  697.5000   123.2256     6.2382     5.9949
  698.0000   119.1183     6.6847     6.3249
  698.5000   118.2341     7.2380     6.7196
  699.0000   119.8188     7.3899     7.1013
  699.5000   121.2667     7.5149     7.1975
  700.0000   121.4354     7.6419     7.2870
  700.5000   121.4431     7.7464     7.3777
  701.0000   121.0381     7.8901     7.4695
  701.5000   120.6019     8.0365     7.5487
  702.0000   120.1967     8.1857     7.6594
  702.5000   119.9661     8.2592     7.8048
  703.0000   119.7324     8.2305     7.8000
  703.5000   118.5779     8.2100     7.7920
  704.0000   117.7344     8.1896     7.7840
  704.5000   118.0201     8.1693     7.7760
  705.0000   118.4021     8.1490     7.7680
  705.5000   118.7758     8.1289     7.7600
  706.0000   118.5654     8.1088     7.7521
  706.5000   116.7500     8.1516     7.7444
  707.0000   114.9900     8.2020     7.7382
  707.5000   114.1155     8.2528     7.7329
  708.0000   116.7343     8.3038     8.0378
  708.5000   119.3727     8.3398     8.2691
  709.0000   119.7349     7.7978     8.5070
  709.5000   116.2602     7.2369     8.5797
  710.0000   112.8778     6.7163     7.8241
  710.5000   112.2832     6.2371     6.9749
  711.0000   116.7774     5.8254     5.6115
  711.5000   124.7589     5.5534     4.6937
  712.0000   132.6244     5.5673     4.2992
  712.5000   137.2334     5.5820     4.2215
  713.0000   133.1560     5.5970     4.7148
  713.5000   125.0212     5.7894     5.2126
  714.0000   119.2773     6.4518     5.7641
  714.5000   116.5663     7.1882     6.3748
  715.0000   115.7328     8.0085     7.0504
  715.5000   115.1328     8.8266     7.7976
  716.0000   114.5353     9.1748     8.6239
  716.5000   114.1556     9.5777     9.3419
  717.0000   114.9717     9.8606     9.4650
  717.5000   117.3570     9.9947     9.6037
  718.0000   119.6762    10.1306     9.6879
  718.5000   120.9654    10.2684     9.4254
  719.0000   120.6099    10.4068     9.2180
  719.5000   120.3188    10.5481     8.9930
  720.0000   118.0424    11.2675     9.2519
  720.5000   115.4507    12.1057     9.8536
  721.0000   111.0394    13.0067    10.4956
  721.5000   103.4014    13.9739    12.0017
  722.0000    91.2529    15.0131    13.5998
  722.5000    79.2221    16.1577    15.1531
  723.0000    69.2638    17.6680    16.8811
  723.5000    63.7998    19.3184    18.3483
  724.0000    65.2403    21.1231    19.7327
  724.5000    68.7183    22.1662    21.0677
  725.0000    70.5268    22.3240    21.3903
  725.5000    69.7026    22.4828    21.7546
  726.0000    68.9157    22.7072    22.0645
  726.5000    68.1111    22.5449    21.8339
  727.0000    67.7258    22.1924    21.6057
  727.5000    67.4237    21.8454    21.3799
