~VERSION INFORMATION
 VERS.                2.0:   CWLS LOG ASCII STANDARD - VERSION 2.0
 WRAP.                 NO:   ONE LINE PER DEPTH STEP
~WELL INFORMATION
#MNEM.UNIT      DATA TYPE    INFORMATION
#----------   ------------   ------------------------------
 STRT.F            8.0000:   START DEPTH
 STOP.F         3200.0000:   STOP DEPTH
 STEP.F            0.5000:   STEP LENGTH
 NULL.          -999.2500:   NO VALUE
 COMP. BROWN JOHN E&C INC:   COMPANY
 WELL.  62 x 15-17 #62-15:   WELL
 FLD .        N.P.R NO. 3:   FIELD
 LOC .      S15 T38N R78W:   LOCATION
 CNTY.            NATRONA:   COUNTY
 STAT.            WYOMING:   STATE
 CTRY. UNITED STATES OF AMERICA:   COUNTRY
 SRVC.      Western Atlas:   SERVICE COMPANY
 DATE.        17-JUN-1986:   LOGDATE
 API .       490251104300:   API NUMBER
~CURVE INFORMATION
#MNEM.UNIT       API CODE    CURVE DESCRIPTION
#----------   ------------   ------------------------------
 DEPT.F                  :   
 GRR .GAPI   07 310 01 00:   GAMMA RAY
 CALR.IN     07 280 01 00:   CALIPER FROM RESISTIVITY
 SPR .MV     07 010 01 00:   SPONTANEOUS POTENTIAL
 RILD.OHMM   07 120 46 00:   INDUCTION LOG DEEP RESISTIVITY
 RILM.OHMM   07 120 44 00:   INDUCTION LOG MEDIUM RESISTIVITY
 RFOC.OHMM   07 220 04 00:   RESISTIVITY FOCUSED LOG
 PORD.DEC    45 890 12 00:   POROSITY DENSITY SANDSTONE
 CNC .DEC    42 890 03 00:   NEUTRON POROSITY SANDSTONE
 CORR.G/C3   45 356 01 00:   DENSITY CORRECTION
 DEN .G/C3   45 350 01 00:   COMPENSATED BULK DENSTIY
~PARAMETER INFORMATION
#MNEM.UNIT          VALUE    DESCRIPTION
#----------   ------------   ------------------------------
 PD  .                 GL:   PERMANENT DATUM
 EPD .F              5242:   ELEVATION PERMANENT DATUM
 LMF .                 KB:   LOG MEASURED FROM
 DAPD.F                11:   FEET ABOVE PERMANENT DATUM
 DMF .                 KB:   DRILLING MEASURED FROM
 EKB .F              5253:   KELLING BUSHING
 EGL .F              5242:   GROUND LEVEL
 DATE.            6-17-86:   RUN DATE
 RUN .                  1:   RUN NUMBER
 DD  .F              3200:   DEPTH DRILLER
 DL  .F              3202:   DEPTH LOGGER
 BLI .F              3200:   BOTTOM LOG INTERVAL
 CS  .IN            8.625:   CASING SIZE
 CBD .F               573:   CASING BOTTOM DRILLER
 CBL .F               573:   CASING BOTTOM LOGGER
 BS  .IN            7.875:   BIT SIZE
 BSD .F              3200:   BIT SIZE AT DEPTH
 DFT .            KCL/GEL:   DRILLING FLUID TYPE
 DFD .                8.9:   DRILLING FLUID DENSITY
 DFV .                 37:   DRILLING FLUID VISCOSITY
 DFPH.                8.5:   DRILLING FLUID PH
 DFL .               10.2:   DRILLING FLUID LOSS
 MSS .           MUD TANK:   MUD SAMPLE SOURCE
 RMS .OHMM            .39:   RESISTIVITY MUD SAMPLE
 MST .F                80:   MUD SAMPLE TEMPERATURE
 RMF .OHMM            .29:   RESISTIVITY MUD FILTRATE SAMPLE
 MFST.F                80:   MUD FILTRATE SAMPLE TEMPERATURE
 RMC .OHMM            .49:   RESISTIVITY MUD CAKE
 MCST.F                80:   MUD CAKE SAMPLE TEMPERATURE
 MFSS.               CALC:   MUD FILTRATE SAMPLE SOURCE
 MCSS.               CALC:   MUD CAKE SAMPLE SOURCE
 RMB .OHMM            .24:   RESISTIVITY MUD AT BHT
 BHT .F               130:   BOTTOM HOLE TEMPERATURE
 TCS .HRS               5:   TIME CURCULATED STOPPED
 MRT .F               130:   MAXIMUM RECORDED TEMPERATURE
 LUN .            HL 6264:   LOGGING UNIT NUMBER
 LUL .           GILLETTE:   LOGGING UNIT LOCATION
 ENGI.      P.H. FAHLSING:   RECORDING ENGINEER
 WITN.             STRONG:   WITNESSED BY
 CLNT.            A2DTECH:   CLIENT CODE
 UWI .       490251104300:   UNIQUE WELL ID
 DICO. A2D Technologies, Inc.:   DIGITIZING COMPANY
~OTHER INFORMATION
~A    DEPT     GRR       CALR        SPR       RILD       RILM       RFOC       PORD        CNC       CORR        DEN   
# ...
  577.5000    65.4244    10.2460   -25.5330    10.8759    15.4683     8.5949  -999.2500  -999.2500  -999.2500  -999.2500
  578.0000    64.8441    10.4414   -27.7829    16.1334    21.5648     8.3596  -999.2500  -999.2500  -999.2500  -999.2500
  578.5000    62.1617    10.6369   -28.8297    17.5209    21.1186     8.4171  -999.2500  -999.2500  -999.2500  -999.2500
  579.0000    61.8766    10.7874   -30.0269    14.0407    16.2301     8.5930  -999.2500  -999.2500  -999.2500  -999.2500
  579.5000    64.9050    10.8943   -32.4692    10.7205    11.0737     8.5897  -999.2500  -999.2500  -999.2500  -999.2500
  580.0000    68.5289    10.9686   -35.7282     9.9340    11.5564     8.4737  -999.2500  -999.2500  -999.2500  -999.2500
  580.5000    70.9520    11.4340   -37.0757    10.1409    12.2131     8.2990  -999.2500  -999.2500  -999.2500  -999.2500
  581.0000    70.0760    12.1242   -37.9722    10.6611    12.4682     8.1844  -999.2500  -999.2500  -999.2500  -999.2500
  581.5000    69.4906    12.4846   -38.8687    11.2458    10.3402     8.0157  -999.2500  -999.2500  -999.2500  -999.2500
  582.0000    69.8163    12.5751   -40.2163    11.7206     8.6953     7.9599  -999.2500  -999.2500  -999.2500  -999.2500
  582.5000    71.3381    13.1327   -42.3158    11.9651     8.3982     8.0147  -999.2500  -999.2500  -999.2500  -999.2500
  583.0000    70.7578    13.2361   -43.6812    11.5566     8.3392     8.1822  -999.2500  -999.2500  -999.2500  -999.2500
  583.5000    69.5769    13.2515   -44.7087    11.0091     8.3960     8.0691  -999.2500  -999.2500  -999.2500  -999.2500
  584.0000    68.9966    13.2371   -45.4548    10.3283     8.4532     8.0129  -999.2500  -999.2500  -999.2500  -999.2500
  584.5000    70.2232    13.2828   -46.0505    10.0596     8.5697     8.0682  -999.2500  -999.2500  -999.2500  -999.2500
  585.0000    70.5387    13.2834   -46.3455    10.1983     8.5685     8.2368  -999.2500  -999.2500  -999.2500  -999.2500
  585.5000    69.3578    13.2841   -46.7908    10.4830     8.5674     8.4089  -999.2500  -999.2500  -999.2500  -999.2500
  586.0000    70.5843    13.2547   -47.0917    10.7013     8.6258     8.5255  -999.2500  -999.2500  -999.2500  -999.2500
  586.5000    72.1061    13.2401   -47.5311    10.6998     8.5648     8.4660  -999.2500  -999.2500  -999.2500  -999.2500
  587.0000    70.9252    13.2408   -47.5239    10.6984     8.5637     8.2916  -999.2500  -999.2500  -999.2500  -999.2500
  587.5000    71.2963    13.2264   -47.5181    10.7712     8.4447     8.1770  -999.2500  -999.2500  -999.2500  -999.2500
  588.0000    74.2742    13.2420   -47.5123    10.6215     8.2700     8.0641  -999.2500  -999.2500  -999.2500  -999.2500
  588.5000    74.5948    13.2577   -47.3561    10.1183     8.1552     8.0636  -999.2500  -999.2500  -999.2500  -999.2500
  589.0000    74.3148    13.2583   -47.3503     9.7058     8.2107     8.0630  -999.2500  -999.2500  -999.2500  -999.2500
  589.5000    73.4291    13.2588   -47.1940     9.5712     8.2667     8.0625  -999.2500  -999.2500  -999.2500  -999.2500
  590.0000    73.1491    13.2443   -47.2040     9.6364     8.2083     8.0062  -999.2500  -999.2500  -999.2500  -999.2500
  590.5000    72.8739    13.2300   -47.4478     9.7689     8.2072     7.8412  -999.2500  -999.2500  -999.2500  -999.2500
  591.0000    72.9210    13.1810   -47.6916     9.9037     8.3784     7.7329  -999.2500  -999.2500  -999.2500  -999.2500
  591.5000    75.0219    12.9614   -47.7725    10.0402     8.6724     7.6261  -999.2500  -999.2500  -999.2500  -999.2500
  592.0000    77.4446    12.8121   -47.7652    10.0389     8.9148     7.6256  -999.2500  -999.2500  -999.2500  -999.2500
  592.5000    79.2667    12.6477   -47.6090    10.1073     9.1661     7.6799  -999.2500  -999.2500  -999.2500  -999.2500
  593.0000    80.4882    12.4984   -47.1507    10.0330     9.2905     7.8386  -999.2500  -999.2500  -999.2500  -999.2500
  593.5000    81.4094    12.3624   -46.6938     9.4946     8.7884     8.0579  -999.2500  -999.2500  -999.2500  -999.2500
  594.0000    79.3276    12.2896   -46.5376     8.8591     8.0865     7.7834  -999.2500  -999.2500  -999.2500  -999.2500
  594.5000    76.0180    12.2604   -47.2837     8.3234     7.2877     7.3637  -999.2500  -999.2500  -999.2500  -999.2500
  595.0000    74.2631    12.2609   -48.1802     7.6596     6.4774     6.9187  -999.2500  -999.2500  -999.2500  -999.2500
  595.5000    75.1893    12.3515   -48.9262     7.0002     5.6781     6.6368  -999.2500  -999.2500  -999.2500  -999.2500
  596.0000    76.7111    13.3565   -48.9042     6.3039     4.7871     6.5906  -999.2500  -999.2500  -999.2500  -999.2500
  596.5000    79.1338    13.4770   -48.4621     5.8063     4.2145     6.7283  -999.2500  -999.2500  -999.2500  -999.2500
  597.0000    81.5565    13.0730   -48.3059     5.8864     4.1273     6.8690  -999.2500  -999.2500  -999.2500  -999.2500
  597.5000    84.2795    12.3689   -47.9994     6.2204     4.5469     6.9164  -999.2500  -999.2500  -999.2500  -999.2500
  598.0000    87.0589    11.9047   -47.9936     6.5733     5.3683     6.8207  -999.2500  -999.2500  -999.2500  -999.2500
  598.5000    88.5243    11.5155   -48.7397     6.8508     5.9141     6.6801  -999.2500  -999.2500  -999.2500  -999.2500
  599.0000    86.1473    11.3211   -49.4857     7.0423     6.1652     6.6336  -999.2500  -999.2500  -999.2500  -999.2500
  599.5000    84.6610    11.1821   -49.6303     7.3391     6.3364     6.7722  -999.2500  -999.2500  -999.2500  -999.2500
  600.0000    86.9167    11.1274   -49.7749     7.3257     6.5586     6.9618  -999.2500  -999.2500  -999.2500  -999.2500
  600.5000    90.9925    11.1130   -49.9195     7.1865     6.8834     7.1074  -999.2500  -999.2500  -999.2500  -999.2500
  601.0000    94.9275    11.0537   -49.9122     7.2354     6.9785     7.2560  -999.2500  -999.2500  -999.2500  -999.2500
  601.5000    97.9450    11.0543   -50.0583     7.3354     7.0751     7.4591  -999.2500  -999.2500  -999.2500  -999.2500
  602.0000    97.6591    11.0381   -50.6526     7.5399     7.2224     7.7212  -999.2500  -999.2500  -999.2500  -999.2500
  602.5000    95.8718    10.9207   -51.4135     7.7584     7.4295     7.9374  -999.2500  -999.2500  -999.2500  -999.2500
  603.0000    93.4839    10.8761   -52.1433     8.0773     7.6846     8.0473  -999.2500  -999.2500  -999.2500  -999.2500
  603.5000    88.0528    10.8169   -52.4397     8.3603     7.8994     8.2156  -999.2500  -999.2500  -999.2500  -999.2500
  604.0000    83.3063    10.7725   -52.5843     8.6533     8.0641     8.4456  -999.2500  -999.2500  -999.2500  -999.2500
  604.5000    84.2217    10.7580   -52.4267     8.9565     8.2895     8.6222  -999.2500  -999.2500  -999.2500  -999.2500
  605.0000    88.4404    10.7421   -52.1201     9.2065     8.5804     8.8025  -999.2500  -999.2500  -999.2500  -999.2500
  605.5000    94.4609    10.6394   -51.2090     9.4151     8.7594     8.9246  -999.2500  -999.2500  -999.2500  -999.2500
  606.0000    89.6669    10.5200   -50.3026     9.7272     8.9418     8.9238  -999.2500  -999.2500  -999.2500  -999.2500
  606.5000    90.2856    10.4306   -49.3945     9.9986     9.1283     8.8617  -999.2500  -999.2500  -999.2500  -999.2500
  607.0000    90.6004    10.4011   -48.3361    10.3490     9.3187     8.8611  -999.2500  -999.2500  -999.2500  -999.2500
  607.5000    87.6155    10.4168   -48.4807    10.5645     9.5130     8.9841  -999.2500  -999.2500  -999.2500  -999.2500
  608.0000    82.2246    10.4198   -49.2268    10.7845     9.6447     9.2355  -999.2500  -999.2500  -999.2500  -999.2500
  608.5000    80.4373    10.4331   -50.4240    10.8662     9.7776     9.4286  -999.2500  -999.2500  -999.2500  -999.2500
  609.0000    79.5472    10.4185   -51.3343    11.0076     9.8442     9.5594  -999.2500  -999.2500  -999.2500  -999.2500
  609.5000    79.2614    10.4192   -49.9598    11.0826     9.7747     9.5586  -999.2500  -999.2500  -999.2500  -999.2500
  610.0000    79.5798    10.4498   -44.2397    11.0451     9.7734     9.5579  -999.2500  -999.2500  -999.2500  -999.2500
  610.5000    80.5197    10.4654   -39.1212    11.0023     9.7721     9.4914  -999.2500  -999.2500  -999.2500  -999.2500
