~VERSION INFORMATION
 VERS.                2.0:   CWLS LOG ASCII STANDARD - VERSION 2.0
 WRAP.                 NO:   ONE LINE PER DEPTH STEP
~WELL INFORMATION
#MNEM.UNIT      DATA TYPE    INFORMATION
#----------   ------------   ------------------------------
 STRT.F           36.0000:   START DEPTH
 STOP.F          686.0000:   STOP DEPTH
 STEP.F            0.5000:   STEP LENGTH
 NULL.          -999.2500:   NO VALUE
 COMP.    FENIX & SCISSON:   COMPANY
 WELL.        NPR #15-S-2:   WELL
 FLD .             TEAPOT:   FIELD
 LOC .       S2 T38N R78W:   LOCATION
 CNTY.            NATRONA:   COUNTY
 STAT.            WYOMING:   STATE
 CTRY. UNITED STATES OF AMERICA:   COUNTRY
 SRVC.       Schlumberger:   SERVICE COMPANY
 DATE.        16-MAR-1977:   LOGDATE
 API .       490251029900:   API NUMBER
~CURVE INFORMATION
#MNEM.UNIT       API CODE    CURVE DESCRIPTION
#----------   ------------   ------------------------------
 DEPT.F                  :   
 SPR .MV     07 010 01 00:   SPONTANEOUS POTENTIAL FROM RES.
 ILD .OHMM   07 120 46 00:   INDUCTION LOG DEEP
 ILM .OHMM   07 120 44 00:   INDUCTION LOG MEDIUM
 LL8 .OHMM   07 220 08 00:   LATEROLOG-8 RES.
 GRD .GAPI   45 310 01 00:   GAMMA RAY FROM DENSITY LOG
 CALD.IN     45 280 60 00:   CALIPER FROM DENSITY LOG
 CORR.G/C3   45 356 01 00:   DENSITY CORRECTION
 RHOB.G/C3   45 350 01 00:   BULK DENSITY
 DPHI.DEC    45 890 12 00:   DENSITY POROSITY SANDSTONE
~PARAMETER INFORMATION
#MNEM.UNIT          VALUE    DESCRIPTION
#----------   ------------   ------------------------------
 PD  .                 GL:   PERMANENT DATUM
 EPD .F              5129:   ELEVATION PERMANENT DATUM
 LMF .                 KB:   LOG MEASURED FROM
 DAPD.F                 4:   FEET ABOVE PERMANENT DATUM
 DMF .                 KB:   DRILLING MEASURED FROM
 EKB .F              5133:   KELLING BUSHING
 EGL .F              5129:   GROUND LEVEL
 DATE.        15-MAR-1977:   RUN DATE
 RUN .                  1:   RUN NUMBER
 DD  .F               680:   DEPTH DRILLER
 DL  .F               680:   DEPTH LOGGER
 BLI .F               683:   BOTTOM LOG INTERVAL
 TLI .F                48:   TOP LOG INTERVAL
 CS  .IN            8.625:   CASING SIZE
 CBD .F                40:   CASING BOTTOM DRILLER
 CBL .F                49:   CASING BOTTOM LOGGER
 BS  .IN            7.875:   BIT SIZE
 BSD .F               680:   BIT SIZE AT DEPTH
 DFT .            KCL MUD:   DRILLING FLUID TYPE
 DFD .                8.8:   DRILLING FLUID DENSITY
 DFV .                 33:   DRILLING FLUID VISCOSITY
 DFPH.                9.6:   DRILLING FLUID PH
 DFL .                9.0:   DRILLING FLUID LOSS
 MSS .                PIT:   MUD SAMPLE SOURCE
 RMS .OHMM           0.22:   RESISTIVITY MUD SAMPLE
 MST .F                50:   MUD SAMPLE TEMPERATURE
 RMF .OHMM           0.21:   RESISTIVITY MUD FILTRATE SAMPLE
 MFST.F                50:   MUD FILTRATE SAMPLE TEMPERATURE
 MFSS.               MEAS:   MUD FILTRATE SAMPLE SOURCE
 TCS .HRS            1800:   TIME CURCULATED STOPPED
 TLAB.HRS            2130:   TIME LOGGER AT BOTTOM
 LUN .               7711:   LOGGING UNIT NUMBER
 LUL .               CSPR:   LOGGING UNIT LOCATION
 ENGI.             TAYLER:   RECORDING ENGINEER
 CLNT.            A2DTECH:   CLIENT CODE
 ORIG.           5" PRINT:   ORIGIN OF DATA
 UWI .       490251029900:   UNIQUE WELL ID
 DICO. A2D Technologies, Inc.:   DIGITIZING COMPANY
~OTHER INFORMATION
~A   DEPT      SPR        ILD        ILM        LL8         GRD      CALD       CORR       RHOB       DPHI   
# ...
  656.5000   -69.0197     2.8505     3.5070     3.6912   110.0850     7.9581     0.0032     2.5073     0.0851
  657.0000   -68.4051     3.1655     4.2612     5.0862   112.0303     7.9592     0.0086     2.5240     0.0766
  657.5000   -67.6411     3.6391     4.5088     8.5748   113.8270     7.9603     0.0124     2.5210     0.0781
  658.0000   -67.1757     4.4833     4.7053     8.2290   114.5836     7.9614     0.0087     2.5187     0.0808
  658.5000   -66.5610     5.3759     5.5617     8.0066   114.8944     7.9625     0.0028     2.5151     0.0792
  659.0000   -66.0926     6.9178     6.6649     8.0683   115.0567     7.9636     0.0074     2.5227     0.0747
  659.5000   -65.7675     7.8977     7.6095     8.3007   114.9183     7.9647     0.0060     2.5236     0.0768
  660.0000   -65.2935     8.4582     8.0517     9.4791   114.9354     7.9510     0.0083     2.5313     0.0713
  660.5000   -64.5457     8.6470     8.2871     9.8202   114.7971     7.9373     0.0106     2.5412     0.0665
  661.0000   -64.0803     8.7678     8.4707     9.9635   114.5135     7.9236     0.0099     2.5477     0.0613
  661.5000   -63.6148     8.7768     8.5394     9.9692   115.5707     7.9247     0.0025     2.5424     0.0637
  662.0000   -63.4479     8.7868     8.6087    10.0447   119.1505     7.9109    -0.0012     2.5383     0.0691
  662.5000   -63.2810     8.8312     8.6188    10.0583   121.2444     7.9121    -0.0011     2.5274     0.0739
  663.0000   -63.1141     8.9266     8.5694    10.3401   121.7038     7.9134     0.0065     2.5261     0.0738
  663.5000   -62.9472     8.9358     8.5794    10.4907   122.0113     7.9294     0.0043     2.5222     0.0786
  664.0000   -62.7803     8.9450     8.5894    10.2814   118.0164     7.9305    -0.0099     2.5137     0.0828
  664.5000   -62.7626     8.9542     8.6591    10.1437   116.6928     7.9316    -0.0076     2.5158     0.0791
  665.0000   -62.7449     8.9634     8.6692     9.9414   116.7065     7.9327    -0.0007     2.5204     0.0758
  665.5000   -62.5780     9.0349     8.6793    10.0165   117.0173     7.9338     0.0069     2.5242     0.0721
  666.0000   -62.5604     9.1702     8.6895    10.4479   117.3254     7.9349     0.0115     2.5264     0.0736
  666.5000   -62.6926     9.1797     8.5210    10.2395   117.6643     7.9360     0.0123     2.5220     0.0748
  667.0000   -62.6743     9.1891     8.3558    10.2453   118.1220     7.9371     0.0124     2.5228     0.0754
  667.5000   -62.6566     9.0721     8.2507    10.4674   118.2572     7.9231     0.0124     2.5309     0.0717
  668.0000   -62.9432     8.9566     8.1469    10.6201   110.5752     7.9245     0.0132     2.5371     0.0672
  668.5000   -63.2323     8.9658     8.0443    10.4068  -999.2500     7.9256     0.0103     2.5282     0.0710
  669.0000   -63.3499     8.9751     7.9431    10.2674  -999.2500     7.9267     0.0149     2.5388     0.0656
  669.5000   -63.3279     8.9221     7.8432    10.0626  -999.2500     7.9278     0.0142     2.5403     0.0658
  670.0000   -63.3102     8.8087     7.7982     9.7920  -999.2500     7.9289     0.0098     2.5313     0.0703
  670.5000   -63.1433     8.7569     7.9184     9.0757  -999.2500     7.9300     0.0121     2.5306     0.0706
  671.0000   -62.9764     8.7660     8.0380     9.7353  -999.2500     7.9311     0.0137     2.5322     0.0709
  671.5000   -62.8095     8.7114     8.0474    10.2270  -999.2500     7.9322     0.0115     2.5232     0.0753
  672.0000   -62.6425     8.6036     8.1127    10.4486  -999.2500     7.9333     0.0093     2.5165     0.0798
  672.5000   -62.7785     8.7408     8.1221    10.3821  -999.2500     7.9345     0.0087     2.5135     0.0828
  673.0000   -62.6072     8.9871     8.1881    10.6846  -999.2500     7.9356     0.0072     2.5106     0.0854
  673.5000   -62.5896     9.0608     8.1411    10.7619  -999.2500     7.9216     0.0057     2.5076     0.0818
  674.0000   -62.5719     9.1331     8.0921    10.3186  -999.2500     7.9081     0.0111     2.5114     0.0812
  674.5000   -62.7079     9.0771     7.9352    10.0382  -999.2500     7.8941     0.0127     2.5077     0.0856
  675.0000   -62.5366     9.0238     8.1806     9.8497  -999.2500     7.8510     0.0083     2.5048     0.0880
  675.5000   -62.2204     9.0354     8.4078     9.9242  -999.2500     7.8521     0.0114     2.5033     0.0853
  676.0000   -61.9042     8.9823     8.5348     9.8596  -999.2500     7.8532     0.0175     2.5071     0.0864
  676.5000   -61.8866     8.8679     8.4857     9.8667  -999.2500     7.8543     0.0153     2.4974     0.0927
  677.0000   -61.8686     8.7528     8.3213     9.8724  -999.2500     7.8554     0.0221     2.4922     0.0939
  677.5000   -61.8508     8.2349     8.2737     9.8095  -999.2500     7.8565     0.0350     2.4915     0.0951
  678.0000   -61.6835     7.6922     8.1105     9.6796  -999.2500     7.8428     0.0464     2.4878     0.1016
  678.5000   -61.6623     7.3870     7.2135     9.3540  -999.2500     7.7994     0.0547     2.4795     0.0974
  679.0000   -61.6446     7.2426     6.6023     8.9146  -999.2500     7.7411     0.0616     2.4946     0.0913
  679.5000   -62.0747     7.4536     6.3038     6.8477  -999.2500     7.6532     0.0647     2.4985     0.0865
  680.0000   -62.2107     8.1072     6.3994     6.1291  -999.2500     7.5356     0.0497     2.5045     0.0859
  680.5000   -62.1886     8.4013     6.6015     6.3026  -999.2500     7.4477     0.0332     2.4895     0.0945
  681.0000   -62.3247     8.5271     6.9306     8.5002  -999.2500     7.4340     0.0333     2.4843     0.0978
  681.5000   -62.1533     8.2456     7.0763     9.9059  -999.2500     7.4203     0.0509     2.4964     0.0924
  682.0000   -61.5386     8.0288     7.0846     9.9751  -999.2500     7.3175     0.0697     2.5085     0.0824
  682.5000   -61.0732     7.9815     7.0440     9.9059  -999.2500     7.2738     0.0780     2.5168     0.0806
  683.0000   -60.9063     8.1011     7.0522     9.9059  -999.2500     7.1998     0.0896     2.5138     0.0808
  683.5000  -999.2500  -999.2500  -999.2500  -999.2500  -999.2500     7.0965     0.1014     2.5124     0.0841
  684.0000  -999.2500  -999.2500  -999.2500  -999.2500  -999.2500     6.9313     0.1008     2.4906     0.0976
  684.5000  -999.2500  -999.2500  -999.2500  -999.2500  -999.2500     6.6211     0.1009     2.4847     0.1003
  685.0000  -999.2500  -999.2500  -999.2500  -999.2500  -999.2500     6.5081     0.1055     2.4847     0.0993
  685.5000  -999.2500  -999.2500  -999.2500  -999.2500  -999.2500     6.5092     0.1101     2.4878     0.0954
  686.0000  -999.2500  -999.2500  -999.2500  -999.2500  -999.2500     6.4955     0.1108     2.4901     0.0969
