~VERSION INFORMATION
 VERS.                2.0:   CWLS LOG ASCII STANDARD - VERSION 2.0
 WRAP.                 NO:   ONE LINE PER DEPTH STEP
~WELL INFORMATION
#MNEM.UNIT      DATA TYPE    INFORMATION
#----------   ------------   ------------------------------
 STRT.F           20.0000:   START DEPTH
 STOP.F          678.0000:   STOP DEPTH
 STEP.F            0.5000:   STEP LENGTH
 NULL.          -999.2500:   NO VALUE
 COMP. FENIX & SCISSON INC:   COMPANY
 WELL. 27-42 SX 11 WO #27-11:   WELL
 FLD .        TEAPOT DOME:   FIELD
 LOC .      S11 T38N R78W:   LOCATION
 CNTY.            NATRONA:   COUNTY
 STAT.            WYOMING:   STATE
 CTRY. UNITED STATES OF AMERICA:   COUNTRY
 SRVC.      Dresser Atlas:   SERVICE COMPANY
 DATE.        13-AUG-1985:   LOGDATE
 API .       490251083800:   API NUMBER
~CURVE INFORMATION
#MNEM.UNIT       API CODE    CURVE DESCRIPTION
#----------   ------------   ------------------------------
 DEPT.F                  :   
 RHOB.G/C3   45 350 01 00:   BULK DENSITY
 CORR.G/C3   45 356 01 00:   DENSITY CORRECTION
 CALD.IN     45 280 60 00:   CALIPER
 GRD .GAPI   45 310 01 00:   GAMMA RAY FROM DENSITY LOG
 DPOR.DEC    45 890 12 00:   DENSITY POROSITY SANDSTONE
 NPOR.DEC    42 890 03 00:   NEUTRON POROSITY SANDSTONE
 SPR .MV     07 010 01 00:   SPONTANEOUS POTENTIAL
 SFL .OHMM   07 220 01 00:   SHALLOW FOCUSED LOG RESISTIVITY
 ILD .OHMM   07 120 46 00:   INDUCTION LOG DEEP
 ILM .OHMM   07 120 44 00:   INDUCTION LOG MEDIUM
~PARAMETER INFORMATION
#MNEM.UNIT          VALUE    DESCRIPTION
#----------   ------------   ------------------------------
 PD  .                 GL:   PERMANENT DATUM
 EPD .F              5188:   ELEVATION PERMANENT DATUM
 LMF .                 KB:   LOG MEASURED FROM
 DAPD.F                 5:   FEET ABOVE PERMANENT DATUM
 DMF .                 KB:   DRILLING MEASURED FROM
 EKB .F              5193:   KELLING BUSHING
 EGL .F              5188:   GROUND LEVEL
 DATE.          8-13-1985:   RUN DATE
 RUN .                  8:   RUN NUMBER
 DD  .F               632:   DEPTH DRILLER
 BLI .F               598:   BOTTOM LOG INTERVAL
 TLI .F               303:   TOP LOG INTERVAL
 CBL .F               303:   CASING BOTTOM LOGGER
 BS  .IN              .75:   BIT SIZE
 BSD .F               632:   BIT SIZE AT DEPTH
 DFT .          KCL WATER:   DRILLING FLUID TYPE
 LUN .            HL-6274:   LOGGING UNIT NUMBER
 LUL .           GILLETTE:   LOGGING UNIT LOCATION
 ENGI.             RAUTIO:   RECORDING ENGINEER
 WITN.            SCHULTE:   WITNESSED BY
 CLNT.            A2DTECH:   CLIENT CODE
 ORIG.           2" PRINT:   ORIGIN OF DATA
 UWI .       490251083800:   UNIQUE WELL ID
 DICO. A2D Technologies, Inc.:   DIGITIZING COMPANY
~OTHER INFORMATION
~A   DEPT     RHOB       CORR       CALD        GRD       DPOR       NPOR        SPR        SFL        ILD          ILM 
# ...
  589.5000     2.4762     0.0325     9.0589   101.6452     0.1225     0.2733    -4.5204    10.2375     9.1859     9.0036
  590.0000     2.4650     0.0255     9.0559   101.8653     0.1295     0.2707    -4.2840    10.2814     9.2224     9.0036
  590.5000     2.4502     0.0190     9.0528   102.9392     0.1389     0.2655    -4.1742    10.4456     9.2589     9.0037
  591.0000     2.4423     0.0161     9.0494   102.6847     0.1431     0.2613    -4.1888    10.6123     9.2957     9.0035
  591.5000     2.4523     0.0231     9.0485   104.0377     0.1344     0.2575    -4.2946    10.7818     9.3326     9.0033
  592.0000     2.4646     0.0320     9.0513   104.4895     0.1256     0.2543    -4.4049    10.8168     9.2888     9.0030
  592.5000     2.4855     0.0399     9.0537   103.1102     0.1134     0.2525    -4.5266    10.7121     9.2247     9.0035
  593.0000     2.5071     0.0543     9.0562   103.0869     0.1024     0.2525    -4.5950    10.6108     9.1611     9.0042
  593.5000     2.5081     0.0553     9.0587   100.3456     0.1082     0.2492    -4.5769    10.5104     9.0978     8.9782
  594.0000     2.4971     0.0512     9.0612   101.3212     0.1128     0.2454    -4.5523    10.4270     9.0351     8.8985
  594.5000     2.4889     0.0463     9.0637   102.2949     0.1153     0.2421    -4.1058    10.4270     8.9727     8.8205
  595.0000     2.4889     0.0417     9.0662   100.1503     0.1180     0.2444    -3.7220    10.4270     8.9108     8.7435
  595.5000     2.4837     0.0370     9.0687   101.1124     0.1207     0.2509    -3.3112    10.4270     8.8493     8.6667
  596.0000     2.4774     0.0328     9.0711   103.8354     0.1224     0.2573    -2.9116    10.4270     8.7882     8.5905
  596.5000     2.4729     0.0286     9.0736   104.8041     0.1267     0.2537    -2.5085    10.4052     8.7276     8.5150
  597.0000     2.4642     0.0242     9.0761   104.8144     0.1311     0.2528    -2.1030    10.3641     8.6673     8.4402
  597.5000     2.4543     0.0209     9.0786   105.4785     0.1359     0.2552    -1.7952    10.3231     8.6075     8.3660
  598.0000     2.4672     0.0212     9.0811   105.5871     0.1224     0.2543    -1.7947    10.2823     8.5481     8.2925
  598.5000     2.5010     0.0506     9.0836   107.8340     0.0992     0.2499    -1.7888    10.2375     8.4892     8.2196
  599.0000     2.5153     0.0507     9.0863   107.3635     0.1032     0.2461    -1.7912    10.2375     8.4306     8.1474
  599.5000     2.5002     0.0462     9.0878   106.4617     0.1105     0.2517    -1.7920    10.2375     8.3724     8.0758
  600.0000     2.4912     0.0439     9.0876   108.2503     0.1128     0.2566    -1.7915    10.0320     8.3146     8.0048
  600.5000     2.4949     0.0502     9.0877   110.1287     0.1090     0.2614    -1.7921     9.8236     8.2572     7.9345
  601.0000     2.5065     0.0539     9.0877   112.1526     0.1048     0.2663    -1.7924     9.6194     8.1823     7.8647
  601.5000     2.5039     0.0472     9.0877   114.1988     0.1069     0.2712    -1.7918     9.5131     8.0547     7.7956
  602.0000     2.4947     0.0404     9.0876   114.7991     0.1126     0.2725    -1.7923     9.5131     7.9291     7.6582
  602.5000     2.5031     0.0440     9.0877   113.7088     0.1040     0.2725    -1.7934     9.5131     7.8054     7.4976
  603.0000     2.5258     0.0480     9.0877   112.6013     0.0887     0.2733    -1.7903     9.3470     7.6837     7.3367
  603.5000     2.5328     0.0524     9.0876   113.9598     0.0908     0.2799    -1.7950     9.1292     7.5442     7.1789
  604.0000     2.5279     0.0567     9.0883   116.3654     0.0920     0.2861    -1.8070     8.9165     7.3933     7.0233
  604.5000     2.5378     0.0608     9.0900   117.1553     0.0800     0.2928    -2.0598     8.7087     7.2243     6.7604
  605.0000     2.5452     0.0653     9.0916   116.5881     0.0811     0.2900    -2.2986     8.5214     6.6194     6.4457
  605.5000     2.5390     0.0685     9.0932   115.7153     0.0858     0.2871    -2.5889     8.3665     5.9765     6.1186
  606.0000     2.5277     0.0614     9.0947   115.0986     0.0927     0.2897    -2.4177     8.3665     5.3961     5.2732
  606.5000     2.4965     0.0490     9.0963   116.1083     0.1101     0.2940    -2.0742     8.3108     4.8720     4.4908
  607.0000     2.4689     0.0379     9.0979   117.5749     0.1271     0.2876    -1.8037     8.1555     4.4836     3.4680
  607.5000     2.4476     0.0283     9.0995   118.8936     0.1424     0.2894    -2.2458     7.2243     4.4021     3.5960
  608.0000     2.4253     0.0270     9.1011   123.2401     0.1567     0.3048    -2.8116     5.5180     4.4021     3.9298
  608.5000     2.4174     0.0391     9.1027   127.3255     0.1500     0.3090    -3.3969     3.8850     4.6904     4.2945
  609.0000     2.4421     0.0602     9.1043   130.0543     0.1335     0.3141    -3.7955     4.8143     5.0526     4.6931
  609.5000     2.5161     0.0830     9.1059   132.7265     0.0792     0.3200    -3.7001     6.6655     5.4439     5.1287
  610.0000     2.5491     0.0761     9.1074   131.3595     0.0866     0.3243    -3.5288    10.6279     5.8656     5.6048
  610.5000     2.5059     0.0607     9.1090   127.1778     0.0978     0.3087    -3.3576    10.3382     6.3203     6.1250
  611.0000     2.5102     0.0446     9.1106   120.5850     0.1008     0.2839    -3.1871     9.8690     6.8098     6.5380
  611.5000     2.5070     0.0300     9.1122   115.0958     0.1016     0.2644    -3.0157     9.1651     7.3366     6.9355
  612.0000     2.4971     0.0130     9.1138   113.7855     0.1093     0.2533    -2.8441     9.1761     7.6787     7.3572
  612.5000     2.4878     0.0123     9.1154   113.7875     0.1170     0.2564    -2.6720     9.1693     7.7767     7.4973
  613.0000     2.4776     0.0123     9.1170   113.6037     0.1216     0.2605    -2.5016     9.1704     7.7773     7.4976
  613.5000     2.4867     0.0287     9.1186   113.4692     0.1111     0.2605    -2.3306     9.1694     7.7718     7.4975
  614.0000     2.5060     0.0359     9.1202   115.0631     0.1035     0.2589    -2.1572     9.1691     7.7789     7.4921
  614.5000     2.5060     0.0295     9.1218   116.6438     0.1016     0.2595    -1.9944     9.3319     7.6798     7.6470
  615.0000     2.5029     0.0239     9.1233   116.2150     0.1056     0.2615    -1.8016     9.5416     7.8911     7.7762
  615.5000     2.4990     0.0259     9.1249   115.0967     0.1088     0.2650    -1.8470     9.7559     8.0425     7.9076
  616.0000     2.5015     0.0291     9.1267   115.5700     0.1050     0.2685    -1.9755     9.9747     8.1969     8.0413
  616.5000     2.5070     0.0322     9.1261   116.5206     0.1017     0.2724    -2.1186    10.1987     8.3548     8.1776
  617.0000     2.5122     0.0357     9.1218   116.1600     0.0983     0.2698    -2.1559    10.4275     8.5139     8.3164
  617.5000     2.5169     0.0395     9.1177   117.3036     0.0944     0.2638    -2.0150    10.6201     8.6760     8.4577
  618.0000     2.5240     0.0439     9.1136   118.9761     0.0898     0.2638    -1.8872    10.6201     8.8412     8.6011
  618.5000     2.5334     0.0475     9.1094   117.6263     0.0832     0.2691    -1.8347    10.6201     9.0096     8.7472
  619.0000     2.5371     0.0425     9.1053   115.9555     0.0869     0.2740    -2.0051    10.6201     9.1703     8.8957
  619.5000     2.5274     0.0328     9.1011   117.2956     0.0920     0.2697    -2.1713    10.6442     9.2164     9.0036
  620.0000     2.5260     0.0337     9.0970   115.1236     0.0880     0.2645    -2.3426    10.6801     9.2599     9.0476
  620.5000     2.5154     0.0355     9.0929   113.1289     0.0976     0.2667    -2.5192    10.7162     9.3037     9.0969
  621.0000     2.5173     0.0377     9.0887   114.0564     0.0952     0.2690    -2.5955    10.7523     9.3477     9.1465
  621.5000     2.5123     0.0399     9.0898   111.8850     0.1037     0.2713    -2.5894    10.8068     9.3919     9.1964
  622.0000     2.5024     0.0377     9.0932   110.3877     0.1097     0.2733    -2.5844    10.7708     9.4362     9.2466
  622.5000     2.4927     0.0336     9.0964   112.7165     0.1156     0.2682    -2.6910    10.5696     9.4808     9.2971
