~VERSION INFORMATION
 VERS.                2.0:   CWLS LOG ASCII STANDARD - VERSION 2.0
 WRAP.                 NO:   ONE LINE PER DEPTH STEP
~WELL INFORMATION
#MNEM.UNIT      DATA TYPE    INFORMATION
#----------   ------------   ------------------------------
 STRT.F           84.0000:   START DEPTH
 STOP.F         1141.0000:   STOP DEPTH
 STEP.F            0.5000:   STEP LENGTH
 NULL.          -999.2500:   NO VALUE
 COMP.           U S NAVY:   COMPANY
 WELL.     NPR#3 #78-S-11:   WELL
 FLD .             TEAPOT:   FIELD
 LOC .      S11 T38N R78W:   LOCATION
 CNTY.            NATRONA:   COUNTY
 STAT.            WYOMING:   STATE
 CTRY. UNITED STATES OF AMERICA:   COUNTRY
 SRVC.       Schlumberger:   SERVICE COMPANY
 DATE.        28-AUG-1966:   LOGDATE
 API .       490250970700:   API NUMBER
~CURVE INFORMATION
#MNEM.UNIT       API CODE    CURVE DESCRIPTION
#----------   ------------   ------------------------------
 DEPT.F                  :   
 SPR .MV     05 010 01 00:   SPONTANEOUS POTENTIAL FROM RES.
 ASN .OHMM   05 041 16 00:   AMPLIFIED SHORT NORMAL 16"
 ILD .OHMM   05 120 46 00:   INDUCTION LOG DEEP
 CILD.MMHO   05 110 46 00:   CONDUCTIVITY INDUCTION LOG DEEP
 GRD .GAPI   45 310 01 00:   GAMMA RAY FROM DENSITY LOG
 CALD.IN     45 280 60 00:   CALIPER FROM DENSITY LOG
 DPHI.DEC    45 890 12 00:   DENSITY POROSITY SANDSTONE
 RHOB.G/C3   45 350 01 00:   BULK DENSITY
~PARAMETER INFORMATION
#MNEM.UNIT          VALUE    DESCRIPTION
#----------   ------------   ------------------------------
 PD  .                 GL:   PERMANENT DATUM
 EPD .F              5245:   ELEVATION PERMANENT DATUM
 LMF .                 KB:   LOG MEASURED FROM
 DAPD.F                 5:   FEET ABOVE PERMANENT DATUM
 DMF .                 KB:   DRILLING MEASURED FROM
 EKB .F              5250:   KELLING BUSHING
 EGL .F              5245:   GROUND LEVEL
 DATE.            8-28-66:   RUN DATE
 RUN .                  1:   RUN NUMBER
 DD  .F              1142:   DEPTH DRILLER
 DL  .F              1142:   DEPTH LOGGER
 BLI .F              1141:   BOTTOM LOG INTERVAL
 TLI .F                85:   TOP LOG INTERVAL
 CS  .IN            8.625:   CASING SIZE
 CBD .F                10:   CASING BOTTOM DRILLER
 BS  .IN             6.75:   BIT SIZE
 BSD .F              1142:   BIT SIZE AT DEPTH
 DFT .           CHEM GEL:   DRILLING FLUID TYPE
 DFD .               10.7:   DRILLING FLUID DENSITY
 DFV .                 40:   DRILLING FLUID VISCOSITY
 MSS .          FLOW LINE:   MUD SAMPLE SOURCE
 RMS .OHMM           1.58:   RESISTIVITY MUD SAMPLE
 MST .F                70:   MUD SAMPLE TEMPERATURE
 RMF .OHMM            .93:   RESISTIVITY MUD FILTRATE SAMPLE
 MFST.F                70:   MUD FILTRATE SAMPLE TEMPERATURE
 MFSS.                  M:   MUD FILTRATE SAMPLE SOURCE
 RMB .OHMM           1.19:   RESISTIVITY MUD AT BHT
 BHT .F                94:   BOTTOM HOLE TEMPERATURE
 TCS .HRS               1:   TIME CURCULATED STOPPED
 MRT .F                94:   MAXIMUM RECORDED TEMPERATURE
 LUN .               4507:   LOGGING UNIT NUMBER
 LUL .               CSPR:   LOGGING UNIT LOCATION
 ENGI.             KNOBEL:   RECORDING ENGINEER
 WITN.         MAY/TUTTLE:   WITNESSED BY
 CLNT.            A2DTECH:   CLIENT CODE
 ORIG.           5" PRINT:   ORIGIN OF DATA
 UWI .       490250970700:   UNIQUE WELL ID
 DICO. A2D Technologies, Inc.:   DIGITIZING COMPANY
~OTHER INFORMATION
~A   DEPT      SPR          ASN        ILD      CILD       GRD       CALD       DPHI       RHOB   
# ...
  610.5000   -35.3893     8.1728     8.3564   140.9700   103.2357     7.3711     0.1244     2.4453
  611.0000   -35.5446     8.2617     8.5772   138.7203   103.2190     7.3711     0.1196     2.4394
  611.5000   -35.5491     8.2908     8.7950   138.7278   102.1285     7.3711     0.1073     2.4730
  612.0000   -35.5536     8.3347     8.9391   138.7353   102.5643     7.3711     0.1013     2.5172
  612.5000   -35.5581     8.3485     9.0083   138.7428   102.5148     7.3711     0.0944     2.4925
  613.0000   -35.4117     8.3320     9.0789   141.0093   100.1549     7.3711     0.0899     2.4881
  613.5000   -35.2654     8.2707     9.1465   144.0289    98.9909     7.3711     0.0830     2.5300
  614.0000   -35.2700     8.1494     9.0655   144.7894   102.3810     7.3711     0.0902     2.5322
  614.5000   -34.9727     8.0431     8.8343   144.7968   105.7944     7.3711     0.1051     2.4897
  615.0000   -34.9773     7.8918     8.4530   145.5574   103.6070     7.3711     0.1072     2.4688
  615.5000   -34.9819     7.8005     7.9966   147.0709   102.9551     7.3711     0.0964     2.5099
  616.0000   -34.6285     7.7242     7.5401   150.0904   104.0357     7.3562     0.0931     2.5181
  616.5000   -33.7852     7.6179     7.0837   153.8630   103.8464     7.3562     0.1111     2.4681
  617.0000   -33.6377     7.5117     6.8526   156.8825   102.9819     7.3562     0.1009     2.4958
  617.5000   -33.7942     7.3603     6.7715   158.3961   104.5982     7.3562     0.0928     2.5190
  618.0000   -33.9495     7.2690     6.7656   159.1566   104.7857     7.3562     0.1036     2.4831
  618.5000   -34.2557     7.2678     6.8348   159.1641   104.6158     7.3562     0.1060     2.4764
  619.0000   -34.7127     7.3117     6.8287   159.1717   104.0667     7.3562     0.1149     2.4548
  619.5000   -35.0188     7.3255     6.8228   159.1792   102.8250     7.3562     0.1257     2.4324
  620.0000   -35.0233     7.2492     6.8158   157.5802   101.7381     7.3562     0.1230     2.4444
  620.5000   -35.0278     7.2330     6.8854   156.1819   100.9015     7.3562     0.1239     2.4489
  621.0000   -34.8803     7.3099     6.8799   154.5535   101.4965     7.3562     0.1151     2.4648
  621.5000   -34.5843     7.5370     6.8740   153.9379   103.1136     7.3562     0.1063     2.4856
  622.0000   -34.4368     7.6688     6.9431   153.9473   104.7833     7.3562     0.0942     2.5088
  622.5000   -34.2905     7.7238     7.0123   153.9547   105.7586     7.3562     0.1003     2.4924
  623.0000   -34.2961     7.7823     7.2300   153.9622   102.6773     7.3562     0.1056     2.4700
  623.5000   -34.3006     7.8412     7.3006   153.9697   101.6693     7.3562     0.1142     2.4558
  624.0000   -34.3051     7.8100     7.5184   153.2224   101.8571     7.3562     0.1215     2.4357
  624.5000   -34.1577     7.6737     7.5875   150.9727   101.8661     7.3562     0.1265     2.4260
  625.0000   -34.0124     7.5223     7.7317   150.2253   104.9405     7.3562     0.1177     2.4499
  625.5000   -33.8650     7.4614     7.8023   147.9756   107.6590     7.3711     0.0959     2.4955
  626.0000   -33.7186     7.5199     7.8715   147.9831   108.1425     7.3711     0.1096     2.4814
  626.5000   -33.5723     7.6239     8.0157   147.2357   106.5968     7.3711     0.1169     2.4515
  627.0000   -33.5779     7.8329     8.1584   147.2451   104.7675     7.3711     0.1102     2.4583
  627.5000   -33.5824     8.0119     8.3040   148.0056   105.8006     7.3711     0.0854     2.4979
  628.0000   -33.7378     8.0857     8.3732   148.0131   107.4639     7.3711     0.0699     2.5271
  628.5000   -33.7422     8.0999     8.3657   148.7736   105.1606     7.3711     0.0830     2.5391
  629.0000   -34.0484     8.0533     8.2847   150.2871   102.1999     7.3711     0.0932     2.4920
  629.5000   -34.3546     7.9170     8.0535   151.8006    99.5636     7.3711     0.0941     2.4823
  630.0000   -34.3591     7.6906     7.7473   154.8202   104.1089     7.3711     0.0881     2.5212
  630.5000   -34.5144     7.5092     7.5161   159.3457   106.2607     7.3711     0.0875     2.5257
  631.0000   -34.6697     7.2227     7.1347   163.1183   105.7339     7.3711     0.0958     2.4779
  631.5000   -34.5234     7.1164     6.8285   166.1378   104.1335     7.3711     0.1114     2.4712
  632.0000   -34.5279     7.0402     6.5222   169.1573   103.6089     7.3711     0.1192     2.4444
  632.5000   -34.5325     6.9789     6.3661   171.4239   102.9035     7.3711     0.1285     2.4257
  633.0000   -34.3860     6.9027     6.2100   172.1844   100.0553     7.3711     0.1153     2.4631
  633.5000   -34.2218     6.8714     6.1290   172.9449    99.1691     7.3711     0.1099     2.4773
  634.0000   -33.9425     6.9754     6.1230   172.9524   101.8589     7.3711     0.1021     2.5013
  634.5000   -33.9472     7.0492     6.1171   172.9599    99.5464     7.3711     0.0895     2.5222
  635.0000   -34.1035     7.0781     6.1111   172.9674    99.9124     7.3711     0.1009     2.4954
  635.5000   -34.1080     7.0464     6.1051   173.7279   103.6713     7.3711     0.1098     2.4775
  636.0000   -33.9605     6.9846     6.1743   172.9805   106.1803     7.3711     0.1203     2.4521
  636.5000   -33.2108     6.9229     6.1682   172.9898   107.9749     7.3701     0.1110     2.4588
  637.0000   -33.0645     6.8611     6.2374   171.4913   107.9838     7.3562     0.1050     2.4835
  637.5000   -33.3718     6.7817     6.2438   168.4868   107.9927     7.3562     0.1116     2.4791
  638.0000   -33.9796     6.7103     6.3757   166.2349   107.8209     7.3562     0.1221     2.4529
  638.5000   -34.1338     6.8442     6.4448   163.9837   107.4749     7.3562     0.1191     2.4455
  639.0000   -33.6869     7.0082     6.6626   162.4849   105.8767     7.3562     0.1089     2.4814
  639.5000   -33.0881     7.1872     6.9569   159.4804   104.0999     7.3562     0.0996     2.5061
  640.0000   -32.7898     7.4863     7.2513   156.4760   102.4994     7.3562     0.0933     2.5166
  640.5000   -33.2479     7.5154     7.6958   154.2244   103.7606     7.3562     0.1005     2.5009
  641.0000   -33.7049     7.5590     7.9150   151.9729   102.3409     7.3562     0.0945     2.5189
  641.5000   -33.8591     7.6028     7.9091   151.2274   102.5284     7.3562     0.0921     2.4838
  642.0000   -33.7128     7.6617     7.9797   150.4819   103.7873     7.3562     0.1091     2.4562
  642.5000   -33.5676     7.7056     8.0473   150.4895   101.2940     7.3562     0.1235     2.4413
  643.0000   -33.2693     7.7494     8.0413   151.2500   104.3409     7.3562     0.1154     2.4742
  643.5000   -33.1229     7.7933     8.0354   151.2575   106.3141     7.3562     0.1043     2.4959
  644.0000   -32.8258     7.6720     7.9544   153.5241   103.8208     7.3562     0.0959     2.4967
  644.5000   -33.2839     7.5056     7.8733   155.2083   105.9748     7.3562     0.0926     2.4974
  645.0000   -33.5900     7.4293     7.6421   157.5052   107.4123     7.3562     0.0956     2.4967
  645.5000   -33.7454     7.3531     7.4110   161.3068   107.7783     7.3562     0.0884     2.4915
  646.0000   -33.9007     7.3068     7.1798   164.2266   105.2873     7.3562     0.0971     2.4863
  646.5000   -33.7542     7.2306     6.7985   166.5083   105.8319     7.3562     0.1046     2.4789
  647.0000   -33.9097     7.1693     6.4171   169.3840   109.5908     7.3562     0.1057     2.4610
  647.5000   -33.9142     7.1832     6.0358   169.3915   111.7426     7.3562     0.1060     2.4692
  648.0000   -33.7677     7.1819     5.9548   168.6460   112.1064     7.3562     0.1057     2.4887
  648.5000   -33.7723     7.1357     5.9488   166.3925   107.8319     7.3562     0.1042     2.4842
  649.0000   -33.9277     7.1195     6.0180   162.6369   105.1622     7.3562     0.0997     2.5052
  649.5000   -33.9322     7.0582     6.2372   158.8793   105.3497     7.3711     0.1015     2.4865
  650.0000   -34.0875     7.7777     6.3814   155.1217   104.2354     7.3711     0.1006     2.4903
  650.5000   -34.3540     7.9127     6.8318   149.8413   101.4946     7.3620     0.0964     2.5030
