~VERSION INFORMATION
 VERS.                2.0:   CWLS LOG ASCII STANDARD - VERSION 2.0
 WRAP.                 NO:   ONE LINE PER DEPTH STEP
~WELL INFORMATION
#MNEM.UNIT      DATA TYPE    INFORMATION
#----------   ------------   ------------------------------
 STRT.F           26.0000:   START DEPTH
 STOP.F          520.0000:   STOP DEPTH
 STEP.F            0.5000:   STEP LENGTH
 NULL.          -999.2500:   NO VALUE
 COMP. LAWRENCE/ALLISON INC:   COMPANY
 WELL.   52-15 STX #52-10:   WELL
 FLD .             TEAPOT:   FIELD
 LOC .      S10 T38N R78W:   LOCATION
 CNTY.            NATRONA:   COUNTY
 STAT.            WYOMING:   STATE
 CTRY. UNITED STATES OF AMERICA:   COUNTRY
 SRVC.           Gearhart:   SERVICE COMPANY
 DATE.        23-JUL-1987:   LOGDATE
 API .       490251114600:   API NUMBER
~CURVE INFORMATION
#MNEM.UNIT       API CODE    CURVE DESCRIPTION
#----------   ------------   ------------------------------
 DEPT.F                  :   
 RLL .OHMM   07 220 00 00:   LATEROLOG RESISTIVITY
 RILD.OHMM   07 120 46 00:   INDUCTION LOG DEEP RESISTIVITY
 RILM.OHMM   07 120 44 00:   INDUCTION LOG MEDIUM RESISTIVITY
 GRR .GAPI   07 310 01 00:   GAMMA RAY FROM RES. LOG.
~PARAMETER INFORMATION
#MNEM.UNIT          VALUE    DESCRIPTION
#----------   ------------   ------------------------------
 PD  .                 GL:   PERMANENT DATUM
 EPD .F              5195:   ELEVATION PERMANENT DATUM
 LMF .                 KB:   LOG MEASURED FROM
 DAPD.F                 8:   FEET ABOVE PERMANENT DATUM
 DMF .                 KB:   DRILLING MEASURED FROM
 EKB .F              5203:   KELLING BUSHING
 EDF .F              5201:   DRILLING FLOOR
 EGL .F              5195:   GROUND LEVEL
 DATE.          7-23-1987:   RUN DATE
 RUN .                  1:   RUN NUMBER
 DD  .F               519:   DEPTH DRILLER
 DL  .F               520:   DEPTH LOGGER
 BLI .F               519:   BOTTOM LOG INTERVAL
 TLI .F                30:   TOP LOG INTERVAL
 CS  .IN            8.625:   CASING SIZE
 CBD .F                48:   CASING BOTTOM DRILLER
 CBL .F                48:   CASING BOTTOM LOGGER
 BS  .IN            7.875:   BIT SIZE
 BSD .F               519:   BIT SIZE AT DEPTH
 DFT .                MUD:   DRILLING FLUID TYPE
 DFD .                8.9:   DRILLING FLUID DENSITY
 DFV .                 40:   DRILLING FLUID VISCOSITY
 MSS .            MUD PIT:   MUD SAMPLE SOURCE
 RMS .OHMM            .37:   RESISTIVITY MUD SAMPLE
 MST .F                70:   MUD SAMPLE TEMPERATURE
 RMF .OHMM            .29:   RESISTIVITY MUD FILTRATE SAMPLE
 MFST.F                70:   MUD FILTRATE SAMPLE TEMPERATURE
 RMC .OHMM             .5:   RESISTIVITY MUD CAKE
 MCST.F                70:   MUD CAKE SAMPLE TEMPERATURE
 MFSS.              CHART:   MUD FILTRATE SAMPLE SOURCE
 MCSS.              CHART:   MUD CAKE SAMPLE SOURCE
 RMB .OHMM            .35:   RESISTIVITY MUD AT BHT
 BHT .F                80:   BOTTOM HOLE TEMPERATURE
 TCS .HRS            1100:   TIME CURCULATED STOPPED
 TLAB.HRS            1534:   TIME LOGGER AT BOTTOM
 MRT .F                80:   MAXIMUM RECORDED TEMPERATURE
 LUN .               7597:   LOGGING UNIT NUMBER
 LUL .           GILLETTE:   LOGGING UNIT LOCATION
 ENGI.         WEATHERMON:   RECORDING ENGINEER
 WITN.         MR. STRONG:   WITNESSED BY
 CLNT.            A2DTECH:   CLIENT CODE
 ORIG.       2", 5" PRINT:   ORIGIN OF DATA
 UWI .       490251114600:   UNIQUE WELL ID
 DICO. A2D Technologies, Inc.:   DIGITIZING COMPANY
~OTHER INFORMATION
~A   DEPT      RLL       RILD       RILM         GRR  
# ...
  318.0000    17.0139    18.8374    17.7688    80.6721
  318.5000    16.8317    18.3891    17.5910    80.1365
  319.0000    16.6514    18.1060    17.2970    79.6326
  319.5000    16.4729    17.8279    17.0079    80.2387
  320.0000    16.2966    17.5531    16.7236    80.7364
  320.5000    16.0865    17.4640    16.3856    79.7482
  321.0000    16.1180    17.4256    16.4354    78.7565
  321.5000    16.1701    17.3872    16.5149    78.3976
  322.0000    16.2225    17.3490    16.5956    79.6861
  322.5000    16.2615    17.3108    16.6762    81.2555
  323.0000    16.2958    17.2727    16.7572    80.9590
  323.5000    16.3302    17.2348    16.8386    79.8354
  324.0000    16.3646    17.1975    16.8494    78.2666
  324.5000    16.3874    17.1639    16.5591    76.6808
  325.0000    16.0023    17.0248    16.3665    75.0773
  325.5000    15.7205    16.7838    16.1762    74.5485
  326.0000    15.4436    16.5463    15.9881    74.2444
  326.5000    15.1710    16.3121    15.7912    74.1412
  327.0000    14.9049    16.0813    15.6122    75.3843
  327.5000    14.7765    15.8537    15.4242    76.6465
  328.0000    14.7421    15.6455    15.2385    76.3764
  328.5000    14.7064    15.5916    15.0763    75.3739
  329.0000    14.6708    15.4840    15.0088    74.4682
  329.5000    14.5986    15.3772    14.9362    76.3090
  330.0000    14.4878    15.2711    14.8640    78.3110
  330.5000    14.3785    15.1657    14.7922    80.3110
  331.0000    14.2701    15.0611    14.7207    81.1469
  331.5000    14.1624    14.9572    14.6495    81.0055
  332.0000    14.0556    14.9372    14.5787    80.8461
  332.5000    13.9991    15.0751    14.5277    81.3612
  333.0000    14.2112    15.1718    14.7025    82.1121
  333.5000    14.4124    15.2753    14.9004    81.8162
  334.0000    14.6176    15.4339    15.1009    80.0159
  334.5000    14.8257    15.5950    15.3042    78.2223
  335.0000    15.0367    15.7578    15.5101    78.5815
  335.5000    15.2312    15.9222    15.6455    79.1847
  336.0000    15.3582    16.0865    15.6455    78.2242
  336.5000    15.3063    15.9333    15.6455    77.1440
  337.0000    15.2241    15.7485    15.5012    77.1084
  337.5000    15.1424    15.5659    15.3576    77.9725
  338.0000    15.0344    15.3853    15.2009    78.9552
  338.5000    14.8130    15.2069    15.0459    79.5814
  339.0000    14.5949    15.0305    14.8925    80.4311
  339.5000    14.3800    14.8561    14.7406    82.1023
  340.0000    14.1682    14.6840    14.5902    83.7389
  340.5000    13.9596    14.5135    14.4414    85.1602
  341.0000    13.7540    14.3452    14.2941    82.5830
  341.5000    13.5515    14.1294    14.1483    80.2182
  342.0000    13.3519    14.2738    13.9991    78.8209
  342.5000    13.1199    14.4810    13.9991    79.9727
  343.0000    13.1770    14.6892    14.2338    82.9807
  343.5000    13.4219    14.8920    14.4323    85.8762
  344.0000    14.0640    15.8758    14.6586    86.9861
  344.5000    14.7368    16.9245    15.6176    84.1885
  345.0000    15.4418    18.0425    16.6393    80.4108
  345.5000    16.1806    19.2344    17.9956    76.6286
  346.0000    17.0062    20.7525    19.6560    72.8692
  346.5000    17.9069    22.9775    21.9238    69.6106
  347.0000    18.9442    25.1889    24.6701    69.7407
  347.5000    21.0032    26.7283    27.7513    69.9239
  348.0000    27.0822    28.3653    31.2173    68.9204
  348.5000    34.8437    30.1035    33.9128    65.3031
  349.0000    41.2780    31.9337    36.3717    62.5376
  349.5000    42.9558    32.6153    36.3773    61.4972
  350.0000    39.1707    33.0924    33.9356    61.9069
  350.5000    34.1270    33.1395    31.7829    65.4206
  351.0000    29.7327    32.4972    29.6521    69.3105
  351.5000    25.9043    32.0145    28.9657    72.5365
  352.0000    24.4090    31.5414    28.2698    74.0097
  352.5000    24.5792    31.2008    27.5837    75.1342
  353.0000    24.6362    30.9576    26.9151    74.5449
  353.5000    24.1920    30.7159    26.2871    73.9912
  354.0000    23.9608    30.4862    26.5564    73.3408
  354.5000    23.9608    30.1520    26.9780    72.2774
  355.0000    24.4413    29.8359    27.5336    71.2451
  355.5000    24.7735    29.5239    26.9503    70.3031
  356.0000    24.8655    29.2158    25.8416    70.0630
  356.5000    24.1642    28.9106    24.7786    70.6133
  357.0000    23.2540    28.5732    23.7398    71.7165
  357.5000    22.3781    28.1975    23.5208    72.0746
  358.0000    22.0436    27.8193    24.1507    71.3143
  358.5000    22.0436    27.4463    24.4186    70.4040
  359.0000    22.0436    27.0782    23.8889    68.8534
  359.5000    22.0436    26.7150    23.0893    67.5875
  360.0000    21.3631    26.3033    22.3222    68.3941
  360.5000    20.7507    26.4696    21.5771    70.0500
  361.0000    20.4687    26.6369    21.0323    72.1260
  361.5000    20.5892    26.7788    20.9320    72.6973
  362.0000    21.6581    26.7789    20.8537    72.5783
  362.5000    23.5552    26.7807    22.6166    71.7737
  363.0000    25.5713    26.7810    24.2339    68.8721
  363.5000    26.9905    26.4936    25.0970    66.3224
  364.0000    27.7899    26.2168    24.7248    65.9925
  364.5000    25.3888    25.9429    24.2905    67.3926
  365.0000    23.6248    25.6728    23.8638    68.8664
  365.5000    21.9834    25.4027    23.4470    69.1461
  366.0000    20.6593    24.9794    23.0850    69.4376
  366.5000    20.4687    24.4996    22.8119    70.4044
  367.0000    20.4687    24.0305    22.5185    71.4003
  367.5000    20.4687    23.5704    22.2301    71.9258
  368.0000    20.4687    23.3039    21.9455    71.3747
  368.5000    20.2821    23.3877    21.8403    70.8551
  369.0000    20.0579    23.4569    22.2463    71.8015
  369.5000    19.8361    23.5263    22.4560    72.7430
  370.0000    19.7239    23.5959    21.5393    73.6798
  370.5000    19.7239    23.6656    20.6511    74.6083
  371.0000    19.7239    23.7398    20.7618    75.7903
  371.5000    19.7239    23.7398    21.0623    76.9376
  372.0000    19.7242    23.4808    21.3722    81.0497
  372.5000    19.7244    23.0323    21.4393    82.1466
  373.0000    19.7239    22.5923    21.1283    80.5496
  373.5000    19.6076    22.1607    20.7478    78.1497
  374.0000    19.3404    21.7373    20.3741    75.6938
  374.5000    19.0770    21.3221    20.0071    75.1581
  375.0000    18.8168    20.9148    19.6468    76.9749
  375.5000    18.5599    20.5152    19.4013    79.2235
  376.0000    18.3076    20.1233    19.1282    78.9163
  376.5000    17.9785    19.7239    18.8582    76.2751
  377.0000    17.9785    19.3618    18.5944    73.9337
  377.5000    17.9785    19.1775    18.4831    72.3769
  378.0000    17.9785    18.9450    18.4229    72.8802
  378.5000    17.9785    18.7154    18.3608    73.6961
  379.0000    17.8221    18.4887    18.1458    75.1601
  379.5000    17.5831    18.2654    17.9334    75.1742
  380.0000    17.3472    17.9694    17.7351    73.9329
  380.5000    17.1146    17.9876    17.5390    73.1691
  381.0000    16.8851    17.7972    17.3451    74.0899
  381.5000    16.6586    17.6781    17.1533    75.4470
  382.0000    16.4349    17.6089    16.9636    76.8823
  382.5000    16.2132    17.5397    16.8475    77.2176
  383.0000    16.0875    17.4856    16.9056    77.2266
  383.5000    16.1807    17.4856    16.9633    76.5898
  384.0000    16.3359    17.4856    17.0208    75.4772
  384.5000    16.5400    17.6196    17.0784    74.4345
  385.0000    17.4856    17.8226    17.1361    74.7333
  385.5000    18.6919    18.0280    17.3404    75.0979
  386.0000    20.5447    18.2357    17.6905    73.8568
  386.5000    22.2180    18.4458    18.0478    71.9402
  387.0000    23.7096    18.6583    18.4123    69.9953
  387.5000    25.3013    18.8310    18.7841    68.1221
  388.0000    26.2871    19.0063    19.2544    67.1637
  388.5000    25.5475    18.1149    19.8707    67.5599
  389.0000    23.7830    17.5089    20.0929    67.9946
  389.5000    21.9950    16.9232    20.0929    69.9087
  390.0000    20.3417    16.3610    18.9391    71.8647
  390.5000    18.8118    15.9535    17.3754    73.8121
