~VERSION INFORMATION
 VERS.                2.0:   CWLS LOG ASCII STANDARD - VERSION 2.0
 WRAP.                 NO:   ONE LINE PER DEPTH STEP
~WELL INFORMATION
#MNEM.UNIT      DATA TYPE    INFORMATION
#----------   ------------   ------------------------------
 STRT.F           89.0000:   START DEPTH
 STOP.F         1360.0000:   STOP DEPTH
 STEP.F            0.5000:   STEP LENGTH
 NULL.          -999.2500:   NO VALUE
 COMP.           U S NAVY:   COMPANY
 WELL.     NPR 3 #85 S-11:   WELL
 FLD .             TEAPOT:   FIELD
 LOC .      S11 T38N R78W:   LOCATION
 CNTY.            NATRONA:   COUNTY
 STAT.            WYOMING:   STATE
 CTRY. UNITED STATES OF AMERICA:   COUNTRY
 SRVC.       Schlumberger:   SERVICE COMPANY
 DATE.        15-AUG-1966:   LOGDATE
 API .       490250959000:   API NUMBER
~CURVE INFORMATION
#MNEM.UNIT       API CODE    CURVE DESCRIPTION
#----------   ------------   ------------------------------
 DEPT.F                  :   
 SPR .MV     05 010 01 00:   SPONTANEOUS POTENTIAL FROM RES.
 CILD.MMHO   05 110 46 00:   CONDUCTIVITY INDUCTION LOG DEEP
 ASN .OHMM   05 041 16 00:   AMPLIFIED SHORT NORMAL 16"
 ILD .OHMM   05 120 46 00:   INDUCTION LOG DEEP
 GR  .GAPI   30 310 01 00:   GAMMA RAY
~PARAMETER INFORMATION
#MNEM.UNIT          VALUE    DESCRIPTION
#----------   ------------   ------------------------------
 PD  .                 GL:   PERMANENT DATUM
 EPD .F              5288:   ELEVATION PERMANENT DATUM
 LMF .                 KB:   LOG MEASURED FROM
 DAPD.F                 5:   FEET ABOVE PERMANENT DATUM
 DMF .                 KB:   DRILLING MEASURED FROM
 EKB .F            5286.9:   KELLING BUSHING
 EGL .F            5281.9:   GROUND LEVEL
 DATE.        15-AUG-1966:   RUN DATE
 RUN .                  1:   RUN NUMBER
 DD  .F              1360:   DEPTH DRILLER
 DL  .F              1361:   DEPTH LOGGER
 BLI .F              1360:   BOTTOM LOG INTERVAL
 TLI .F                88:   TOP LOG INTERVAL
 CS  .IN            8.625:   CASING SIZE
 CBD .F                12:   CASING BOTTOM DRILLER
 BS  .IN            7.875:   BIT SIZE
 BSD .F              1360:   BIT SIZE AT DEPTH
 DFT .          CHEM- GEL:   DRILLING FLUID TYPE
 DFD .                9.6:   DRILLING FLUID DENSITY
 DFV .                 60:   DRILLING FLUID VISCOSITY
 DFPH.                7.2:   DRILLING FLUID PH
 DFL .                6.4:   DRILLING FLUID LOSS
 MSS .         CIRCULATED:   MUD SAMPLE SOURCE
 RMS .OHMM           1.41:   RESISTIVITY MUD SAMPLE
 MST .F                72:   MUD SAMPLE TEMPERATURE
 RMF .OHMM           0.75:   RESISTIVITY MUD FILTRATE SAMPLE
 MFST.F                73:   MUD FILTRATE SAMPLE TEMPERATURE
 MFSS.               MEAS:   MUD FILTRATE SAMPLE SOURCE
 TCS .HRS             2.5:   TIME CURCULATED STOPPED
 LUN .               3527:   LOGGING UNIT NUMBER
 LUL .              CSPR.:   LOGGING UNIT LOCATION
 ENGI.               HAUG:   RECORDING ENGINEER
 WITN.             TUTTLE:   WITNESSED BY
 CLNT.            A2DTECH:   CLIENT CODE
 ORIG.       2", 5" PRINT:   ORIGIN OF DATA
 UWI .       490250959000:   UNIQUE WELL ID
 DICO. A2D Technologies, Inc.:   DIGITIZING COMPANY
~OTHER INFORMATION
~A   DEPT      SPR       CILD          ASN        ILD       GR   
# ...
  333.0000   -52.4212   148.9706     8.5896     6.8684    82.6893
  333.5000   -52.4261   147.5710     8.4839     6.8663    80.0084
  334.0000   -52.4303   145.2606     8.2935     6.8316    80.1595
  334.5000   -52.4348   150.5102     8.1367     6.6968    80.9399
  335.0000   -52.4398   153.4380     8.0166     6.4095    77.0003
  335.5000   -52.4439   156.6940     7.9016     6.1605    75.2634
  336.0000   -52.4485   164.0079     7.7440     5.9549    74.9425
  336.5000   -52.4534   174.6228     7.4933     5.9527    75.2509
  337.0000   -52.3061   178.2362     7.3668     5.9827    76.5034
  337.5000   -52.3106   178.2530     7.4416     6.1811    76.5237
  338.0000   -52.1641   174.3050     7.5949     6.2481    75.3709
  338.5000   -52.1682   168.9288     7.7868     6.3522    77.9009
  339.0000   -52.1505   163.3501     8.0429     6.5452    76.3212
  339.5000   -52.0258   160.4261     8.2874     6.6933    77.8914
  340.0000   -51.9596   157.1000     8.4609     6.7970    77.8715
  340.5000   -51.8830   153.6789     8.5538     6.8450    77.5254
  341.0000   -51.8879   150.3962     8.6999     6.9135    79.4115
  341.5000   -51.8924   145.0721     8.8281     6.9117    79.1206
  342.0000   -51.8976   141.0182     8.9292     6.9057    78.4850
  342.5000   -51.9015   139.5366     8.9352     6.8324    72.8146
  343.0000   -51.9061   141.3678     8.8877     6.8308    76.2698
  343.5000   -51.9113   145.5473     8.8076     6.8290    78.4663
  344.0000   -51.9152   148.1614     8.7217     6.8267    76.8868
  344.5000   -51.9197   149.4232     8.6830     6.8252    79.0848
  345.0000   -51.9250   150.0764     8.6558     6.8233    77.8183
  345.5000   -51.9288   150.0897     8.6788     6.8211    76.2387
  346.0000   -51.9333   149.2426     8.7096     6.8466    77.0208
  346.5000   -51.9387   147.8790     8.7903     6.9698    74.0251
  347.0000   -51.9424   145.6652     8.8741     7.1162    74.8056
  347.5000   -51.9470   142.3206     8.9488     7.1410    72.2804
  348.0000   -51.9524   139.7026     9.0301     7.1890    72.4315
  348.5000   -51.9561   137.1039     9.1060     7.2613    72.7402
  349.0000   -51.9606   135.1246     9.1702     7.3602    73.2058
  349.5000   -51.9660   134.5142     9.2247     7.4831    74.6157
  350.0000   -51.9697   136.0240     9.2470     7.3559    76.3401
  350.5000   -51.9743   138.5326     9.2542     7.1537    78.3704
  351.0000   -51.9788   140.5396     9.2387     6.9511    80.0872
  351.5000   -51.9833   145.4224     9.1119     6.7495    76.1398
  352.0000   -51.9880   148.9188     8.9859     6.6226    77.2273
  352.5000   -51.8409   151.7951     8.8309     6.5695    74.3400
  353.0000   -51.6495   155.5605     8.5809     6.4925    68.7780
  353.5000   -51.3956   157.9360     8.4236     6.4906    67.7453
  354.0000   -51.4000   159.3138     8.4834     6.4887    71.8187
  354.5000   -51.5975   158.9425     8.5858     6.5620    70.3887
  355.0000   -51.8638   157.4364     8.6873     6.6357    70.6895
  355.5000   -51.9581   154.8743     8.7985     6.7086    70.8364
  356.0000   -52.0242   151.8685     8.8717     6.7539    72.5497
  356.5000   -52.0290   149.5303     8.9033     6.7804    76.7839
  357.0000   -52.0333   147.4452     8.9028     6.7781    76.9308
  357.5000   -52.0379   147.1039     8.8381     6.7011    76.4448
  358.0000   -52.0427   148.3657     8.7221     6.6782    77.6862
  358.5000   -52.0470   149.7322     8.2691     6.5469    77.3576
  359.0000   -52.0515   154.3647     8.0696     6.4699    76.2310
  359.5000   -52.0564   160.3724     7.9952     6.3523    77.4871
  360.0000   -51.9091   163.2299     7.9517     6.1653    74.5459
  360.5000   -51.8843   164.7907     7.9094     6.1187    71.3231
  361.0000   -51.7667   167.1475     7.8564     6.0113    73.6657
  361.5000   -51.6934   169.2538     7.7097     5.8589    72.7078
  362.0000   -51.5980   170.8222     7.6527     5.8572    73.7952
  362.5000   -51.4773   174.2339     7.5860     5.8552    75.6729
  363.0000   -51.4818   178.2672     7.4977     5.8533    73.9248
  363.5000   -51.3344   181.7453     7.4507     5.8515    72.6521
  364.0000   -51.1884   185.0224     7.4058     5.8677    66.8167
  364.5000   -51.1924   185.0384     7.3459     5.9229    66.4916
  365.0000   -51.0451   185.0523     7.3253     5.9963    68.3623
  365.5000   -50.8991   182.4987     7.3151     6.0698    66.6176
  366.0000   -50.9030   179.8515     7.3900     6.1427    67.2331
  366.5000   -50.9076   177.8737     7.5304     6.1410    68.6352
  367.0000   -50.9127   175.8097     7.7658     6.1391    66.4184
  367.5000   -50.9823   173.1699     8.0203     6.1371    67.6156
  368.0000   -51.2384   170.0152     8.2042     6.1353    70.0095
  368.5000   -51.5325   165.0422     8.2926     6.1335    68.5795
  369.0000   -51.5364   164.0907     8.2021     6.1314    72.0236
  369.5000   -51.5409   166.2742     8.1070     6.0894    75.7857
  370.0000   -51.5462   169.4570     7.9744     6.0376    83.4814
  370.5000   -51.5500   174.0069     7.7873     5.9754    86.2995
  371.0000   -51.4029   176.6891     7.6657     5.8589    85.6562
  371.5000   -51.2568   177.0254     7.5666     5.8214    78.7195
  372.0000   -51.2606   177.0412     7.5546     5.8194    75.0868
  372.5000   -51.1135   177.8027     7.6043     5.8565    73.1566
  373.0000   -50.9675   177.9995     7.6709     5.8912    74.7443
  373.5000   -50.9712   178.5808     7.7428     5.9641    74.9015
  374.0000   -50.9758   178.5949     7.7757     6.0005    73.9298
  374.5000   -50.9812   178.7955     7.7601     6.0359    78.4581
  375.0000   -50.9848   179.3730     7.7121     6.0336    83.8664
  375.5000   -50.9894   179.3872     7.6731     6.0320    86.4750
  376.0000   -50.9939   179.4021     7.5934     6.0301    77.8041
  376.5000   -50.9985   180.1651     7.5307     5.9528    75.7448
  377.0000   -51.0031   180.1794     7.4259     5.6158    80.6083
  377.5000   -50.9116   181.1348     7.2910     5.4869    78.7063
  378.0000   -50.8598   182.4521     7.3140     5.4208    78.2239
  378.5000   -50.8653   182.9111     7.3355     5.4944    82.6119
  379.0000   -50.8697   183.4255     7.3200     5.5030    84.6469
  379.5000   -50.8328   184.5132     7.2420     5.6408    78.9653
  380.0000   -50.7273   185.2018     7.0633     5.6391    77.3781
  380.5000   -50.7318   185.7162     6.9574     5.6372    75.6334
  381.0000   -50.6980   186.2786     6.9191     5.6351    80.6553
  381.5000   -50.5894   187.9447     6.9088     5.4831    78.6918
  382.0000   -50.5939   189.7061     6.8810     5.3970    75.0500
  382.5000   -50.5985   191.5551     6.8429     5.1783    72.7422
  383.0000   -50.6033   193.9761     6.8098     5.1431    74.7737
  383.5000   -50.6076   196.6929     6.7142     5.0079    72.8717
  384.0000   -50.6121   202.0633     6.6390     4.8719    72.5431
  384.5000   -50.6170   211.1024     6.5385     4.8703    72.2145
  385.0000   -50.6212   216.1808     6.4570     4.9511    70.3126
  385.5000   -50.6258   219.2979     6.3677     5.0918    71.2427
  386.0000   -50.6307   220.8072     6.2458     5.1223    71.5469
  386.5000   -50.6348   220.6067     6.0794     5.1703    69.0121
  387.0000   -50.6394   217.8479     6.1510     5.3118    68.8173
  387.5000   -50.6444   213.7519     6.3177     5.3415    69.7710
  388.0000   -50.6485   208.7794     6.5451     5.4587    69.9165
  388.5000   -50.6530   203.6924     6.7193     5.5317    67.6707
  389.0000   -50.6581   198.8342     6.8856     5.6358    71.3236
  389.5000   -50.6621   194.8318     7.0331     5.7538    76.3200
  390.0000   -50.6667   191.7791     7.1806     5.7516    78.0368
  390.5000   -50.6718   187.8550     7.3375     5.8252    79.5962
  391.0000   -50.6758   185.1495     7.3685     5.8986    80.8445
  391.5000   -50.6803   181.3605     7.4404     5.8963    75.6350
  392.0000   -50.6855   178.9237     7.5328     5.8947    77.6699
  392.5000   -50.6894   178.1702     7.5327     5.7424    75.7645
  393.0000   -50.6939   178.4157     7.4975     5.6651    75.9114
  393.5000   -50.6992   180.4073     7.2461     5.5883    74.1633
