~VERSION INFORMATION
 VERS.                2.0:   CWLS LOG ASCII STANDARD - VERSION 2.0
 WRAP.                 NO:   ONE LINE PER DEPTH STEP
~WELL INFORMATION
#MNEM.UNIT      DATA TYPE    INFORMATION
#----------   ------------   ------------------------------
 STRT.F           28.0000:   START DEPTH
 STOP.F          636.0000:   STOP DEPTH
 STEP.F            0.5000:   STEP LENGTH
 NULL.          -999.2500:   NO VALUE
 COMP. FENIX & SCISSON INC:   COMPANY
 WELL.    NPR-3 #12S14-14:   WELL
 FLD .             TEAPOT:   FIELD
 LOC .      S14 T38N R78W:   LOCATION
 CNTY.            NATRONA:   COUNTY
 STAT.            WYOMING:   STATE
 CTRY. UNITED STATES OF AMERICA:   COUNTRY
 SRVC.           BIRDWELL:   SERVICE COMPANY
 DATE.        21-JUN-1978:   LOGDATE
 API .       490251065000:   API NUMBER
~CURVE INFORMATION
#MNEM.UNIT       API CODE    CURVE DESCRIPTION
#----------   ------------   ------------------------------
 DEPT.F                  :   
 SPR .MV     07 010 01 00:   SPONTANEOUS POTENTIAL
 ILD .OHMM   07 120 46 00:   INDUCTION LOG DEEP
 SN  .OHMM   07 040 16 00:   SHORT NORMAL 16"
 GRD .GAPI   45 310 01 00:   GAMMA RAY FROM DENSITY LOG
 CORR.G/C3   45 356 01 00:   DENSITY CORRECTION
 DEN .G/C3   45 350 01 00:   COMPENSATED BULK DENSTIY
 DPHI.DEC    45 890 12 00:   DENSITY POROSITY SANDSTONE
~PARAMETER INFORMATION
#MNEM.UNIT          VALUE    DESCRIPTION
#----------   ------------   ------------------------------
 PD  .                 GL:   PERMANENT DATUM
 EPD .F              5237:   ELEVATION PERMANENT DATUM
 LMF .                 KB:   LOG MEASURED FROM
 DMF .                 KB:   DRILLING MEASURED FROM
 EKB .F              5241:   KELLING BUSHING
 EGL .F              5237:   GROUND LEVEL
 DATE.        21-JUN-1978:   RUN DATE
 RUN .                  1:   RUN NUMBER
 DD  .F               637:   DEPTH DRILLER
 DL  .F               642:   DEPTH LOGGER
 BLI .F               636:   BOTTOM LOG INTERVAL
 TLI .F                40:   TOP LOG INTERVAL
 CS  .IN            8.625:   CASING SIZE
 CBD .F                40:   CASING BOTTOM DRILLER
 CBL .F                40:   CASING BOTTOM LOGGER
 BS  .IN            7.875:   BIT SIZE
 BSD .F               637:   BIT SIZE AT DEPTH
 DFT .                KCL:   DRILLING FLUID TYPE
 DFD .                8.7:   DRILLING FLUID DENSITY
 DFV .                 32:   DRILLING FLUID VISCOSITY
 DFPH.                 10:   DRILLING FLUID PH
 MSS .           FLOWLINE:   MUD SAMPLE SOURCE
 RMS .OHMM            .18:   RESISTIVITY MUD SAMPLE
 MST .F                84:   MUD SAMPLE TEMPERATURE
 RMF .OHMM            .17:   RESISTIVITY MUD FILTRATE SAMPLE
 MFST.F                72:   MUD FILTRATE SAMPLE TEMPERATURE
 RMC .OHMM            .28:   RESISTIVITY MUD CAKE
 MCST.F                82:   MUD CAKE SAMPLE TEMPERATURE
 MFSS.               MEAS:   MUD FILTRATE SAMPLE SOURCE
 MCSS.               MEAS:   MUD CAKE SAMPLE SOURCE
 BHT .F                72:   BOTTOM HOLE TEMPERATURE
 TCS .HRS            0230:   TIME CURCULATED STOPPED
 MRT .F                72:   MAXIMUM RECORDED TEMPERATURE
 LUN .               2958:   LOGGING UNIT NUMBER
 LUL .               CASP:   LOGGING UNIT LOCATION
 ENGI.             MILLER:   RECORDING ENGINEER
 WITN.           MCGINLEY:   WITNESSED BY
 CLNT.            A2DTECH:   CLIENT CODE
 ORIG.           5" PRINT:   ORIGIN OF DATA
 UWI .       490251065000:   UNIQUE WELL ID
 DICO. A2D Technologies, Inc.:   DIGITIZING COMPANY
~OTHER INFORMATION
~A   DEPT      SPR        ILD         SN        GRD       CORR        DEN       DPHI   
# ...
  346.5000   -54.0532     6.3257     7.7015    78.9530    -0.0100     2.3974     0.1610
  347.0000   -54.0399     6.1556     7.5477    78.4905    -0.0100     2.3939     0.1631
  347.5000   -54.0266     6.0706     7.4474    78.7388    -0.0101     2.3979     0.1661
  348.0000   -54.0133     5.9921     7.2979    82.5511    -0.0102     2.4096     0.1574
  348.5000   -54.0000     5.9120     7.2500    84.9460    -0.0103     2.4133     0.1532
  349.0000   -53.9866     5.9145     7.1543    84.1878    -0.0088     2.4125     0.1545
  349.5000   -53.9733     5.8754     7.1080    82.5287    -0.0089     2.4102     0.1548
  350.0000   -53.9600     5.9182     7.1604    80.2376    -0.0070     2.4026     0.1554
  350.5000   -54.2505     5.9620     7.3136    77.8550    -0.0045     2.4064     0.1584
  351.0000   -54.2416     6.0062     7.4700    79.7950     0.0013     2.4123     0.1533
  351.5000   -54.3844     6.0508     7.5773    80.3837     0.0056     2.4198     0.1486
  352.0000   -54.3733     6.0593     7.6862    80.6751     0.0085     2.4369     0.1396
  352.5000   -54.3644     6.1478     7.7430    81.2608     0.0084     2.4369     0.1368
  353.0000   -54.3555     6.2297     7.7467    80.4981     0.0068     2.4391     0.1398
  353.5000   -54.0477     6.2327     7.8041    77.6333     0.0022     2.4420     0.1355
  354.0000   -53.8894     6.2356     7.7541    77.4314    -0.0010     2.4300     0.1385
  354.5000   -53.8804     6.1950     7.7578    84.2161    -0.0011     2.4173     0.1487
  355.0000   -53.8716     6.1987     7.7617    86.3063     0.0003     2.4135     0.1520
  355.5000   -54.1774     6.2017     7.7654    85.2382     0.0062     2.4226     0.1472
  356.0000   -54.3023     6.1620     7.7691    84.7808     0.0000     2.4306     0.1427
  356.5000   -54.2930     6.1649     7.7829    83.3124    -0.0045     2.4306     0.1400
  357.0000   -54.2823     6.1679     7.7764    79.7217    -0.0016     2.4305     0.1405
  357.5000   -54.2734     6.1708     7.7810    80.9409    -0.0003     2.4308     0.1428
  358.0000   -54.1151     6.1738     7.7848    82.9286    -0.0005     2.4439     0.1360
  358.5000   -54.1062     6.1336     7.7885    84.1178    -0.0050     2.4453     0.1322
  359.0000   -54.0973     6.1372     7.7922    86.2080    -0.0051     2.4468     0.1306
  359.5000   -54.2379     6.1402     7.7959    88.1510    -0.0053     2.4483     0.1297
  360.0000   -54.2290     6.1431     7.7997    85.5836    -0.0069     2.4482     0.1288
  360.5000   -54.2201     6.1461     7.8574    84.6708    -0.0070     2.4422     0.1315
  361.0000   -54.2113     6.1490     7.8062    85.8601    -0.0054     2.4301     0.1381
  361.5000   -54.2024     6.1519     7.8108    87.9503    -0.0011     2.4241     0.1477
  362.0000   -54.1935     6.1549     7.8146    87.6380     0.0017     2.4330     0.1441
  362.5000   -54.1846     6.1648     7.8183    83.8724     0.0045     2.4382     0.1394
  363.0000   -54.1757     6.1607     7.8221    81.6082     0.0059     2.4360     0.1358
  363.5000   -54.3186     6.1637     7.8258    80.9957     0.0057     2.4329     0.1433
  364.0000   -54.3074     6.2096     7.8295    80.3832     0.0056     2.4299     0.1412
  364.5000   -54.2986     6.2124     7.8333    79.4704     0.0055     2.4328     0.1385
  365.0000   -54.2897     6.2584     7.8370    79.0080     0.0054     2.4395     0.1344
  365.5000   -54.4303     6.2614     7.8408    78.5457     0.0053     2.4447     0.1353
  366.0000   -54.2719     6.3078     7.8445    78.8340     0.0051     2.4469     0.1371
  366.5000   -54.2631     6.2632     7.7943    81.9753     0.0050     2.4506     0.1344
  367.0000   -54.4036     6.1419     7.7445    83.9183     0.0066     2.4521     0.1282
  367.5000   -54.5442     6.0539     7.6915    84.8043     0.0078     2.4528     0.1300
  368.0000   -54.5352     5.9805     7.6457    88.0957     0.0077     2.4535     0.1300
  368.5000   -54.5262     5.9013     7.5372    90.3360     0.0075     2.4534     0.1291
  369.0000   -54.5172     5.8636     7.4449    89.5734     0.0042     2.4534     0.1273
  369.5000   -54.5065     5.8671     7.3973    88.0600    -0.0004     2.4503     0.1276
  370.0000   -54.4976     5.8288     7.2502    86.8468    -0.0018     2.4383     0.1313
  370.5000   -54.6404     5.8323     7.2537    84.3875    -0.0019     2.4360     0.1397
  371.0000   -54.6293     5.8351     7.2064    80.2062    -0.0020     2.4382     0.1352
  371.5000   -54.6205     5.7971     7.1120    79.4384    -0.0039     2.4351     0.1352
  372.0000   -54.6116     5.8006     7.0656    78.3704    -0.0083     2.4305     0.1385
  372.5000   -54.6027     5.7627     7.0205    80.2302    -0.0086     2.4244     0.1415
  373.0000   -54.7455     5.7259     6.9756    80.4661    -0.0100     2.4178     0.1446
  373.5000   -54.7344     5.5733     6.8841    83.1569    -0.0086     2.4133     0.1495
  374.0000   -54.5761     5.3869     6.8874    84.4993    -0.0057     2.4148     0.1542
  374.5000   -54.5672     5.2428     6.7964    84.1841    -0.0026     2.4229     0.1489
  375.0000   -54.5583     5.1379     6.7057    83.2713     0.0030     2.4311     0.1432
  375.5000   -54.5494     5.1044     6.6628    82.5086     0.0059     2.4408     0.1365
  376.0000   -54.5405     5.0375     6.5747    81.5958     0.0025     2.4490     0.1282
  376.5000   -54.3822     5.0399     6.4878    80.6830    -0.0039     2.4317     0.1342
  377.0000   -54.3733     5.0772     6.4470    79.0194    -0.0110     2.4250     0.1435
  377.5000   -54.3644     5.0796     6.5397    78.4069    -0.0096     2.4249     0.1483
  378.0000   -54.5052     5.1173     6.6796    79.1458    -0.0067     2.4264     0.1465
  378.5000   -54.4961     5.2268     6.7290    81.8365    -0.0038     2.4256     0.1459
  379.0000   -54.4873     5.3756     6.8729    85.8787     0.0005     2.4248     0.1463
  379.5000   -54.4783     5.5287     6.9237    82.4133     0.0025     2.4315     0.1448
  380.0000   -54.4688     5.5696     6.9271    80.5996     0.0048     2.4389     0.1388
  380.5000   -54.6258     5.5723     6.9784    80.5877     0.0017     2.4404     0.1367
  381.0000   -54.7723     5.5749     7.0300    81.6268     0.0000     2.4396     0.1358
  381.5000   -54.8913     5.5777     7.0821    85.5188    -0.0046     2.4350     0.1365
  382.0000   -54.8802     5.6190     7.0862    88.9604    -0.0062     2.4283     0.1401
  382.5000   -54.8713     5.6217     7.0400    90.1497    -0.0078     2.4222     0.1449
  383.0000   -54.7130     5.5863     7.0442    90.1377    -0.0109     2.4184     0.1485
  383.5000   -54.5546     5.5890     6.9992    87.1228    -0.0110     2.4132     0.1497
  384.0000   -54.5457     5.5917     7.0025    84.7085    -0.0112     2.4079     0.1521
  384.5000   -54.5368     5.5559     6.9569    83.4954    -0.0083     2.3959     0.1593
  385.0000   -54.3785     5.5585     6.9610    82.7327    -0.0054     2.3891     0.1686
  385.5000   -54.5213     5.3726     6.7749    82.2704    -0.0010     2.3950     0.1630
  386.0000   -54.5102     5.1572     6.4589    82.8591     0.0033     2.4003     0.1642
  386.5000   -54.3518     4.8157     6.2430    82.8468     0.0002     2.3975     0.1714
  387.0000   -54.3430     4.4968     6.0761    83.0050     0.0001     2.3765     0.1762
  387.5000   -54.3341     4.4063     5.9129    83.4239     0.0045     2.3678     0.1786
  388.0000   -54.3252     4.3781     5.7549    81.1568     0.0133     2.3910     0.1702
  388.5000   -54.1669     4.3807     5.6017    79.7935     0.0087     2.4097     0.1586
  389.0000   -54.1580     4.3828     5.6044    79.7816     0.0086     2.4276     0.1481
  389.5000   -54.1491     4.3849     5.6070    81.5715     0.0085     2.4298     0.1418
  390.0000   -54.2900     4.4174     5.8065    85.4635     0.0084     2.4410     0.1370
  390.5000   -54.2808     4.4501     6.0546    85.9050     0.0082     2.4417     0.1347
  391.0000   -54.4214     4.9037     6.3569    84.9892     0.0081     2.4409     0.1359
  391.5000   -54.4125     5.2565     6.6286    84.2265     0.0080     2.4424     0.1359
