~VERSION INFORMATION
 VERS.                2.0:   CWLS LOG ASCII STANDARD - VERSION 2.0
 WRAP.                 NO:   ONE LINE PER DEPTH STEP
~WELL INFORMATION
#MNEM.UNIT      DATA TYPE    INFORMATION
#----------   ------------   ------------------------------
 STRT.F            0.0000:   START DEPTH
 STOP.F         2838.0000:   STOP DEPTH
 STEP.F            0.5000:   STEP LENGTH
 NULL.          -999.2500:   NO VALUE
 COMP. INTEX OIL CO U S NAVY:   COMPANY
 WELL. NAVAL PETROLEUM RESERVE 3 29 #NPR #3 (204A29)-29:   WELL
 FLD .                N/A:   FIELD
 LOC .      S29 T39N R78W:   LOCATION
 CNTY.            NATRONA:   COUNTY
 STAT.            WYOMING:   STATE
 CTRY. UNITED STATES OF AMERICA:   COUNTRY
 SRVC.      NL McCullough:   SERVICE COMPANY
 DATE.        24-JUN-1965:   LOGDATE
 API .       490251021700:   API NUMBER
~CURVE INFORMATION
#MNEM.UNIT       API CODE    CURVE DESCRIPTION
#----------   ------------   ------------------------------
 DEPT.F                  :   
 GR  .GAPI   30 310 01 00:   GAMMA RAY
 HD  .IN     70 280 01 00:   DAIMETER
~PARAMETER INFORMATION
#MNEM.UNIT          VALUE    DESCRIPTION
#----------   ------------   ------------------------------
 PD  .                 GL:   PERMANENT DATUM
 LMF .                 GL:   LOG MEASURED FROM
 EDF .F              5016:   DRILLING FLOOR
 DATE.        24-JUN-1965:   RUN DATE
 RUN .                  1:   RUN NUMBER
 DD  .F              2838:   DEPTH DRILLER
 DL  .F              2838:   DEPTH LOGGER
 BLI .F              2836:   BOTTOM LOG INTERVAL
 TLI .F              2400:   TOP LOG INTERVAL
 CS  .IN            6.625:   CASING SIZE
 CBD .F              2820:   CASING BOTTOM DRILLER
 BSD .F              2838:   BIT SIZE AT DEPTH
 LUN .               1497:   LOGGING UNIT NUMBER
 ENGI.         COWLTHORPE:   RECORDING ENGINEER
 WITN.         MR. HUDSON:   WITNESSED BY
 CLNT.            A2DTECH:   CLIENT CODE
 ORIG.           5" PRINT:   ORIGIN OF DATA
 UWI .       490251021700:   UNIQUE WELL ID
 DICO. A2D Technologies, Inc.:   DIGITIZING COMPANY
~OTHER INFORMATION
~A    DEPT      GR           HD 
# ...
 1215.0000  -999.2500     6.4970
 1215.5000  -999.2500     6.4976
 1216.0000  -999.2500     6.4983
 1216.5000  -999.2500     6.4989
 1217.0000  -999.2500     6.4994
 1217.5000  -999.2500     6.5000
 1218.0000  -999.2500     6.5007
 1218.5000  -999.2500     6.5012
 1219.0000  -999.2500     6.5018
 1219.5000  -999.2500     6.5024
 1220.0000  -999.2500     6.5030
 1220.5000  -999.2500     6.5036
 1221.0000  -999.2500     6.5043
 1221.5000  -999.2500     6.4897
 1222.0000  -999.2500     6.5055
 1222.5000  -999.2500     6.5061
 1223.0000  -999.2500     6.5067
 1223.5000  -999.2500     6.5072
 1224.0000  -999.2500     6.5229
 1224.5000  -999.2500     6.5235
 1225.0000  -999.2500     6.5241
 1225.5000  -999.2500     6.5247
 1226.0000  -999.2500     6.5253
 1226.5000  -999.2500     6.5259
 1227.0000  -999.2500     6.5266
 1227.5000  -999.2500     6.5271
 1228.0000  -999.2500     6.5127
 1228.5000  -999.2500     6.5133
 1229.0000  -999.2500     6.5139
 1229.5000  -999.2500     6.4994
 1230.0000  -999.2500     6.5000
 1230.5000  -999.2500     6.5006
 1231.0000  -999.2500     6.5013
 1231.5000  -999.2500     6.4868
 1232.0000  -999.2500     6.4874
 1232.5000  -999.2500     6.4880
 1233.0000  -999.2500     6.4886
 1233.5000  -999.2500     6.4892
 1234.0000  -999.2500     6.4747
 1234.5000  -999.2500     6.4753
 1235.0000  -999.2500     6.4760
 1235.5000  -999.2500     6.4765
 1236.0000  -999.2500     6.4772
 1236.5000  -999.2500     6.4778
 1237.0000  -999.2500     6.4784
 1237.5000  -999.2500     6.4940
 1238.0000  -999.2500     6.4794
 1238.5000  -999.2500     6.4952
 1239.0000  -999.2500     6.4808
 1239.5000  -999.2500     6.4964
 1240.0000  -999.2500     6.4970
 1240.5000  -999.2500     6.4825
 1241.0000  -999.2500     6.4983
 1241.5000  -999.2500     6.4989
 1242.0000  -999.2500     6.4995
 1242.5000  -999.2500     6.5001
 1243.0000  -999.2500     6.5007
 1243.5000  -999.2500     6.5012
 1244.0000  -999.2500     6.5018
 1244.5000  -999.2500     6.5024
 1245.0000  -999.2500     6.5030
 1245.5000  -999.2500     6.5187
 1246.0000  -999.2500     6.5194
 1246.5000  -999.2500     6.5200
 1247.0000  -999.2500     6.5206
 1247.5000  -999.2500     6.5212
 1248.0000  -999.2500     6.5217
 1248.5000  -999.2500     6.5223
 1249.0000  -999.2500     6.5229
 1249.5000  -999.2500     6.5386
 1250.0000  -999.2500     6.5392
 1250.5000  -999.2500     6.5397
 1251.0000  -999.2500     6.5405
 1251.5000  -999.2500     6.5395
 1252.0000  -999.2500     6.5374
 1252.5000  -999.2500     6.5354
 1253.0000  -999.2500     6.5333
 1253.5000  -999.2500     6.5313
 1254.0000  -999.2500     6.5292
 1254.5000  -999.2500     6.5272
 1255.0000  -999.2500     6.5251
 1255.5000  -999.2500     6.5231
 1256.0000  -999.2500     6.5210
 1256.5000  -999.2500     6.5190
 1257.0000  -999.2500     6.5169
 1257.5000  -999.2500     6.5149
 1258.0000  -999.2500     6.5128
 1258.5000  -999.2500     6.5108
 1259.0000  -999.2500     6.5087
 1259.5000  -999.2500     6.5067
 1260.0000  -999.2500     6.5046
 1260.5000  -999.2500     6.5026
 1261.0000  -999.2500     6.5006
 1261.5000  -999.2500     6.4998
 1262.0000  -999.2500     6.4991
 1262.5000  -999.2500     6.4983
 1263.0000  -999.2500     6.4975
 1263.5000  -999.2500     6.4968
 1264.0000  -999.2500     6.4960
 1264.5000  -999.2500     6.4953
 1265.0000  -999.2500     6.4945
 1265.5000  -999.2500     6.4938
 1266.0000  -999.2500     6.4930
 1266.5000  -999.2500     6.4922
 1267.0000  -999.2500     6.4915
 1267.5000  -999.2500     6.4907
 1268.0000  -999.2500     6.4900
 1268.5000  -999.2500     6.4901
 1269.0000  -999.2500     6.5055
 1269.5000  -999.2500     6.5058
 1270.0000  -999.2500     6.5061
 1270.5000  -999.2500     6.5064
 1271.0000  -999.2500     6.5066
 1271.5000  -999.2500     6.4919
 1272.0000  -999.2500     6.4922
 1272.5000  -999.2500     6.4925
 1273.0000  -999.2500     6.4928
 1273.5000  -999.2500     6.4931
 1274.0000  -999.2500     6.4934
 1274.5000  -999.2500     6.4937
 1275.0000  -999.2500     6.4940
 1275.5000  -999.2500     6.4943
 1276.0000  -999.2500     6.4946
 1276.5000  -999.2500     6.4949
 1277.0000  -999.2500     6.4952
 1277.5000  -999.2500     6.4804
 1278.0000  -999.2500     6.4807
 1278.5000  -999.2500     6.4811
 1279.0000  -999.2500     6.4814
 1279.5000  -999.2500     6.4666
 1280.0000  -999.2500     6.4819
 1280.5000  -999.2500     6.4822
 1281.0000  -999.2500     6.4825
 1281.5000  -999.2500     6.4764
 1282.0000  -999.2500     6.4831
 1282.5000  -999.2500     6.4834
 1283.0000  -999.2500     6.4838
 1283.5000  -999.2500     6.4841
 1284.0000  -999.2500     6.4843
 1284.5000  -999.2500     6.4847
 1285.0000  -999.2500     6.4849
 1285.5000  -999.2500     6.4852
 1286.0000  -999.2500     6.4856
 1286.5000  -999.2500     6.4859
 1287.0000  -999.2500     6.4862
 1287.5000  -999.2500     6.4865
 1288.0000  -999.2500     6.4867
 1288.5000  -999.2500     6.4870
 1289.0000  -999.2500     6.4874
 1289.5000  -999.2500     6.4876
 1290.0000  -999.2500     6.4882
 1290.5000  -999.2500     6.5033
 1291.0000  -999.2500     6.5037
 1291.5000  -999.2500     6.5040
 1292.0000  -999.2500     6.5042
 1292.5000  -999.2500     6.5045
 1293.0000  -999.2500     6.5114
 1293.5000  -999.2500     6.5202
 1294.0000  -999.2500     6.5205
 1294.5000  -999.2500     6.5208
 1295.0000  -999.2500     6.5211
 1295.5000  -999.2500     6.5214
 1296.0000  -999.2500     6.5217
 1296.5000  -999.2500     6.5220
 1297.0000  -999.2500     6.5223
 1297.5000  -999.2500     6.5226
 1298.0000  -999.2500     6.5229
 1298.5000  -999.2500     6.5232
 1299.0000  -999.2500     6.5235
 1299.5000  -999.2500     6.5239
 1300.0000  -999.2500     6.5391
 1300.5000  -999.2500     6.5244
 1301.0000  -999.2500     6.5398
 1301.5000  -999.2500     6.5398
 1302.0000  -999.2500     6.5397
 1302.5000  -999.2500     6.5396
 1303.0000  -999.2500     6.5396
 1303.5000  -999.2500     6.5395
 1304.0000  -999.2500     6.5394
 1304.5000  -999.2500     6.5394
 1305.0000  -999.2500     6.5393
 1305.5000  -999.2500     6.5393
 1306.0000  -999.2500     6.5392
 1306.5000  -999.2500     6.5241
 1307.0000  -999.2500     6.5241
 1307.5000  -999.2500     6.5241
 1308.0000  -999.2500     6.5090
 1308.5000  -999.2500     6.5090
 1309.0000  -999.2500     6.5090
 1309.5000  -999.2500     6.5090
 1310.0000  -999.2500     6.5090
 1310.5000  -999.2500     6.5090
 1311.0000  -999.2500     6.5090
 1311.5000  -999.2500     6.5090
 1312.0000  -999.2500     6.5090
 1312.5000  -999.2500     6.5090
 1313.0000  -999.2500     6.5090
 1313.5000  -999.2500     6.5090
 1314.0000  -999.2500     6.5090
 1314.5000  -999.2500     6.5090
 1315.0000  -999.2500     6.5090
 1315.5000  -999.2500     6.5090
 1316.0000  -999.2500     6.5090
 1316.5000  -999.2500     6.5090
 1317.0000  -999.2500     6.5090
 1317.5000  -999.2500     6.5090
 1318.0000  -999.2500     6.5090
 1318.5000  -999.2500     6.5090
 1319.0000  -999.2500     6.5090
 1319.5000  -999.2500     6.5090
 1320.0000  -999.2500     6.5090
 1320.5000  -999.2500     6.5241
 1321.0000  -999.2500     6.5090
 1321.5000  -999.2500     6.5241
 1322.0000  -999.2500     6.5090
 1322.5000  -999.2500     6.5090
 1323.0000  -999.2500     6.5090
 1323.5000  -999.2500     6.5090
 1324.0000  -999.2500     6.5090
 1324.5000  -999.2500     6.5090
 1325.0000  -999.2500     6.5090
 1325.5000  -999.2500     6.5090
 1326.0000  -999.2500     6.5090
 1326.5000  -999.2500     6.5090
 1327.0000  -999.2500     6.5090
 1327.5000  -999.2500     6.5090
 1328.0000  -999.2500     6.5090
 1328.5000  -999.2500     6.5090
 1329.0000  -999.2500     6.5090
 1329.5000  -999.2500     6.5090
 1330.0000  -999.2500     6.5090
 1330.5000  -999.2500     6.5090
 1331.0000  -999.2500     6.5090
 1331.5000  -999.2500     6.5090
 1332.0000  -999.2500     6.5090
 1332.5000  -999.2500     6.5090
 1333.0000  -999.2500     6.5090
 1333.5000  -999.2500     6.5062
 1334.0000  -999.2500     6.5027
 1334.5000  -999.2500     6.4991
 1335.0000  -999.2500     6.4956
 1335.5000  -999.2500     6.4921
 1336.0000  -999.2500     6.4886
