~VERSION INFORMATION
 VERS.                2.0:   CWLS LOG ASCII STANDARD - VERSION 2.0
 WRAP.                 NO:   ONE LINE PER DEPTH STEP
~WELL INFORMATION
#MNEM.UNIT      DATA TYPE    INFORMATION
#----------   ------------   ------------------------------
 STRT.F           80.5000:   START DEPTH
 STOP.F          768.0000:   STOP DEPTH
 STEP.F            0.5000:   STEP LENGTH
 NULL.          -999.2500:   NO VALUE
 COMP. U S NAVY/INTEX OIL CO:   COMPANY
 WELL. N.P.R. #3 #84-S-34:   WELL
 FLD .             TEAPOT:   FIELD
 LOC .      S34 T39N R78W:   LOCATION
 CNTY.            NATRONA:   COUNTY
 STAT.            WYOMING:   STATE
 CTRY. UNITED STATES OF AMERICA:   COUNTRY
 SRVC. Schlumberger Well Surveying Corp:   SERVICE COMPANY
 DATE.        17-FEB-1961:   LOGDATE
 API .       490250654000:   API NUMBER
~CURVE INFORMATION
#MNEM.UNIT       API CODE    CURVE DESCRIPTION
#----------   ------------   ------------------------------
 DEPT.F                  :   
 SPR .MV     05 010 01 00:   SPONTANEOUS POTENTIAL
 ASN .OHMM   05 041 16 00:   AMPLIFIED SHORT NORMAL 16"
 ILD .OHMM   05 120 46 00:   INDUCTION LOG DEEP
 CILD.MMHO   05 110 46 00:   CONDUCTIVITY INDUCTION LOG DEEP
 GR  .GAPI   30 310 01 00:   GAMMA RAY
~PARAMETER INFORMATION
#MNEM.UNIT          VALUE    DESCRIPTION
#----------   ------------   ------------------------------
 PD  .                 GL:   PERMANENT DATUM
 EPD .F              5083:   ELEVATION PERMANENT DATUM
 LMF .                 KB:   LOG MEASURED FROM
 DAPD.F                 4:   FEET ABOVE PERMANENT DATUM
 DMF .                 KB:   DRILLING MEASURED FROM
 EKB .F              5087:   KELLING BUSHING
 EGL .F              5083:   GROUND LEVEL
 DATE.            2-17-61:   RUN DATE
 RUN .                  1:   RUN NUMBER
 DD  .F               770:   DEPTH DRILLER
 DL  .F               769:   DEPTH LOGGER
 BLI .F               768:   BOTTOM LOG INTERVAL
 TLI .F                80:   TOP LOG INTERVAL
 CBD .F                12:   CASING BOTTOM DRILLER
 BS  .IN            7.875:   BIT SIZE
 BSD .F               770:   BIT SIZE AT DEPTH
 DFT .       GEL/OIL EMUL:   DRILLING FLUID TYPE
 DFD .                9.5:   DRILLING FLUID DENSITY
 DFV .                 50:   DRILLING FLUID VISCOSITY
 DFPH.                  8:   DRILLING FLUID PH
 DFL .                1.8:   DRILLING FLUID LOSS
 MSS .           FLOWLINE:   MUD SAMPLE SOURCE
 RMS .OHMM             .9:   RESISTIVITY MUD SAMPLE
 MST .F                69:   MUD SAMPLE TEMPERATURE
 RMF .OHMM            .54:   RESISTIVITY MUD FILTRATE SAMPLE
 MFST.F                69:   MUD FILTRATE SAMPLE TEMPERATURE
 RMC .OHMM           1.64:   RESISTIVITY MUD CAKE
 MCST.F                69:   MUD CAKE SAMPLE TEMPERATURE
 MFSS.                  M:   MUD FILTRATE SAMPLE SOURCE
 MCSS.                  M:   MUD CAKE SAMPLE SOURCE
 RMB .OHMM             .8:   RESISTIVITY MUD AT BHT
 BHT .F                78:   BOTTOM HOLE TEMPERATURE
 TCS .HRS               1:   TIME CURCULATED STOPPED
 MRT .F                78:   MAXIMUM RECORDED TEMPERATURE
 LUN .               2523:   LOGGING UNIT NUMBER
 LUL .               CSPR:   LOGGING UNIT LOCATION
 ENGI.             KNOBEL:   RECORDING ENGINEER
 WITN.          JORGENSEN:   WITNESSED BY
 CLNT.            A2DTECH:   CLIENT CODE
 ORIG.       2", 5" PRINT:   ORIGIN OF DATA
 UWI .       490250654000:   UNIQUE WELL ID
 DICO. A2D Technologies, Inc.:   DIGITIZING COMPANY
~OTHER INFORMATION
~A   DEPT      SPR        ASN        ILD       CILD         GR   
# ...
  202.5000   -23.2687     6.3750     4.5219   197.0916  -999.2500
  203.0000   -23.1116     6.1589     4.3065   212.5727  -999.2500
  203.5000   -22.9554     5.9428     4.0908   228.0725  -999.2500
  204.0000   -22.7996     5.7270     3.8772   243.5940  -999.2500
  204.5000   -22.6441     5.5110     3.6998   258.9851  -999.2500
  205.0000   -22.4885     5.2887     3.7050   264.6660  -999.2500
  205.5000   -22.3248     5.1993     3.7060   266.2239  -999.2500
  206.0000   -22.3740     5.2279     3.7372   264.5407  -999.2500
  206.5000   -22.5101     5.2858     3.9146   261.4248  -999.2500
  207.0000   -22.6489     5.3621     4.0907   257.2443  -999.2500
  207.5000   -22.7876     5.5152     4.2665   252.5705  -999.2500
  208.0000   -22.9261     5.6693     4.4421   237.5226  -999.2500
  208.5000   -23.0645     5.8235     4.6177   218.7837  -999.2500
  209.0000   -23.2029     5.9762     4.8005   207.8851  -999.2500
  209.5000   -23.3414     6.1214     4.8632   198.2691  -999.2500
  210.0000   -23.4803     6.1833     4.8809   195.4167  -999.2500
  210.5000   -23.6199     6.2509     4.8966   192.5825  -999.2500
  211.0000   -23.7381     6.2388     4.9125   194.0262  -999.2500
  211.5000   -23.6034     6.1861     4.9291   197.8840  -999.2500
  212.0000   -23.4694     6.1327     4.9449   201.7417  -999.2500
  212.5000   -23.3371     6.0620     4.9135   205.9995  -999.2500
  213.0000   -23.2049     5.8758     4.5639   213.2630  -999.2500
  213.5000   -23.0728     5.6885     4.2112   223.0544  -999.2500
  214.0000   -22.9407     5.4964     3.8595   252.1490  -999.2500
  214.5000   -22.8085     5.2625     3.5079   286.2977  -999.2500
  215.0000   -22.6764     5.0275     3.1562   323.7090  -999.2500
  215.5000   -22.5439     4.6752     2.8023   361.1040  -999.2500
  216.0000   -22.4106     4.2507     2.6006   398.4758  -999.2500
  216.5000   -22.2859     3.8204     2.4962   413.8547  -999.2500
  217.0000   -22.3693     3.6520     2.5273   411.8156  -999.2500
  217.5000   -22.4608     3.6679     2.6492   408.5826  -999.2500
  218.0000   -22.5514     3.7536     2.7724   401.0774  -999.2500
  218.5000   -22.6417     3.9757     2.9870   387.6096  -999.2500
  219.0000   -22.7319     4.2965     3.1962   370.0417  -999.2500
  219.5000   -22.8222     4.6191     3.4040   344.3459  -999.2500
  220.0000   -22.9125     4.9437     3.6117   305.0887  -999.2500
  220.5000   -23.0028     5.2445     3.8198   253.6769  -999.2500
  221.0000   -23.0933     5.2339     4.0286   222.8392  -999.2500
  221.5000   -23.1831     5.2146     4.2225   216.9694  -999.2500
  222.0000   -23.2722     5.1967     4.1901   217.6615  -999.2500
  222.5000   -23.2940     5.2214     4.1510   223.3555  -999.2500
  223.0000   -23.2158     5.2831     4.1131   228.8831  -999.2500
  223.5000   -23.1384     5.3452     4.0749   234.3397  -999.2500
  224.0000   -23.0605     5.3621     4.0367   236.9910  -999.2500
  224.5000   -22.9825     5.3305     3.9192   239.5846  -999.2500
  225.0000   -22.9045     5.1818     3.7249   249.6123  -999.2500
  225.5000   -22.8267     5.0108     3.5306   259.5807  -999.2500
  226.0000   -22.7495     4.8223     3.3358   275.2526  -999.2500
  226.5000   -22.7217     4.6340     3.1409   296.8560  -999.2500
  227.0000   -22.7926     4.4457     2.9459   318.8935  -999.2500
  227.5000   -22.8617     4.2573     2.7520   347.0511  -999.2500
  228.0000   -22.9309     4.0688     2.5585   375.6852  -999.2500
  228.5000   -23.0002     3.8789     2.4927   405.4024  -999.2500
  229.0000   -23.0694     3.6906     2.5754   403.4402  -999.2500
  229.5000   -23.1386     3.6817     2.6575   401.3589  -999.2500
  230.0000   -23.2078     3.7096     2.7410   385.7464  -999.2500
  230.5000   -23.2770     4.0521     2.8248   360.6982  -999.2500
  231.0000   -23.3464     4.4195     3.0303   334.3160  -999.2500
  231.5000   -23.4159     4.7867     3.3950   307.9317  -999.2500
  232.0000   -23.4841     5.1518     3.7583   281.5641  -999.2500
  232.5000   -23.5156     5.5148     4.1225   255.1991  -999.2500
  233.0000   -23.4231     5.7527     4.4845   228.8341  -999.2500
  233.5000   -23.3340     5.8112     4.8438   208.2672  -999.2500
  234.0000   -23.2451     5.8476     5.0190   198.3716  -999.2500
  234.5000   -23.1561     5.8826     4.9148   195.5219  -999.2500
  235.0000   -23.0671     5.9178     4.8118   197.5992  -999.2500
  235.5000   -22.9781     5.9268     4.6319   199.6644  -999.2500
  236.0000   -22.8891     5.8939     4.3302   204.9944  -999.2500
  236.5000   -22.8001     5.8590     4.0303   215.3781  -999.2500
  237.0000   -22.7111     5.6281     3.7297   230.0892  -999.2500
  237.5000   -22.6222     5.3699     3.4304   251.8267  -999.2500
  238.0000   -22.5331     5.1114     3.2559   273.5434  -999.2500
  238.5000   -22.4438     4.8530     3.1001   295.2600  -999.2500
  239.0000   -22.3555     4.5949     2.9439   316.9767  -999.2500
  239.5000   -22.2768     4.3359     2.7884   338.6933  -999.2500
  240.0000   -22.3234     4.0772     2.8165   343.1889  -999.2500
  240.5000   -22.3889     4.0459     2.8752   344.7469  -999.2500
  241.0000   -22.4543     4.0558     2.9365   341.9207  -999.2500
  241.5000   -22.5200     4.1211     3.0289   338.5077  -999.2500
  242.0000   -22.5856     4.3324     3.2132   321.0428  -999.2500
  242.5000   -22.6511     4.5355     3.3912   300.7606  -999.2500
  243.0000   -22.7167     4.7385     3.5690   275.2808  -999.2500
  243.5000   -22.7826     4.9398     3.7473   248.6613  -999.2500
  244.0000   -22.8489     5.0809     3.9256   237.6493  -999.2500
  244.5000   -22.9035     5.2053     4.1024   230.1712  -999.2500
  245.0000   -22.8093     5.3302     4.2243   225.1044  -999.2500
  245.5000   -22.7159     5.4540     4.1976   225.6237  -999.2500
  246.0000   -22.6234     5.5488     4.1743   226.1430  -999.2500
  246.5000   -22.5312     5.5651     4.1516   226.6623  -999.2500
  247.0000   -22.4389     5.4347     4.1327   228.9353  -999.2500
  247.5000   -22.3466     5.2722     3.9723   235.6863  -999.2500
  248.0000   -22.2540     5.1080     3.7806   243.9441  -999.2500
  248.5000   -22.1607     4.9441     3.5873   256.2478  -999.2500
  249.0000   -22.0758     4.7804     3.3942   268.5515  -999.2500
  249.5000   -22.1656     4.6166     3.2015   280.8552  -999.2500
  250.0000   -22.2611     4.4527     3.0084   293.1588  -999.2500
  250.5000   -22.3557     4.2894     2.8115   305.4625  -999.2500
  251.0000   -22.4501     4.1396     2.7565   317.8098  -999.2500
  251.5000   -22.5445     4.0441     2.7415   325.8409  -999.2500
  252.0000   -22.6388     3.9482     2.7280   332.3495  -999.2500
  252.5000   -22.7332     3.8807     2.7143   338.8648  -999.2500
  253.0000   -22.8276     3.9336     2.7006   345.3892  -999.2500
  253.5000   -22.9222     3.9852     2.6869   351.9177  -999.2500
  254.0000   -23.0178     4.0003     2.6727   358.4462  -999.2500
  254.5000   -23.1123     3.8903     2.6399   364.9746  -999.2500
  255.0000   -23.0217     3.7397     2.5271   378.3090  -999.2500
  255.5000   -22.9169     3.5882     2.4150   394.5115  -999.2500
  256.0000   -22.8128     3.4366     2.3031   419.3876  -999.2500
  256.5000   -22.7089     3.2855     2.1915   481.0125  -999.2500
  257.0000   -22.6051     3.1342     2.0797   508.1420  -999.2500
  257.5000   -22.5012     2.9765     1.9612   536.0125  -999.2500
  258.0000   -22.3968     2.9662     2.0488   519.8270  -999.2500
  258.5000   -22.2939     3.0115     2.2199   495.7903  -999.2500
  259.0000   -22.3562     3.0596     2.3978   471.7537  -999.2500
  259.5000   -22.4435     3.1540     2.5893   450.3288  -999.2500
  260.0000   -22.5313     3.4971     2.7978   436.2631  -999.2500
  260.5000   -22.6188     3.8421     3.0052   383.9165  -999.2500
  261.0000   -22.7062     4.1891     3.2130   331.5699  -999.2500
  261.5000   -22.7937     4.3676     3.4207   292.7453  -999.2500
  262.0000   -22.8812     4.4587     3.6283   261.5866  -999.2500
  262.5000   -22.9688     4.5502     3.8384   244.7808  -999.2500
  263.0000   -23.0561     4.5353     3.8811   242.9074  -999.2500
