~VERSION INFORMATION
 VERS.                2.0:   CWLS LOG ASCII STANDARD - VERSION 2.0
 WRAP.                 NO:   ONE LINE PER DEPTH STEP
~WELL INFORMATION
#MNEM.UNIT      DATA TYPE    INFORMATION
#----------   ------------   ------------------------------
 STRT.F           14.0000:   START DEPTH
 STOP.F          583.0000:   STOP DEPTH
 STEP.F            0.5000:   STEP LENGTH
 NULL.          -999.2500:   NO VALUE
 COMP. LAWRENCE/ALLISON INC:   COMPANY
 WELL.     NPR3 #34-66 SX:   WELL
 FLD .          MPR NO. 3:   FIELD
 LOC .      S10 T38N R78W:   LOCATION
 CNTY.            NATRONA:   COUNTY
 STAT.            WYOMING:   STATE
 CTRY. UNITED STATES OF AMERICA:   COUNTRY
 SRVC.           Gearhart:   SERVICE COMPANY
 DATE.        19-JUN-1986:   LOGDATE
 API .       490251109400:   API NUMBER
~CURVE INFORMATION
#MNEM.UNIT       API CODE    CURVE DESCRIPTION
#----------   ------------   ------------------------------
 DEPT.F                  :   
 GRR .GAPI   07 310 01 00:   GAMMA RAY
 RILD.OHMM   07 120 46 00:   INDUCTION LOG DEEP RESISTIVITY
 RILM.OHMM   07 120 44 00:   INDUCTION LOG MEDIUM RESISTIVITY
~PARAMETER INFORMATION
#MNEM.UNIT          VALUE    DESCRIPTION
#----------   ------------   ------------------------------
 PD  .                 GL:   PERMANENT DATUM
 EPD .F              5262:   ELEVATION PERMANENT DATUM
 LMF .                 KB:   LOG MEASURED FROM
 DAPD.F                 5:   FEET ABOVE PERMANENT DATUM
 DMF .                 KB:   DRILLING MEASURED FROM
 EKB .F              5267:   KELLING BUSHING
 EGL .F              5262:   GROUND LEVEL
 DATE.        19-JUN-1986:   RUN DATE
 RUN .                  1:   RUN NUMBER
 DD  .F               609:   DEPTH DRILLER
 DL  .F               602:   DEPTH LOGGER
 BLI .F               592:   BOTTOM LOG INTERVAL
 TLI .F                47:   TOP LOG INTERVAL
 CS  .IN            8.625:   CASING SIZE
 CBD .F                47:   CASING BOTTOM DRILLER
 CBL .F                46:   CASING BOTTOM LOGGER
 BS  .IN            7.875:   BIT SIZE
 BSD .F               609:   BIT SIZE AT DEPTH
 DFT .               FOAM:   DRILLING FLUID TYPE
 TCS .HRS            0130:   TIME CURCULATED STOPPED
 TLAB.HRS            0330:   TIME LOGGER AT BOTTOM
 MRT .F                65:   MAXIMUM RECORDED TEMPERATURE
 LUN .               7609:   LOGGING UNIT NUMBER
 LUL .           GILLETTE:   LOGGING UNIT LOCATION
 ENGI.         WEATHERMON:   RECORDING ENGINEER
 WITN.           JENNINGS:   WITNESSED BY
 CLNT.            A2DTECH:   CLIENT CODE
 ORIG.           5" PRINT:   ORIGIN OF DATA
 UWI .       490251109400:   UNIQUE WELL ID
 DICO. A2D Technologies, Inc.:   DIGITIZING COMPANY
~OTHER INFORMATION
~A   DEPT      GRR       RILD       RILM   
# ...
  105.0000   115.4037     9.0031     9.1905
  105.5000   114.1889     9.0683     9.1930
  106.0000   113.8874     9.1341     9.2603
  106.5000   115.5373     9.2007     9.3282
  107.0000   118.7646     9.2025     9.3966
  107.5000   120.2895     9.2044     9.3997
  108.0000   120.2924     9.2062     9.2709
  108.5000   119.0777     9.3471     9.5379
  109.0000   116.2618     9.7424     9.8125
  109.5000   110.2562     9.8822     9.8845
  110.0000   108.7363    10.0239     9.9575
  110.5000   108.7400    10.0259    10.0304
  111.0000   106.6120    10.0986    10.1039
  111.5000   103.2218    10.2439    10.2498
  112.0000   100.2251    10.3182    10.3288
  112.5000   105.4038    10.5399    10.6229
  113.0000   109.0596    10.6911    10.8522
  113.5000   110.2802    10.9208    11.0089
  114.0000   108.4566    11.1560    11.1678
  114.5000   100.8499    11.2369    11.3319
  115.0000    98.1131    11.3183    11.4932
  115.5000    97.2028    11.4003    11.4963
  116.0000   102.0763    11.4026    11.4180
  116.5000   106.6454    11.4055    11.3411
  117.0000   109.4652    11.3274    11.3449
  117.5000   111.8270    11.2504    11.1902
  118.0000   112.1343    11.0187    11.0362
  118.5000   110.9195    10.9438    11.0399
  119.0000   107.8783    10.9466    11.0429
  119.5000   106.6403    10.9488    10.9684
  120.0000   110.0158    10.9510    10.9721
  120.5000   114.2805    10.9531    10.9750
  121.0000   117.0231    10.8787    10.9780
  121.5000   117.6341    10.7297    10.9809
  122.0000   114.8737    10.7319    10.7546
  122.5000   108.2045    10.5838    10.6073
  123.0000   105.4677    10.3659    10.3166
  123.5000   103.9478    10.2907    10.1746
  124.0000   106.6912    10.0834    10.1060
  124.5000   108.8250    10.0144    10.0386
  125.0000   107.9154     9.9463     9.9011
  125.5000   105.7874     9.9488     9.8343
  126.0000   104.5719     9.9508     9.7680
  126.5000   102.7483     9.9533     9.7713
  127.0000   106.1005     9.9553     9.7054
  127.5000   109.5231     9.8871     9.7082
  128.0000   111.5865     9.7517     9.7113
  128.5000   110.9799     9.6855     9.7139
  129.0000   111.8967     9.6879     9.7165
  129.5000   114.3349     9.6216     9.6510
  130.0000   117.7270     9.6240     9.6537
  130.5000   118.2981     9.5585     9.5886
  131.0000   116.4753     9.5561     9.5918
  131.5000   114.6517     9.4955     9.5943
  132.0000   114.6546     9.4310     9.5296
  132.5000   116.1847     9.3018     9.3991
  133.0000   118.0097     9.1740     9.1415
  133.5000   118.3163     9.0437     8.9531
  134.0000   116.4934     8.7991     8.7686
  134.5000   115.5824     8.5576     8.5277
  135.0000   118.3257     8.3223     8.2877
  135.5000   121.4683     8.1505     8.0662
  136.0000   124.1161     8.0348     8.0113
  136.5000   122.5970     7.9280     7.9573
  137.0000   120.4690     7.9300     8.0161
  137.5000   121.6896     7.9316     8.1989
  138.0000   121.9969     7.9891     8.6052
  138.5000   115.9122     8.1685     8.7910
  139.0000   105.5651     8.5739     8.8554
  139.5000    97.9576     8.8199     8.9203
  140.0000    97.8387     8.9464     8.9856
  140.5000   104.1380     9.0112     9.0520
  141.0000   111.0569     9.0173     9.1183
  141.5000   114.1039     9.0788     9.1208
  142.0000   114.4105     9.0166     9.1232
  142.5000   111.6744     8.9553     9.0617
  143.0000   108.9335     8.8949     9.0007
  143.5000   107.1140     8.8967     8.8780
  144.0000   108.0309     8.8363     8.8803
  144.5000   109.5559     8.8385     8.8199
  145.0000   110.4720     8.9025     8.8249
  145.5000   110.7793     9.0302     8.9508
  146.0000   112.1786     9.0957     9.0800
  146.5000   115.9609     9.1620     9.2110
  147.0000   114.1373     9.2934     9.4099
  147.5000   110.4873     9.4267     9.5468
  148.0000   104.7063     9.6293     9.6841
  148.5000    98.5033     9.7720     9.8239
  149.0000    96.4937     9.9080     9.9657
  149.5000    96.4966     9.9798    10.0387
  150.0000   100.7605     9.7053     9.9713
  150.5000   106.8458     9.6379     9.9024
  151.0000   110.4966     9.5712     9.6974
  151.5000   109.2752     9.5720     9.6304
  152.0000   107.7501     9.4392     9.4973
  152.5000   108.0516     9.1142     9.3006
  153.0000   110.1795     9.0511     9.1720
  153.5000   112.6118     9.0517     9.1733
  154.0000   114.4353     9.0524     9.1749
  154.5000   113.4845     9.0531     9.1761
  155.0000   111.6889     9.0537     9.1774
  155.5000   110.7727     8.9909     9.1786
  156.0000   109.5520     8.9916     9.1799
  156.5000   108.3314     9.0556     9.1811
  157.0000   108.0248     9.0562     9.1824
  157.5000   110.7608     9.0568     9.1193
  158.0000   111.9762     9.0575     9.1206
  158.5000   111.3636     9.0581     9.1219
  159.0000   110.4474     9.0587     9.1234
  159.5000   111.6621     8.9959     9.1890
  160.0000   114.0944     8.9967     9.1256
  160.5000   111.5160     8.9342     9.0632
  161.0000   107.6950     8.9350     9.0006
  161.5000   110.4318     8.8729     9.0021
  162.0000   117.1259     8.8737     8.9403
  162.5000   120.4715     8.8743     8.9415
  163.0000   121.6869     8.8749     8.9428
  163.5000   119.5523     8.8755     8.9443
  164.0000   117.7228     8.8762     8.9455
  164.5000   115.2845     8.8147     8.8837
  165.0000   116.4992     8.6317     8.6998
  165.5000   118.9437     8.4522     8.6398
  166.0000   121.3639     8.3937     8.5206
  166.5000   117.7072     8.3944     8.5217
  167.0000   113.4424     8.3950     8.4632
  167.5000   112.5262     8.3956     8.5241
  168.0000   111.0011     8.4553     8.5854
  168.5000   108.5628     8.5754     8.6474
  169.0000   106.7334     8.6364     8.7097
  169.5000   107.3392     8.7593     8.8965
  170.0000   108.2495     8.8837     8.9605
  170.5000   109.1597     8.9469     9.0887
  171.0000   110.6788     8.9476     9.1540
  171.5000   111.9300     9.0112     9.1553
  172.0000   111.4074     9.0118     9.1566
  172.5000   107.0162     9.0124     9.1578
  173.0000   104.5779     9.0131     9.1594
  173.5000   105.4881     9.0772     9.1606
  174.0000   109.4433     9.0143     9.0974
  174.5000   109.4396     9.0151     9.0349
  175.0000   109.1322     8.9525     8.9728
  175.5000   109.1292     8.9532     8.9743
  176.0000   113.3880     8.8910     8.9127
  176.5000   113.9939     8.7678     8.7894
  177.0000   114.2953     8.7069     8.7291
  177.5000   115.8752     8.6468     8.6086
  178.0000   118.8548     8.4672     8.4896
  178.5000   119.1570     8.4065     8.4313
  179.0000   116.7179     8.1762     8.3144
  179.5000   115.8017     8.1196     8.2573
  180.0000   117.6252     8.0633     8.1434
  180.5000   117.3178     8.0075     8.0874
  181.0000   114.2707     8.0082     8.0885
  181.5000   112.7457     8.0087     8.1467
  182.0000   113.9603     8.0093     8.1479
  182.5000   115.7838     8.1231     8.2067
  183.0000   116.6941     8.1809     8.2079
  183.5000   116.3440     8.2391     8.2669
  184.0000   113.6433     8.3055     8.3264
  184.5000   112.1182     8.4157     8.4454
  185.0000   110.2887     8.4756     8.5062
  185.5000   108.4593     8.5960     8.6278
  186.0000   108.1526     8.6571     8.7512
  186.5000   110.2805     8.7802     8.8142
  187.0000   110.2768     8.9049     8.9405
  187.5000   110.2738     8.9055     9.0684
  188.0000   111.4885     8.9689     9.1336
  188.5000   113.6164     8.9695     9.1348
  189.0000   111.0928     8.9701     9.1361
  189.5000   107.7169     8.9709     9.0730
  190.0000   106.6052     8.9087     9.1386
  190.5000   109.9508     8.9093     9.1398
  191.0000   113.9052     8.9099     9.1411
  191.5000   117.5552     8.9106     9.0783
  192.0000   117.2478     8.9112     9.0162
  192.5000   113.8963     8.9118     9.0175
  193.0000   111.4580     8.9124     8.9555
  193.5000   110.8462     8.9130     8.9567
  194.0000   112.6697     8.8512     8.9580
  194.5000   116.3480     8.9144     9.0224
  195.0000   118.4881     8.9778     9.0236
  195.5000   118.7490     9.1053     9.1527
