~VERSION INFORMATION
 VERS.                2.0:   CWLS LOG ASCII STANDARD - VERSION 2.0
 WRAP.                 NO:   ONE LINE PER DEPTH STEP
~WELL INFORMATION
#MNEM.UNIT      DATA TYPE    INFORMATION
#----------   ------------   ------------------------------
 STRT.F            4.0000:   START DEPTH
 STOP.F          530.0000:   STOP DEPTH
 STEP.F            0.5000:   STEP LENGTH
 NULL.          -999.2500:   NO VALUE
 COMP. LAWRENCE-ALLISON &ASSOC:   COMPANY
 WELL.  NPR 3 #77-22STX10:   WELL
 FLD .             TEAPOT:   FIELD
 LOC .      S10 T38N R78W:   LOCATION
 CNTY.            NATRONA:   COUNTY
 STAT.            WYOMING:   STATE
 CTRY. UNITED STATES OF AMERICA:   COUNTRY
 SRVC.           Gearhart:   SERVICE COMPANY
 DATE.        27-JUN-1986:   LOGDATE
 API .       490251108100:   API NUMBER
~CURVE INFORMATION
#MNEM.UNIT       API CODE    CURVE DESCRIPTION
#----------   ------------   ------------------------------
 DEPT.F                  :   
 GRR .GAPI   07 310 01 00:   GAMMA RAY FROM RES. LOG.
 SPR .MV     07 010 01 00:   SPONTANEOUS POTENTIAL
 ILM .OHMM   07 120 44 00:   INDUCTION LOG MEDIUM
 ILD .OHMM   07 120 46 00:   INDUCTION LOG DEEP
 RLLA.OHMM   07 220 00 00:   LATEROLOG RESISTIVITY
~PARAMETER INFORMATION
#MNEM.UNIT          VALUE    DESCRIPTION
#----------   ------------   ------------------------------
 PD  .                 GL:   PERMANENT DATUM
 EPD .F              5188:   ELEVATION PERMANENT DATUM
 LMF .                 KB:   LOG MEASURED FROM
 DAPD.F                 5:   FEET ABOVE PERMANENT DATUM
 DMF .                 KB:   DRILLING MEASURED FROM
 EKB .F              5193:   KELLING BUSHING
 EGL .F              5188:   GROUND LEVEL
 DATE.            6-27-86:   RUN DATE
 RUN .                  1:   RUN NUMBER
 DD  .F               555:   DEPTH DRILLER
 DL  .F               534:   DEPTH LOGGER
 BLI .F               530:   BOTTOM LOG INTERVAL
 TLI .F                44:   TOP LOG INTERVAL
 CS  .IN            8.625:   CASING SIZE
 CBD .F                42:   CASING BOTTOM DRILLER
 CBL .F                44:   CASING BOTTOM LOGGER
 BS  .IN            7.875:   BIT SIZE
 BSD .F               555:   BIT SIZE AT DEPTH
 DFT .                AIR:   DRILLING FLUID TYPE
 MSS .           FLOWLINE:   MUD SAMPLE SOURCE
 RMS .OHMM            1.5:   RESISTIVITY MUD SAMPLE
 MST .F                68:   MUD SAMPLE TEMPERATURE
 RMF .OHMM            1.2:   RESISTIVITY MUD FILTRATE SAMPLE
 MFST.F                66:   MUD FILTRATE SAMPLE TEMPERATURE
 RMC .OHMM            1.7:   RESISTIVITY MUD CAKE
 MCST.F                66:   MUD CAKE SAMPLE TEMPERATURE
 MFSS.                  M:   MUD FILTRATE SAMPLE SOURCE
 MCSS.                  M:   MUD CAKE SAMPLE SOURCE
 RMB .OHMM            1.5:   RESISTIVITY MUD AT BHT
 BHT .F                65:   BOTTOM HOLE TEMPERATURE
 TCS .HRS            0600:   TIME CURCULATED STOPPED
 TLAB.HRS            0055:   TIME LOGGER AT BOTTOM
 MRT .F                61:   MAXIMUM RECORDED TEMPERATURE
 LUN .               7609:   LOGGING UNIT NUMBER
 LUL .           GILLETTE:   LOGGING UNIT LOCATION
 ENGI.            WANGLER:   RECORDING ENGINEER
 WITN.              FIVAS:   WITNESSED BY
 CLNT.            A2DTECH:   CLIENT CODE
 ORIG.       2", 5" PRINT:   ORIGIN OF DATA
 UWI .       490251108100:   UNIQUE WELL ID
 DICO. A2D Technologies, Inc.:   DIGITIZING COMPANY
~OTHER INFORMATION
~A    DEPT      GRR       SPR        ILM        ILD       RLLA   
# ...
   65.0000    92.3139   -82.5922     5.8193     6.0234     6.2091
   65.5000    94.3682   -81.8650     5.8348     6.0574     6.3350
   66.0000    93.8370   -81.9195     5.8924     6.1049     6.7594
   66.5000    92.4258   -82.0998     5.9576     6.1494     7.0618
   67.0000    91.1288   -81.3527     6.0236     6.1943     7.3003
   67.5000    91.1041   -81.0734     6.0903     6.2294     7.2646
   68.0000    91.1015   -80.9794     6.1740     6.3019     7.1248
   68.5000    92.4632   -80.7709     6.2682     6.3896     6.7846
   69.0000    94.8632   -80.0915     6.3638     6.4783     6.6040
   69.5000    97.2246   -80.2641     6.4415     6.5699     6.4656
   70.0000    95.4253   -80.4259     6.5382     6.6631     6.6106
   70.5000    90.9381   -80.3792     6.6363     6.7906     6.8621
   71.0000    86.4216   -79.9720     6.7373     6.9205     7.1002
   71.5000    84.6766   -79.8086     6.8401     7.0529     7.2447
   72.0000    85.7247   -79.5813     6.9447     7.1653     7.3809
   72.5000    90.2883   -79.3377     7.0261     7.2332     7.4378
   73.0000    89.6903   -79.8295     7.1021     7.3036     7.4378
   73.5000    88.8101   -80.5853     7.1791     7.3747     7.4378
   74.0000    88.7865   -81.2677     7.2952     7.4810     7.7980
   74.5000    91.5327   -80.4643     7.5075     7.8191     8.0210
   75.0000    93.9608   -79.6968     7.7941     8.1083     8.3080
   75.5000    92.2348   -79.5888     8.0890     8.3971     8.8807
   76.0000    89.6952   -79.4974     8.1090     8.4353     8.9254
   76.5000    87.3884   -79.4945     8.1299     8.4760     8.9639
   77.0000    90.2049   -79.4967     8.1516     8.4395     8.5553
   77.5000    94.5126   -79.4844     8.1653     8.4069     8.5742
   78.0000    95.3419   -79.2665     8.1653     8.3744     8.5937
   78.5000    96.2380   -79.0546     8.1652     8.3415     8.6143
   79.0000    97.8542   -78.8488     8.1640     8.2924     8.6357
   79.5000    99.4836   -78.6585     8.1661     8.1975     8.4921
   80.0000   100.4268   -78.4720     7.9582     8.1046     8.3369
   80.5000   101.0894   -78.1992     7.7803     8.0143     8.1845
   81.0000   100.7702   -78.2080     7.6490     7.9936     8.0143
   81.5000   100.1883   -78.5606     7.6003     7.9732     8.0422
   82.0000    98.9681   -78.9081     7.5779     7.9529     8.0747
   82.5000    96.9660   -78.9614     7.7931     7.9399     8.2077
   83.0000    94.0224   -78.4165     7.7710     7.9726     8.4288
   83.5000    91.0793   -77.9648     7.7334     7.9968     8.5546
   84.0000    89.3884   -77.6563     7.6961     8.0146     8.4335
   84.5000    90.2728   -77.4474     7.6492     8.0492     8.3481
   85.0000    92.0878   -76.7853     7.6943     8.0819     8.2643
   85.5000    93.9473   -76.6530     7.7570     8.1146     8.1813
   86.0000    94.6984   -77.0036     7.8033     8.1474     8.1653
   86.5000    93.2133   -77.0704     7.8514     8.1852     8.2418
   87.0000    91.6192   -77.0724     7.8987     8.2611     7.9951
   87.5000    90.6023   -77.0728     7.9503     8.3376     7.8661
   88.0000    89.8476   -77.0664     8.0228     8.4149     8.0961
   88.5000    89.1197   -76.6719     8.0960     8.4883     8.3449
   89.0000    89.3113   -75.5093     8.1653     8.5456     8.6356
   89.5000    89.5443   -74.5801     8.2444     8.6032     8.6113
   90.0000    89.7966   -73.0592     8.3196     8.6613     8.5834
   90.5000    91.0217   -71.9104     8.3971     8.7197     8.5553
   91.0000    94.6408   -76.0426     8.5224     8.7786     8.6377
   91.5000    98.2254   -76.9530     8.6524     8.8382     8.7782
   92.0000    97.6921   -76.9556     8.7844     8.9027     8.9211
   92.5000    92.3728   -76.3925     8.8194     8.9815     9.0663
   93.0000    87.2717   -75.2957     8.8432     9.0609     9.1813
   93.5000    82.9142   -75.0097     8.8670     9.1410     9.2184
   94.0000    82.9855   -75.7465     8.8813     9.2184     9.2184
   94.5000    85.7260   -75.0454     8.7888     9.1412     9.2184
   95.0000    90.0664   -75.1333     8.7154     9.0677     9.0658
   95.5000    91.0692   -74.4178     8.6420     8.9948     8.9250
   96.0000    90.9620   -74.7628     8.5695     8.9225     8.7869
   96.5000    90.8304   -75.1944     8.2288     8.8508     8.6513
   97.0000    90.6759   -75.6539     8.0895     8.7982     8.5176
   97.5000    89.9127   -76.4682     8.0895     8.8472     8.4758
   98.0000    89.1783   -76.0928     8.3315     8.9000     8.7160
   98.5000    89.4637   -75.5648     8.6049     9.0391     8.9867
   99.0000    91.6839   -75.0346     8.8216     9.1803     9.2658
   99.5000    93.8817   -74.8607     8.9992     9.3238     9.4802
  100.0000    96.0834   -75.2978     9.1815     9.4694     9.6766
  100.5000    97.9649   -76.2168     9.3639     9.6012     9.9523
  101.0000    97.3408   -75.2593     9.5538     9.8503    10.8454
  101.5000    95.7610   -74.5043     9.7463    10.1058    11.4323
  102.0000    93.4028   -75.0312     9.9306    10.3659    11.3239
  102.5000    88.7469   -74.1245    10.1404    10.6698    11.1270
  103.0000    84.0620   -73.2582    10.3870    11.0067    10.9055
  103.5000    84.3399   -72.9875    10.6411    11.1525    10.6877
  104.0000    85.6133   -73.6246    10.9045    11.3602    10.4749
  104.5000    86.2944   -74.5937    11.0747    11.5885    10.3107
  105.0000    84.7559   -74.5973    11.3637    11.8215    10.3107
  105.5000    82.9501   -74.8096    11.6642    12.0592    10.3107
  106.0000    81.0984   -75.0539    11.8505    12.3182    10.5150
  106.5000    81.1614   -74.2953    11.9711    12.5454    11.1790
  107.0000    81.3598   -73.2804    12.1121    12.5451    11.8848
  107.5000    81.5466   -72.7720    12.2593    12.7262    12.5148
  108.0000    81.7325   -72.1938    12.4084    12.8797    13.0082
  108.5000    81.9208   -71.5369    12.5592    13.0191    13.2651
  109.0000    82.0906   -72.1399    12.6604    12.8581    12.5314
  109.5000    81.4500   -72.5835    12.2159    12.7139    11.9951
  110.0000    79.0347   -72.1564    11.8397    12.5714    11.4818
  110.5000    76.6288   -71.7869    11.4253    12.4304    11.1099
  111.0000    75.2290   -71.0608    11.5378    12.2898    11.2495
  111.5000    75.5907   -70.6640    11.7245    12.1819    11.7592
  112.0000    78.4304   -70.4413    11.8618    12.1321    12.3109
  112.5000    81.1695   -70.2169    11.7397    12.0833    12.0927
  113.0000    83.9093   -70.0298    11.6406    11.9894    11.8277
  113.5000    86.6496   -70.7915    11.5413    11.8740    11.5686
  114.0000    89.4443   -71.3033    11.4244    11.7598    11.3153
  114.5000    90.1107   -69.9462    11.3088    11.6467    11.0044
  115.0000    86.1834   -70.3158    11.2141    11.5346    11.0258
  115.5000    82.2292   -70.9046    11.2345    11.4253    11.0587
  116.0000    82.6740   -71.5105    11.2555    11.4485    11.0922
  116.5000    86.1092   -71.4216    11.2764    11.4852    11.1554
  117.0000    89.0953   -71.1016    11.2974    11.5224    11.3211
  117.5000    86.0041   -70.8094    11.3192    11.6350    11.4886
  118.0000    80.0595   -70.8377    11.4253    11.7780    11.6589
  118.5000    74.2583   -71.1002    11.3267    11.8599    11.8316
  119.0000    73.8703   -71.3726    11.1668    11.6901    11.8599
  119.5000    78.4230   -71.2069    11.0091    11.5717    11.3628
  120.0000    83.2444   -70.9432    10.8537    11.4545    11.0112
  120.5000    81.8762   -70.6451    10.7005    11.2047    10.6698
  121.0000    79.0019   -70.2613    10.5495    10.9169    10.4041
  121.5000    76.5528   -69.7818    10.4074    10.7029    10.3107
  122.0000    77.6478   -68.8014    10.3397    10.6470    10.3107
  122.5000    81.6213   -67.6142    10.2754    10.5939    10.5274
  123.0000    82.6715   -67.2015    10.2115    10.5411    10.8472
  123.5000    82.3618   -68.2649    10.1480    10.4885    11.1767
  124.0000    80.9117   -68.8203    10.0853    10.4362    11.5162
  124.5000    80.9556   -69.2683    10.0256    10.3849    11.6406
  125.0000    83.3456   -69.6531     9.9330    10.3348    11.2183
  125.5000    83.7573   -70.0311     9.8460    10.2850    10.8345
