~VERSION INFORMATION
 VERS.                2.0:   CWLS LOG ASCII STANDARD - VERSION 2.0
 WRAP.                 NO:   ONE LINE PER DEPTH STEP
~WELL INFORMATION
#MNEM.UNIT      DATA TYPE    INFORMATION
#----------   ------------   ------------------------------
 STRT.F           32.0000:   START DEPTH
 STOP.F          502.0000:   STOP DEPTH
 STEP.F            0.5000:   STEP LENGTH
 NULL.          -999.2500:   NO VALUE
 COMP.    FENIX & SCISSON:   COMPANY
 WELL. NPR # #3 65-36-SX-3-FP:   WELL
 FLD .             TEAPOT:   FIELD
 LOC .       S3 T38N R78W:   LOCATION
 CNTY.            NATRONA:   COUNTY
 STAT.            WYOMING:   STATE
 CTRY. UNITED STATES OF AMERICA:   COUNTRY
 SRVC.              Welex:   SERVICE COMPANY
 DATE.        15-JUN-1980:   LOGDATE
 API .       490251082600:   API NUMBER
~CURVE INFORMATION
#MNEM.UNIT       API CODE    CURVE DESCRIPTION
#----------   ------------   ------------------------------
 DEPT.F                  :   
 CALD.IN     45 280 60 00:   CALIPER FROM DENSITY LOG
 CORR.G/C3   45 356 01 00:   DENSITY CORRECTION
 DPHI.DEC    45 890 12 00:   DENSITY POROSITY SANDSTONE
 GRD .GAPI   45 310 01 00:   GAMMA RAY FROM DENSITY LOG
 RHOB.G/C3   45 350 01 00:   BULK DENSITY
 NPHI.DEC    42 890 03 00:   NEUTRON POROSITY SANDSTONE
 ILD .OHMM   07 120 46 00:   INDUCTION LOG DEEP
 ILM .OHMM   07 120 44 00:   INDUCTION LOG MEDIUM
 SGRD.OHMM   07 220 05 00:   SHALLOW GUARD RESISTIVITY
 SPR .MV     07 010 01 00:   SPONTANEOUS POTENTIAL FROM RES.
~PARAMETER INFORMATION
#MNEM.UNIT          VALUE    DESCRIPTION
#----------   ------------   ------------------------------
 PD  .                 GL:   PERMANENT DATUM
 EPD .F              5159:   ELEVATION PERMANENT DATUM
 LMF .                 KB:   LOG MEASURED FROM
 DAPD.F                 5:   FEET ABOVE PERMANENT DATUM
 DMF .                 KB:   DRILLING MEASURED FROM
 EKB .F              5164:   KELLING BUSHING
 EGL .F              5159:   GROUND LEVEL
 DATE.            6-15-80:   RUN DATE
 RUN .                  1:   RUN NUMBER
 DD  .F               505:   DEPTH DRILLER
 DL  .F               504:   DEPTH LOGGER
 BLI .F               502:   BOTTOM LOG INTERVAL
 TLI .F                30:   TOP LOG INTERVAL
 BS  .IN            9.875:   BIT SIZE
 BSD .F               505:   BIT SIZE AT DEPTH
 DFT .             2% KCL:   DRILLING FLUID TYPE
 DFD .                9.4:   DRILLING FLUID DENSITY
 DFV .                 51:   DRILLING FLUID VISCOSITY
 DFPH.                 12:   DRILLING FLUID PH
 DFL .                5.6:   DRILLING FLUID LOSS
 MSS .           FLOWLINE:   MUD SAMPLE SOURCE
 RMS .OHMM            .36:   RESISTIVITY MUD SAMPLE
 MST .F                65:   MUD SAMPLE TEMPERATURE
 RMF .OHMM            .29:   RESISTIVITY MUD FILTRATE SAMPLE
 MFST.F                65:   MUD FILTRATE SAMPLE TEMPERATURE
 RMC .OHMM            .42:   RESISTIVITY MUD CAKE
 MCST.F                65:   MUD CAKE SAMPLE TEMPERATURE
 MFSS.           MEASURED:   MUD FILTRATE SAMPLE SOURCE
 MCSS.           MEASURED:   MUD CAKE SAMPLE SOURCE
 RMB .OHMM            .32:   RESISTIVITY MUD AT BHT
 BHT .F                74:   BOTTOM HOLE TEMPERATURE
 TCS .HRS               2:   TIME CURCULATED STOPPED
 MRT .F                74:   MAXIMUM RECORDED TEMPERATURE
 LUN .               1892:   LOGGING UNIT NUMBER
 LUL .             CASPER:   LOGGING UNIT LOCATION
 ENGI.               REIN:   RECORDING ENGINEER
 WITN.              AMEND:   WITNESSED BY
 CLNT.            A2DTECH:   CLIENT CODE
 ORIG.       2", 5" PRINT:   ORIGIN OF DATA
 UWI .       490251082600:   UNIQUE WELL ID
 DICO. A2D Technologies, Inc.:   DIGITIZING COMPANY
~OTHER INFORMATION
~A   DEPT     CALD       CORR       DPHI        GRD       RHOB       NPHI         ILD         ILM       SGRD      SPR   
# ...
   99.0000    10.1866     0.1040     0.0854    91.3139     2.5154     0.2980    13.3215     9.9015    10.4615   -53.4413
   99.5000    10.1731     0.0920     0.0971    90.1413     2.5006     0.2986    13.3189     9.9007    10.4615   -53.8694
  100.0000    10.1742     0.0837     0.1060    90.0670     2.4768     0.2994    13.2567     9.8995    10.4481   -54.0117
  100.5000    10.1641     0.0863     0.1061    90.1597     2.4659     0.2996    13.0005     9.8972    10.3627   -53.6833
  101.0000    10.1316     0.0804     0.1065    91.3501     2.4747     0.2957    12.8561     9.8266    10.2773   -53.4946
  101.5000    10.1037     0.0624     0.1143    92.5334     2.4613     0.2917    12.8510     9.8235    10.1918   -53.4275
  102.0000    10.0901     0.0505     0.1230    93.7502     2.4393     0.2905    12.7586     9.7535    10.0955   -53.4241
  102.5000    10.0766     0.0416     0.1289    94.0339     2.4267     0.2904    12.5798     9.7510    10.0929   -53.4199
  103.0000    10.0780     0.0387     0.1312    93.5860     2.4188     0.2907    12.5711     9.6814    10.0210   -53.7031
  103.5000    10.0792     0.0388     0.1293    92.8736     2.4220     0.2927    12.3134     9.6119    10.0182   -53.9864
  104.0000    10.1099     0.0450     0.1262    91.5576     2.4392     0.2975    12.1409     9.4778    10.0152   -53.9821
  104.5000    10.1406     0.0527     0.1159    90.0931     2.4430     0.2968    12.0536     9.2814     9.9438   -53.9787
  105.0000    10.1713     0.0604     0.1057    90.6936     2.4640     0.2971    11.8838     9.2147     9.7961   -53.9756
  105.5000    10.2017     0.0682     0.1022    93.0639     2.4836     0.2952    11.8799     9.2123     9.7346   -53.9720
  106.0000    10.2029     0.0743     0.1057    94.9917     2.4776     0.2940    11.8761     9.2099     9.6652   -53.8246
  106.5000    10.2041     0.0745     0.1060    95.1497     2.4747     0.2924    11.8722     9.2075     9.6628   -53.6780
  107.0000    10.2053     0.0696     0.1087    95.4551     2.4703     0.2878    11.8675     9.2046     9.5933   -53.6746
  107.5000    10.2065     0.0578     0.1139    96.3505     2.4524     0.2851    12.1116     9.2022     9.6574   -53.3847
  108.0000    10.2077     0.0460     0.1184    95.7710     2.4494     0.2829    13.9939     9.1999     9.6547   -52.8074
  108.5000    10.2089     0.0528     0.1134    94.8965     2.4555     0.2856    12.7013     9.1337     9.5858   -50.7984
  109.0000    10.2100     0.0843     0.0991    94.0194     2.4765     0.2885    12.1827     9.0687     9.5828   -51.2248
  109.5000    10.1965     0.0980     0.0946    93.7348     2.4946     0.2888    12.0120     8.9422     9.4491   -51.9548
  110.0000    10.1829     0.0997     0.1002    93.3054     2.4811     0.2884    12.5268     8.7568     9.3173   -52.6499
  110.5000    10.1841     0.0878     0.1035    93.1657     2.4752     0.2938    12.5978     8.7541     9.1237   -53.2196
  111.0000    10.1853     0.0804     0.1052    93.1788     2.4738     0.2943    11.6731     8.6917     8.9346   -53.3596
  111.5000    10.1865     0.0790     0.1065    93.1892     2.4746     0.2949    11.4305     8.6894     8.8100   -53.3553
  112.0000    10.1911     0.0716     0.1172    93.1997     2.4537     0.2954    11.2694     8.5677     8.5619   -53.4953
  112.5000    10.2036     0.0597     0.1154    93.2080     2.4530     0.2974    11.2658     8.4482     8.2183   -53.4921
  113.0000    10.2195     0.0674     0.1118    93.8260     2.4627     0.2989    11.4975     8.3304     7.9927   -53.3445
  113.5000    10.2208     0.0781     0.1058    95.6318     2.4853     0.2982    11.9792     8.1017     7.6669   -52.4815
  114.0000    10.2220     0.0873     0.1008    96.9302     2.4877     0.2964    11.1497     8.0991     7.5595   -52.3357
  114.5000    10.2232     0.0935     0.1019    97.6741     2.4877     0.2945    10.8692     8.0970     7.5575   -53.0478
  115.0000    10.2243     0.0967     0.0986    97.5369     2.4863     0.2942    10.8657     8.0950     7.5556   -53.3310
  115.5000    10.2255     0.0987     0.1006    95.6301     2.4871     0.2944    10.8620     8.0923     7.6059   -52.4672
  116.0000    10.2120     0.1000     0.1048    96.2305     2.4849     0.2944    10.8578     8.0903     7.6565   -52.1782
  116.5000    10.2132     0.0851     0.1104    96.5359     2.4573     0.2943    10.8543     8.0882     7.6541   -53.8932
  117.0000    10.2144     0.0610     0.1175    96.6939     2.4372     0.2943    11.0837     8.2551     7.6521   -53.8890
  117.5000    10.2163     0.0521     0.1265    97.4418     2.4305     0.2933    11.4624     8.3100     7.6501   -53.5991
  118.0000    10.2313     0.0478     0.1283    98.6322     2.4253     0.2888    11.6178     8.4232     7.5951   -53.4525
  118.5000    10.2324     0.0494     0.1255    96.2827     2.4344     0.2863    10.9900     8.4205     7.5410   -53.3059
  119.0000    10.2421     0.0496     0.1252    95.1106     2.4329     0.2866    10.8352     8.3026     7.5391   -52.7286
  119.5000    10.2651     0.0558     0.1176    95.4187     2.4345     0.2883    10.9066     8.1868     7.5366   -52.2954
  120.0000    10.2802     0.0668     0.1119    96.6091     2.4473     0.2886    11.0554     7.9620     7.5347   -51.5757
  120.5000    10.2962     0.0727     0.1160    98.0944     2.4586     0.2861    11.4522     7.8510     7.5328   -51.7291
  121.0000    10.2973     0.0681     0.1196    98.6949     2.4466     0.2866    12.0002     7.8485     7.5308   -53.2874
  121.5000    10.2985     0.0654     0.1165    99.4428     2.4472     0.2890    11.1193     7.8464     7.5287   -53.8571
  122.0000    10.2997     0.0717     0.1108    99.7482     2.4649     0.2925    11.0394     7.8444     7.5783   -53.8539
  122.5000    10.3009     0.0748     0.1101    99.6112     2.4723     0.2937    11.1122     7.8419     7.5430   -53.9937
  123.0000    10.2960     0.0764     0.1137    98.9744     2.4604     0.2936    11.1854     7.7325     7.5221   -53.9617
  123.5000    10.2885     0.0690     0.1214    97.8595     2.4485     0.2936    11.3362     7.6563     7.4685   -53.8431
  124.0000    10.2750     0.0674     0.1196    97.2800     2.4434     0.2932    11.4899     7.5703     7.4152   -53.6962
  124.5000    10.2762     0.0784     0.1162    96.9955     2.4591     0.2941    10.8690     7.4643     7.4133   -53.4055
  125.0000    10.2774     0.0891     0.1093    96.5634     2.4667     0.2979    10.4252     7.3602     7.2592   -53.2589
  125.5000    10.2786     0.0908     0.1146    95.9839     2.4750     0.2997    10.2086     7.3077     7.1088   -53.5420
  126.0000    10.2798     0.0849     0.1260    96.4368     2.4444     0.3006    10.2050     7.3054     6.8662   -53.7780
  126.5000    10.2808     0.0669     0.1301    99.5446     2.4295     0.3014    10.2461     7.2035     6.6314   -53.8216
  127.0000    10.2820     0.0520     0.1304   101.0300     2.4213     0.3019    10.2692     7.2016     6.4051   -54.1042
  127.5000    10.2833     0.0521     0.1297   100.5980     2.4296     0.3006    10.2650     7.0963     6.3157   -54.6739
  128.0000    10.2845     0.0583     0.1261    99.8584     2.4417     0.3015    10.1910     6.9536     6.2701   -55.2563
  128.5000    10.2827     0.0600     0.1257    98.8489     2.4387     0.3086    10.2577     6.8566     6.2260   -55.5268
  129.0000    10.2719     0.0511     0.1275    98.4143     2.4276     0.3101    10.2541     6.8078     6.2675   -55.2361
  129.5000    10.2586     0.0316     0.1332    99.0173     2.3999     0.3109    10.3218     7.2412     6.2224   -54.0866
  130.0000    10.2598     0.0468     0.1283   101.2402     2.4449     0.3100    10.3176     7.5978     6.1780   -53.3661
  130.5000    10.2610     0.0621     0.1187   102.1356     2.4472     0.3018    10.3342     7.8077     6.1761   -53.5068
  131.0000    10.2592     0.0623     0.1219   102.1460     2.4421     0.3001    10.3863     7.8114     6.2172   -53.7900
  131.5000    10.2484     0.0578     0.1231   102.3013     2.4414     0.2981    10.4510     7.8576     6.2586   -54.3589
  132.0000    10.2511     0.0565     0.1197   100.3970     2.4639     0.2972    10.4468     7.8012     6.3435   -54.6593
