~VERSION INFORMATION
 VERS.                2.0:   CWLS LOG ASCII STANDARD - VERSION 2.0
 WRAP.                 NO:   ONE LINE PER DEPTH STEP
~WELL INFORMATION
#MNEM.UNIT      DATA TYPE    INFORMATION
#----------   ------------   ------------------------------
 STRT.F           20.0000:   START DEPTH
 STOP.F          744.0000:   STOP DEPTH
 STEP.F            0.5000:   STEP LENGTH
 NULL.          -999.2500:   NO VALUE
 COMP. FENIX & SCISSON INCORP.:   COMPANY
 WELL.          SX #53-15:   WELL
 FLD .             TEAPOT:   FIELD
 LOC .      S15 T38N R78W:   LOCATION
 CNTY.            NATRONA:   COUNTY
 STAT.            WYOMING:   STATE
 CTRY. UNITED STATES OF AMERICA:   COUNTRY
 SRVC.              Welex:   SERVICE COMPANY
 DATE.        02-MAR-1977:   LOGDATE
 API .       490251030000:   API NUMBER
~CURVE INFORMATION
#MNEM.UNIT       API CODE    CURVE DESCRIPTION
#----------   ------------   ------------------------------
 DEPT.F                  :   
 SGRD.OHMM   07 220 05 00:   SHALLOW RESISTIVITY
 ILD .OHMM   07 120 46 00:   INDUCTION LOG DEEP
 ILM .OHMM   07 120 44 00:   INDUCTION LOG MEDIUM
 SPR .MV     07 010 01 00:   SPONTANEOUS POTENTIAL
 GRD .GAPI   45 310 01 00:   GAMMA RAY FROM DENSITY LOG
 CALD.IN     45 280 60 00:   CALIPER
 RHOB.G/C3   45 350 01 00:   BULK DENSITY
 DPHI.DEC    45 890 10 00:   DENSITY POROSITY SANDSTONE
 CORR.G/C3   45 356 01 00:   DENSITY CORRECTION
~PARAMETER INFORMATION
#MNEM.UNIT          VALUE    DESCRIPTION
#----------   ------------   ------------------------------
 PD  .                 GL:   PERMANENT DATUM
 EPD .F              5253:   ELEVATION PERMANENT DATUM
 LMF .                 GL:   LOG MEASURED FROM
 DMF .                 GL:   DRILLING MEASURED FROM
 EGL .F              5253:   GROUND LEVEL
 DATE.             3-2-77:   RUN DATE
 RUN .                  1:   RUN NUMBER
 DD  .F               750:   DEPTH DRILLER
 DL  .F               747:   DEPTH LOGGER
 BLI .F               745:   BOTTOM LOG INTERVAL
 TLI .F                44:   TOP LOG INTERVAL
 CS  .IN            8.625:   CASING SIZE
 CBD .F                40:   CASING BOTTOM DRILLER
 CBL .F                44:   CASING BOTTOM LOGGER
 BS  .IN            7.875:   BIT SIZE
 BSD .F               750:   BIT SIZE AT DEPTH
 DFT .           CHEM-GEL:   DRILLING FLUID TYPE
 MSS .          FLOW LINE:   MUD SAMPLE SOURCE
 RMS .OHMM           .425:   RESISTIVITY MUD SAMPLE
 MST .F                56:   MUD SAMPLE TEMPERATURE
 RMF .OHMM           .436:   RESISTIVITY MUD FILTRATE SAMPLE
 MFST.F                56:   MUD FILTRATE SAMPLE TEMPERATURE
 RMC .OHMM           .712:   RESISTIVITY MUD CAKE
 MCST.F                56:   MUD CAKE SAMPLE TEMPERATURE
 MFSS.           MEASURED:   MUD FILTRATE SAMPLE SOURCE
 MCSS.           MEASURED:   MUD CAKE SAMPLE SOURCE
 RMB .OHMM            .35:   RESISTIVITY MUD AT BHT
 BHT .F                68:   BOTTOM HOLE TEMPERATURE
 TCS .HRS               2:   TIME CURCULATED STOPPED
 MRT .F                68:   MAXIMUM RECORDED TEMPERATURE
 LUN .               8611:   LOGGING UNIT NUMBER
 LUL .           GILLETTE:   LOGGING UNIT LOCATION
 ENGI.          D. LAWSON:   RECORDING ENGINEER
 WITN.           S. BURKE:   WITNESSED BY
 CLNT.            A2DTECH:   CLIENT CODE
 ORIG.        2" 5" PRINT:   ORIGIN OF DATA
 UWI .       490251030000:   UNIQUE WELL ID
 DICO. A2D Technologies, Inc.:   DIGITIZING COMPANY
~OTHER INFORMATION
~A   DEPT     SGRD        ILD        ILM        SPR         GRD      CALD         RHOB       DPHI      CORR  
# ...
  202.5000    10.4479     6.8488     7.1659   -25.7658   120.4756     8.5589     2.5072     0.0838     0.0569
  203.0000    10.3470     6.7758     7.1164   -25.8165   119.5086     8.5617     2.5018     0.0870     0.0561
  203.5000    10.2409     6.7036     7.0673   -25.8672   116.1953     8.5646     2.5024     0.0881     0.0553
  204.0000    10.1358     6.6322     7.0185   -25.9179   114.5510     8.5675     2.5039     0.0870     0.0545
  204.5000     9.9719     6.5615     6.9700   -25.9686   115.5398     8.5704     2.5017     0.0873     0.0538
  205.0000     9.7109     6.4916     6.9219   -26.0193   117.6511     8.5732     2.5012     0.0879     0.0530
  205.5000     9.3547     6.4225     6.8741   -26.0700   120.0643     8.5761     2.5067     0.0841     0.0521
  206.0000    10.0651     6.3540     6.8266   -26.1207   123.3618     8.5790     2.5123     0.0796     0.0553
  206.5000    11.3914     6.2862     6.7795   -26.1714   125.0533     8.5819     2.5178     0.0771     0.0605
  207.0000    12.5612     6.2187     6.7147   -26.2221   124.2768     8.5848     2.5185     0.0779     0.0658
  207.5000     9.9777     6.1806     6.7361   -26.2728   124.4018     8.5876     2.5150     0.0799     0.0685
  208.0000     9.8906     6.2497     6.7709   -26.3235   126.3987     8.5854     2.5115     0.0815     0.0697
  208.5000     9.8059     6.2989     6.8059   -26.3742   128.1348     8.5568     2.5126     0.0805     0.0709
  209.0000     9.7220     6.3485     6.8411   -26.4249   127.7497     8.5284     2.5146     0.0788     0.0720
  209.5000     9.6388     6.3985     6.8765   -26.4756   125.7247     8.4998     2.5140     0.0791     0.0731
  210.0000     9.5286     6.4489     6.9121   -26.5263   123.4115     8.4712     2.5027     0.0861     0.0737
  210.5000     9.7439     6.4997     6.9478   -26.5770   120.1851     8.4760     2.4992     0.0906     0.0732
  211.0000    10.0864     6.5509     6.9837   -26.6277   119.0540     8.4830     2.5011     0.0884     0.0726
  211.5000    10.4376     6.6025     7.0198   -26.6784   120.0432     8.4893     2.5015     0.0875     0.0721
  212.0000    10.8399     6.6545     7.0561   -26.7291   121.4257     8.4490     2.5008     0.0878     0.0716
  212.5000    10.7280     6.7069     7.0926   -26.7799   124.3380     8.4025     2.5001     0.0863     0.0711
  213.0000    10.6052     6.7597     7.1293   -26.8305   126.1367     8.4080     2.5060     0.0847     0.0706
  213.5000    10.4479     6.8130     7.1662   -26.8813   125.1516     8.4429     2.5124     0.0812     0.0701
  214.0000    10.5698     6.8667     7.2032   -26.9319   123.5077     8.4783     2.5185     0.0750     0.0663
  214.5000    10.7418     6.9029     7.2282   -26.9827   123.5256     8.5139     2.5196     0.0777     0.0611
  215.0000    10.9167     6.8414     7.1612   -27.0334   123.5651     8.5493     2.5071     0.0829     0.0591
  215.5000    11.0938     6.7875     7.1024   -27.0840   121.4281     8.5847     2.4990     0.0879     0.0569
  216.0000    11.2458     6.7340     7.0442   -27.1348   120.6831     8.6201     2.4921     0.0934     0.0543
  216.5000    10.8659     6.6809     6.9864   -27.1844   121.2225     8.6556     2.4849     0.0966     0.0512
  217.0000    10.5464     6.6282     6.9291   -27.2323   120.0229     8.6910     2.4853     0.0970     0.0483
  217.5000    10.3418     6.5760     6.8723   -27.2798   118.8656     8.7266     2.4884     0.0966     0.0492
  218.0000    10.3144     6.5242     6.8159   -27.3273   118.6278     8.7618     2.4896     0.0950     0.0507
  218.5000    10.2871     6.4728     6.7600   -27.3748   119.0704     8.7913     2.4908     0.0929     0.0521
  219.0000    10.2598     6.4217     6.7046   -27.4223   119.9899     8.7886     2.4944     0.0901     0.0536
  219.5000    10.2326     6.3711     6.6495   -27.4699   121.2030     8.7348     2.4980     0.0874     0.0551
  220.0000    10.2055     6.3209     6.5950   -27.5176   122.4243     8.6787     2.4993     0.0870     0.0565
  220.5000    10.1785     6.2711     6.5318   -27.5671   123.1639     8.6221     2.4979     0.0877     0.0578
  221.0000    10.1262     6.2217     6.5859   -27.6199   121.5417     8.6028     2.4964     0.0892     0.0550
  221.5000    10.0410     6.1726     6.6515   -27.6751   120.2728     8.5932     2.4950     0.0906     0.0522
  222.0000     9.9777     6.1240     6.7182   -27.7306   118.7239     8.5838     2.4977     0.0880     0.0494
  222.5000    10.4518     6.0757     6.7854   -27.7860   115.7251     8.5744     2.5009     0.0856     0.0466
  223.0000    11.5619     6.0124     6.8532   -27.8415   115.1554     8.5700     2.5041     0.0846     0.0440
  223.5000    11.4792     6.0392     6.9217   -27.8970   117.4326     8.5700     2.5053     0.0850     0.0442
  224.0000    11.3568     6.0811     6.9909   -27.9534   120.1550     8.5700     2.5019     0.0869     0.0445
  224.5000    11.2492     6.1228     7.0608   -27.9762   122.4457     8.5700     2.4986     0.0887     0.0449
  225.0000    11.5748     6.1647     7.1315   -27.9915   123.7336     8.5700     2.4997     0.0880     0.0452
  225.5000    11.8913     6.2069     7.2027   -28.0065   124.9081     8.5700     2.5017     0.0864     0.0456
  226.0000    12.1068     6.2499     7.2951   -28.0216   123.9689     8.5700     2.5010     0.0861     0.0459
  226.5000    12.1068     6.2953     7.2503   -28.0367   121.2135     8.5700     2.4957     0.0896     0.0463
  227.0000    11.7620     6.2161     7.1649   -28.0519   119.8304     8.5700     2.4905     0.0930     0.0469
  227.5000    11.4048     6.1305     7.0804   -28.0670   119.6270     8.5700     2.4851     0.0959     0.0474
  228.0000    11.2468     6.0465     6.9970   -28.0821   120.4655     8.5700     2.4885     0.0931     0.0481
  228.5000    10.6837     5.9636     6.9146   -28.0972   121.6113     8.5700     2.4941     0.0902     0.0496
  229.0000    10.4272     5.8819     6.8331   -28.1124   121.3674     8.5700     2.4990     0.0899     0.0510
  229.5000    10.2743     5.8012     6.7526   -28.1275   121.0672     8.5700     2.4976     0.0895     0.0524
  230.0000    10.1237     5.6889     6.6730   -28.1426   121.6423     8.5699     2.4974     0.0898     0.0538
  230.5000     9.9753     5.7202     6.5944   -28.1582   122.3728     8.5616     2.5005     0.0878     0.0552
  231.0000     9.8862     5.7743     6.5318   -28.1700   121.8573     8.5409     2.5035     0.0857     0.0579
  231.5000    10.2004     5.8289     6.6726   -28.1812   121.8937     8.5204     2.5042     0.0838     0.0616
  232.0000    10.4321     5.8840     6.7927   -28.1924   120.5876     8.4999     2.5029     0.0853     0.0653
  232.5000    10.6692     5.9396     6.9151   -28.2036   119.6618     8.4794     2.5063     0.0852     0.0678
  233.0000    10.9118     5.9958     7.0397   -28.2148   120.1563     8.4588     2.5109     0.0823     0.0673
  233.5000    11.1600     6.0525     7.1619   -28.2259   120.7020     8.4484     2.5154     0.0795     0.0670
  234.0000    11.3509     6.1097     7.1921   -28.2371   121.7476     8.4456     2.5080     0.0825     0.0666
  234.5000    11.2071     6.1674     7.2273   -28.2483   124.0349     8.4427     2.4990     0.0880     0.0662
  235.0000    11.0710     6.2258     7.2630   -28.2595   127.1527     8.4399     2.4902     0.0935     0.0658
  235.5000    10.9366     6.2846     7.2989   -28.2707   129.2471     8.4371     2.4891     0.0940     0.0654
  236.0000    10.8400     6.3440     7.3351   -28.2818   124.7037     8.4341     2.4889     0.0938     0.0650
  236.5000    11.0955     6.4040     7.3714   -28.2930   123.5658     8.4312     2.4848     0.0970     0.0646
  237.0000    11.3382     6.4646     7.4079   -28.3042   123.5373     8.4083     2.4798     0.1000     0.0641
  237.5000    11.5633     6.5318     7.4447   -28.3154   123.8288     8.3665     2.4749     0.1029     0.0629
  238.0000    11.6354     6.6081     7.4993   -28.3266   122.0939     8.3245     2.4698     0.1051     0.0586
  238.5000    11.6689     6.6938     7.4852   -28.3377   119.6476     8.2825     2.4726     0.1055     0.0543
