~VERSION INFORMATION
 VERS.                2.0:   CWLS LOG ASCII STANDARD - VERSION 2.0
 WRAP.                 NO:   ONE LINE PER DEPTH STEP
~WELL INFORMATION
#MNEM.UNIT      DATA TYPE    INFORMATION
#----------   ------------   ------------------------------
 STRT.F           30.0000:   START DEPTH
 STOP.F          715.0000:   STOP DEPTH
 STEP.F            0.5000:   STEP LENGTH
 NULL.          -999.2500:   NO VALUE
 COMP. FENIX & SCISSON INC:   COMPANY
 WELL.   NPR-3 #84SX15-15:   WELL
 FLD .             TEAPOT:   FIELD
 LOC .      S15 T38N R78W:   LOCATION
 CNTY.            NATRONA:   COUNTY
 STAT.            WYOMING:   STATE
 CTRY. UNITED STATES OF AMERICA:   COUNTRY
 SRVC.            Unknown:   SERVICE COMPANY
 DATE.        15-MAY-1978:   LOGDATE
 API .       490251064000:   API NUMBER
~CURVE INFORMATION
#MNEM.UNIT       API CODE    CURVE DESCRIPTION
#----------   ------------   ------------------------------
 DEPT.F                  :   
 SPR .MV     05 010 01 00:   SPONTANEOUS POTENTIAL FROM RES.
 SN  .OHMM   05 040 16 00:   SHORT NORMAL 16"
 ILD .OHMM   05 120 46 00:   INDUCTION LOG DEEP
 CALD.IN     45 280 60 00:   CALIPER FROM DENSITY LOG
 GRD .GAPI   45 310 01 00:   GAMMA RAY FROM DENSITY LOG
 CORR.G/C3   45 356 01 00:   DENSITY CORRECTION
 DPHI.DEC    45 890 12 00:   DENSITY POROSITY SANDSTONE
 DEN .G/C3   45 350 01 00:   COMPENSATED BULK DENSITY
~PARAMETER INFORMATION
#MNEM.UNIT          VALUE    DESCRIPTION
#----------   ------------   ------------------------------
 PD  .                 GL:   PERMANENT DATUM
 EPD .F              5247:   ELEVATION PERMANENT DATUM
 LMF .                 KB:   LOG MEASURED FROM
 DMF .                 KB:   DRILLING MEASURED FROM
 EKB .F              5251:   KELLING BUSHING
 EGL .F              5247:   GROUND LEVEL
 DATE.        15-MAY-1978:   RUN DATE
 RUN .                  1:   RUN NUMBER
 DD  .F               725:   DEPTH DRILLER
 DL  .F               720:   DEPTH LOGGER
 BLI .F               713:   BOTTOM LOG INTERVAL
 TLI .F                40:   TOP LOG INTERVAL
 CS  .IN            8.625:   CASING SIZE
 CBD .F                40:   CASING BOTTOM DRILLER
 CBL .F                40:   CASING BOTTOM LOGGER
 BS  .IN            7.875:   BIT SIZE
 BSD .F               725:   BIT SIZE AT DEPTH
 DFT .                KCL:   DRILLING FLUID TYPE
 DFD .                8.6:   DRILLING FLUID DENSITY
 DFV .                 33:   DRILLING FLUID VISCOSITY
 DFPH.                9.5:   DRILLING FLUID PH
 DFL .                 12:   DRILLING FLUID LOSS
 MSS .           FLOWLINE:   MUD SAMPLE SOURCE
 RMS .OHMM             .2:   RESISTIVITY MUD SAMPLE
 MST .F                80:   MUD SAMPLE TEMPERATURE
 RMF .OHMM            .18:   RESISTIVITY MUD FILTRATE SAMPLE
 MFST.F                83:   MUD FILTRATE SAMPLE TEMPERATURE
 RMC .OHMM            .26:   RESISTIVITY MUD CAKE
 MCST.F                83:   MUD CAKE SAMPLE TEMPERATURE
 MFSS.               MEAS:   MUD FILTRATE SAMPLE SOURCE
 RMB .OHMM             .2:   RESISTIVITY MUD AT BHT
 BHT .F                80:   BOTTOM HOLE TEMPERATURE
 TCS .HRS            0200:   TIME CURCULATED STOPPED
 MRT .F                80:   MAXIMUM RECORDED TEMPERATURE
 LUN .               3006:   LOGGING UNIT NUMBER
 LUL .               CASP:   LOGGING UNIT LOCATION
 ENGI.             MILLER:   RECORDING ENGINEER
 WITN.           MCGINLEY:   WITNESSED BY
 CLNT.            A2DTECH:   CLIENT CODE
 ORIG.           5" PRINT:   ORIGIN OF DATA
 UWI .       490251064000:   UNIQUE WELL ID
 DICO. A2D Technologies, Inc.:   DIGITIZING COMPANY
~OTHER INFORMATION
~A   DEPT      SPR         SN        ILD       CALD         GRD      CORR       DPHI        DEN   
# ...
  273.0000   -41.8854     8.0030     8.3419     6.6918    96.7078     0.0617     0.1022     2.5102
  273.5000   -41.8839     8.1768     8.4575     6.7523    94.9732     0.0677     0.1007     2.5275
  274.0000   -41.8824     8.3409     8.6343     6.8127    89.3913     0.0741     0.0998     2.5034
  274.5000   -41.8809     8.4564     8.7539     6.9335    86.5934     0.0557     0.1004     2.4996
  275.0000   -41.8794     8.5145     8.7532     7.0544    85.8584     0.0271     0.1032     2.5034
  275.5000   -41.8780     8.5139     8.7526     7.1903    85.8566     0.0272     0.1071     2.5034
  276.0000   -41.8765     8.5132     8.8127     7.3565    83.8973     0.0300     0.1121     2.5003
  276.5000   -41.8750     8.5126     8.8121     7.4320    83.8958     0.0194     0.1173     2.4951
  277.0000   -42.0242     8.5120     8.8115     7.4773    84.4967     0.0180     0.1113     2.4883
  277.5000   -42.1731     8.5114     8.8109     7.4773    83.4410     0.0195     0.1042     2.4920
  278.0000   -42.1420     8.5109     8.7496     7.4773    81.4817     0.0242     0.1008     2.4980
  278.5000   -42.1059     8.5103     8.7490     7.4773    82.2336     0.0315     0.1002     2.5109
  279.0000   -42.0698     8.5097     8.7484     7.4471    82.6839     0.0315     0.1021     2.5123
  279.5000   -42.0337     8.4505     8.6875     7.3414    81.6278     0.0219     0.1072     2.5068
  280.0000   -41.9976     8.4499     8.6270     7.4169    78.3131     0.0134     0.1129     2.4999
  280.5000   -41.9615     8.3333     8.5079     7.5982    76.0526     0.0119     0.1108     2.4966
  281.0000   -41.9254     8.2753     8.3905     7.6737    77.7077     0.0134     0.1057     2.4947
  281.5000   -41.8893     8.2747     8.2747     7.6737    82.8267     0.0178     0.1036     2.4949
  282.0000   -41.8532     8.2171     8.2741     7.7190    83.4280     0.0193     0.1069     2.5039
  282.5000   -41.8171     8.2736     8.3310     7.7946    86.4381     0.0193     0.1093     2.4881
  283.0000   -41.7810     8.3304     8.3884     7.8248    87.4912     0.0208     0.1082     2.4821
  283.5000   -41.7449     8.4458     8.5044     7.7795    85.2303     0.0238     0.1067     2.4806
  284.0000   -41.7020     8.5040     8.5630     7.5529    84.5742     0.0238     0.1073     2.4807
  284.5000   -41.7005     8.5032     8.6218     7.4320    88.0889     0.0208     0.1109     2.4828
  285.0000   -41.6993     8.4441     8.6211     7.6435    86.4307     0.0192     0.1130     2.4829
  285.5000   -41.6978     8.4435     8.5611     7.6435    84.7726     0.0147     0.1115     2.4891
  286.0000   -41.6963     8.2696     8.3847     7.5831    85.2229     0.0132     0.1118     2.4910
  286.5000   -41.6948     8.0992     8.1554     7.5378    85.3720     0.0087     0.1176     2.4886
  287.0000   -41.6933     7.9874     8.0429     7.5383    85.5211     0.0072     0.1191     2.4835
  287.5000   -41.6918     7.9869     7.9869     7.5378    81.4157     0.0071     0.1179     2.4827
  288.0000   -41.6903     7.9864     7.9864     7.4904    81.6749     0.0071     0.1140     2.4865
  288.5000   -41.6888     7.9858     7.9858     7.4292    85.6581     0.0071     0.1107     2.4917
  289.0000   -41.5367     8.0408     7.9853     7.4018    87.0212     0.0071     0.1143     2.4909
  289.5000   -41.3849     8.0960     7.9847     7.3716    85.8145     0.0101     0.1155     2.4887
  290.0000   -41.2330     8.0395     7.9291     7.3565    78.4335     0.0131     0.1128     2.4879
  290.5000   -41.2315     7.9836     7.9286     7.3565    81.4440     0.0131     0.1095     2.4759
  291.0000   -41.0796     7.9280     7.9280     7.3414    85.9606     0.0131     0.1080     2.4879
  291.5000   -41.0781     7.8186     7.8729     7.3263    86.2607     0.0191     0.1123     2.4946
  292.0000   -41.0766     7.7642     7.8181     7.3112    85.6564     0.0236     0.1153     2.4916
  292.5000   -41.0751     7.6570     7.8175     7.3414    79.1790     0.0190     0.1192     2.4878
  293.0000   -41.0736     7.6038     7.7096     7.3565    84.4486     0.0175     0.1096     2.4856
  293.5000   -41.2225     7.6032     7.6032     7.4018    86.4049     0.0175     0.1095     2.4968
  294.0000   -41.5217     7.6027     7.5503     7.4169    87.9098     0.0175     0.1192     2.4855
  294.5000   -41.9714     7.6022     7.4978     7.4622    80.9803     0.0144     0.1289     2.4757
  295.0000   -42.1203     7.6017     7.4973     7.5076    77.9667     0.0129     0.1205     2.4757
  295.5000   -42.1188     7.6011     7.4967     7.5680    77.2122     0.0129     0.1178     2.4795
  296.0000   -42.1173     7.6534     7.4962     7.5982    78.5662     0.0129     0.1202     2.4817
  296.5000   -42.1158     7.6528     7.4957     7.5831    80.3719     0.0129     0.1223     2.4825
  297.0000   -42.1143     7.5996     7.4952     7.5831    80.8226     0.0129     0.1182     2.4809
  297.5000   -42.1128     7.5467     7.4947     7.5365    80.3689     0.0159     0.1172     2.4794
  298.0000   -42.0871     7.4425     7.4942     7.4109    77.2048     0.0189     0.1109     2.4847
  298.5000   -42.0527     7.4420     7.4420     7.3414    77.3539     0.0249     0.1061     2.4982
  299.0000   -42.0183     7.4415     7.3902     7.4169    80.0632     0.0233     0.1064     2.4997
  299.5000   -41.9838     7.4410     7.2882     7.2961    80.8147     0.0188     0.1302     2.4974
  300.0000   -41.9551     7.4405     7.2877     7.1649    83.3735     0.0049     0.1329     2.4929
  300.5000   -41.9696     7.4144     7.3378     7.0396    82.0784     0.0003     0.1288     2.4628
  301.0000   -41.9820     7.3860     7.3882     6.9316    81.4060     0.0277     0.1248     2.4687
  301.5000   -41.9944     7.3845     7.3877     6.8249    81.5532     0.0502     0.1218     2.4749
  302.0000   -42.0069     7.4342     7.2857     6.7306    81.6994     0.0682     0.1209     2.4793
  302.5000   -42.0193     7.4326     7.2851     6.6080    81.5443     0.0742     0.1128     2.4799
  303.0000   -42.0317     7.4311     7.2846     6.4272    82.1411     0.0742     0.1053     2.4807
  303.5000   -42.0441     7.4294     7.2841     6.3855    83.4921     0.0741     0.1068     2.4964
  304.0000   -42.0565     7.4280     7.2836     6.4302    84.5430     0.0741     0.1092     2.4979
  304.5000   -42.0690     7.4264     7.2831     6.4447    82.7301     0.0740     0.1114     2.4963
  305.0000   -42.0814     7.4768     7.2826     6.5046    81.6715     0.0695     0.1114     2.4956
  305.5000   -42.0938     7.5267     7.2821     6.5945    80.9140     0.0679     0.1105     2.4955
  306.0000   -42.1062     7.5252     7.3323     6.8506    80.4577     0.0634     0.1090     2.4955
  306.5000   -42.1187     7.5236     7.3826     7.0313    80.9052     0.0844     0.1042     2.4985
  307.0000   -42.1311     7.6268     7.5367     7.1667    81.5030     0.0934     0.0982     2.5060
  307.5000   -42.1435     7.7318     7.5886     7.2265    84.1186     0.1023     0.0949     2.5225
  308.0000   -42.1559     7.7838     7.6407     7.2863    88.9097     0.1038     0.0934     2.5299
  308.5000   -42.1684     7.8362     7.6401     7.3612    88.5846     0.0902     0.0946     2.5262
  309.0000   -42.1808     7.7802     7.6395     7.4060    85.0994     0.0496     0.0994     2.5164
  309.5000   -42.1932     7.7786     7.5864     7.4054    86.4494     0.0390     0.1033     2.5043
  310.0000   -42.2056     7.8309     7.5336     7.3896    91.1148     0.0314     0.1015     2.4983
  310.5000   -42.2180     7.8293     7.4811     7.3890    84.0309     0.0239     0.1030     2.5058
  311.0000   -42.2305     7.7737     7.4806     7.3884    81.0143     0.0208     0.1115     2.5095
  311.5000   -42.2429     7.7185     7.4286     7.3878    80.4086     0.0132     0.1154     2.4937
  312.0000   -42.2553     7.6110     7.3769     7.4025    84.4693     0.0132     0.1133     2.4891
  312.5000   -42.2677     7.5569     7.3255     7.4773    87.1756     0.0117     0.1151     2.4869
  313.0000   -42.2802     7.4003     7.2745     7.5522    87.3229     0.0086     0.1139     2.4868
