~VERSION INFORMATION
 VERS.                2.0:   CWLS LOG ASCII STANDARD - VERSION 2.0
 WRAP.                 NO:   ONE LINE PER DEPTH STEP
~WELL INFORMATION
#MNEM.UNIT      DATA TYPE    INFORMATION
#----------   ------------   ------------------------------
 STRT.F            0.0000:   START DEPTH
 STOP.F          400.0000:   STOP DEPTH
 STEP.F            0.5000:   STEP LENGTH
 NULL.          -999.2500:   NO VALUE
 COMP. DEPARTMENT OF ENERGY:   COMPANY
 WELL. NPR 3 #55-56 SX 3 C5:   WELL
 FLD .        TEAPOT EAST:   FIELD
 LOC .       S3 T38N R78W:   LOCATION
 CNTY.            NATRONA:   COUNTY
 STAT.            WYOMING:   STATE
 CTRY. UNITED STATES OF AMERICA:   COUNTRY
 SRVC.      Dresser Atlas:   SERVICE COMPANY
 DATE.        03-JUL-1985:   LOGDATE
 API .       490251134300:   API NUMBER
~CURVE INFORMATION
#MNEM.UNIT       API CODE    CURVE DESCRIPTION
#----------   ------------   ------------------------------
 DEPT.F                  :   
 GRR .GAPI   07 310 01 00:   GAMMA RAY
 RILD.OHMM   07 120 46 00:   INDUCTION LOG DEEP RESISTIVITY
 RILM.OHMM   07 120 44 00:   INDUCTION LOG DEEP RESISTIVITY
 CALD.IN     45 280 60 00:   CALIPER FROM DENSITY LOG
 CORR.G/C3   45 356 01 00:   DENSITY CORRECTION
 DEN .G/C3   45 350 01 00:   COMPENSATED BULK DENSTIY
 NPOR.DEC    42 890 03 00:   NEUTRON POROSITY SANDSTONE
 PORD.DEC    45 890 12 00:   POROSITY DENSITY SANDSTONE
~PARAMETER INFORMATION
#MNEM.UNIT          VALUE    DESCRIPTION
#----------   ------------   ------------------------------
 PD  .                 GL:   PERMANENT DATUM
 EPD .F              5168:   ELEVATION PERMANENT DATUM
 LMF .                 GL:   LOG MEASURED FROM
 DMF .                 GL:   DRILLING MEASURED FROM
 EGL .F              5168:   GROUND LEVEL
 DATE.        03-JUL-1985:   RUN DATE
 RUN .                  1:   RUN NUMBER
 DD  .F               402:   DEPTH DRILLER
 DL  .F               402:   DEPTH LOGGER
 BLI .F               394:   BOTTOM LOG INTERVAL
 CS  .IN                7:   CASING SIZE
 CBD .F                80:   CASING BOTTOM DRILLER
 CBL .F                84:   CASING BOTTOM LOGGER
 BS  .IN            4.875:   BIT SIZE
 BSD .F               402:   BIT SIZE AT DEPTH
 DFT .                OIL:   DRILLING FLUID TYPE
 TCS .HRS               3:   TIME CURCULATED STOPPED
 MRT .F               148:   MAXIMUM RECORDED TEMPERATURE
 LUN .               6274:   LOGGING UNIT NUMBER
 LUL .               GLTE:   LOGGING UNIT LOCATION
 ENGI.             RAUTIO:   RECORDING ENGINEER
 WITN.             GROOMS:   WITNESSED BY
 CLNT.            A2DTECH:   CLIENT CODE
 ORIG.           5" PRINT:   ORIGIN OF DATA
 UWI .       490251134300:   UNIQUE WELL ID
 DICO. A2D Technologies, Inc.:   DIGITIZING COMPANY
~OTHER INFORMATION
~A    DEPT      GRR      RILD       RILM       CALD       CORR        DEN       NPOR       PORD   
# ...
  243.0000   130.6394     2.3342     2.4036     6.8249     0.0892     2.4740     0.2822     0.1069
  243.5000   132.4432     2.3502     2.4199     6.8098     0.0861     2.4845     0.2777     0.1004
  244.0000   133.6450     2.3498     2.4192     6.8096     0.0771     2.4905     0.2744     0.0966
  244.5000   134.2403     2.3658     2.4020     6.8094     0.0426     2.4822     0.2716     0.1020
  245.0000   131.2081     2.3491     2.4015     6.8243     0.0051     2.4604     0.2698     0.1150
  245.5000   128.7823     2.3165     2.3844     6.8242    -0.0129     2.4476     0.2686     0.1225
  246.0000   127.5649     2.2842     2.3673     6.8240    -0.0160     2.4321     0.2686     0.1316
  246.5000   128.1603     2.2368     2.3170     6.8239     0.0139     2.4161     0.2683     0.1376
  247.0000   128.1511     2.2057     2.2673     6.8237     0.0288     2.4175     0.2674     0.1412
  247.5000   126.9319     2.1750     2.2068     6.8236     0.0377     2.4183     0.2671     0.1400
  248.0000   123.9018     2.1448     2.1608     6.8234     0.0092     2.4153     0.2692     0.1407
  248.5000   121.4761     2.1150     2.1157     6.8082    -0.0013     2.4137     0.2710     0.1424
  249.0000   124.4883     2.0711     2.0716     6.8081    -0.0059     2.4122     0.2719     0.1436
  249.5000   126.2921     2.0282     2.0284     6.8079    -0.0044     2.4182     0.2668     0.1403
  250.0000   128.0959     1.9724     1.9723     6.8078    -0.0015     2.4234     0.2635     0.1373
  250.5000   129.8997     1.9037     1.8913     6.8077    -0.0061     2.4225     0.2611     0.1352
  251.0000   132.6099     1.8397     1.8263     6.8363    -0.0121     2.4151     0.2604     0.1388
  251.5000   135.0179     1.8016     1.8007     6.8356    -0.0182     2.4113     0.2638     0.1418
  252.0000   135.9154     1.7890     1.8129     6.8348    -0.0197     2.4091     0.2662     0.1443
  252.5000   132.1804     1.8012     1.8125     6.8339    -0.0018     2.4166     0.2677     0.1400
  253.0000   127.8409     1.8009     1.8121     6.8332     0.0131     2.4233     0.2667     0.1369
  253.5000   121.6872     1.8006     1.8117     6.8175     0.0176     2.4255     0.2632     0.1354
  254.0000   117.7508     1.7879     1.7988     6.8167     0.0070     2.4300     0.2562     0.1342
  254.5000   115.9292     1.6912     1.7129     6.8160     0.0025     2.4413     0.2514     0.1303
  255.0000   117.7330     1.5029     1.5005     6.8153     0.0009     2.4490     0.2471     0.1245
  255.5000   118.0285     1.2355     1.1428     6.8145     0.0083     2.4577     0.2444     0.1194
  256.0000   117.7153     0.9395     0.8894     6.8138     0.0204     2.4682     0.2423     0.1101
  256.5000   119.2170     0.8448     0.8294     6.8131     0.0397     2.4772     0.2417     0.1031
  257.0000   126.7610     0.8388     0.8009     6.8274     0.0521     2.4832     0.2526     0.1001
  257.5000   133.7007     0.8387     0.8643     6.8306     0.0719     2.4771     0.2774     0.1028
  258.0000   134.9003     0.8386     1.0070     6.9458     0.1058     2.3848     0.3015     0.1490
  258.5000   130.7872     0.8443     1.0868     7.0352     0.1657     2.2510     0.2670     0.2215
  259.0000   120.4813     0.8742     1.1647     7.0647     0.2105     2.1643     0.2426     0.2909
  259.5000   116.7446     0.9666     1.2494     6.9737     0.2255     2.1425     0.2384     0.3085
  260.0000   117.0400     1.1773     1.3738     6.3874     0.0832     2.1770     0.2347     0.2783
  260.5000   117.3333     1.4000     1.5478     6.3416     0.0592     2.3977     0.2329     0.1509
  261.0000   116.4158     1.5533     1.6133     6.3408     0.0517     2.4578     0.2314     0.1186
  261.5000   115.8027     1.5858     1.6242     6.3401     0.0500     2.4683     0.2311     0.1107
  262.0000   116.3981     1.5529     1.6124     6.3392     0.0637     2.4675     0.2308     0.1077
  262.5000   116.9934     1.5207     1.5897     6.3385     0.0805     2.4668     0.2311     0.1089
  263.0000   116.9845     1.5205     1.5893     6.3377     0.0938     2.4668     0.2320     0.1095
  263.5000   116.0693     1.5203     1.5889     6.3370     0.0950     2.4675     0.2341     0.1089
  264.0000   108.8097     1.6068     1.6332     6.3363     0.0875     2.4653     0.2365     0.1092
  264.5000   106.6858     1.7229     1.8124     6.3355     0.0830     2.4585     0.2386     0.1116
  265.0000   106.3243     1.9044     2.0709     6.3348     0.0814     2.4525     0.2371     0.1162
  265.5000   104.8533     2.2406     2.4197     6.3341     0.0784     2.4510     0.2288     0.1198
  266.0000    92.7598     2.7969     3.0299     6.3333     0.0784     2.4532     0.2214     0.1177
  266.5000    78.0513     3.4355     3.9732     6.3324     0.1113     2.4540     0.1942     0.1162
  267.0000    71.5283     4.0010     5.5467     6.3317     0.1382     2.4277     0.1767     0.1219
  267.5000    65.4987     5.5802     8.1865     6.3310     0.1502     2.3831     0.1562     0.1458
  268.0000    63.1996     8.2270    13.1347     6.3152     0.1548     2.3279     0.1221     0.1962
  268.5000    66.2060    11.5542    17.5869     6.2995     0.1471     2.3000     0.1043     0.2064
  269.0000    70.1187    14.2238    31.5390     6.2687     0.1081     2.2918     0.0925     0.2230
  269.5000    72.8267    18.5090    45.5880     6.2380     0.0542     2.2377     0.0855     0.2541
  270.0000    70.9955    22.3162    60.6176     6.2222    -0.0012     2.1333     0.0793     0.3471
  270.5000    69.4702    25.3077    77.3579     6.2065    -0.0177     2.0522     0.0747     0.3621
  271.0000    69.1533    26.5920    85.3950     6.1885    -0.0282     2.0417     0.0726     0.3697
  271.5000    71.8575    28.2320    90.6654     6.1748    -0.0207     2.0335     0.0710     0.3752
  272.0000    74.8639    30.0443    88.7687     6.1741    -0.0043     2.0222     0.0698     0.3797
  272.5000    76.9788    31.0981    85.7109     6.1733     0.0031     2.0152     0.0701     0.3824
  273.0000    77.8555    32.4129    83.3361     6.1726    -0.0458     2.0102     0.0710     0.3848
  273.5000    74.2117    33.7833    84.4807     6.1719    -0.0733     2.0192     0.0716     0.3770
  274.0000    71.7800    35.2116    86.8408     6.1712    -0.0808     2.0274     0.0713     0.3731
  274.5000    70.5567    36.4466    88.6480     6.1704    -0.0584     2.0304     0.0701     0.3766
  275.0000    73.5631    36.9481    88.0095     6.1847    -0.0389     2.0101     0.0695     0.3931
  275.5000    75.9653    35.6816    79.8207     6.1839    -0.0180     2.0000     0.0698     0.4057
  276.0000    74.7420    31.4875    61.1600     6.1830    -0.0016     2.0000     0.0713     0.3948
  276.5000    72.3103    25.1019    34.1346     6.1823     0.0149     2.0064     0.0728     0.3661
  277.0000    71.0871    19.6917    18.7643     6.1816     0.0238     2.0680     0.0740     0.3383
  277.5000    73.7914    13.9779    12.1872     6.1808     0.0148     2.1092     0.0776     0.3187
  278.0000    77.1238     9.6095     9.6847     6.1801     0.0087     2.1189     0.0915     0.3275
  278.5000    78.6344     8.3054     7.8584     6.1794     0.0058     2.1054     0.1169     0.3290
  279.0000    79.4835     6.9336     6.8836     6.1787     0.0057     2.1024     0.1498     0.3165
  279.5000    78.8645     5.7884     5.8236     6.1779     0.0072     2.1572     0.1907     0.3012
  280.0000    77.3392     4.8323     5.0658     6.1772     0.0147     2.2143     0.2120     0.2765
  280.5000    74.9075     4.4148     4.4996     6.1915     0.0281     2.2465     0.2153     0.2444
  281.0000    73.6842     4.1181     4.1670     6.1907     0.0445     2.2525     0.2138     0.2399
  281.5000    72.7631     3.8682     3.9402     6.1898     0.0655     2.2525     0.2105     0.2402
  282.0000    75.1653     3.7097     3.8021     6.1891     0.0909     2.2502     0.2068     0.2420
  282.5000    77.2653     3.5805     3.6478     6.1884     0.1133     2.2548     0.2026     0.2375
  283.0000    78.7611     3.4798     3.5964     6.1876     0.0976     2.2855     0.1990     0.2224
