~VERSION INFORMATION
 VERS.                2.0:   CWLS LOG ASCII STANDARD - VERSION 2.0
 WRAP.                 NO:   ONE LINE PER DEPTH STEP
~WELL INFORMATION
#MNEM.UNIT      DATA TYPE    INFORMATION
#----------   ------------   ------------------------------
 STRT.F           53.0000:   START DEPTH
 STOP.F         4152.0000:   STOP DEPTH
 STEP.F            0.5000:   STEP LENGTH
 NULL.          -999.2500:   NO VALUE
 COMP. DEPARTMENT OF ENERGY:   COMPANY
 WELL. RES 3 TEAPOT #11-STX-11:   WELL
 FLD . TEAPOT NAVAL RESERVE:   FIELD
 LOC .      S11 T38N R78W:   LOCATION
 CNTY.            NATRONA:   COUNTY
 STAT.            WYOMING:   STATE
 CTRY. UNITED STATES OF AMERICA:   COUNTRY
 SRVC.       Schlumberger:   SERVICE COMPANY
 DATE.        24-JUL-1975:   LOGDATE
 API .       490251025200:   API NUMBER
~CURVE INFORMATION
#MNEM.UNIT       API CODE    CURVE DESCRIPTION
#----------   ------------   ------------------------------
 DEPT.F                  :   
 SPR .MV     07 010 01 00:   SPONTANEOUS POTENTIAL
 ILD .OHMM   07 120 46 00:   INDUCTION LOG DEEP
 ILM .OHMM   07 120 44 00:   INDUCTION LOG MEDIUM
 LL8 .OHMM   07 220 08 00:   LATEROLOG-8 RES.
 DPOR.DEC    45 890 12 00:   DENSITY POROSITY SANDSTONE
 NPOR.DEC    42 890 03 00:   NEUTRON POROSITY SANDSTONE
 RHOB.G/C3   45 350 01 00:   BULK DENSITY
 CORR.G/C3   45 356 01 00:   DENSITY CORRECTION
 GRD .GAPI   45 310 01 00:   GAMMA RAY FROM DENSITY LOG
 CALD.IN     45 280 60 00:   CALIPER FROM DENSITY LOG
~PARAMETER INFORMATION
#MNEM.UNIT          VALUE    DESCRIPTION
#----------   ------------   ------------------------------
 PD  .                 GL:   PERMANENT DATUM
 EPD .F              5165:   ELEVATION PERMANENT DATUM
 LMF .                 KB:   LOG MEASURED FROM
 DAPD.F                13:   FEET ABOVE PERMANENT DATUM
 DMF .                 KB:   DRILLING MEASURED FROM
 EKB .F              5178:   KELLING BUSHING
 EGL .F              5165:   GROUND LEVEL
 DATE.            7-24-75:   RUN DATE
 RUN .                  1:   RUN NUMBER
 DD  .F              4150:   DEPTH DRILLER
 DL  .F              4154:   DEPTH LOGGER
 BLI .F              4152:   BOTTOM LOG INTERVAL
 TLI .F              1800:   TOP LOG INTERVAL
 CS  .IN            8.625:   CASING SIZE
 CBD .F               625:   CASING BOTTOM DRILLER
 CBL .F               627:   CASING BOTTOM LOGGER
 BS  .IN            7.875:   BIT SIZE
 BSD .F              4150:   BIT SIZE AT DEPTH
 DFT .                FGM:   DRILLING FLUID TYPE
 DFD .                9.5:   DRILLING FLUID DENSITY
 DFV .                 85:   DRILLING FLUID VISCOSITY
 MSS .           FLOWLINE:   MUD SAMPLE SOURCE
 RMS .OHMM           1.34:   RESISTIVITY MUD SAMPLE
 MST .F                91:   MUD SAMPLE TEMPERATURE
 RMF .OHMM           1.17:   RESISTIVITY MUD FILTRATE SAMPLE
 MFST.F                91:   MUD FILTRATE SAMPLE TEMPERATURE
 MFSS.                  M:   MUD FILTRATE SAMPLE SOURCE
 RMB .OHMM            .94:   RESISTIVITY MUD AT BHT
 BHT .F               130:   BOTTOM HOLE TEMPERATURE
 TCS .HRS            1230:   TIME CURCULATED STOPPED
 TLAB.HRS            1900:   TIME LOGGER AT BOTTOM
 MRT .F               132:   MAXIMUM RECORDED TEMPERATURE
 LUN .               7680:   LOGGING UNIT NUMBER
 LUL .               CSPR:   LOGGING UNIT LOCATION
 ENGI.             FRENCH:   RECORDING ENGINEER
 WITN.             CARTER:   WITNESSED BY
 CLNT.            A2DTECH:   CLIENT CODE
 ORIG.       2", 5" PRINT:   ORIGIN OF DATA
 UWI .       490251025200:   UNIQUE WELL ID
 DICO. A2D Technologies, Inc.:   DIGITIZING COMPANY
~OTHER INFORMATION
~A   DEPT      SPR          ILD        ILM       LL8      DPOR       NPOR       RHOB       CORR        GRD       CALD   
# ...
 3771.5000  -999.2500  -999.2500  -999.2500  -999.2500     0.1122     0.3450     2.4543     0.0042   349.7023     8.4193
 3772.0000  -999.2500  -999.2500  -999.2500  -999.2500     0.1112     0.3424     2.4428     0.0029   344.1494     8.4294
 3772.5000  -999.2500  -999.2500  -999.2500  -999.2500     0.1200     0.3365     2.4208     0.0169   338.6705     8.4629
 3773.0000  -999.2500  -999.2500  -999.2500  -999.2500     0.1256     0.3305     2.4137     0.0501   337.8535     8.5038
 3773.5000  -999.2500  -999.2500  -999.2500  -999.2500     0.1370     0.3286     2.4228     0.0627   338.6467     8.5453
 3774.0000  -999.2500  -999.2500  -999.2500  -999.2500     0.1428     0.3450     2.3900     0.0067   333.9435     8.5765
 3774.5000  -999.2500  -999.2500  -999.2500  -999.2500     0.1399     0.3649     2.4119     0.0386   337.9069     8.5498
 3775.0000  -999.2500  -999.2500  -999.2500  -999.2500     0.1595     0.3671     2.4267     0.0761   343.8447     8.5351
 3775.5000  -999.2500  -999.2500  -999.2500  -999.2500     0.1498     0.3506     2.3598     0.0431   346.6374     8.5402
 3776.0000  -999.2500  -999.2500  -999.2500  -999.2500     0.1380     0.3866     2.3839     0.0145   320.1982     8.5475
 3776.5000  -999.2500  -999.2500  -999.2500  -999.2500     0.1633     0.4309     2.4427     0.0022   299.6389     8.5545
 3777.0000  -999.2500  -999.2500  -999.2500  -999.2500     0.1729     0.3965     2.4868     0.0049   293.3586     8.5303
 3777.5000  -999.2500  -999.2500  -999.2500  -999.2500     0.1474     0.3318     2.4987    -0.0045   303.3473     8.5031
 3778.0000  -999.2500  -999.2500  -999.2500  -999.2500     0.1155     0.2948     2.4990     0.0023   317.0522     8.4762
 3778.5000  -999.2500  -999.2500  -999.2500  -999.2500     0.0944     0.3008     2.4842     0.0132   328.0763     8.4820
 3779.0000  -999.2500  -999.2500  -999.2500  -999.2500     0.0988     0.3070     2.4628     0.0243   331.7759     8.5037
 3779.5000  -999.2500  -999.2500  -999.2500  -999.2500     0.0946     0.3250     2.4576     0.0295   322.1790     8.5250
 3780.0000  -999.2500  -999.2500  -999.2500  -999.2500     0.1124     0.3479     2.4728     0.0172   312.0359     8.5464
 3780.5000  -999.2500  -999.2500  -999.2500  -999.2500     0.1196     0.3546     2.4983     0.0229   299.2257     8.5550
 3781.0000  -999.2500  -999.2500  -999.2500  -999.2500     0.1130     0.3322     2.5045     0.0163   291.2215     8.5551
 3781.5000  -999.2500  -999.2500  -999.2500  -999.2500     0.0958     0.3170     2.4828     0.0141   294.9756     8.5550
 3782.0000  -999.2500  -999.2500  -999.2500  -999.2500     0.0892     0.3249     2.4821     0.0042   296.9261     8.5545
 3782.5000  -999.2500  -999.2500  -999.2500  -999.2500     0.0989     0.3341     2.4954     0.0051   290.6904     8.5775
 3783.0000  -999.2500  -999.2500  -999.2500  -999.2500     0.1032     0.3374     2.5086     0.0112   284.6043     8.6053
 3783.5000  -999.2500  -999.2500  -999.2500  -999.2500     0.1005     0.3291     2.5221     0.0238   278.3533     8.6151
 3784.0000  -999.2500  -999.2500  -999.2500  -999.2500     0.0913     0.3194     2.5359     0.0391   270.9551     8.6151
 3784.5000  -999.2500  -999.2500  -999.2500  -999.2500     0.0821     0.3242     2.5413     0.0291   263.6552     8.6062
 3785.0000  -999.2500  -999.2500  -999.2500  -999.2500     0.0730     0.3238     2.5497     0.0148   256.2927     8.5858
 3785.5000  -999.2500  -999.2500  -999.2500  -999.2500     0.0658     0.3050     2.5566     0.0250   253.8132     8.5763
 3786.0000  -999.2500  -999.2500  -999.2500  -999.2500     0.0680     0.2938     2.5394     0.0377   259.2505     8.6033
 3786.5000  -999.2500  -999.2500  -999.2500  -999.2500     0.0588     0.3007     2.5156     0.0564   262.2863     8.6302
 3787.0000  -999.2500  -999.2500  -999.2500  -999.2500     0.0660     0.3307     2.4795     0.0218   259.6615     8.6569
 3787.5000  -999.2500  -999.2500  -999.2500  -999.2500     0.0752     0.3567     2.4761     0.0086   257.6314     8.6756
 3788.0000  -999.2500  -999.2500  -999.2500  -999.2500     0.0950     0.3637     2.4904     0.0180   258.1953     8.6106
 3788.5000  -999.2500  -999.2500  -999.2500  -999.2500     0.1056     0.3390     2.4975     0.0206   259.6178     8.5757
 3789.0000  -999.2500  -999.2500  -999.2500  -999.2500     0.0990     0.3230     2.4948     0.0130   260.7744     8.5866
 3789.5000  -999.2500  -999.2500  -999.2500  -999.2500     0.0928     0.3278     2.5059     0.0053   260.3092     8.6025
 3790.0000  -999.2500  -999.2500  -999.2500  -999.2500     0.0953     0.3254     2.5027     0.0088   259.9443     8.6186
 3790.5000  -999.2500  -999.2500  -999.2500  -999.2500     0.0909     0.3296     2.5123     0.0151   261.1589     8.6346
 3791.0000  -999.2500  -999.2500  -999.2500  -999.2500     0.0899     0.3360     2.5257     0.0196   263.9576     8.6354
 3791.5000  -999.2500  -999.2500  -999.2500  -999.2500     0.0854     0.3410     2.5281     0.0227   267.6608     8.6353
 3792.0000  -999.2500  -999.2500  -999.2500  -999.2500     0.0748     0.3357     2.5078     0.0171   276.0488     8.6353
 3792.5000  -999.2500  -999.2500  -999.2500  -999.2500     0.0752     0.3322     2.4865     0.0106   284.4215     8.6353
 3793.0000  -999.2500  -999.2500  -999.2500  -999.2500     0.0896     0.3343     2.4639     0.0119   290.7624     8.6353
 3793.5000  -999.2500  -999.2500  -999.2500  -999.2500     0.0968     0.3346     2.4609     0.0202   285.2899     8.6352
 3794.0000  -999.2500  -999.2500  -999.2500  -999.2500     0.1144     0.3331     2.4578     0.0327   278.2828     8.6300
 3794.5000  -999.2500  -999.2500  -999.2500  -999.2500     0.1157     0.3322     2.4484     0.0488   271.4107     8.6164
 3795.0000  -999.2500  -999.2500  -999.2500  -999.2500     0.1176     0.3320     2.4521     0.0580   259.0800     8.6028
 3795.5000  -999.2500  -999.2500  -999.2500  -999.2500     0.1236     0.3318     2.4477     0.0302   245.8116     8.5823
 3796.0000  -999.2500  -999.2500  -999.2500  -999.2500     0.1208     0.3254     2.4839     0.0216   236.3550     8.5519
 3796.5000  -999.2500  -999.2500  -999.2500  -999.2500     0.1225     0.3080     2.5141     0.0431   235.3110     8.5366
 3797.0000  -999.2500  -999.2500  -999.2500  -999.2500     0.1054     0.2954     2.4978     0.0355   243.1164     8.5697
 3797.5000  -999.2500  -999.2500  -999.2500  -999.2500     0.0835     0.2842     2.4807     0.0256   246.7973     8.5591
 3798.0000  -999.2500  -999.2500  -999.2500  -999.2500     0.0872     0.2929     2.4968     0.0341   243.6917     8.5357
 3798.5000  -999.2500  -999.2500  -999.2500  -999.2500     0.1020     0.3006     2.5218     0.0706   240.8048     8.5642
 3799.0000  -999.2500  -999.2500  -999.2500  -999.2500     0.1024     0.2810     2.5503     0.1186   239.1608     8.6268
 3799.5000  -999.2500  -999.2500  -999.2500  -999.2500     0.0818     0.2806     2.5065     0.0586   233.3781     8.6895
 3800.0000  -999.2500  -999.2500  -999.2500  -999.2500     0.0642     0.2986     2.4815     0.0176   226.9093     8.6462
 3800.5000  -999.2500  -999.2500  -999.2500  -999.2500     0.0899     0.3054     2.5134     0.0055   220.3826     8.5765
 3801.0000  -999.2500  -999.2500  -999.2500  -999.2500     0.1042     0.2893     2.5319     0.0197   214.4039     8.4979
 3801.5000  -999.2500  -999.2500  -999.2500  -999.2500     0.0797     0.2746     2.5580     0.0533   217.0877     8.4948
 3802.0000  -999.2500  -999.2500  -999.2500  -999.2500     0.0679     0.2742     2.5360     0.0383   220.5671     8.5428
 3802.5000  -999.2500  -999.2500  -999.2500  -999.2500     0.0568     0.2882     2.5013     0.0140   224.0411     8.5389
 3803.0000  -999.2500  -999.2500  -999.2500  -999.2500     0.0720     0.3118     2.4753     0.0062   228.0582     8.5157
 3803.5000  -999.2500  -999.2500  -999.2500  -999.2500     0.0960     0.3076     2.4503     0.0292   235.0402     8.5328
 3804.0000  -999.2500  -999.2500  -999.2500  -999.2500     0.1129     0.3026     2.4450     0.0558   242.1425     8.5398
 3804.5000  -999.2500  -999.2500  -999.2500  -999.2500     0.1227     0.3234     2.4136     0.0303   252.9771     8.5353
