~VERSION INFORMATION
 VERS.                2.0:   CWLS LOG ASCII STANDARD - VERSION 2.0
 WRAP.                 NO:   ONE LINE PER DEPTH STEP
~WELL INFORMATION
#MNEM.UNIT      DATA TYPE    INFORMATION
#----------   ------------   ------------------------------
 STRT.F            0.0000:   START DEPTH
 STOP.F          504.0000:   STOP DEPTH
 STEP.F            0.5000:   STEP LENGTH
 NULL.          -999.2500:   NO VALUE
 COMP.   FLUOR DANIEL INC:   COMPANY
 WELL. NAVAL PETROLEUM RESERVE 3 SX-1 #3-10:   WELL
 FLD .          N.P.R. #3:   FIELD
 LOC .      S10 T38N R78W:   LOCATION
 CNTY.            NATRONA:   COUNTY
 STAT.            WYOMING:   STATE
 CTRY. UNITED STATES OF AMERICA:   COUNTRY
 SRVC.      Western Atlas:   SERVICE COMPANY
 DATE.        22-SEP-1994:   LOGDATE
 API .       490252265600:   API NUMBER
~CURVE INFORMATION
#MNEM.UNIT       API CODE    CURVE DESCRIPTION
#----------   ------------   ------------------------------
 DEPT.F                  :   
 GRR .GAPI   07 310 01 00:   GAMMA RAY FROM RES. LOG.
 RILD.OHMM   07 120 46 00:   INDUCTION LOG DEEP RESISTIVITY
 RILM.OHMM   07 120 44 00:   INDUCTION LOG MEDIUM RESISTIVITY
~PARAMETER INFORMATION
#MNEM.UNIT          VALUE    DESCRIPTION
#----------   ------------   ------------------------------
 PD  .                 GL:   PERMANENT DATUM
 EPD .F              5168:   ELEVATION PERMANENT DATUM
 LMF .                 KB:   LOG MEASURED FROM
 DAPD.F                10:   FEET ABOVE PERMANENT DATUM
 DMF .                 KB:   DRILLING MEASURED FROM
 EKB .F              5178:   KELLING BUSHING
 EDF .F              5177:   DRILLING FLOOR
 EGL .F              5168:   GROUND LEVEL
 DATE.        22-SEP-1994:   RUN DATE
 RUN .                  1:   RUN NUMBER
 DD  .F               510:   DEPTH DRILLER
 DL  .F               512:   DEPTH LOGGER
 BLI .F               504:   BOTTOM LOG INTERVAL
 CS  .IN            9.625:   CASING SIZE
 CBD .F                55:   CASING BOTTOM DRILLER
 CBL .F                55:   CASING BOTTOM LOGGER
 BS  .IN             8.75:   BIT SIZE
 BSD .F               510:   BIT SIZE AT DEPTH
 DFT .                AIR:   DRILLING FLUID TYPE
 MRT .F                83:   MAXIMUM RECORDED TEMPERATURE
 LUN .            HL 6530:   LOGGING UNIT NUMBER
 LUL .             CASPER:   LOGGING UNIT LOCATION
 ENGI.      PAT RASMUSSEN:   RECORDING ENGINEER
 WITN.        GARY STRONG:   WITNESSED BY
 CLNT.            A2DTECH:   CLIENT CODE
 ORIG.           5" PRINT:   ORIGIN OF DATA
 UWI .       490252265600:   UNIQUE WELL ID
 DICO. A2D Technologies, Inc.:   DIGITIZING COMPANY
~OTHER INFORMATION
~A    DEPT      GRR      RILD       RILM   
# ...
  273.0000   148.8678     6.4099     6.7889
  273.5000   146.2103     6.6893     7.0416
  274.0000   143.6660     6.9809     7.2129
  274.5000   141.9758     7.2852     7.4106
  275.0000   142.6126     7.4479     7.5120
  275.5000   141.6971     7.2291     7.3244
  276.0000   136.8716     6.7513     6.9127
  276.5000   132.0327     6.3088     6.5440
  277.0000   132.7203     5.8947     6.0572
  277.5000   137.3412     5.5105     5.6067
  278.0000   141.9988     5.1913     5.2394
  278.5000   146.7807     5.2097     5.2394
  279.0000   149.3312     5.2352     5.2394
  279.5000   150.4371     5.2608     5.2879
  280.0000   149.4749     5.2881     5.6601
  280.5000   148.6738     5.6046     6.0585
  281.0000   148.7057     5.9621     6.4849
  281.5000   148.6604     6.3424     6.9413
  282.0000   146.2738     6.7470     7.4299
  282.5000   140.7661     7.1756     7.8854
  283.0000   136.0900     7.5165     8.0012
  283.5000   138.0658     7.7926     8.1186
  284.0000   141.0161     7.9430     8.2378
  284.5000   141.3856     8.1632     8.3588
  285.0000   137.9061     8.3315     8.4815
  285.5000   134.2780     8.4940     8.6060
  286.0000   132.7972     8.6313     8.7136
  286.5000   132.3238     8.6378     8.7406
  287.0000   132.5068     8.6458     8.7677
  287.5000   133.4825     8.6535     8.7948
  288.0000   134.9209     8.6614     8.8220
  288.5000   135.0132     8.6693     8.8494
  289.0000   132.9676     8.6772     8.8710
  289.5000   130.9812     8.6851     8.8062
  290.0000   130.6107     8.6930     8.7531
  290.5000   132.5574     8.7009     8.6998
  291.0000   132.7497     8.7096     8.6291
  291.5000   132.8915     8.7992     8.7116
  292.0000   133.2155     8.8884     8.8486
  292.5000   134.2411     8.9785     8.9864
  293.0000   134.6531     9.0695     9.1264
  293.5000   132.8158     9.1263     9.2903
  294.0000   131.0407     9.0466     9.2049
  294.5000   129.3778     8.0289     8.6285
  295.0000   128.7354     7.2946     7.4962
  295.5000   129.4782     6.6309     6.5544
  296.0000   132.4787     6.2197     5.7352
  296.5000   140.4294     6.1297     5.3867
  297.0000   148.1146     6.1304     5.6509
  297.5000   151.7305     6.1304     6.1308
  298.0000   147.5405     6.1248     6.6510
  298.5000   139.1173     6.1234     7.2161
  299.0000   131.1140     6.9759     7.8292
  299.5000   128.5707     7.7093     8.4939
  300.0000   125.4601     8.5222     9.2903
  300.5000   120.9148     9.4295     9.7892
  301.0000   117.2070    10.2840    10.3806
  301.5000   117.3498    10.4758    10.5737
  302.0000   120.3805    10.5078    10.5443
  302.5000   124.1642    10.5427    10.4914
  303.0000   127.9859    10.5728    10.4761
  303.5000   128.2097    11.1721    10.8630
  304.0000   125.7067    11.8573    11.5635
  304.5000   121.0659    12.7935    12.5228
  305.0000   116.4206    13.8837    13.5611
  305.5000   111.7954    15.0669    14.6856
  306.0000   102.9711    16.3509    15.9032
  306.5000    90.6886    17.7443    17.2219
  307.0000    78.2054    18.9286    18.6499
  307.5000    70.2645    20.0939    19.6339
  308.0000    66.2097    21.3361    20.1856
  308.5000    67.4917    21.3361    20.0413
  309.0000    70.4321    21.0425    19.8024
  309.5000    73.3156    20.7491    19.5664
  310.0000    72.8521    20.4616    19.3331
  310.5000    72.2498    20.1781    19.1024
  311.0000    73.7394    19.8981    18.8739
  311.5000    78.8503    19.6337    18.7461
  312.0000    83.8783    19.6314    18.7444
  312.5000    88.0607    19.6288    18.7476
  313.0000    86.9989    19.6278    19.0972
  313.5000    85.6604    20.4633    19.9066
  314.0000    83.9246    21.0959    20.7048
  314.5000    82.2250    21.7480    21.5352
  315.0000    80.5067    22.4203    22.3996
  315.5000    80.0385    23.1133    23.3011
  316.0000    80.2694    23.7283    23.5561
  316.5000    80.5009    24.1116    23.7865
  317.0000    80.3476    24.5010    24.0179
  317.5000    77.7062    24.8968    24.2516
  318.0000    73.8792    25.2989    24.5073
  318.5000    72.9891    25.7075    25.2847
  319.0000    72.2003    26.3698    26.1612
  319.5000    71.3216    27.2806    27.0680
  320.0000    68.2123    28.2229    28.0063
  320.5000    63.7868    29.1977    28.9771
  321.0000    60.4369    30.2062    30.0303
  321.5000    62.5412    30.8742    30.0303
  322.0000    64.8325    29.9517    29.4309
  322.5000    67.0672    29.2890    28.7099
  323.0000    69.5865    28.6410    27.8490
  323.5000    72.0634    28.0073    27.0140
  324.0000    74.5458    27.3804    26.2040
  324.5000    77.0251    26.5336    25.4182
  325.0000    79.5043    25.7033    24.6560
  325.5000    81.9839    24.8989    24.2597
  326.0000    84.4712    24.2271    23.9542
  326.5000    86.9534    23.9687    23.6525
  327.0000    89.2504    23.7130    23.3547
  327.5000    88.9327    23.2966    23.0247
  328.0000    85.8384    22.7862    22.3332
  328.5000    80.3864    22.2892    21.6625
  329.0000    77.8282    21.8031    21.0119
  329.5000    81.7647    21.3275    20.3808
  330.0000    87.0362    20.8623    19.7687
  330.5000    92.3921    20.4073    19.1749
  331.0000    95.1941    19.9622    18.8976
  331.5000    93.5541    19.5268    18.6699
  332.0000    91.3750    19.1009    18.4450
  332.5000    89.2084    18.6843    18.2227
  333.0000    89.1629    18.2768    18.0032
  333.5000    91.1836    18.1433    17.7862
  334.0000    93.3303    18.0411    17.5719
  334.5000    95.4904    17.9400    17.3602
  335.0000    96.3960    17.8393    17.0933
  335.5000    94.9983    17.7391    17.1622
  336.0000    93.3304    17.6395    17.2582
  336.5000    92.1642    17.5736    17.3547
  337.0000    91.9489    17.6218    17.4517
  337.5000    91.9358    17.6585    17.5493
  338.0000    92.0132    17.6951    17.6474
  338.5000    93.9737    17.7317    17.7461
  339.0000    96.0427    17.7684    17.8455
  339.5000    95.7652    17.8051    17.9451
  340.0000    95.4663    17.8421    18.0675
  340.5000    97.0581    17.8800    17.9476
  341.0000    98.6511    17.9009    17.7954
  341.5000    97.8979    17.6635    17.6444
  342.0000    95.9104    17.4936    17.4947
  342.5000    93.8511    17.3256    17.3463
  343.0000    94.3241    17.1593    17.1992
  343.5000    95.9530    16.9946    17.0533
  344.0000    96.2980    16.8315    16.9086
  344.5000    96.6004    16.6700    16.7652
  345.0000    96.9098    16.5100    16.6230
  345.5000    97.1199    16.3515    16.4820
  346.0000    95.8895    16.1946    16.3422
  346.5000    94.8546    16.1510    16.3217
  347.0000    96.2818    16.1268    16.3217
  347.5000    97.5618    16.1027    16.3217
  348.0000    96.7385    16.0786    16.3217
  348.5000    93.0835    16.0546    16.3217
  349.0000    90.0745    16.0306    16.3217
  349.5000    92.2930    16.0066    16.3217
  350.0000    94.6013    15.9826    16.3217
  350.5000    95.5903    15.9587    16.3218
  351.0000    96.2145    15.9349    16.3214
  351.5000    97.4502    15.9111    16.3213
  352.0000    98.8970    15.8875    16.2421
  352.5000    99.4693    15.8442    16.1551
  353.0000    99.0838    15.7834    16.0684
  353.5000    98.3734    15.7227    15.9822
  354.0000    97.6013    15.6622    15.8964
  354.5000    95.5325    15.6019    15.8111
  355.0000    93.2644    15.5418    15.7262
  355.5000    93.4182    15.4822    15.6418
  356.0000    95.7166    15.3655    15.5074
  356.5000    98.0129    15.1292    15.2700
  357.0000   100.0238    14.8833    15.0196
  357.5000    99.7015    14.5647    14.7399
  358.0000    98.2587    14.2321    14.4445
  358.5000    96.4293    13.9065    14.1550
  359.0000    95.9190    13.5881    13.8710
  359.5000    96.9026    13.2766    13.5924
  360.0000    97.0958    12.9738    13.3207
  360.5000    95.5042    12.8081    13.1681
  361.0000    95.3330    12.7556    13.1140
  361.5000    95.5429    12.7032    13.0602
  362.0000    94.5377    12.6510    13.0065
  362.5000    90.0724    12.5991    12.9531
  363.0000    89.1806    12.5474    12.9000
  363.5000    91.2960    12.4958    12.8470
