~VERSION INFORMATION
 VERS.                2.0:   CWLS LOG ASCII STANDARD - VERSION 2.0
 WRAP.                 NO:   ONE LINE PER DEPTH STEP
~WELL INFORMATION
#MNEM.UNIT      DATA TYPE    INFORMATION
#----------   ------------   ------------------------------
 STRT.F           30.0000:   START DEPTH
 STOP.F         1358.0000:   STOP DEPTH
 STEP.F            0.5000:   STEP LENGTH
 NULL.          -999.2500:   NO VALUE
 COMP. FENIX & SCISSON INC:   COMPANY
 WELL.      3 SX14 #85-14:   WELL
 FLD .             TEAPOT:   FIELD
 LOC .      S14 T38N R78W:   LOCATION
 CNTY.            NATRONA:   COUNTY
 STAT.            WYOMING:   STATE
 CTRY. UNITED STATES OF AMERICA:   COUNTRY
 SRVC.              Welex:   SERVICE COMPANY
 DATE.        10-FEB-1977:   LOGDATE
 API .       490251027500:   API NUMBER
~CURVE INFORMATION
#MNEM.UNIT       API CODE    CURVE DESCRIPTION
#----------   ------------   ------------------------------
 DEPT.F                  :   
 ILM .OHMM   07 120 44 00:   INDUCTION LOG MEDIUM
 ILD .OHMM   07 120 46 00:   INDUCTION LOG DEEP
 CALD.IN     45 280 60 00:   CALIPER
 GRD .GAPI   45 310 01 00:   GAMMA RAY FROM DENSITY LOG
 RHOB.G/C3   45 350 01 00:   BULK DENSITY
 DPHI.DEC    45 890 12 00:   DENSITY POROSITY SANDSTONE
 CORR.G/C3   45 356 01 00:   DENSITY CORRECTION
~PARAMETER INFORMATION
#MNEM.UNIT          VALUE    DESCRIPTION
#----------   ------------   ------------------------------
 PD  .                 GL:   PERMANENT DATUM
 EPD .F              5345:   ELEVATION PERMANENT DATUM
 LMF .                 GL:   LOG MEASURED FROM
 DMF .                 GL:   DRILLING MEASURED FROM
 EGL .F              5345:   GROUND LEVEL
 DATE.          2-10-1977:   RUN DATE
 RUN .                  1:   RUN NUMBER
 DD  .F              1362:   DEPTH DRILLER
 DL  .F              1361:   DEPTH LOGGER
 BLI .F              1359:   BOTTOM LOG INTERVAL
 TLI .F                43:   TOP LOG INTERVAL
 CS  .IN            8.625:   CASING SIZE
 CBD .F                43:   CASING BOTTOM DRILLER
 CBL .F                43:   CASING BOTTOM LOGGER
 BS  .IN            7.875:   BIT SIZE
 BSD .F              1362:   BIT SIZE AT DEPTH
 DFT .           AIR MIST:   DRILLING FLUID TYPE
 TCS .HRS               4:   TIME CURCULATED STOPPED
 MRT .F               104:   MAXIMUM RECORDED TEMPERATURE
 LUN .               8611:   LOGGING UNIT NUMBER
 LUL .           GILLETTE:   LOGGING UNIT LOCATION
 ENGI.               DOAK:   RECORDING ENGINEER
 WITN. PETTINGILL/STUEBINGER:   WITNESSED BY
 CLNT.            A2DTECH:   CLIENT CODE
 ORIG.       2", 5" PRINT:   ORIGIN OF DATA
 UWI .       490251027500:   UNIQUE WELL ID
 DICO. A2D Technologies, Inc.:   DIGITIZING COMPANY
~OTHER INFORMATION
~A   DEPT      ILM        ILD         CALD      GRD         RHOB     DPHI        CORR  
# ...
 1122.0000     4.1812     3.9768     8.1542   131.5419     2.4913     0.1134     0.0195
 1122.5000     4.1839     3.9604     8.1453   130.5578     2.5001     0.1118     0.0116
 1123.0000     4.4300     4.1382     8.1363   131.1617     2.5106     0.1037     0.0131
 1123.5000     4.6186     4.2729     8.1273   133.0844     2.5210     0.0977     0.0149
 1124.0000     4.8147     4.4120     8.1183   134.9499     2.5183     0.0977     0.0166
 1124.5000     5.0190     4.5556     8.1093   136.3939     2.5175     0.0961     0.0183
 1125.0000     5.2320     4.7324     8.1003   135.2289     2.5254     0.0942     0.0200
 1125.5000     5.4541     4.9419     8.0913   133.1679     2.5345     0.0912     0.0217
 1126.0000     5.6856     5.1634     8.0823   131.0810     2.5482     0.0883     0.0193
 1126.5000     5.9270     5.3943     8.0733   130.1850     2.5570     0.0857     0.0165
 1127.0000     6.1783     5.6355     8.0643   132.5516     2.5423     0.0900     0.0138
 1127.5000     6.4401     5.8825     8.0559   134.9678     2.5307     0.0946     0.0114
 1128.0000     6.6706     6.0458     8.0583   137.3869     2.5266     0.0983     0.0114
 1128.5000     6.8785     6.1485     8.0623   139.4663     2.5287     0.0966     0.0114
 1129.0000     6.8785     6.2169     8.0662   138.3727     2.5307     0.0949     0.0128
 1129.5000     7.0062     6.1920     8.0702   135.9835     2.5328     0.0932     0.0168
 1130.0000     6.9177     6.1436     8.0741   133.1205     2.5349     0.0915     0.0207
 1130.5000     6.8225     6.0952     8.0780   130.2574     2.5341     0.0919     0.0239
 1131.0000     6.7286     6.0471     8.0820   127.3384     2.5314     0.0934     0.0232
 1131.5000     6.6360     5.9856     8.0859   125.6531     2.5287     0.0952     0.0226
 1132.0000     6.5447     5.9088     8.0900   124.3134     2.5260     0.0970     0.0220
 1132.5000     6.4547     5.8330     8.0936   122.9332     2.5239     0.0977     0.0226
 1133.0000     6.3659     5.7582     8.0950   124.1667     2.5228     0.0966     0.0268
 1133.5000     6.2782     5.6844     8.1141   127.4609     2.5255     0.0951     0.0309
 1134.0000     6.1919     5.6115     8.1075   135.7063     2.5280     0.0956     0.0350
 1134.5000     6.1030     5.5395     8.1016   134.2976     2.5238     0.0985     0.0392
 1135.0000     6.0471     5.4685     8.0953   131.7441     2.5133     0.1002     0.0433
 1135.5000     6.0465     5.3984     8.0889   129.1622     2.5117     0.1003     0.0476
 1136.0000     6.0471     5.3291     8.0825   125.8028     2.5008     0.1040     0.0480
 1136.5000     6.0471     5.2608     8.0765   126.7343     2.4795     0.1135     0.0468
 1137.0000     6.0471     5.1933     8.0765   128.5595     2.4582     0.1245     0.0368
 1137.5000     6.0472     5.1267     8.0802   130.4012     2.4469     0.1321     0.0255
 1138.0000     6.0359     5.0307     8.0839   132.2667     2.4804     0.1208     0.0157
 1138.5000     6.0005     5.0770     8.0876   134.3680     2.5173     0.1045     0.0226
 1139.0000     5.9652     5.1646     8.0912   137.2777     2.5291     0.0903     0.0283
 1139.5000     5.9369     5.2540     8.0949   139.2397     2.5390     0.0901     0.0291
 1140.0000     5.9985     5.3448     8.0986   135.1805     2.5475     0.0900     0.0299
 1140.5000     5.9837     5.4371     8.1022   136.3562     2.5442     0.0898     0.0307
 1141.0000     6.1556     5.5311     8.1059   137.9654     2.5375     0.0910     0.0315
 1141.5000     6.2961     5.6266     8.1095   139.9432     2.5306     0.0922     0.0324
 1142.0000     6.4274     5.7239     8.1132   138.4702     2.5365     0.0926     0.0332
 1142.5000     6.5692     5.8228     8.1169   135.6032     2.5442     0.0892     0.0340
 1143.0000     6.6912     5.9234     8.1178   132.0113     2.5520     0.0859     0.0348
 1143.5000     6.6941     6.0257     8.1178   130.3115     2.5597     0.0828     0.0356
 1144.0000     6.6831     6.0496     8.1178   131.0661     2.5652     0.0831     0.0364
 1144.5000     6.6769     6.0556     8.1178   131.8546     2.5600     0.0834     0.0373
 1145.0000     6.6709     6.0617     8.1176   133.0223     2.5551     0.0837     0.0381
 1145.5000     6.6649     6.0678     8.1179   134.4274     2.5512     0.0841     0.0348
 1146.0000     6.6589     6.0739     8.1199   135.8398     2.5529     0.0844     0.0292
 1146.5000     6.6529     6.0800     8.0972   137.2586     2.5602     0.0833     0.0282
 1147.0000     6.6469     6.0861     8.0975   138.6773     2.5674     0.0818     0.0334
 1147.5000     6.6409     6.0922     8.0971   140.0910     2.5742     0.0804     0.0359
 1148.0000     6.6349     6.0982     8.0971   141.5011     2.5780     0.0790     0.0351
 1148.5000     6.6289     6.1034     8.0971   142.4510     2.5731     0.0796     0.0340
 1149.0000     6.6229     6.0914     8.0971   142.8599     2.5654     0.0825     0.0283
 1149.5000     6.6170     6.0664     8.0971   143.2758     2.5575     0.0855     0.0226
 1150.0000     6.6110     6.0411     8.0971   143.6892     2.5498     0.0884     0.0178
 1150.5000     6.6050     6.0159     8.0971   142.8730     2.5436     0.0894     0.0198
 1151.0000     6.5991     5.9909     8.0971   141.8833     2.5475     0.0878     0.0219
 1151.5000     6.5931     5.9659     8.0971   142.2637     2.5515     0.0864     0.0239
 1152.0000     6.5872     5.9410     8.0971   143.2124     2.5555     0.0849     0.0259
 1152.5000     6.5813     5.9163     8.0971   144.3131     2.5597     0.0834     0.0279
 1153.0000     6.5753     5.8916     8.0971   144.0739     2.5551     0.0850     0.0300
 1153.5000     6.5692     5.8671     8.0971   142.3614     2.5484     0.0871     0.0308
 1154.0000     6.4617     5.8426     8.0971   140.7344     2.5498     0.0891     0.0315
 1154.5000     6.3526     5.7706     8.0947   140.0852     2.5447     0.0912     0.0322
 1155.0000     6.2450     5.6368     8.0751   141.7372     2.5355     0.0943     0.0330
 1155.5000     6.1394     5.5060     8.0553   143.2835     2.5263     0.0981     0.0335
 1156.0000     6.0356     5.3783     8.0354   144.8344     2.5170     0.1019     0.0277
 1156.5000     5.9335     5.2535     8.0152   146.4340     2.5058     0.1064    -0.0019
 1157.0000     5.8332     5.1316     8.0152   146.3255     2.5116     0.1027     0.0201
 1157.5000     5.7404     5.0126     8.0226   144.1046     2.5236     0.0977     0.0320
 1158.0000     5.6098     4.8963     8.0300   142.3890     2.5412     0.0931     0.0424
 1158.5000     5.5197     4.7827     8.0373   141.4799     2.5325     0.0957     0.0512
 1159.0000     5.3114     4.6718     8.0446   143.4664     2.5128     0.0981     0.0578
 1159.5000     5.1041     4.5634     8.0519   145.3154     2.5223     0.1094     0.0599
 1160.0000     4.9846     4.3822     8.0592   145.6488     2.5087     0.1129     0.0621
 1160.5000     4.9390     4.4617     8.0665   146.0104     2.4852     0.1195     0.0648
 1161.0000     4.9390     4.5826     8.0738   146.3642     2.4614     0.1273     0.0616
 1161.5000     5.0122     4.7068     8.0812   145.5743     2.4372     0.1570     0.0232
 1162.0000     5.1800     4.8344     8.0885   143.5680     2.4516     0.1430     0.0064
 1162.5000     5.3535     4.9654     8.0958   141.6282     2.4904     0.1199     0.0038
 1163.0000     5.5327     5.0831     8.1031   139.6888     2.5132     0.1081     0.0050
 1163.5000     5.7186     5.1964     8.1104   137.7595     2.5040     0.0962     0.0063
 1164.0000     5.9911     5.3162     8.1176   136.4487     2.5048     0.0913     0.0076
 1164.5000     5.9823     5.4276     8.1249   135.8268     2.5207     0.0879     0.0088
 1165.0000     5.9617     5.4650     8.1331   135.1995     2.5298     0.0844     0.0118
 1165.5000     5.9427     5.2265     8.1556   134.5788     2.5234     0.0824     0.0160
 1166.0000     5.8387     5.0066     8.1549   133.9615     2.5234     0.0853     0.0203
 1166.5000     5.4611     4.7960     8.1483   133.3293     2.5306     0.0865     0.0248
 1167.0000     5.1080     4.5941     8.1419   133.5498     2.5308     0.0928     0.0259
