~VERSION INFORMATION
 VERS.                2.0:   CWLS LOG ASCII STANDARD - VERSION 2.0
 WRAP.                 NO:   ONE LINE PER DEPTH STEP
~WELL INFORMATION
#MNEM.UNIT      DATA TYPE    INFORMATION
#----------   ------------   ------------------------------
 STRT.F           84.0000:   START DEPTH
 STOP.F         1141.0000:   STOP DEPTH
 STEP.F            0.5000:   STEP LENGTH
 NULL.          -999.2500:   NO VALUE
 COMP.           U S NAVY:   COMPANY
 WELL.     NPR#3 #78-S-11:   WELL
 FLD .             TEAPOT:   FIELD
 LOC .      S11 T38N R78W:   LOCATION
 CNTY.            NATRONA:   COUNTY
 STAT.            WYOMING:   STATE
 CTRY. UNITED STATES OF AMERICA:   COUNTRY
 SRVC.       Schlumberger:   SERVICE COMPANY
 DATE.        28-AUG-1966:   LOGDATE
 API .       490250970700:   API NUMBER
~CURVE INFORMATION
#MNEM.UNIT       API CODE    CURVE DESCRIPTION
#----------   ------------   ------------------------------
 DEPT.F                  :   
 SPR .MV     05 010 01 00:   SPONTANEOUS POTENTIAL FROM RES.
 ASN .OHMM   05 041 16 00:   AMPLIFIED SHORT NORMAL 16"
 ILD .OHMM   05 120 46 00:   INDUCTION LOG DEEP
 CILD.MMHO   05 110 46 00:   CONDUCTIVITY INDUCTION LOG DEEP
 GRD .GAPI   45 310 01 00:   GAMMA RAY FROM DENSITY LOG
 CALD.IN     45 280 60 00:   CALIPER FROM DENSITY LOG
 DPHI.DEC    45 890 12 00:   DENSITY POROSITY SANDSTONE
 RHOB.G/C3   45 350 01 00:   BULK DENSITY
~PARAMETER INFORMATION
#MNEM.UNIT          VALUE    DESCRIPTION
#----------   ------------   ------------------------------
 PD  .                 GL:   PERMANENT DATUM
 EPD .F              5245:   ELEVATION PERMANENT DATUM
 LMF .                 KB:   LOG MEASURED FROM
 DAPD.F                 5:   FEET ABOVE PERMANENT DATUM
 DMF .                 KB:   DRILLING MEASURED FROM
 EKB .F              5250:   KELLING BUSHING
 EGL .F              5245:   GROUND LEVEL
 DATE.            8-28-66:   RUN DATE
 RUN .                  1:   RUN NUMBER
 DD  .F              1142:   DEPTH DRILLER
 DL  .F              1142:   DEPTH LOGGER
 BLI .F              1141:   BOTTOM LOG INTERVAL
 TLI .F                85:   TOP LOG INTERVAL
 CS  .IN            8.625:   CASING SIZE
 CBD .F                10:   CASING BOTTOM DRILLER
 BS  .IN             6.75:   BIT SIZE
 BSD .F              1142:   BIT SIZE AT DEPTH
 DFT .           CHEM GEL:   DRILLING FLUID TYPE
 DFD .               10.7:   DRILLING FLUID DENSITY
 DFV .                 40:   DRILLING FLUID VISCOSITY
 MSS .          FLOW LINE:   MUD SAMPLE SOURCE
 RMS .OHMM           1.58:   RESISTIVITY MUD SAMPLE
 MST .F                70:   MUD SAMPLE TEMPERATURE
 RMF .OHMM            .93:   RESISTIVITY MUD FILTRATE SAMPLE
 MFST.F                70:   MUD FILTRATE SAMPLE TEMPERATURE
 MFSS.                  M:   MUD FILTRATE SAMPLE SOURCE
 RMB .OHMM           1.19:   RESISTIVITY MUD AT BHT
 BHT .F                94:   BOTTOM HOLE TEMPERATURE
 TCS .HRS               1:   TIME CURCULATED STOPPED
 MRT .F                94:   MAXIMUM RECORDED TEMPERATURE
 LUN .               4507:   LOGGING UNIT NUMBER
 LUL .               CSPR:   LOGGING UNIT LOCATION
 ENGI.             KNOBEL:   RECORDING ENGINEER
 WITN.         MAY/TUTTLE:   WITNESSED BY
 CLNT.            A2DTECH:   CLIENT CODE
 ORIG.           5" PRINT:   ORIGIN OF DATA
 UWI .       490250970700:   UNIQUE WELL ID
 DICO. A2D Technologies, Inc.:   DIGITIZING COMPANY
~OTHER INFORMATION
~A   DEPT      SPR          ASN        ILD      CILD       GRD       CALD       DPHI       RHOB   
# ...
  165.0000   -50.4970     6.2146     5.7510   167.7416  -999.2500  -999.2500  -999.2500  -999.2500
  165.5000   -50.4910     6.1551     5.5269   171.4787  -999.2500  -999.2500  -999.2500  -999.2500
  166.0000   -50.4851     6.0355     5.3782   175.2158  -999.2500  -999.2500  -999.2500  -999.2500
  166.5000   -50.4791     5.9758     5.1548   178.9529  -999.2500  -999.2500  -999.2500  -999.2500
  167.0000   -50.4732     5.9162     5.0058   182.6901  -999.2500  -999.2500  -999.2500  -999.2500
  167.5000   -50.4672     5.7965     4.9322   186.4272  -999.2500  -999.2500  -999.2500  -999.2500
  168.0000   -50.4612     5.6148     5.0091   189.4124  -999.2500  -999.2500  -999.2500  -999.2500
  168.5000   -50.4553     5.6213     5.0857   189.5037  -999.2500  -999.2500  -999.2500  -999.2500
  169.0000   -50.4493     5.8130     5.1622   188.6160  -999.2500  -999.2500  -999.2500  -999.2500
  169.5000   -50.4434     5.9936     5.1637   185.5862  -999.2500  -999.2500  -999.2500  -999.2500
  170.0000   -50.4374     6.0691     5.3904   181.8045  -999.2500  -999.2500  -999.2500  -999.2500
  170.5000   -50.4313     6.0546     5.6171   176.4057  -999.2500  -999.2500  -999.2500  -999.2500
  171.0000   -50.4254     6.0550     5.8439   170.3314  -999.2500  -999.2500  -999.2500  -999.2500
  171.5000   -50.4193     6.2056     6.1466   164.8574  -999.2500  -999.2500  -999.2500  -999.2500
  172.0000   -50.4121     6.4913     6.6056   159.1534  -999.2500  -999.2500  -999.2500  -999.2500
  172.5000   -50.4061     6.7620     7.3649   152.3642  -999.2500  -999.2500  -999.2500  -999.2500
  173.0000   -50.4002     6.9427     7.6626   150.8382  -999.2500  -999.2500  -999.2500  -999.2500
  173.5000   -50.2434     7.2284     7.7285   149.3122  -999.2500  -999.2500  -999.2500  -999.2500
  174.0000   -50.2374     7.3640     7.5799   147.0343  -999.2500  -999.2500  -999.2500  -999.2500
  174.5000   -50.2315     7.2443     7.5059   146.2601  -999.2500  -999.2500  -999.2500  -999.2500
  175.0000   -50.2255     6.6892     7.5078   146.2378  -999.2500  -999.2500  -999.2500  -999.2500
  175.5000   -50.2195     7.2772     7.5092   145.4637  -999.2500  -999.2500  -999.2500  -999.2500
  176.0000   -50.2136     7.1115     7.5107   143.9376  -999.2500  -999.2500  -999.2500  -999.2500
  176.5000   -50.2076     6.8407     7.4368   148.4266  -999.2500  -999.2500  -999.2500  -999.2500
  177.0000   -50.2017     6.8863     7.3632   158.1788  -999.2500  -999.2500  -999.2500  -999.2500
  177.5000   -50.0449     6.9918     7.3650   161.1696  -999.2500  -999.2500  -999.2500  -999.2500
  178.0000   -49.8881     7.0673     7.4416   158.1342  -999.2500  -999.2500  -999.2500  -999.2500
  178.5000   -49.8821     7.0678     7.5181   152.8488  -999.2500  -999.2500  -999.2500  -999.2500
  179.0000   -50.0271     7.0832     7.5947   146.8115  -999.2500  -999.2500  -999.2500  -999.2500
  179.5000   -50.1719     7.0987     7.6713   143.0298  -999.2500  -999.2500  -999.2500  -999.2500
  180.0000   -50.1659     7.2042     7.8229   139.3072  -999.2500  -999.2500  -999.2500  -999.2500
  180.5000   -50.1599     7.4599     7.8995   140.9010  -999.2500  -999.2500  -999.2500  -999.2500
  181.0000   -50.3048     7.5655     7.9009   143.1137  -999.2500  -999.2500  -999.2500  -999.2500
  181.5000   -50.2987     7.5679     7.9024   146.1441  -999.2500  -999.2500  -999.2500  -999.2500
  182.0000   -50.2914     7.4012     7.7538   148.4216  -999.2500  -999.2500  -999.2500  -999.2500
  182.5000   -50.2855     7.2065     7.5175   151.4520  -999.2500  -999.2500  -999.2500  -999.2500
  183.0000   -50.4318     6.9787     6.1742   156.7415  -999.2500  -999.2500  -999.2500  -999.2500
  183.5000   -50.4244     6.7959     5.7123   162.7840  -999.2500  -999.2500  -999.2500  -999.2500
  184.0000   -50.2676     6.6073     5.5825   166.5675  -999.2500  -999.2500  -999.2500  -999.2500
  184.5000   -50.2616     6.4426     5.8096   170.3510  -999.2500  -999.2500  -999.2500  -999.2500
  185.0000   -49.9540     6.4279     6.0363   169.6163  -999.2500  -999.2500  -999.2500  -999.2500
  185.5000   -49.6464     6.5936     6.1879   163.5983  -999.2500  -999.2500  -999.2500  -999.2500
  186.0000   -49.4896     6.8793     6.4897   156.7020  -999.2500  -999.2500  -999.2500  -999.2500
  186.5000   -49.4836     7.1501     6.7915   149.3448  -999.2500  -999.2500  -999.2500  -999.2500
  187.0000   -49.4777     7.4958     7.1684   143.3391  -999.2500  -999.2500  -999.2500  -999.2500
  187.5000   -49.4717     7.6164     8.1458   138.8395  -999.2500  -999.2500  -999.2500  -999.2500
  188.0000   -49.6181     7.9021     8.5978   133.5868  -999.2500  -999.2500  -999.2500  -999.2500
  188.5000   -49.6106     8.3530     8.8245   129.8401  -999.2500  -999.2500  -999.2500  -999.2500
  189.0000   -49.6047     8.4736     8.9010   126.8465  -999.2500  -999.2500  -999.2500  -999.2500
  189.5000   -49.5987     8.3990     8.8271   124.6013  -999.2500  -999.2500  -999.2500  -999.2500
  190.0000   -49.7436     8.0691     8.6788   123.1174  -999.2500  -999.2500  -999.2500  -999.2500
  190.5000   -49.7375     7.9194     8.3800   126.9017  -999.2500  -999.2500  -999.2500  -999.2500
  191.0000   -49.7316     7.9348     7.8559   132.2159  -999.2500  -999.2500  -999.2500  -999.2500
  191.5000   -49.8765     7.9503     7.6321   136.8909  -999.2500  -999.2500  -999.2500  -999.2500
  192.0000   -50.0214     7.8908     7.6337   142.0218  -999.2500  -999.2500  -999.2500  -999.2500
  192.5000   -50.1663     7.7711     7.4850   145.0522  -999.2500  -999.2500  -999.2500  -999.2500
  193.0000   -50.1588     7.6214     7.3353   147.3297  -999.2500  -999.2500  -999.2500  -999.2500
  193.5000   -50.1529     7.3966     6.9489   148.1011  -999.2500  -999.2500  -999.2500  -999.2500
  194.0000   -50.1469     7.3519     6.4224   148.1195  -999.2500  -999.2500  -999.2500  -999.2500
  194.5000   -50.2918     7.3524     6.1281   148.1379  -999.2500  -999.2500  -999.2500  -999.2500
  195.0000   -50.2858     7.3229     5.9913   147.3987  -999.2500  -999.2500  -999.2500  -999.2500
  195.5000   -50.2799     7.2032     5.7675   149.6807  -999.2500  -999.2500  -999.2500  -999.2500
  196.0000   -50.2739     7.0835     5.8441   152.7112  -999.2500  -999.2500  -999.2500  -999.2500
  196.5000   -50.1171     6.9488     5.9207   155.7799  -999.2500  -999.2500  -999.2500  -999.2500
  197.0000   -50.1112     6.8291     6.0723   158.1076  -999.2500  -999.2500  -999.2500  -999.2500
  197.5000   -49.9544     6.6794     6.2239   161.0541  -999.2500  -999.2500  -999.2500  -999.2500
  198.0000   -49.9484     6.5748     6.6008   161.0725  -999.2500  -999.2500  -999.2500  -999.2500
  198.5000   -49.6408     6.6072     6.8275   160.3379  -999.2500  -999.2500  -999.2500  -999.2500
  199.0000   -49.6500     6.7109     7.2044   159.6033  -999.2500  -999.2500  -999.2500  -999.2500
  199.5000   -49.6289     6.8164     7.5812   158.1111  -999.2500  -999.2500  -999.2500  -999.2500
  200.0000   -49.4721     6.9879     7.6574   156.6280  -999.2500  -999.2500  -999.2500  -999.2500
  200.5000   -49.4721     7.1194     7.6297   152.1299  -999.2500  -999.2500  -999.2500  -999.2500
  201.0000   -49.4721     7.2228     7.6059   146.8772  -999.2500  -999.2500  -999.2500  -999.2500
  201.5000   -49.4721     7.1781     7.5766   143.1260  -999.2500  -999.2500  -999.2500  -999.2500
  202.0000   -49.4721     7.3167     7.5075   140.1323  -999.2500  -999.2500  -999.2500  -999.2500
  202.5000   -49.4721     7.4399     7.5075   137.1433  -999.2500  -999.2500  -999.2500  -999.2500
  203.0000   -49.4721     7.5441     7.4324   136.4082  -999.2500  -999.2500  -999.2500  -999.2500
  203.5000   -49.4721     7.6475     7.3574   135.6740  -999.2500  -999.2500  -999.2500  -999.2500
  204.0000   -49.4721     7.7202     7.2823   134.9395  -999.2500  -999.2500  -999.2500  -999.2500
  204.5000   -49.4721     7.7655     7.1321   136.5836  -999.2500  -999.2500  -999.2500  -999.2500
  205.0000   -49.4721     7.7959     7.0571   140.2520  -999.2500  -999.2500  -999.2500  -999.2500
