~VERSION INFORMATION
 VERS.                2.0:   CWLS LOG ASCII STANDARD - VERSION 2.0
 WRAP.                 NO:   ONE LINE PER DEPTH STEP
~WELL INFORMATION
#MNEM.UNIT      DATA TYPE    INFORMATION
#----------   ------------   ------------------------------
 STRT.F           21.0000:   START DEPTH
 STOP.F          495.0000:   STOP DEPTH
 STEP.F            0.5000:   STEP LENGTH
 NULL.          -999.2500:   NO VALUE
 COMP. FENIX & SCISSON U.S. NAVY:   COMPANY
 WELL.        NPR #42-S-3:   WELL
 FLD .             TEAPOT:   FIELD
 LOC .       S3 T38N R78W:   LOCATION
 CNTY.            NATRONA:   COUNTY
 STAT.            WYOMING:   STATE
 CTRY. UNITED STATES OF AMERICA:   COUNTRY
 SRVC.              Welex:   SERVICE COMPANY
 DATE.        05-MAY-1977:   LOGDATE
 API .       490251034800:   API NUMBER
~CURVE INFORMATION
#MNEM.UNIT       API CODE    CURVE DESCRIPTION
#----------   ------------   ------------------------------
 DEPT.F                  :   
 SPR .MV     07 010 01 00:   SPONTANEOUS POTENTIAL
 SGRD.OHMM   07 221 05 00:   SHALLOW SHORT GUARD RESISTIVITY
 ILD .OHMM   07 120 46 00:   INDUCTION LOG DEEP
 ILM .OHMM   07 120 44 00:   INDUCTION LOG MEDIUM
 GRD .GAPI   45 310 01 00:   GAMMA RAY FROM DENSITY LOG
 CALD.IN     45 280 60 00:   CALIPER FROM DENSITY LOG
 CORR.G/C3   45 356 01 00:   DENSITY CORRECTION
 RHOB.G/C3   45 350 01 00:   BULK DENSITY
 DPHI.DEC    45 890 12 00:   DENSITY POROSITY SANDSTONE
~PARAMETER INFORMATION
#MNEM.UNIT          VALUE    DESCRIPTION
#----------   ------------   ------------------------------
 PD  .                 GL:   PERMANENT DATUM
 EPD .F              5120:   ELEVATION PERMANENT DATUM
 LMF .                 GL:   LOG MEASURED FROM
 DMF .                 GL:   DRILLING MEASURED FROM
 EGL .F              5120:   GROUND LEVEL
 DATE.        05-MAY-1977:   RUN DATE
 RUN .                  1:   RUN NUMBER
 DD  .F               490:   DEPTH DRILLER
 DL  .F               495:   DEPTH LOGGER
 BLI .F               493:   BOTTOM LOG INTERVAL
 TLI .F                20:   TOP LOG INTERVAL
 CS  .IN            8.625:   CASING SIZE
 CBD .F                25:   CASING BOTTOM DRILLER
 CBL .F                25:   CASING BOTTOM LOGGER
 BS  .IN            7.875:   BIT SIZE
 BSD .F               490:   BIT SIZE AT DEPTH
 DFT .            KCL MUD:   DRILLING FLUID TYPE
 DFD .                8.8:   DRILLING FLUID DENSITY
 DFV .                 34:   DRILLING FLUID VISCOSITY
 DFPH.                8.0:   DRILLING FLUID PH
 DFL .                8.4:   DRILLING FLUID LOSS
 MSS .           FLOWLINE:   MUD SAMPLE SOURCE
 RMS .OHMM           0.26:   RESISTIVITY MUD SAMPLE
 MST .F                60:   MUD SAMPLE TEMPERATURE
 RMF .OHMM           0.14:   RESISTIVITY MUD FILTRATE SAMPLE
 MFST.F                60:   MUD FILTRATE SAMPLE TEMPERATURE
 RMC .OHMM           0.41:   RESISTIVITY MUD CAKE
 MCST.F                60:   MUD CAKE SAMPLE TEMPERATURE
 MFSS.           FANN KIT:   MUD FILTRATE SAMPLE SOURCE
 MCSS.            FANNKIT:   MUD CAKE SAMPLE SOURCE
 RMB .OHMM           0.21:   RESISTIVITY MUD AT BHT
 BHT .F                71:   BOTTOM HOLE TEMPERATURE
 TCS .HRS            0130:   TIME CURCULATED STOPPED
 MRT .F                71:   MAXIMUM RECORDED TEMPERATURE
 LUN .               8611:   LOGGING UNIT NUMBER
 LUL .             CASPER:   LOGGING UNIT LOCATION
 ENGI.            C. DOAK:   RECORDING ENGINEER
 WITN.            R. LYON:   WITNESSED BY
 CLNT.            A2DTECH:   CLIENT CODE
 ORIG.           5" PRINT:   ORIGIN OF DATA
 UWI .       490251034800:   UNIQUE WELL ID
 DICO. A2D Technologies, Inc.:   DIGITIZING COMPANY
~OTHER INFORMATION
~A   DEPT      SPR       SGRD        ILD        ILM         GRD        CALD       CORR       RHOB       DPHI 
# ...
  203.5000   -58.8332     9.4197     6.4951     7.2992   114.9518     7.8093     0.0143     2.4649     0.1274
  204.0000   -59.1380     9.0362     6.1357     6.8004   114.4992     7.8090     0.0128     2.4522     0.1350
  204.5000   -59.4427     8.6684     5.5030     6.2261   114.7984     7.8087     0.0121     2.4313     0.1457
  205.0000   -59.7475     8.2583     5.0306     5.7703   115.2481     7.8083     0.0091     2.4111     0.1598
  205.5000   -60.2011     7.8677     4.6306     5.3848   115.3980     7.8080     0.0062     2.3782     0.1744
  206.0000   -60.8036     7.3222     4.3215     4.9563   114.4771     7.8077     0.0039     2.3497     0.1902
  206.5000   -61.2588     6.1782     3.8431     4.2580   112.4856     7.8074     0.0017     2.3302     0.2085
  207.0000   -61.8611     5.1279     3.4282     3.7495   110.9795     7.7922    -0.0005     2.3159     0.2166
  207.5000   -61.8683     4.4359     3.0814     3.3436   110.2783     7.7919    -0.0020     2.3062     0.2201
  208.0000   -61.8754     3.6313     2.9156     3.0564   112.0809     7.7916    -0.0028     2.3077     0.2153
  208.5000   -61.5849     2.8866     2.8165     2.9118   114.3351     7.7913    -0.0027     2.3401     0.2033
  209.0000   -61.1280     3.5892     2.8356     2.9113   116.4389     7.7910    -0.0011     2.3723     0.1752
  209.5000   -60.7063     4.4937     2.9145     2.9313   121.0991     7.7907     0.0019     2.4015     0.1635
  210.0000   -60.1200     7.1304     3.0581     3.0120   123.3532     7.7904     0.0040     2.4075     0.1599
  210.5000   -59.3831     7.4844     3.2311     3.0743   123.9536     7.7901     0.0033     2.4053     0.1611
  211.0000   -58.7950     4.1812     3.5093     3.2705   121.2450     7.7898     0.0033     2.4113     0.1584
  211.5000   -58.3557     3.8318     3.7852     3.7275   120.9431     7.7895     0.0026     2.4352     0.1425
  212.0000   -57.7441     7.9554     4.1682     4.1613   122.7461     7.7892     0.0004     2.4659     0.1254
  212.5000   -57.1795     9.6473     4.6618     4.6510   124.0977     7.7889    -0.0004     2.4622     0.1272
  213.0000   -56.7420     9.8470     5.1955     5.2582   128.0060     7.7886    -0.0004     2.4510     0.1307
  213.5000   -56.7491     9.9131     5.6041     5.7898   130.5609     7.7883     0.0004     2.4503     0.1328
  214.0000   -56.6071     9.7749     5.9621     6.2447   131.1609     7.7880     0.0012     2.4563     0.1313
  214.5000   -56.6146     9.5730     6.1703     6.5975   130.2352     7.7877     0.0042     2.4615     0.1282
  215.0000   -56.7723     9.3751     6.4745     6.8747   128.7118     7.8023     0.0064     2.4698     0.1232
  215.5000   -56.7794     9.3089     6.6090     7.0725   128.1486     7.8020     0.0094     2.4847     0.1145
  216.0000   -56.9353     9.3070     6.5625     7.2118   129.0493     7.8017     0.0125     2.4946     0.1088
  216.5000   -57.0913     9.3052     6.4718     7.1605   131.1531     7.8015     0.0147     2.4991     0.1052
  217.0000   -57.2472     9.3677     6.2949     7.1099   133.7080     7.8161     0.0155     2.4989     0.1061
  217.5000   -57.4033     9.6272     6.0390     7.0596   134.7596     7.8158     0.0162     2.4908     0.1109
  218.0000   -57.8585     9.8270     5.7121     7.0084   133.8555     7.8155     0.0163     2.4803     0.1168
  218.5000   -58.4609     9.8930     5.4067     6.4516   133.2525     7.8152     0.0155     2.4646     0.1258
  219.0000   -58.7656     9.8226     5.1870     5.8166   133.8525     7.8149     0.0148     2.4452     0.1387
  219.5000   -58.9216     3.7668     4.9761     5.3537   133.0991     7.7997     0.0126     2.4287     0.1503
  220.0000   -58.6310     4.7279     4.7411     4.9277   132.4962     7.7994     0.0073     2.4153     0.1572
  220.5000   -58.4894     6.8589     4.6434     4.6946   131.1413     7.7991     0.0036     2.4093     0.1593
  221.0000   -58.2007     7.2965     4.6428     4.8004   129.4857     7.7988     0.0014     2.4138     0.1569
  221.5000   -57.9084     8.3736     4.6741     5.6525   127.0782     7.7985     0.0006     2.4265     0.1526
  222.0000   -57.6197     5.1179     4.8374     6.0547   125.5729     7.7982     0.0007     2.4340     0.1446
  222.5000   -57.3292     6.8374     5.0064     6.1804   124.5188     7.7979     0.0007     2.4385     0.1403
  223.0000   -57.0387     8.8427     5.1813     5.9695   125.9549     7.7976     0.0007     2.4498     0.1361
  223.5000   -56.7267     9.0886     5.3255     6.0511   128.9460     7.7973     0.0007     2.4595     0.1304
  224.0000   -56.3090     8.8392     5.5609     6.2684   129.1760     7.7969     0.0007     2.4685     0.1261
  224.5000   -56.0202     9.0845     5.8634     6.4801   127.3697     7.7967     0.0015     2.4723     0.1222
  225.0000   -55.7280     9.7310     6.1102     6.8936   125.2629     7.7964     0.0022     2.4775     0.1185
  225.5000   -55.5878    10.4950     6.3236     7.4352   123.6073     7.7961     0.0038     2.4806     0.1160
  226.0000   -55.4444    10.8609     6.6354     7.8552   123.4558     7.7958     0.0045     2.4806     0.1163
  226.5000   -55.1559    11.1624     6.8700     8.2437   124.5066     7.7955     0.0045     2.4782     0.1178
  227.0000   -55.0142    11.2379     7.1560     8.3547   125.5577     7.7952     0.0046     2.4754     0.1189
  227.5000   -55.0232    11.2351     7.4060     8.3527   126.3085     7.7949     0.0046     2.4776     0.1189
  228.0000   -54.8797    11.1557     7.6121     8.3510   124.6529     7.7946     0.0046     2.4806     0.1168
  228.5000   -54.5910    11.0763     7.7701     8.2920   126.1548     7.7943     0.0061     2.4851     0.1135
  229.0000   -54.5982    10.9225     7.8770     8.2334   127.9578     7.7940     0.0069     2.4896     0.1108
  229.5000   -54.6070    10.6968     7.9853     8.2887   130.9639     7.7937     0.0076     2.4941     0.1087
  230.0000   -54.6142    10.4758     7.7668     8.4017   131.7142     7.7934     0.0084     2.4964     0.1078
  230.5000   -54.4707    10.1188     7.5545     8.4586   128.8556     7.8081     0.0099     2.4972     0.1084
  231.0000   -54.4796     9.9728     7.2475     8.3984   128.1023     7.8078     0.0099     2.4979     0.1084
  231.5000   -54.4867     9.8392     6.9529     8.3390   129.9907     7.8075     0.0115     2.4965     0.1071
  232.0000   -54.4940     9.7697     6.6703     8.2232   131.7083     7.8222     0.0123     2.4957     0.1056
  232.5000   -54.5028     9.6340     6.3925     8.0532   129.7516     7.8219     0.0129     2.4942     0.1065
  233.0000   -54.5099     9.5659     6.0967     7.8323   129.1486     7.8216     0.0130     2.4928     0.1095
  233.5000   -54.5171     9.3682     5.8893     7.6178   129.2975     7.8212     0.0122     2.4860     0.1128
  234.0000   -54.6730     9.2304     5.7284     7.3582   129.8979     7.8059     0.0108     2.4831     0.1140
  234.5000   -54.6801     8.8007     5.5718     7.0586   130.1972     7.8056     0.0108     2.4838     0.1143
  235.0000   -55.0050     8.5596     5.4558     6.5826   130.4961     7.8053     0.0115     2.4785     0.1172
  235.5000   -55.2896     5.6589     5.4187     5.7770   132.4495     7.8050     0.0100     2.4646     0.1301
  236.0000   -54.9991     5.2088     5.4554     5.9373   135.3051     7.8048     0.0056     2.4452     0.1426
  236.5000   -54.7087     6.7671     5.5687     6.3598   135.1533     7.8045     0.0041     2.4337     0.1432
  237.0000   -54.5670     8.2617     5.6843     7.0029   133.6480     7.8042     0.0026     2.4367     0.1411
  237.5000   -54.4271     9.6140     5.8829     7.6053   130.6390     7.8039     0.0041     2.4465     0.1354
  238.0000   -53.9878    10.6592     6.0923     8.0453   128.2316     7.8036     0.0064     2.4652     0.1282
  238.5000   -53.8461    10.9556     6.3445     8.3726   129.2827     7.8033     0.0049     2.4735     0.1231
  239.0000   -53.5556    10.8777     6.6116     8.4872   132.9019     7.8030     0.0042     2.4727     0.1213
  239.5000   -53.4139    10.3612     6.7955     8.6624   137.1872     7.8027     0.0049     2.4765     0.1198
