~VERSION INFORMATION
 VERS.                2.0:   CWLS LOG ASCII STANDARD - VERSION 2.0
 WRAP.                 NO:   ONE LINE PER DEPTH STEP
~WELL INFORMATION
#MNEM.UNIT      DATA TYPE    INFORMATION
#----------   ------------   ------------------------------
 STRT.F            0.0000:   START DEPTH
 STOP.F          652.0000:   STOP DEPTH
 STEP.F            0.5000:   STEP LENGTH
 NULL.          -999.2500:   NO VALUE
 COMP. US DEPTMNT OF ENRGY:   COMPANY
 WELL. NPR ##3 14-14-SX-11:   WELL
 FLD .   TEAPOT NAVAL RES:   FIELD
 LOC .      S11 T38N R78W:   LOCATION
 CNTY.            NATRONA:   COUNTY
 STAT.            WYOMING:   STATE
 CTRY. UNITED STATES OF AMERICA:   COUNTRY
 SRVC.            Unknown:   SERVICE COMPANY
 DATE.        03-JAN-1985:   LOGDATE
 API .       490251102400:   API NUMBER
~CURVE INFORMATION
#MNEM.UNIT       API CODE    CURVE DESCRIPTION
#----------   ------------   ------------------------------
 DEPT.F                  :   
 CALD.IN     45 280 60 00:   CALIPER
 CORR.G/C3   45 356 01 00:   DENSITY CORRECTION
 PORD.DEC    45 890 12 00:   DENSITY POROSITY SANDSTONE
 CNC .DEC    42 890 03 00:   NEUTRON POROSITY SANDSTONE
 SPR .MV     11 010 01 00:   SPONTANEOUS POTENTIAL FROM RES.
 GRR .GAPI   11 310 01 00:   GAMMA RAY FROM RES.
 RS  .OHMM   11 220 09 00:   RESISTIVITY SHALLOW
 RD  .OHMM   11 220 10 00:   RESISTIVITY DEEP
 DEN .G/C3   45 350 01 00:   COMPENSATED BULK DENSTIY
~PARAMETER INFORMATION
#MNEM.UNIT          VALUE    DESCRIPTION
#----------   ------------   ------------------------------
 PD  .                 GL:   PERMANENT DATUM
 EPD .F            5197.3:   ELEVATION PERMANENT DATUM
 LMF .                 KB:   LOG MEASURED FROM
 DMF .                 KB:   DRILLING MEASURED FROM
 EKB .F            5197.3:   KELLING BUSHING
 EGL .F            5197.3:   GROUND LEVEL
 DATE.         3-JAN-1985:   RUN DATE
 RUN .                  1:   RUN NUMBER
 DD  .F               650:   DEPTH DRILLER
 DL  .F               653:   DEPTH LOGGER
 BLI .F               651:   BOTTOM LOG INTERVAL
 CS  .IN            8.625:   CASING SIZE
 CBD .F                20:   CASING BOTTOM DRILLER
 CBL .F                20:   CASING BOTTOM LOGGER
 BS  .IN             6.25:   BIT SIZE
 BSD .F               650:   BIT SIZE AT DEPTH
 DFT .                KCL:   DRILLING FLUID TYPE
 RMS .OHMM            .12:   RESISTIVITY MUD SAMPLE
 MST .F                70:   MUD SAMPLE TEMPERATURE
 RMF .OHMM            .09:   RESISTIVITY MUD FILTRATE SAMPLE
 MFST.F                70:   MUD FILTRATE SAMPLE TEMPERATURE
 RMC .OHMM            .15:   RESISTIVITY MUD CAKE
 MCST.F                70:   MUD CAKE SAMPLE TEMPERATURE
 MFSS.               CALC:   MUD FILTRATE SAMPLE SOURCE
 MCSS.               CALC:   MUD CAKE SAMPLE SOURCE
 RMB .OHMM             .1:   RESISTIVITY MUD AT BHT
 BHT .F                80:   BOTTOM HOLE TEMPERATURE
 TCS .HRS               3:   TIME CURCULATED STOPPED
 MRT .F                80:   MAXIMUM RECORDED TEMPERATURE
 LUN .               6274:   LOGGING UNIT NUMBER
 LUL .               GLTE:   LOGGING UNIT LOCATION
 ENGI.               MACK:   RECORDING ENGINEER
 WITN.               PAGE:   WITNESSED BY
 CLNT.            A2DTECH:   CLIENT CODE
 ORIG.       2", 5" PRINT:   ORIGIN OF DATA
 UWI .       490251102400:   UNIQUE WELL ID
 DICO. A2D Technologies, Inc.:   DIGITIZING COMPANY
~OTHER INFORMATION
~A    DEPT    CALD       CORR       PORD        CNC        SPR         GRR        RS         RD        DEN   
# ...
   73.0000     6.5228    -0.0104     0.1486     0.3122   -61.9789   102.5919     9.9249    86.4804     2.4272
   73.5000     6.5233    -0.0062     0.1473     0.3218   -62.2682   103.6982     9.9201    85.5104     2.4285
   74.0000     6.5239    -0.0022     0.1460     0.3240   -62.4199   104.0017     9.8919    84.5512     2.4289
   74.5000     6.5245     0.0069     0.1459     0.3195   -62.5737   102.9487     9.8642    83.6028     2.4281
   75.0000     6.5251     0.0165     0.1469     0.3075   -62.7263   103.4380     9.8365    82.6651     2.4307
   75.5000     6.5257     0.0261     0.1469     0.3038   -62.8792   103.7409     9.8088    81.7378     2.4335
   76.0000     6.5262     0.0360     0.1471     0.3022   -63.0320   103.9332     9.7810    80.4701     2.4339
   76.5000     6.5268     0.0312     0.1478     0.2995   -63.1848   104.6737     9.7545    81.0453     2.4335
   77.0000     6.5274     0.0178     0.1466     0.2956   -63.3368   105.3170     9.7436    81.9903     2.4331
   77.5000     6.5279     0.0043     0.1434     0.2861   -63.4877   106.0008    10.0950    83.2156     2.4327
   78.0000     6.5285    -0.0089     0.1402     0.2791   -63.6882   106.8677    10.3919    85.3874     2.4322
   78.5000     6.5291    -0.0106     0.1378     0.2796   -63.8006   107.9574    10.6845    87.6159     2.4350
   79.0000     6.5297     0.0086     0.1382     0.2799   -63.7625   107.7689    10.7012    89.9025     2.4385
   79.5000     6.5303     0.0273     0.1393     0.2791   -63.7167   108.6547    10.7155    92.2491     2.4458
   80.0000     6.5308     0.0399     0.1388     0.2795   -63.6717   109.9343    10.7304    94.6589     2.4498
   80.5000     6.5314     0.0372     0.1358     0.2856   -63.6271   108.7714    10.7455    97.1267     2.4489
   81.0000     6.5320     0.0339     0.1329     0.2917   -63.5825   107.6562    10.7606    99.4779     2.4481
   81.5000     6.5326     0.0308     0.1298     0.2950   -63.5378   108.4150    10.7756    99.4779     2.4521
   82.0000     6.5331     0.0327     0.1298     0.2917   -63.4925   109.1804    10.7835    99.4779     2.4569
   82.5000     6.5337     0.0503     0.1324     0.2882   -63.4439   108.7123    10.7836    99.4779     2.4617
   83.0000     6.5343     0.0444     0.1344     0.2924   -63.5923   105.9702    10.7836   100.3993     2.4607
   83.5000     6.5349     0.0356     0.1365     0.3002   -63.7746   103.1711    10.7836    98.5261     2.4572
   84.0000     6.5354     0.0266     0.1385     0.3260   -63.9577   100.3014    10.7836    96.5548     2.4537
   84.5000     6.5360     0.0232     0.1406     0.3288   -64.1404   103.6117    10.7837    94.5829     2.4502
   85.0000     6.5366     0.0243     0.1425     0.3126   -64.3229   107.9463    10.7838    92.6513     2.4466
   85.5000     6.5372     0.0279     0.1421     0.2986   -64.5055   110.3397    10.7475    90.7612     2.4431
   86.0000     6.5377     0.0198     0.1402     0.2915   -64.6886   108.9466    10.6374    88.9097     2.4407
   86.5000     6.5383     0.0091     0.1384     0.2961   -64.8727   107.1424    10.5865    87.0959     2.4445
   87.0000     6.5389     0.0189     0.1373     0.3070   -65.0349   109.4512    10.4341    85.3192     2.4482
   87.5000     6.5395     0.0298     0.1379     0.3026   -64.8823   109.8697    10.2740    83.4931     2.4512
   88.0000     6.5400     0.0408     0.1384     0.2986   -64.7235   105.4660    10.2032    82.7269     2.4491
   88.5000     6.5404     0.0233     0.1389     0.2918   -64.5663   102.8374    10.2289    81.9264     2.4472
   89.0000     6.5401     0.0030     0.1366     0.2886   -64.4093   103.4342    10.2628    84.4884     2.4481
   89.5000     6.5398     0.0280     0.1342     0.2939   -64.2524   104.0128    10.2979    86.4025     2.4529
   90.0000     6.5395     0.0309     0.1318     0.2988   -64.0944   104.9291    10.2968    88.3534     2.4576
   90.5000     6.5392     0.0230     0.1331     0.3014   -64.0075   106.0587    10.5204    90.3484     2.4574
   91.0000     6.5389     0.0172     0.1345     0.3042   -63.9544   108.1435    10.7132    92.3862     2.4538
   91.5000     6.5386     0.0309     0.1359     0.2899   -63.9016   108.8017    10.9101    93.8653     2.4502
   92.0000     6.5383     0.0292     0.1373     0.2871   -63.8488   108.0327    11.1887    95.7135     2.4496
   92.5000     6.5380     0.0254     0.1376     0.2843   -63.7960   106.8885    11.1051    97.6112     2.4505
   93.0000     6.5377     0.0244     0.1376     0.2843   -63.7430   108.5514    10.9686    99.5443     2.4515
   93.5000     6.5374     0.0245     0.1376     0.2843   -63.6898   110.5210    10.7841   102.2678     2.4524
   94.0000     6.5370     0.0161     0.1376     0.2843   -63.6432   111.9579    10.8392   102.0885     2.4529
   94.5000     6.5367     0.0050     0.1367     0.2914   -63.6694   109.6105    10.9322   101.8019     2.4509
   95.0000     6.5364     0.0126     0.1376     0.2914   -63.6963   107.4954    11.0093   101.5162     2.4489
   95.5000     6.5361     0.0171     0.1368     0.2934   -63.7229   106.7740    11.0860   101.2313     2.4497
   96.0000     6.5358     0.0186     0.1348     0.2959   -63.7493   107.3491    11.0594   100.9472     2.4522
   96.5000     6.5355     0.0104     0.1334     0.2981   -63.7758   109.7540    11.0184   100.6639     2.4547
   97.0000     6.5352     0.0044     0.1337     0.2968   -63.8022   109.2575    10.9776   100.3993     2.4563
   97.5000     6.5349     0.0045     0.1348     0.2962   -63.8287   109.4277    10.9368    98.0807     2.4537
   98.0000     6.5346     0.0046     0.1368     0.2976   -63.8552   111.8688    10.8835    95.9497     2.4508
   98.5000     6.5343     0.0099     0.1365     0.3153   -63.8817   115.6344    10.8980    93.8650     2.4481
   99.0000     6.5340     0.0218     0.1352     0.3129   -63.9081   115.7466    10.9202    91.5568     2.4505
   99.5000     6.5337     0.0337     0.1338     0.3088   -63.9346   112.9026    10.9424    89.8116     2.4533
  100.0000     6.5334     0.0443     0.1365     0.3047   -63.9611   109.7671    10.9645    87.8874     2.4510
  100.5000     6.5331     0.0397     0.1408     0.3006   -63.9876   109.1892    10.9842    85.8346     2.4446
  101.0000     6.5328     0.0233     0.1447     0.2965   -64.0147   108.8070    10.8546    86.1372     2.4382
  101.5000     6.5325     0.0074     0.1445     0.2961   -64.0401   108.9429    10.7388    86.4714     2.4374
  102.0000     6.5322    -0.0050     0.1410     0.2974   -63.9644   109.4550    10.5544    86.6297     2.4414
  102.5000     6.5319    -0.0153     0.1414     0.2982   -63.8796   111.3175    10.3120    86.6297     2.4436
  103.0000     6.5315    -0.0124     0.1410     0.2958   -63.7951   113.2052    10.1096    79.0334     2.4419
  103.5000     6.5312    -0.0057     0.1385     0.2839   -63.7108   114.0300     9.0949    71.3810     2.4453
  104.0000     6.5309     0.0010     0.1359     0.2747   -63.6264   112.4579     8.1352    58.9652     2.4519
  104.5000     6.5306     0.0077     0.1336     0.2773   -63.5420   111.2052     7.2542    48.0187     2.4542
  105.0000     6.5303     0.0186     0.1314     0.2815   -63.4579   111.8900     7.4358    49.8226     2.4552
  105.5000     6.5300     0.0323     0.1291     0.2842   -63.3688   113.5567     7.6771    50.2841     2.4614
  106.0000     6.5297     0.0463     0.1293     0.2903   -63.2789   113.6202     8.0244    45.8554     2.4629
  106.5000     6.5294     0.0401     0.1324     0.2970   -63.1889   114.0171     7.9469    46.6660     2.4574
  107.0000     6.5291     0.0301     0.1354     0.2986   -63.0989   116.0924     7.9423    48.0491     2.4519
  107.5000     6.5288     0.0204     0.1343     0.2991   -63.0089   117.3117     7.9077    47.0664     2.4538
  108.0000     6.5285     0.0151     0.1331     0.2986   -62.9189   114.1492     7.8818    41.0464     2.4560
  108.5000     6.5282     0.0105     0.1336     0.2956   -62.8289   110.7005     7.9748    31.4214     2.4550
  109.0000     6.5279     0.0098     0.1328     0.2870   -62.7397   110.1482     8.1244    31.1331     2.4540
