~VERSION INFORMATION
 VERS.                2.0:   CWLS LOG ASCII STANDARD - VERSION 2.0
 WRAP.                 NO:   ONE LINE PER DEPTH STEP
~WELL INFORMATION
#MNEM.UNIT      DATA TYPE    INFORMATION
#----------   ------------   ------------------------------
 STRT.F           23.0000:   START DEPTH
 STOP.F         1106.0000:   STOP DEPTH
 STEP.F            0.5000:   STEP LENGTH
 NULL.          -999.2500:   NO VALUE
 COMP. FENIX & SCISSON INC:   COMPANY
 WELL.       NPR-3 #67-11:   WELL
 FLD . TEAPOT DOME NPR #3:   FIELD
 LOC .      S11 T38N R78W:   LOCATION
 CNTY.            NATRONA:   COUNTY
 STAT.            WYOMING:   STATE
 CTRY. UNITED STATES OF AMERICA:   COUNTRY
 SRVC.            Unknown:   SERVICE COMPANY
 DATE.        06-MAR-1978:   LOGDATE
 API .       490251059100:   API NUMBER
~CURVE INFORMATION
#MNEM.UNIT       API CODE    CURVE DESCRIPTION
#----------   ------------   ------------------------------
 DEPT.F                  :   
 ILD .OHMM   05 120 46 00:   INDUCTION LOG DEEP
 SN  .OHMM   05 040 16 00:   SHORT NORMAL 16"
 SPR .MV     05 010 01 00:   SPONTANEOUS POTENTIAL FROM RES.
 CALD.IN     45 280 60 00:   CALIPER
 GRD .GAPI   45 310 01 00:   GAMMA RAY FROM DENSITY LOG
 CORR.G/C3   45 356 01 00:   DENSITY CORRECTION
 DPHI.DEC    45 890 12 00:   DENSITY POROSITY SANDSTONE
 RHOB.G/C3   45 350 01 00:   BULK DENSITY
~PARAMETER INFORMATION
#MNEM.UNIT          VALUE    DESCRIPTION
#----------   ------------   ------------------------------
 PD  .                 GL:   PERMANENT DATUM
 EPD .F              5243:   ELEVATION PERMANENT DATUM
 LMF .                 KB:   LOG MEASURED FROM
 DAPD.F                 4:   FEET ABOVE PERMANENT DATUM
 DMF .                 KB:   DRILLING MEASURED FROM
 EKB .F              5247:   KELLING BUSHING
 EGL .F              5243:   GROUND LEVEL
 DATE.           3-6-1978:   RUN DATE
 RUN .                  1:   RUN NUMBER
 DD  .F              1104:   DEPTH DRILLER
 DL  .F              1108:   DEPTH LOGGER
 BLI .F              1102:   BOTTOM LOG INTERVAL
 TLI .F                40:   TOP LOG INTERVAL
 CS  .IN            8.625:   CASING SIZE
 CBD .F                40:   CASING BOTTOM DRILLER
 CBL .F                40:   CASING BOTTOM LOGGER
 BS  .IN            7.875:   BIT SIZE
 BSD .F              1104:   BIT SIZE AT DEPTH
 DFT .         LIGNO/SULF:   DRILLING FLUID TYPE
 DFD .                8.6:   DRILLING FLUID DENSITY
 DFV .                 31:   DRILLING FLUID VISCOSITY
 DFL .                  8:   DRILLING FLUID LOSS
 MSS .            MUD PIT:   MUD SAMPLE SOURCE
 RMS .OHMM              2:   RESISTIVITY MUD SAMPLE
 MST .F                58:   MUD SAMPLE TEMPERATURE
 RMF .OHMM            1.2:   RESISTIVITY MUD FILTRATE SAMPLE
 MFST.F                64:   MUD FILTRATE SAMPLE TEMPERATURE
 RMC .OHMM              3:   RESISTIVITY MUD CAKE
 MCST.F                64:   MUD CAKE SAMPLE TEMPERATURE
 MFSS.               MEAS:   MUD FILTRATE SAMPLE SOURCE
 RMB .OHMM            1.5:   RESISTIVITY MUD AT BHT
 BHT .F                78:   BOTTOM HOLE TEMPERATURE
 TCS .HRS               4:   TIME CURCULATED STOPPED
 MRT .F                78:   MAXIMUM RECORDED TEMPERATURE
 LUN .               2959:   LOGGING UNIT NUMBER
 LUL .               CASP:   LOGGING UNIT LOCATION
 ENGI.             MILLER:   RECORDING ENGINEER
 WITN.           MCGINLEY:   WITNESSED BY
 CLNT.            A2DTECH:   CLIENT CODE
 ORIG.       2", 5" PRINT:   ORIGIN OF DATA
 UWI .       490251059100:   UNIQUE WELL ID
 DICO. A2D Technologies, Inc.:   DIGITIZING COMPANY
~OTHER INFORMATION
~A   DEPT      ILD         SN        SPR       CALD         GRD      CORR       DPHI       RHOB   
# ...
  104.0000     5.2098     5.5941   -25.3676     7.8378    84.6425     0.0210     0.1668     2.3941
  104.5000     5.1600     5.5491   -25.1302     7.8385    84.9610     0.0172     0.1659     2.3873
  105.0000     5.1106     5.4527   -24.9012     7.8393    85.6859     0.0130     0.1696     2.3868
  105.5000     5.0616     5.3412   -24.8186     7.8401    85.6488     0.0113     0.1730     2.3823
  106.0000     5.0130     5.2590   -24.8674     7.8409    85.0862     0.0117     0.1722     2.3804
  106.5000     4.9649     5.2030   -24.9160     7.8417    84.9512     0.0122     0.1684     2.3832
  107.0000     4.9173     5.1478   -24.9653     7.8424    85.5435     0.0127     0.1724     2.3821
  107.5000     4.9113     5.0965   -25.0144     7.8432    86.1356     0.0147     0.1733     2.3742
  108.0000     4.9113     5.1456   -25.0636     7.8440    86.7190     0.0202     0.1716     2.3750
  108.5000     4.9113     5.1926   -25.1129     7.8448    87.0603     0.0257     0.1698     2.3796
  109.0000     4.9113     5.2394   -25.1614     7.8455    83.7816     0.0317     0.1682     2.3842
  109.5000     4.9569     5.3614   -25.1901     7.8463    80.1596     0.0381     0.1653     2.3835
  110.0000     5.0020     5.4846   -25.1414     7.8471    78.2581     0.0445     0.1612     2.3851
  110.5000     5.0477     5.6107   -25.0942     7.8479    78.6463     0.0507     0.1572     2.4036
  111.0000     5.0962     5.7396   -25.0463     7.8486    79.2442     0.0493     0.1550     2.4017
  111.5000     5.2296     5.8716   -25.0056     7.8494    80.6510     0.0316     0.1536     2.3986
  112.0000     5.3741     6.0200   -25.1906     7.8502    82.8748     0.0214     0.1522     2.4053
  112.5000     5.5227     6.1304   -25.3880     7.8510    82.6085     0.0112     0.1553     2.4092
  113.0000     5.5673     6.1873   -25.5850     7.8518    79.4180     0.0069     0.1585     2.3983
  113.5000     5.6096     6.1873   -25.7826     7.8525    79.7219     0.0056     0.1602     2.4019
  114.0000     5.6413     6.1873   -25.9923     7.8533    80.6362     0.0075     0.1587     2.3980
  114.5000     5.6475     6.1873   -26.1729     7.8541    81.4094     0.0105     0.1535     2.4020
  115.0000     5.6570     6.1873   -25.7418     7.8549    81.2173     0.0206     0.1417     2.4134
  115.5000     5.6665     6.1873   -25.6930     7.8556    80.8482     0.0306     0.1471     2.4251
  116.0000     5.6761     6.2130   -25.7535     7.8564    80.4716     0.0300     0.1518     2.4239
  116.5000     5.6856     6.2785   -25.5714     7.8572    80.3403     0.0269     0.1538     2.4139
  117.0000     5.6937     6.3446   -25.3943     7.8580    82.3114     0.0259     0.1489     2.4089
  117.5000     5.6937     6.4404   -25.2152     7.8582    85.0646     0.0293     0.1414     2.4183
  118.0000     5.7811     6.4982   -25.0292     7.8561    85.4333     0.0462     0.1392     2.4276
  118.5000     5.8757     6.5404   -25.1572     7.8541    84.0347     0.0616     0.1367     2.4346
  119.0000     5.9628     6.5525   -25.3572     7.8521    83.8987     0.0628     0.1342     2.4374
  119.5000     5.9300     6.5953   -25.3125     7.8502    85.7731     0.0644     0.1345     2.4402
  120.0000     5.9001     6.6382   -25.2040     7.8482    87.6265     0.0609     0.1363     2.4417
  120.5000     5.8704     6.6619   -25.1989     7.8462    89.4843     0.0539     0.1392     2.4366
  121.0000     5.8229     6.4960   -25.1997     7.8442    90.7625     0.0468     0.1410     2.4316
  121.5000     5.7527     6.3661   -25.2705     7.8422    85.8998     0.0397     0.1490     2.4255
  122.0000     5.6835     6.2388   -25.4104     7.8402    82.4847     0.0327     0.1505     2.4176
  122.5000     5.5599     6.1103   -25.5576     7.8359    82.1234     0.0268     0.1530     2.4137
  123.0000     5.4014     6.0584   -25.4859     7.8215    82.2954     0.0263     0.1522     2.4113
  123.5000     5.2394     6.0070   -25.3269     7.8073    83.3270     0.0258     0.1504     2.4093
  124.0000     5.1913     5.9628   -25.2438     7.7930    85.3374     0.0253     0.1485     2.4152
  124.5000     5.1913     5.9832   -25.4786     7.7789    85.8167     0.0247     0.1514     2.4197
  125.0000     5.3207     6.0182   -25.7077     7.7645    85.1288     0.0242     0.1521     2.4145
  125.5000     5.5082     6.0748   -25.9466     7.7656    86.0422     0.0236     0.1510     2.4125
  126.0000     5.7023     6.3015   -26.1878     7.7761    85.4736     0.0230     0.1498     2.4129
  126.5000     5.9032     6.6732   -26.3788     7.7869    80.2934     0.0290     0.1366     2.4254
  127.0000     6.0529     7.0667   -26.2351     7.7976    79.7638     0.0351     0.1306     2.4384
  127.5000     6.1320     7.3385   -25.8913     7.8084    79.3224     0.0350     0.1310     2.4511
  128.0000     6.2122     7.4829   -25.8303     7.8191    79.3672     0.0349     0.1322     2.4545
  128.5000     6.2934     7.5120   -26.5802     7.8299    80.6756     0.0317     0.1358     2.4515
  129.0000     6.3612     7.3999   -25.8124     7.8394    81.9744     0.0237     0.1390     2.4451
  129.5000     6.2913     7.1114   -25.7942     7.8427    83.2649     0.0212     0.1409     2.4386
  130.0000     6.2324     6.9114   -25.7968     7.8461    84.3466     0.0268     0.1428     2.4321
  130.5000     6.1742     6.7793   -25.7971     7.8496    84.0811     0.0312     0.1446     2.4256
  131.0000     6.1168     6.7251   -25.7959     7.8530    83.4069     0.0266     0.1456     2.4222
  131.5000     6.0604     6.6710   -25.7937     7.8564    83.1230     0.0197     0.1460     2.4197
  132.0000     5.9645     6.6177   -25.5602     7.8598    84.4355     0.0131     0.1417     2.4202
  132.5000     5.9478     6.5718   -25.1998     7.8633    86.6315     0.0134     0.1366     2.4244
  133.0000     5.9320     6.5296   -25.5808     7.8667    86.7182     0.0227     0.1366     2.4286
  133.5000     5.9078     6.4872   -25.8805     7.8701    86.4034     0.0232     0.1366     2.4327
  134.0000     5.9084     6.4222   -26.0025     7.8735    85.6699     0.0160     0.1409     2.4371
  134.5000     5.8360     6.3531   -25.7038     7.8770    85.0093     0.0130     0.1462     2.4294
  135.0000     5.7662     6.2847   -25.2970     7.8785    84.3587     0.0179     0.1496     2.4198
  135.5000     5.6942     6.2153   -25.3170     7.8785    84.1661     0.0249     0.1510     2.4106
  136.0000     5.5894     6.1195   -25.5483     7.8785    84.8904     0.0252     0.1462     2.4183
  136.5000     5.6055     6.0609   -24.7062     7.8785    85.6017     0.0182     0.1587     2.4256
  137.0000     5.6225     6.0029   -24.2850     7.8785    85.7973     0.0102     0.1577     2.4155
  137.5000     5.6396     5.9628   -25.4080     7.8785    85.0344     0.0102     0.1567     2.4058
  138.0000     5.6567     6.0520   -25.9957     7.8785    84.6176     0.0120     0.1558     2.4031
  138.5000     5.6739     6.1529   -26.1769     7.8785    85.3578     0.0154     0.1533     2.4059
  139.0000     5.6911     6.2140   -26.3561     7.8785    86.0792     0.0209     0.1468     2.4085
  139.5000     5.7674     6.3046   -26.1843     7.8785    85.8726     0.0262     0.1482     2.4152
  140.0000     5.8555     6.5604   -25.4271     7.8785    85.6056     0.0316     0.1502     2.4215
  140.5000     5.9449     6.6762   -25.9358     7.8785    85.3137     0.0370     0.1495     2.4177
  141.0000     6.0356     6.6996   -25.8994     7.8785    84.2363     0.0445     0.1455     2.4167
  141.5000     6.1304     6.7237   -25.9000     7.8785    83.0689     0.0600     0.1330     2.4204
  142.0000     6.1408     6.7558   -25.4558     7.8785    82.5166     0.0749     0.1320     2.4421
  142.5000     6.1516     6.7978   -24.4509     7.8774    83.6558     0.0774     0.1339     2.4600
  143.0000     6.1623     6.8401   -24.1653     7.8754    84.7412     0.0525     0.1446     2.4416
  143.5000     6.1731     6.8826   -25.0696     7.8734    84.8430     0.0326     0.1394     2.4237
  144.0000     6.1873     6.9127   -25.1215     7.8714    88.1061     0.0315     0.1357     2.4289
