~VERSION INFORMATION
 VERS.                2.0:   CWLS LOG ASCII STANDARD - VERSION 2.0
 WRAP.                 NO:   ONE LINE PER DEPTH STEP
~WELL INFORMATION
#MNEM.UNIT      DATA TYPE    INFORMATION
#----------   ------------   ------------------------------
 STRT.F           46.0000:   START DEPTH
 STOP.F          457.0000:   STOP DEPTH
 STEP.F            0.5000:   STEP LENGTH
 NULL.          -999.2500:   NO VALUE
 COMP. BROWN JOHN E&C INC:   COMPANY
 WELL. NPR 3 X10 #54-52-10:   WELL
 FLD .             TEAPOT:   FIELD
 LOC .      S10 T38N R78W:   LOCATION
 CNTY.            NATRONA:   COUNTY
 STAT.            WYOMING:   STATE
 CTRY. UNITED STATES OF AMERICA:   COUNTRY
 SRVC.       Schlumberger:   SERVICE COMPANY
 DATE.        27-SEP-1990:   LOGDATE
 API .       490251131700:   API NUMBER
~CURVE INFORMATION
#MNEM.UNIT       API CODE    CURVE DESCRIPTION
#----------   ------------   ------------------------------
 DEPT.F                  :   
 GRR .GAPI   07 310 01 00:   GAMMA RAY
 ILD .OHMM   07 120 46 00:   INDUCTION LOG DEEP
 ILM .OHMM   07 120 44 00:   INDUCTION LOG MEDIUM
~PARAMETER INFORMATION
#MNEM.UNIT          VALUE    DESCRIPTION
#----------   ------------   ------------------------------
 PD  .                 GL:   PERMANENT DATUM
 EPD .F              5190:   ELEVATION PERMANENT DATUM
 LMF .                 KB:   LOG MEASURED FROM
 DAPD.F              10.0:   FEET ABOVE PERMANENT DATUM
 DMF .                 KB:   DRILLING MEASURED FROM
 EKB .F              5200:   KELLING BUSHING
 EDF .F              5199:   DRILLING FLOOR
 EGL .F              5190:   GROUND LEVEL
 DATE.        27-SEP-1990:   RUN DATE
 RUN .                  1:   RUN NUMBER
 DD  .F               460:   DEPTH DRILLER
 DL  .F               463:   DEPTH LOGGER
 BLI .F               467:   BOTTOM LOG INTERVAL
 TLI .F                48:   TOP LOG INTERVAL
 CS  .IN            8.625:   CASING SIZE
 CBD .F                48:   CASING BOTTOM DRILLER
 CBL .F                62:   CASING BOTTOM LOGGER
 BS  .IN            7.875:   BIT SIZE
 BSD .F               460:   BIT SIZE AT DEPTH
 DFT .                AIR:   DRILLING FLUID TYPE
 TCS .HRS            1900:   TIME CURCULATED STOPPED
 TLAB.HRS            1618:   TIME LOGGER AT BOTTOM
 LUN .               6882:   LOGGING UNIT NUMBER
 LUL .               CODY:   LOGGING UNIT LOCATION
 ENGI.        MICK FISHER:   RECORDING ENGINEER
 WITN.       GARRY STRONG:   WITNESSED BY
 CLNT.            A2DTECH:   CLIENT CODE
 ORIG.           5" PRINT:   ORIGIN OF DATA
 UWI .       490251131700:   UNIQUE WELL ID
 DICO. A2D Technologies, Inc.:   DIGITIZING COMPANY
~OTHER INFORMATION
~A   DEPT       GRR       ILD        ILM   
# ...
  228.0000   146.1649     6.5699     6.6321
  228.5000   149.7496     6.9465     7.0916
  229.0000   150.3330     7.2935     7.3434
  229.5000   150.0060     7.5515     7.6571
  230.0000   148.7685     7.7642     7.7642
  230.5000   142.3717     7.9828     7.9279
  231.0000   138.4028     8.0368     8.0383
  231.5000   138.6827     8.1488     8.2077
  232.0000   139.9049     8.2043     8.2063
  232.5000   142.7687     8.2022     8.2052
  233.0000   146.0841     8.2005     8.2041
  233.5000   149.8118     8.1417     8.2030
  234.0000   150.7047     8.1401     8.2019
  234.5000   147.9438     8.1955     8.2008
  235.0000   145.4924     8.1935     8.1997
  235.5000   143.6479     8.3659     8.3725
  236.0000   143.6237     8.4229     8.4302
  236.5000   143.5950     8.3621     8.3700
  237.0000   142.3575     8.2443     8.2525
  237.5000   139.9060     8.2426     8.2514
  238.0000   139.8825     8.3065     8.3668
  238.5000   138.9485     8.4139     8.5429
  239.0000   137.4075     8.6504     8.7884
  239.5000   134.9480     8.8320     9.1594
  240.0000   130.0766     9.0175     9.3528
  240.5000   133.6891     9.1431     9.4173
  241.0000   135.7900     8.9510     9.4157
  241.5000   136.0759     8.3839     8.8397
  242.0000   135.4395     7.2031     7.6840
  242.5000   138.1473     6.5758     6.3601
  243.0000   148.1390     6.2167     5.5319
  243.5000   157.2501     6.1722     4.9420
  244.0000   159.9280     6.1709     5.6838
  244.5000   150.6435     6.2565     6.1811
  245.0000   140.4205     6.5233     6.3555
  245.5000   130.1075     6.9167     6.5351
  246.0000   127.3526     7.9307     7.3085
  246.5000   126.4186     8.8061     8.6604
  247.0000   126.3951     9.9158     9.9410
  247.5000   127.8890    10.7065    10.5121
  248.0000   130.0087    10.9319    10.8850
  248.5000   131.5249    10.7773    11.1148
  249.0000   131.5150    10.7000    10.0757
  249.5000   127.8588    11.0780     9.6601
  250.0000   124.8088    11.2323    10.1437
  250.5000   122.9764    11.1530    10.9539
  251.0000   122.0573    11.6302    12.0833
  251.5000   119.9206    12.5132    13.0444
  252.0000   114.7397    13.8500    14.5881
  252.5000   104.6273    15.2736    15.8641
  253.0000    96.4617    16.7262    17.3728
  253.5000    94.9338    18.4454    19.0251
  254.0000    92.7970    20.1996    20.9926
  254.5000    86.0941    22.1846    22.9754
  255.0000    80.6088    24.5651    24.8107
  255.5000    78.4720    25.7959    26.0530
  256.0000    80.9000    26.8995    26.9772
  256.5000    82.7207    28.0503    27.9342
  257.0000    83.3251    29.4557    29.3616
  257.5000    83.6237    30.9822    31.2347
  258.0000    81.7899    32.7086    33.9667
  258.5000    76.3744    33.8703    36.1702
  259.0000    68.3825    34.5861    36.6753
  259.5000    63.8104    33.8657    35.9083
  260.0000    62.5869    32.4719    34.4258
  260.5000    65.0164    32.2434    32.0945
  261.0000    71.0988    32.6954    30.1313
  261.5000    77.9269    32.0139    29.2955
  262.0000    83.2622    30.9117    29.4974
  262.5000    85.6917    30.0570    29.4933
  263.0000    85.6858    29.8455    29.4884
  263.5000    85.3756    30.7065    29.4845
  264.0000    86.2831    32.0026    29.4805
  264.5000    87.5160    32.6789    31.6135
  265.0000    86.5742    33.1370    32.7349
  265.5000    83.8286    33.1348    32.7303
  266.0000    82.6051    33.3652    32.7250
  266.5000    82.5993    34.0837    32.9516
  267.0000    83.2025    36.2805    34.6003
  267.5000    84.1097    38.0982    36.8449
  268.0000    81.9715    39.4513    38.4344
  268.5000    79.5303    40.5677    40.0622
  269.0000    78.9156    41.4250    41.4820
  269.5000    79.5186    41.1231    41.1872
  270.0000    80.7304    40.2769    40.0448
  270.5000    82.2648    41.7074    40.0394
  271.0000    84.3702    40.8380    39.7306
  271.5000    85.2776    38.6134    38.2039
  272.0000    85.5776    36.2555    36.7984
  272.5000    85.8762    35.0032    34.7900
  273.0000    86.4777    34.0387    33.0929
  273.5000    87.3911    33.3298    31.0951
  274.0000    89.8131    32.4082    30.0217
  274.5000    91.0264    31.0743    28.7833
  275.0000    90.7146    29.1768    27.7898
  275.5000    89.4911    27.7810    27.0170
  276.0000    89.1809    26.7946    25.7228
  276.5000    89.7839    26.2655    24.8349
  277.0000    91.0887    25.7184    24.1461
  277.5000    92.8148    25.0073    23.3126
  278.0000    94.6355    24.3158    22.5079
  278.5000    95.8473    23.6434    21.8729
  279.0000    96.1473    23.1284    21.5758
  279.5000    95.5312    22.5104    20.9774
  280.0000    95.2207    22.1963    20.9746
  280.5000    95.2136    22.0401    20.9718
  281.0000    95.5121    22.0386    20.9689
  281.5000    95.8122    22.0372    21.1326
  282.0000    96.7181    22.2089    21.4081
  282.5000    98.2343    22.5014    21.4045
  283.0000    99.7848    22.6578    21.4017
  283.5000   101.5697    22.8149    21.5492
  284.0000   103.0859    23.1347    21.5462
  284.5000   101.8624    23.2954    22.1549
  285.0000    98.5080    23.4574    22.4635
  285.5000    96.0669    23.4554    22.6190
  286.0000    94.5388    22.9669    22.6152
  286.5000    95.1405    22.4885    22.6121
  287.0000    95.7449    22.3303    22.2833
  287.5000    96.3479    22.1732    21.9813
  288.0000    96.9494    22.1717    21.5217
  288.5000    97.8568    22.3258    21.3687
  289.0000   100.0263    22.3239    21.3658
  289.5000   101.1936    22.1669    21.3630
  290.0000    97.5334    21.8575    20.9162
  290.5000    94.4834    21.5525    20.7669
  291.0000    93.5643    21.2428    20.3327
  291.5000    94.4717    20.9548    20.1882
  292.0000    97.5424    20.6623    19.9049
  292.5000   100.2424    20.3740    19.7635
  293.0000   100.5424    19.9496    19.7602
  293.5000   100.5351    19.5341    19.7575
  294.0000   100.5293    19.5328    19.7549
  294.5000   101.1324    19.6686    19.7522
  295.0000   100.5074    19.9439    19.7496
  295.5000    98.0749    20.0829    19.7469
  296.0000    97.4617    20.0812    19.8829
  296.5000    99.8897    20.0798    19.7410
  297.0000   101.1030    20.0785    19.7383
  297.5000   100.7913    19.9369    19.4613
  298.0000   100.4810    19.7966    19.1883
  298.5000   101.0840    19.6573    19.0518
  299.0000   101.6870    19.5190    18.7839
  299.5000   102.2885    19.2466    18.6504
  300.0000   103.0388    19.2453    18.7003
  300.5000   103.0299    19.4012    19.0424
  301.0000    99.6775    19.7886    19.1748
  301.5000    93.8936    20.0657    19.4447
  302.0000    89.6292    20.0643    19.7165
  302.5000    95.0894    20.3527    19.8536
  303.0000    98.4240    20.3527    18.9028
  303.5000   100.5428    20.1931    18.1243
  304.0000   100.8401    19.2453    17.6227
  304.5000    99.3092    18.5840    17.1350
  305.0000    96.5648    17.6962    16.6609
  305.5000    95.6440    17.0881    16.1998
  306.0000    96.2431    16.6167    16.0857
  306.5000    97.7862    16.2717    16.0846
  307.0000    99.2648    16.1583    16.0833
  307.5000    99.5599    16.1583    16.0822
  308.0000    98.6369    16.2717    15.7469
  308.5000    97.7162    16.2717    15.7459
  309.0000    97.1016    15.8228    15.7448
  309.5000    99.2182    15.4943    15.4166
  310.0000   100.4273    15.3863    15.2013
  310.5000    97.3767    15.2791    14.9841
  311.0000    95.5441    15.1726    14.7796
  311.5000    96.7510    14.9619    14.4713
  312.0000    99.1715    14.6457    14.4703
  312.5000   100.9864    14.4309    14.2682
  313.0000   101.5876    14.1478    14.0689
  313.5000   100.9686    13.7575    13.9699
  314.0000   100.3518    13.7575    13.8715
  314.5000   102.1666    13.8540    13.6777
  315.0000   102.4620    13.9513    13.4867
  315.5000   102.1489    14.0492    13.2981
  316.0000   101.2037    13.7575    13.3906
  316.5000    99.6973    13.7575    13.4840
  317.0000    98.4726    13.7575    13.6729
  317.5000    97.2479    13.7575    13.6719
  318.0000    97.8469    14.0492    13.7670
  318.5000   102.0934    14.1478    14.0582
