~VERSION INFORMATION
 VERS.                2.0:   CWLS LOG ASCII STANDARD - VERSION 2.0
 WRAP.                 NO:   ONE LINE PER DEPTH STEP
~WELL INFORMATION
#MNEM.UNIT      DATA TYPE    INFORMATION
#----------   ------------   ------------------------------
 STRT.F            0.0000:   START DEPTH
 STOP.F          962.0000:   STOP DEPTH
 STEP.F            0.5000:   STEP LENGTH
 NULL.          -999.2500:   NO VALUE
 COMP. FENIX & SCISSON INC:   COMPANY
 WELL.      NPR #3 #51-14:   WELL
 FLD .             TEAPOT:   FIELD
 LOC .      S14 T38N R78W:   LOCATION
 CNTY.            NATRONA:   COUNTY
 STAT.            WYOMING:   STATE
 CTRY. UNITED STATES OF AMERICA:   COUNTRY
 SRVC.              Welex:   SERVICE COMPANY
 DATE.        03-MAR-1977:   LOGDATE
 API .       490251029700:   API NUMBER
~CURVE INFORMATION
#MNEM.UNIT       API CODE    CURVE DESCRIPTION
#----------   ------------   ------------------------------
 DEPT.F                  :   
 SGRD.OHMM   07 220 05 00:   SHALLOW RESISTIVITY
 ILM .OHMM   07 120 44 00:   INDUCTION LOG MEDIUM
 ILD .OHMM   07 120 46 00:   INDUCTION LOG DEEP
 SPR .MV     07 010 01 00:   SPONTANEOUS POTENTIAL
 DPHI.DEC    45 890 12 00:   DENSITY POROSITY SANDSTONE
 RHOB.G/C3   45 350 01 00:   BULK DENSITY
 CORR.G/C3   45 356 01 00:   DENSITY CORRECTION
 CALD.IN     45 280 60 00:   CALIPER
 GRD .GAPI   45 310 01 00:   GAMMA RAY FROM DENSITY LOG
~PARAMETER INFORMATION
#MNEM.UNIT          VALUE    DESCRIPTION
#----------   ------------   ------------------------------
 PD  .                 GL:   PERMANENT DATUM
 EPD .F            5221.8:   ELEVATION PERMANENT DATUM
 LMF .                 GL:   LOG MEASURED FROM
 DMF .                 GL:   DRILLING MEASURED FROM
 EGL .F            5221.8:   GROUND LEVEL
 DATE.             3-3-77:   RUN DATE
 RUN .                  1:   RUN NUMBER
 DD  .F               967:   DEPTH DRILLER
 DL  .F               964:   DEPTH LOGGER
 BLI .F               962:   BOTTOM LOG INTERVAL
 TLI .F                42:   TOP LOG INTERVAL
 CS  .IN            8.625:   CASING SIZE
 CBD .F                42:   CASING BOTTOM DRILLER
 CBL .F                42:   CASING BOTTOM LOGGER
 BS  .IN            7.875:   BIT SIZE
 BSD .F               967:   BIT SIZE AT DEPTH
 DFT .           CHEM-GEL:   DRILLING FLUID TYPE
 DFD .                8.7:   DRILLING FLUID DENSITY
 DFV .                 33:   DRILLING FLUID VISCOSITY
 DFPH.                7.2:   DRILLING FLUID PH
 DFL .                 10:   DRILLING FLUID LOSS
 MSS .          FLOW LINE:   MUD SAMPLE SOURCE
 RMS .OHMM           .422:   RESISTIVITY MUD SAMPLE
 MST .F                56:   MUD SAMPLE TEMPERATURE
 RMF .OHMM           .372:   RESISTIVITY MUD FILTRATE SAMPLE
 MFST.F                56:   MUD FILTRATE SAMPLE TEMPERATURE
 RMC .OHMM           .484:   RESISTIVITY MUD CAKE
 MCST.F                56:   MUD CAKE SAMPLE TEMPERATURE
 MFSS.           MEASURED:   MUD FILTRATE SAMPLE SOURCE
 MCSS.           MEASURED:   MUD CAKE SAMPLE SOURCE
 RMB .OHMM           .284:   RESISTIVITY MUD AT BHT
 BHT .F                83:   BOTTOM HOLE TEMPERATURE
 TCS .HRS               2:   TIME CURCULATED STOPPED
 MRT .F                83:   MAXIMUM RECORDED TEMPERATURE
 LUN .               8611:   LOGGING UNIT NUMBER
 LUL .           GILLETTE:   LOGGING UNIT LOCATION
 ENGI.          D. LAWSON:   RECORDING ENGINEER
 WITN.         STUEBINGER:   WITNESSED BY
 CLNT.            A2DTECH:   CLIENT CODE
 ORIG.        2" 5" PRINT:   ORIGIN OF DATA
 UWI .       490251029700:   UNIQUE WELL ID
 DICO. A2D Technologies, Inc.:   DIGITIZING COMPANY
~OTHER INFORMATION
~A    DEPT    SGRD        ILM        ILD        SPR       DPHI       RHOB       CORR       CALD        GRD   
# ...
  511.0000     9.8617     8.1550     6.1361   -42.1463     0.0873     2.5044     0.0615     8.1303   142.2294
  511.5000     9.8617     7.9111     6.0878   -42.2520     0.0829     2.5102     0.0641     8.1323   140.0773
  512.0000     9.9223     8.0334     6.0399   -42.3036     0.0786     2.5183     0.0667     8.1342   137.5699
  512.5000     9.9813     8.2260     6.0062   -42.1690     0.0742     2.5272     0.0693     8.1362   134.1812
  513.0000    10.0445     8.4232     6.0987   -42.0404     0.0698     2.5362     0.0724     8.1381   131.3172
  513.5000    10.6159     8.6251     6.1714   -41.9118     0.0662     2.5441     0.0790     8.1401   129.7836
  514.0000    11.2636     8.7520     6.2449   -41.7831     0.0696     2.5385     0.0789     8.1420   128.2023
  514.5000    11.5278     8.6289     6.3193   -41.6537     0.0729     2.5320     0.0780     8.1440   126.2952
  515.0000    11.2731     8.5398     6.3946   -41.5381     0.0759     2.5258     0.0771     8.1459   122.2647
  515.5000    11.0964     8.4522     6.4708   -41.5980     0.0735     2.5284     0.0761     8.1479   119.2085
  516.0000    10.9099     8.3592     6.5838   -41.6607     0.0714     2.5306     0.0752     8.1498   117.7837
  516.5000    11.1928     8.4342     6.5786   -41.7225     0.0748     2.5252     0.0743     8.1518   118.2273
  517.0000    11.6342     8.5376     6.5691   -41.7841     0.0781     2.5198     0.0733     8.1537   118.6622
  517.5000    11.3682     8.6422     6.5595   -41.8458     0.0811     2.5161     0.0724     8.1557   118.2995
  518.0000    10.9388     8.7482     6.5499   -41.9075     0.0802     2.5166     0.0715     8.1568   117.1416
  518.5000    10.5257     8.8554     6.5404   -41.9692     0.0794     2.5166     0.0706     8.1560   116.1112
  519.0000    10.3250     8.9640     6.5309   -42.0311     0.0816     2.5120     0.0697     8.1551   117.0170
  519.5000    10.5570     9.0794     6.5213   -42.0918     0.0851     2.5073     0.0687     8.1543   118.4711
  520.0000    10.8857     8.9535     6.5118   -42.1134     0.0886     2.5021     0.0678     8.1535   120.0850
  520.5000    11.2247     8.8228     6.5024   -42.0611     0.0921     2.4962     0.0632     8.1526   122.1293
  521.0000    11.4225     8.6940     6.4929   -42.0098     0.0957     2.4903     0.0582     8.1518   124.1710
  521.5000    10.9715     8.5671     6.4834   -41.9584     0.0988     2.4846     0.0577     8.1510   126.2121
  522.0000    10.6199     8.4421     6.4738   -41.9070     0.0982     2.4927     0.0596     8.1501   127.8604
  522.5000    10.3250     8.3592     6.4640   -41.8555     0.0917     2.5025     0.0635     8.1493   126.3487
  523.0000    10.5074     8.5243     6.5165   -41.8042     0.0852     2.5123     0.0675     8.1484   123.6810
  523.5000    10.8446     8.6505     6.5731   -41.7523     0.0773     2.5210     0.0713     8.1476   120.5756
  524.0000    11.1926     8.7787     6.6299   -41.7452     0.0806     2.5159     0.0700     8.1468   119.7740
  524.5000    11.5519     8.9087     6.6873   -41.7638     0.0855     2.5101     0.0681     8.1460   121.1660
  525.0000    11.7410     9.0794     6.7452   -41.7830     0.0851     2.5068     0.0663     8.1451   123.5416
  525.5000    11.4846     9.0540     6.8301   -41.8022     0.0856     2.5083     0.0644     8.1443   125.1402
  526.0000    11.3134     9.0184     6.8248   -41.8213     0.0885     2.5008     0.0625     8.1434   123.6042
  526.5000    11.1129     8.9828     6.8152   -41.8404     0.0914     2.4931     0.0606     8.1426   122.1172
  527.0000    11.2109     8.9474     6.8055   -41.8595     0.0940     2.4950     0.0611     8.1418   121.6914
  527.5000    11.3320     8.9142     6.7958   -41.8786     0.0912     2.5006     0.0641     8.1409   120.8444
  528.0000    11.4203     9.0644     6.7861   -41.8977     0.0832     2.5064     0.0671     8.1401   119.5910
  528.5000    11.0773     9.2087     6.7765   -41.9168     0.0861     2.5066     0.0695     8.1393   118.3344
  529.0000    10.9117     9.4191     6.7669   -41.9359     0.0909     2.5012     0.0672     8.1384   117.0613
  529.5000    11.1435     9.3202     6.7573   -41.9550     0.0956     2.4916     0.0650     8.1376   115.8549
  530.0000    11.3214     9.1489     6.7477   -41.9741     0.0980     2.4827     0.0627     8.1368   119.2689
  530.5000    11.4244     8.9809     6.7381   -41.9932     0.0979     2.4888     0.0604     8.1359   123.2617
  531.0000    11.1485     8.8159     6.7285   -42.0123     0.0977     2.4887     0.0581     8.1351   127.2256
  531.5000    10.9331     8.6720     6.7189   -42.0314     0.0969     2.4860     0.0559     8.1342   129.3034
  532.0000    10.7113     8.7805     6.7094   -42.0505     0.0900     2.4982     0.0567     8.1334   129.7811
  532.5000    10.8732     8.9002     6.6999   -42.0696     0.0866     2.5059     0.0579     8.1326   128.8744
  533.0000    11.0463     9.0215     6.6904   -42.0887     0.0847     2.5078     0.0591     8.1318   129.0145
  533.5000    11.2146     9.1445     6.6809   -42.1078     0.0829     2.5097     0.0603     8.1309   129.5461
  534.0000    11.1156     9.2691     6.6714   -42.1270     0.0817     2.5106     0.0615     8.1301   129.7429
  534.5000    10.9661     9.3330     6.6619   -42.1461     0.0834     2.5088     0.0627     8.1292   127.1686
  535.0000    10.8102     8.9580     6.6525   -42.1652     0.0851     2.5071     0.0639     8.1284   124.5522
  535.5000    10.9305     8.6794     6.6441   -42.1843     0.0868     2.5054     0.0651     8.1276   123.5895
  536.0000    11.0948     8.2828     6.6072   -42.2034     0.0885     2.5036     0.0645     8.1267   126.6510
  536.5000    11.3157     8.3435     6.5689   -42.2225     0.0902     2.5019     0.0623     8.1259   129.2692
  537.0000    11.0542     8.4429     6.5309   -42.2416     0.0919     2.5002     0.0600     8.1251   128.0051
  537.5000    10.6129     8.5435     6.4931   -42.2607     0.0928     2.4992     0.0577     8.1242   126.6730
  538.0000    10.6314     8.6454     6.4556   -42.2798     0.0914     2.5013     0.0554     8.1234   125.4006
  538.5000    10.6675     8.7520     6.4182   -42.2989     0.0899     2.5035     0.0531     8.1226   127.2386
  539.0000    10.7042     8.7806     6.3811   -42.3180     0.0909     2.5057     0.0508     8.1217   128.4927
  539.5000    10.7405     8.8104     6.3442   -42.3371     0.0890     2.5078     0.0510     8.1209   127.1680
  540.0000    10.7769     8.8327     6.3075   -42.3562     0.0858     2.5100     0.0537     8.1201   128.4052
  540.5000    10.8102     8.6819     6.2884   -42.3753     0.0843     2.5091     0.0563     8.1192   130.5787
  541.0000    10.6037     8.5633     6.2884   -42.3944     0.0869     2.5050     0.0579     8.1184   131.0436
  541.5000    10.3250     8.4463     6.2884   -42.4135     0.0865     2.5131     0.0583     8.1174   131.2906
  542.0000    10.3576     8.3309     6.2884   -42.4327     0.0791     2.5252     0.0588     8.1243   132.4526
  542.5000    10.4003     8.2171     6.2884   -42.4518     0.0793     2.5131     0.0592     8.1342   134.5286
  543.0000    10.4433     8.1321     6.2884   -42.4709     0.0830     2.5124     0.0596     8.1415   136.2409
  543.5000    10.4864     8.3018     6.2884   -42.4900     0.0856     2.5118     0.0601     8.1477   135.0281
  544.0000    10.5297     8.4404     6.2883   -42.5091     0.0846     2.5112     0.0605     8.1539   133.9856
  544.5000    10.5732     8.5832     6.2872   -42.5282     0.0833     2.5135     0.0609     8.1602   133.3970
  545.0000    10.6168     8.6713     6.2884   -42.5473     0.0815     2.5186     0.0614     8.1664   133.3945
  545.5000    10.6607     8.5055     6.4306   -42.5664     0.0785     2.5236     0.0626     8.1726   131.7204
  546.0000    10.7047     8.3848     6.6161   -42.5855     0.0755     2.5286     0.0658     8.1752   129.5847
  546.5000    11.0054     8.2632     6.8068   -42.6046     0.0726     2.5336     0.0689     8.1689   125.4292
  547.0000    11.6103     8.2091     6.8301   -42.6237     0.0698     2.5345     0.0722     8.1626   122.7098
