~VERSION INFORMATION
 VERS.                2.0:   CWLS LOG ASCII STANDARD - VERSION 2.0
 WRAP.                 NO:   ONE LINE PER DEPTH STEP
~WELL INFORMATION
#MNEM.UNIT      DATA TYPE    INFORMATION
#----------   ------------   ------------------------------
 STRT.F           14.0000:   START DEPTH
 STOP.F          632.0000:   STOP DEPTH
 STEP.F            0.5000:   STEP LENGTH
 NULL.          -999.2500:   NO VALUE
 COMP. LAWRENCE/ALLISON INC:   COMPANY
 WELL.    17-61 SX #11-11:   WELL
 FLD .             TEAPOT:   FIELD
 LOC .      S11 T38N R78W:   LOCATION
 CNTY.            NATRONA:   COUNTY
 STAT.            WYOMING:   STATE
 CTRY. UNITED STATES OF AMERICA:   COUNTRY
 SRVC.           Gearhart:   SERVICE COMPANY
 DATE.        12-JUN-1986:   LOGDATE
 API .       490251109800:   API NUMBER
~CURVE INFORMATION
#MNEM.UNIT       API CODE    CURVE DESCRIPTION
#----------   ------------   ------------------------------
 DEPT.F                  :   
 GRR .GAPI   07 310 01 00:   GAMMA RAY FROM RES. LOG.
 ILM .OHMM   07 120 44 00:   INDUCTION LOG MEDIUM
 ILD .OHMM   07 120 46 00:   INDUCTION LOG DEEP
~PARAMETER INFORMATION
#MNEM.UNIT          VALUE    DESCRIPTION
#----------   ------------   ------------------------------
 PD  .                 GL:   PERMANENT DATUM
 EPD .F              5193:   ELEVATION PERMANENT DATUM
 LMF .                 KB:   LOG MEASURED FROM
 DAPD.F                 5:   FEET ABOVE PERMANENT DATUM
 DMF .                 KB:   DRILLING MEASURED FROM
 EKB .F              5198:   KELLING BUSHING
 EGL .F              5193:   GROUND LEVEL
 DATE.            6-12-86:   RUN DATE
 RUN .                  1:   RUN NUMBER
 DD  .F               648:   DEPTH DRILLER
 DL  .F               639:   DEPTH LOGGER
 BLI .F               632:   BOTTOM LOG INTERVAL
 TLI .F                15:   TOP LOG INTERVAL
 CS  .IN            8.625:   CASING SIZE
 CBD .F                42:   CASING BOTTOM DRILLER
 CBL .F                42:   CASING BOTTOM LOGGER
 BS  .IN             7.87:   BIT SIZE
 BSD .F               648:   BIT SIZE AT DEPTH
 DFT .               FOAM:   DRILLING FLUID TYPE
 MSS .               TANK:   MUD SAMPLE SOURCE
 RMS .OHMM           2.02:   RESISTIVITY MUD SAMPLE
 MST .F                65:   MUD SAMPLE TEMPERATURE
 RMB .OHMM           1.84:   RESISTIVITY MUD AT BHT
 BHT .F                72:   BOTTOM HOLE TEMPERATURE
 TCS .HRS            0830:   TIME CURCULATED STOPPED
 TLAB.HRS            1000:   TIME LOGGER AT BOTTOM
 MRT .F                72:   MAXIMUM RECORDED TEMPERATURE
 LUN .               7609:   LOGGING UNIT NUMBER
 LUL .           GILLETTE:   LOGGING UNIT LOCATION
 ENGI.              BAUER:   RECORDING ENGINEER
 WITN.             STRONG:   WITNESSED BY
 CLNT.            A2DTECH:   CLIENT CODE
 ORIG.       2", 5" PRINT:   ORIGIN OF DATA
 UWI .       490251109800:   UNIQUE WELL ID
 DICO. A2D Technologies, Inc.:   DIGITIZING COMPANY
~OTHER INFORMATION
~A   DEPT       GRR       ILM        ILD   
# ...
  287.0000   110.8225     8.8187     8.3762
  287.5000   112.5590     8.8077     8.4108
  288.0000   111.6823     8.7968     8.4441
  288.5000   110.3407     8.7858     8.4775
  289.0000   109.7455     8.7749     8.5109
  289.5000   109.7466     8.7640     8.5445
  290.0000   108.7415     8.7530     8.5880
  290.5000   107.2053     8.6996     8.5609
  291.0000   105.5962     8.6295     8.5091
  291.5000   105.3103     8.5599     8.4576
  292.0000   106.8234     8.4909     8.4048
  292.5000   108.4348     8.4225     8.3575
  293.0000   110.0678     8.3545     8.1856
  293.5000   110.1562     8.2872     8.1082
  294.0000   109.9120     8.2204     8.0315
  294.5000   108.4291     8.1541     7.9555
  295.0000   106.3263     8.0883     7.8803
  295.5000   104.1990     8.0231     7.8057
  296.0000   103.7379     7.9584     7.7319
  296.5000   107.8302     7.8943     7.6588
  297.0000   113.4224     7.8306     7.5863
  297.5000   118.0493     7.7675     7.4304
  298.0000   118.3225     7.5756     7.0582
  298.5000   112.4841     7.3381     6.9276
  299.0000   107.6501     7.1080     6.7916
  299.5000   105.2661     6.8850     6.6583
  300.0000   105.7300     6.6691     6.5276
  300.5000   107.4937     6.4288     6.3690
  301.0000   109.0187     6.4288     6.3833
  301.5000   109.3436     6.5612     6.4193
  302.0000   108.3463     6.6590     6.4545
  302.5000   104.6066     6.7583     6.4839
  303.0000   101.4684     6.8591     6.7393
  303.5000   101.8316     6.9613     6.7360
  304.0000   103.3013     7.0651     6.8485
  304.5000   104.4461     7.1704     6.9416
  305.0000   102.4757     7.2658     7.0360
  305.5000   101.3594     7.3066     7.1317
  306.0000   102.6161     7.3476     7.2286
  306.5000   104.7794     7.3888     7.3270
  307.0000   106.2953     7.4302     7.3355
  307.5000   106.6629     7.4719     7.3594
  308.0000   106.2989     7.5138     7.3835
  308.5000   105.9356     7.5352     7.3957
  309.0000   106.1532     7.4079     7.3212
  309.5000   107.6056     7.3237     7.1846
  310.0000   107.7446     7.2406     7.0507
  310.5000   107.1917     7.1583     6.9195
  311.0000   106.6024     7.0771     6.7902
  311.5000   106.7543     6.8573     6.5685
  312.0000   107.7528     6.6024     6.2860
  312.5000   109.1228     6.3384     6.0161
  313.0000   110.4899     6.0192     5.7578
  313.5000   110.3473     5.7203     5.5094
  314.0000   110.1142     5.4354     5.2855
  314.5000   109.8866     5.1648     5.0402
  315.0000   109.4765     5.0482     5.0427
  315.5000   108.6467     4.9493     5.2799
  316.0000   109.4439     5.1781     5.5446
  316.5000   112.0235     5.4801     5.8010
  317.0000   114.1682     5.7997     6.0410
  317.5000   112.4774     6.1168     6.2720
  318.0000   106.7684     6.3456     6.5118
  318.5000   103.6200     6.5828     6.7608
  319.0000   104.0796     6.7100     7.0194
  319.5000   108.4274     6.8556     7.2199
  320.0000   112.5754     7.0037     7.3059
  320.5000   113.6190     7.1553     7.3906
  321.0000   112.6102     7.3104     7.4766
  321.5000   112.2864     7.4680     7.5637
  322.0000   112.4526     7.5772     7.6519
  322.5000   111.7811     7.6479     7.7412
  323.0000   109.9492     7.7199     7.8242
  323.5000   108.0846     7.7926     7.8453
  324.0000   107.8834     7.8660     7.8663
  324.5000   108.3697     7.9401     7.8875
  325.0000   108.0365     8.0149     7.9086
  325.5000   107.3361     8.0905     7.9299
  326.0000   106.6259     8.1662     7.9512
  326.5000   106.2246     8.2079     7.9725
  327.0000   107.0599     8.2342     7.9939
  327.5000   109.4643     8.2612     8.0154
  328.0000   116.3709     8.2882     8.0369
  328.5000   120.3301     8.3153     8.0585
  329.0000   121.8275     8.3516     8.0801
  329.5000   119.9986     8.2694     8.1017
  330.0000   117.0147     8.2752     8.1193
  330.5000   114.0247     8.2730     8.0697
  331.0000   112.5162     8.2730     8.0271
  331.5000   112.8704     8.2172     7.9847
  332.0000   113.8451     8.1372     7.9426
  332.5000   114.8681     8.0579     7.9007
  333.0000   114.4264     7.9794     7.8593
  333.5000   113.7205     7.9017     7.8096
  334.0000   113.3827     7.8251     7.6980
  334.5000   115.3602     7.7490     7.5880
  335.0000   118.0725     7.6093     7.4795
  335.5000   118.2910     7.4029     7.2901
  336.0000   114.8244     7.1432     6.9419
  336.5000   111.4227     6.8886     6.6103
  337.0000   110.5470     6.6494     6.2208
  337.5000   110.7457     6.1947     5.6407
  338.0000   110.9062     5.7443     5.0899
  338.5000   111.3555     5.1640     4.6129
  339.0000   112.0635     4.5973     4.0523
  339.5000   113.5239     4.0927     3.5598
  340.0000   114.9661     3.6436     3.2001
  340.5000   114.9997     3.2437     2.9398
  341.0000   113.4836     2.8877     2.7007
  341.5000   109.8330     2.6610     2.5770
  342.0000   106.2176     2.4948     2.5091
  342.5000   105.7112     2.4306     2.4786
  343.0000   107.5683     2.4108     2.4785
  343.5000   109.5381     2.5107     2.6385
  344.0000   108.9456     2.6505     2.8659
  344.5000   106.1609     2.9011     3.1117
  345.0000   103.1551     3.1755     3.3753
  345.5000   100.1546     3.5377     3.7799
  346.0000    97.0416     3.9810     4.2264
  346.5000    96.2863     4.4798     4.7249
  347.0000    98.5673     4.8926     5.1555
  347.5000   103.7465     5.3084     5.5289
  348.0000   109.2564     5.8010     5.9659
  348.5000   113.7448     6.0219     6.0784
  349.0000   114.2638     5.9809     6.0815
  349.5000   113.7751     5.9279     5.9559
  350.0000   114.0591     5.7986     5.9282
  350.5000   116.9462     5.6352     5.8470
  351.0000   119.6753     5.4764     5.6458
  351.5000   121.4717     5.2955     5.4515
  352.0000   121.2767     5.1111     5.2640
  352.5000   121.0653     4.9724     5.0829
  353.0000   122.8026     4.9076     4.9032
  353.5000   127.4981     4.8432     4.8125
  354.0000   132.2890     4.7663     4.8125
  354.5000   135.7344     4.7660     4.8576
  355.0000   137.4995     4.8110     5.0865
  355.5000   136.3441     5.1936     5.3266
  356.0000   130.1116     5.4450     5.5771
  356.5000   122.3726     5.7086     5.8391
  357.0000   117.7373     5.9849     6.1135
  357.5000   114.8943     6.2745     6.4007
  358.0000   116.6920     6.5782     6.6735
  358.5000   122.1441     6.7882     6.9069
  359.0000   127.5306     6.9590     7.1280
  359.5000   129.4686     7.1326     7.3270
  360.0000   126.7816     7.3103     7.3270
  360.5000   123.3920     7.4651     7.3270
  361.0000   120.0036     7.4283     7.2717
  361.5000   116.6126     7.3957     7.1992
  362.0000   114.7051     7.2748     7.1274
  362.5000   115.7833     7.1531     7.0563
  363.0000   118.3746     7.0333     6.9859
  363.5000   120.0274     6.9156     6.9162
  364.0000   121.0316     6.7998     6.8098
  364.5000   122.0186     6.6860     6.5856
  365.0000   123.0082     6.5741     6.3688
  365.5000   123.9529     6.4641     6.1591
  366.0000   124.2689     6.2754     5.9563
  366.5000   122.7938     6.0510     5.7880
  367.0000   121.4783     5.8346     5.6529
  367.5000   121.6597     5.6488     5.5208
  368.0000   121.8119     5.5032     5.3919
  368.5000   121.9567     5.3632     5.2346
  369.0000   122.1101     5.2271     5.2649
  369.5000   122.2304     5.0899     5.3204
  370.0000   124.6724     5.1859     5.4977
  370.5000   128.4876     5.3781     5.6935
  371.0000   132.3364     5.6207     5.8779
  371.5000   133.2647     5.8742     6.0683
  372.0000   132.0006     6.0784     6.2648
  372.5000   130.5055     6.3039     6.4677
  373.0000   130.7576     6.5314     6.6772
  373.5000   131.2017     6.7671     6.8935
  374.0000   129.1388     7.0118     7.1168
  374.5000   126.3492     7.1958     7.3270
  375.0000   123.5692     7.2084     7.3270
  375.5000   122.1135     7.2215     7.3270
  376.0000   122.8111     7.2345     7.3270
  376.5000   125.6437     7.2476     7.3366
  377.0000   127.8751     7.2580     7.3549
  377.5000   129.3668     7.2505     7.3733
