~VERSION INFORMATION
 VERS.                2.0:   CWLS LOG ASCII STANDARD - VERSION 2.0
 WRAP.                 NO:   ONE LINE PER DEPTH STEP
~WELL INFORMATION
#MNEM.UNIT      DATA TYPE    INFORMATION
#----------   ------------   ------------------------------
 STRT.F           98.5000:   START DEPTH
 STOP.F          716.5000:   STOP DEPTH
 STEP.F            0.5000:   STEP LENGTH
 NULL.          -999.2500:   NO VALUE
 COMP. U S NAVY-INTEX OIL:   COMPANY
 WELL. RES 3 TEAPOT DOM #32S-11:   WELL
 FLD .             TEAPOT:   FIELD
 LOC .      S11 T38N R78W:   LOCATION
 CNTY.            NATRONA:   COUNTY
 STAT.            WYOMING:   STATE
 CTRY. UNITED STATES OF AMERICA:   COUNTRY
 SRVC.       Schlumberger:   SERVICE COMPANY
 DATE.        13-JUL-1962:   LOGDATE
 API .       490250636500:   API NUMBER
~CURVE INFORMATION
#MNEM.UNIT       API CODE    CURVE DESCRIPTION
#----------   ------------   ------------------------------
 DEPT.F                  :   
 SPR .MV     05 010 01 00:   SPONTANEOUS POTENTIAL FROM RES.
 CILD.MMHO   05 110 46 00:   CONDUCTIVITY INDUCTION LOG DEEP
 ASN .OHMM   05 040 16 00:   AMPLIFIED SHORT NORMAL 16"
 ILD .OHMM   05 120 46 00:   INDUCTION LOG DEEP
 GR  .GAPI   30 310 01 00:   GAMMA RAY
~PARAMETER INFORMATION
#MNEM.UNIT          VALUE    DESCRIPTION
#----------   ------------   ------------------------------
 PD  .                 GL:   PERMANENT DATUM
 EPD .F              5161:   ELEVATION PERMANENT DATUM
 LMF .                 KB:   LOG MEASURED FROM
 DAPD.F                 5:   FEET ABOVE PERMANENT DATUM
 DMF .                 KB:   DRILLING MEASURED FROM
 EKB .F              5166:   KELLING BUSHING
 EGL .F              5161:   GROUND LEVEL
 DATE.            7-13-62:   RUN DATE
 RUN .                  1:   RUN NUMBER
 DD  .F               716:   DEPTH DRILLER
 DL  .F               717:   DEPTH LOGGER
 BLI .F               716:   BOTTOM LOG INTERVAL
 TLI .F               100:   TOP LOG INTERVAL
 CBD .F                10:   CASING BOTTOM DRILLER
 BS  .IN             6.75:   BIT SIZE
 BSD .F               716:   BIT SIZE AT DEPTH
 DFT .           OIL EMUL:   DRILLING FLUID TYPE
 DFD .               10.2:   DRILLING FLUID DENSITY
 DFV .                 43:   DRILLING FLUID VISCOSITY
 RMS .OHMM              5:   RESISTIVITY MUD SAMPLE
 MST .F                70:   MUD SAMPLE TEMPERATURE
 RMF .OHMM            5.5:   RESISTIVITY MUD FILTRATE SAMPLE
 MFST.F                70:   MUD FILTRATE SAMPLE TEMPERATURE
 RMC .OHMM              6:   RESISTIVITY MUD CAKE
 MCST.F                70:   MUD CAKE SAMPLE TEMPERATURE
 TCS .HRS              .5:   TIME CURCULATED STOPPED
 LUN .               2503:   LOGGING UNIT NUMBER
 LUL .               CSPR:   LOGGING UNIT LOCATION
 ENGI.           ELLERMAN:   RECORDING ENGINEER
 WITN.          JORGENSON:   WITNESSED BY
 CLNT.            A2DTECH:   CLIENT CODE
 ORIG.       2", 5" PRINT:   ORIGIN OF DATA
 UWI .       490250636500:   UNIQUE WELL ID
 DICO. A2D Technologies, Inc.:   DIGITIZING COMPANY
~OTHER INFORMATION
~A   DEPT      SPR       CILD        ASN        ILD         GR   
# ...
  159.5000   -56.6299    79.1681    11.9103    11.4914  -999.2500
  160.0000   -56.5522    78.2565    12.0442    11.5931  -999.2500
  160.5000   -56.4739    77.3448    12.1781    11.6957  -999.2500
  161.0000   -56.3971    76.4332    12.3119    11.8302  -999.2500
  161.5000   -56.3967    75.5216    12.4457    11.9766  -999.2500
  162.0000   -56.6492    74.6099    12.5791    12.1231  -999.2500
  162.5000   -56.8965    73.6983    12.7195    12.2696  -999.2500
  163.0000   -57.1512    72.7866    12.8072    12.4161  -999.2500
  163.5000   -57.4522    71.8750    12.9843    12.5626  -999.2500
  164.0000   -57.7718    70.9634    13.1585    12.7090  -999.2500
  164.5000   -58.2954    70.0517    13.3337    12.8556  -999.2500
  165.0000   -58.8412    69.0524    13.5081    13.0021  -999.2500
  165.5000   -58.8188    67.9243    13.6656    13.1529  -999.2500
  166.0000   -58.3301    66.6763    13.7933    13.3066  -999.2500
  166.5000   -57.8406    65.4282    13.9305    13.4627  -999.2500
  167.0000   -57.8373    64.1801    14.2611    13.6205  -999.2500
  167.5000   -58.0085    62.2776    14.6217    13.8355  -999.2500
  168.0000   -58.2099    60.2734    15.0095    14.2602  -999.2500
  168.5000   -58.7204    58.2691    15.4452    14.6695  -999.2500
  169.0000   -59.2030    56.2648    15.8783    15.0793  -999.2500
  169.5000   -59.5985    54.2606    16.3125    15.4823  -999.2500
  170.0000   -59.9440    52.2563    16.7464    15.8098  -999.2500
  170.5000   -60.1830    50.8276    17.1951    16.1183  -999.2500
  171.0000   -60.0196    50.5344    17.2847    16.4212  -999.2500
  171.5000   -59.7222    50.2627    17.1365    16.6551  -999.2500
  172.0000   -59.3939    49.9720    16.9844    16.6492  -999.2500
  172.5000   -59.0479    50.8382    17.1880    16.5642  -999.2500
  173.0000   -59.1015    52.7532    17.3578    16.2001  -999.2500
  173.5000   -59.5087    54.6902    17.2137    15.8525  -999.2500
  174.0000   -60.4591    56.6214    16.9773    15.5584  -999.2500
  174.5000   -60.9906    57.9637    16.7397    15.3509  -999.2500
  175.0000   -60.9901    57.6397    16.4925    15.1414  -999.2500
  175.5000   -61.0056    57.2653    16.2025    15.0204  -999.2500
  176.0000   -60.4419    57.2031    15.8947    14.8505  -999.2500
  176.5000   -59.8029    58.6327    15.5872    14.6827  -999.2500
  177.0000   -59.5417    60.0623    15.2061    14.5151  -999.2500
  177.5000   -59.3554    61.4919    14.7729    14.3501  -999.2500
  178.0000   -59.1805    62.9489    14.5739    14.2329  -999.2500
  178.5000   -58.8338    61.8230    14.4420    14.1743  -999.2500
  179.0000   -58.3611    61.4219    14.3177    14.1090  -999.2500
  179.5000   -58.5433    61.0383    14.2016    14.0525  -999.2500
  180.0000   -58.7195    62.7016    14.0838    13.8199  -999.2500
  180.5000   -58.8948    63.7500    13.9683    13.6395  -999.2500
  181.0000   -59.0685    69.2699    13.7673    13.1558  -999.2500
  181.5000   -59.1768    75.0340    13.4647    12.1015  -999.2500
  182.0000   -59.1734    83.9375    12.7961    11.0767  -999.2500
  182.5000   -58.9952    94.8263    11.5226    10.0708  -999.2500
  183.0000   -58.2395   105.6578    10.4513     9.0901  -999.2500
  183.5000   -57.5296   116.4952     9.7239     8.1204  -999.2500
  184.0000   -56.0001   127.3463     8.9290     7.6994  -999.2500
  184.5000   -54.2775   138.1586     8.1298     7.2975  -999.2500
  185.0000   -52.6976   145.7733     7.5113     6.9355  -999.2500
  185.5000   -52.1377   152.8874     7.3434     6.7313  -999.2500
  186.0000   -52.2848   158.7702     7.3413     6.6899  -999.2500
  186.5000   -52.7808   159.3606     7.3319     6.6895  -999.2500
  187.0000   -53.2633   159.1958     7.2658     6.6901  -999.2500
  187.5000   -53.1756   156.8660     7.1772     6.6902  -999.2500
  188.0000   -52.5382   156.0972     7.0804     6.6899  -999.2500
  188.5000   -52.8303   156.7735     7.0573     6.6755  -999.2500
  189.0000   -53.2533   157.4489     6.9780     6.6598  -999.2500
  189.5000   -53.6773   158.1274     6.8659     6.6442  -999.2500
  190.0000   -53.5512   158.8069     6.7797     6.6286  -999.2500
  190.5000   -53.3214   159.4791     6.7167     6.6130  -999.2500
  191.0000   -53.3264   159.2214     6.7165     6.5974  -999.2500
  191.5000   -53.3290   158.2229     6.7344     6.5817  -999.2500
  192.0000   -53.3269   157.2245     6.7738     6.5661  -999.2500
  192.5000   -53.1428   156.2260     6.8421     6.5505  -999.2500
  193.0000   -52.4911   155.2511     6.9098     6.5349  -999.2500
  193.5000   -52.1121   154.2961     6.9675     6.5192  -999.2500
  194.0000   -52.1192   153.5616     6.9576     6.5033  -999.2500
  194.5000   -52.1073   153.1398     6.9472     6.4906  -999.2500
  195.0000   -51.8959   152.7218     6.9395     6.5272  -999.2500
  195.5000   -51.7084   152.3024     6.9327     6.5640  -999.2500
  196.0000   -51.7131   151.8831     6.9249     6.6005  -999.2500
  196.5000   -51.7127   150.0768     6.8996     6.6370  -999.2500
  197.0000   -51.7136   147.3310     6.8857     6.6735  -999.2500
  197.5000   -51.7840   144.5853     6.8713     6.7100  -999.2500
  198.0000   -52.0830   141.8395     6.8891     6.7463  -999.2500
  198.5000   -52.4260   140.2362     6.9385     6.7809  -999.2500
  199.0000   -52.2707   137.9896     7.1658     6.9082  -999.2500
  199.5000   -51.9644   135.9791     7.4376     7.0574  -999.2500
  200.0000   -52.2926   134.0180     7.6425     7.2068  -999.2500
  200.5000   -53.1196   132.0569     7.7536     7.3614  -999.2500
  201.0000   -53.9830   132.7137     7.7806     7.3466  -999.2500
  201.5000   -54.5566   134.2772     7.7609     7.2616  -999.2500
  202.0000   -54.5085   138.1884     7.6802     7.1868  -999.2500
  202.5000   -53.6710   142.6555     7.5652     7.0523  -999.2500
  203.0000   -52.8684   147.1227     7.4492     6.9143  -999.2500
  203.5000   -52.0676   151.5899     7.3331     6.7785  -999.2500
  204.0000   -51.7198   154.7379     7.2177     6.6901  -999.2500
  204.5000   -51.7103   153.0075     7.1345     6.7406  -999.2500
  205.0000   -51.8993   150.0152     7.1267     6.7930  -999.2500
  205.5000   -52.1955   146.9858     7.5146     6.8456  -999.2500
  206.0000   -52.4931   148.8071     8.3146     6.8787  -999.2500
  206.5000   -52.7960   151.7137     9.2234     6.7484  -999.2500
  207.0000   -52.9324   152.7218    10.0609     6.6139  -999.2500
  207.5000   -52.4389   150.9649    10.2988     6.7223  -999.2500
  208.0000   -51.6821   147.9868     8.9578     6.8965  -999.2500
  208.5000   -50.9279   145.0086     7.9527     6.8284  -999.2500
  209.0000   -50.7160   146.8105     7.2576     6.7538  -999.2500
  209.5000   -50.7924   149.9375     7.0608     6.6930  -999.2500
  210.0000   -50.8750   153.0645     7.0813     6.7303  -999.2500
  210.5000   -50.9284   151.7137     7.1698     6.7660  -999.2500
  211.0000   -50.9843   149.8819     7.2592     6.8015  -999.2500
  211.5000   -51.0387   147.0193     7.2843     6.8370  -999.2500
  212.0000   -51.0932   143.4443     7.2794     6.8725  -999.2500
  212.5000   -51.1059   139.8330     7.2738     6.9078  -999.2500
  213.0000   -51.2929   137.3131     7.2680     6.9432  -999.2500
  213.5000   -52.4394   136.4929     7.2583     6.9801  -999.2500
  214.0000   -53.5650   135.6994     7.2481     7.0484  -999.2500
  214.5000   -54.1147   136.3728     7.3485     7.1797  -999.2500
  215.0000   -54.2694   137.2925     7.5519     7.3081  -999.2500
  215.5000   -54.1383   138.2122     7.7845     7.3725  -999.2500
  216.0000   -54.1151   139.5968     7.8080     7.2059  -999.2500
  216.5000   -54.0677   141.3340     7.4318     7.0416  -999.2500
  217.0000   -54.0208   143.8239     7.1400     6.8766  -999.2500
  217.5000   -53.9779   148.6013     6.9480     6.7457  -999.2500
  218.0000   -53.9216   153.7298     6.8474     6.6512  -999.2500
  218.5000   -53.4555   155.7993     6.7752     6.5565  -999.2500
  219.0000   -52.6065   158.0328     6.7243     6.4622  -999.2500
  219.5000   -51.7742   159.9281     6.6892     6.3861  -999.2500
  220.0000   -51.1917   160.6139     6.6655     6.3753  -999.2500
