~VERSION INFORMATION
 VERS.                2.0:   CWLS LOG ASCII STANDARD - VERSION 2.0
 WRAP.                 NO:   ONE LINE PER DEPTH STEP
~WELL INFORMATION
#MNEM.UNIT      DATA TYPE    INFORMATION
#----------   ------------   ------------------------------
 STRT.F           20.0000:   START DEPTH
 STOP.F          610.0000:   STOP DEPTH
 STEP.F            0.5000:   STEP LENGTH
 NULL.          -999.2500:   NO VALUE
 COMP. LAWRENCE/ALLISON INC:   COMPANY
 WELL.    44-55 SX #10-10:   WELL
 FLD .             TEAPOT:   FIELD
 LOC .      S10 T38N R78W:   LOCATION
 CNTY.            NATRONA:   COUNTY
 STAT.            WYOMING:   STATE
 CTRY. UNITED STATES OF AMERICA:   COUNTRY
 SRVC.            Unknown:   SERVICE COMPANY
 DATE.        29-AUG-1984:   LOGDATE
 API .       490251098300:   API NUMBER
~CURVE INFORMATION
#MNEM.UNIT       API CODE    CURVE DESCRIPTION
#----------   ------------   ------------------------------
 DEPT.F                  :   
 AC  .US/F   60 520 00 00:   ACOUSTIC SONIC
 SPR .MV     07 010 01 00:   SPONTANEOUS POTENTIAL
 RILD.OHMM   07 120 46 00:   INDUCTION LOG DEEP RESISTIVITY
 RILM.OHMM   07 120 44 00:   INDUCTION LOG MEDIUM RESISTIVITY
 RFOC.OHMM   07 220 04 00:   RESISTIVITY FOCUSED LOG
 GRD .GAPI   45 310 01 00:   GAMMA RAY FROM DENSITY LOG
 CALD.IN     45 280 60 00:   CALIPER
 DEN .G/C3   45 350 01 00:   COMPENSATED BULK DENSTIY
 CNC .DEC    42 890 03 00:   NEUTRON POROSITY SANDSTONE
 PORD.DEC    45 890 12 00:   DENSITY POROSITY SANDSTONE
 CORR.G/C3   45 356 01 00:   DENSITY CORRECTION
~PARAMETER INFORMATION
#MNEM.UNIT          VALUE    DESCRIPTION
#----------   ------------   ------------------------------
 PD  .                 GL:   PERMANENT DATUM
 EPD .F              5247:   ELEVATION PERMANENT DATUM
 LMF .                 KB:   LOG MEASURED FROM
 DAPD.F                13:   FEET ABOVE PERMANENT DATUM
 DMF .                 KB:   DRILLING MEASURED FROM
 EKB .F              5260:   KELLING BUSHING
 EGL .F              5247:   GROUND LEVEL
 DATE.        29-AUG-1984:   RUN DATE
 RUN .                  1:   RUN NUMBER
 DD  .F               613:   DEPTH DRILLER
 DL  .F               607:   DEPTH LOGGER
 BLI .F               607:   BOTTOM LOG INTERVAL
 TLI .F                42:   TOP LOG INTERVAL
 CBL .F                42:   CASING BOTTOM LOGGER
 BS  .IN            7.875:   BIT SIZE
 BSD .F               613:   BIT SIZE AT DEPTH
 DFT .          KCL WATER:   DRILLING FLUID TYPE
 MSS .               TANK:   MUD SAMPLE SOURCE
 RMS .OHMM           .295:   RESISTIVITY MUD SAMPLE
 MST .F                75:   MUD SAMPLE TEMPERATURE
 TCS .HRS               3:   TIME CURCULATED STOPPED
 MRT .F               100:   MAXIMUM RECORDED TEMPERATURE
 LUN .               4082:   LOGGING UNIT NUMBER
 LUL .               ROOS:   LOGGING UNIT LOCATION
 ENGI.             MILLER:   RECORDING ENGINEER
 WITN.            JOHNSON:   WITNESSED BY
 CLNT.            A2DTECH:   CLIENT CODE
 ORIG.       2", 5" PRINT:   ORIGIN OF DATA
 UWI .       490251098300:   UNIQUE WELL ID
 DICO. A2D Technologies, Inc.:   DIGITIZING COMPANY
~OTHER INFORMATION
~A   DEPT       AC        SPR       RILD       RILM       RFOC         GRD      CALD        DEN        CNC       PORD       CORR   
# ...
  386.0000    90.9474   -35.2411    14.0314    13.6373    13.9690    73.5393     7.8689     2.4633     0.2668     0.1316     0.0187
  386.5000    90.9477   -35.1252    14.0997    13.7206    14.2610    77.6896     7.8697     2.4522     0.2594     0.1372     0.0211
  387.0000    90.6372   -34.8706    14.1684    13.8045    14.5590    80.9177     7.8704     2.4407     0.2640     0.1442     0.0235
  387.5000    90.2917   -35.1687    14.2374    13.8889    14.8633    77.6067     7.8712     2.4390     0.2733     0.1444     0.0328
  388.0000    90.0499   -35.5139    14.3067    13.9738    15.1103    71.8584     7.8720     2.4439     0.2798     0.1411     0.0476
  388.5000    90.2994   -35.8622    14.3764    14.0592    14.9985    67.4712     7.8728     2.4489     0.2774     0.1381     0.0625
  389.0000    90.5988   -36.2086    14.4316    14.1452    14.8611    66.6181     7.8736     2.4531     0.2747     0.1358     0.0717
  389.5000    90.8982   -36.4878    14.2709    14.2316    14.7242    65.1691     7.8744     2.4492     0.2720     0.1375     0.0556
  390.0000    90.9543   -36.4819    14.0129    14.2995    14.5890    63.9614     7.8752     2.4450     0.2702     0.1401     0.0392
  390.5000    90.7485   -36.4813    13.7596    14.1623    14.4802    67.1910     7.8760     2.4431     0.2754     0.1412     0.0267
  391.0000    90.4627   -36.4812    13.5109    14.0279    14.3778    70.5051     7.8768     2.4538     0.2781     0.1352     0.0338
  391.5000    90.1452   -36.4799    13.2667    13.8951    14.2761    71.0952     7.8775     2.4647     0.2730     0.1277     0.0520
  392.0000    90.1435   -36.4113    13.0268    13.7637    14.1751    69.5094     7.8783     2.4754     0.2643     0.1202     0.0582
  392.5000    90.3305   -36.2478    12.7913    13.6336    14.0748    67.7911     7.8778     2.4830     0.2570     0.1172     0.0423
  393.0000    90.5184   -36.0857    12.5601    13.5047    13.9753    67.5878     7.8759     2.4811     0.2600     0.1208     0.0233
  393.5000    90.6115   -35.9232    12.3438    13.4084    13.8764    71.9520     7.8740     2.4734     0.2660     0.1248     0.0052
  394.0000    90.4847   -35.7607    12.2309    13.2857    13.7782    76.4271     7.8722     2.4657     0.2695     0.1288     0.0204
  394.5000    90.6432   -35.5982    12.3438    13.3193    13.6808    76.7413     7.8703     2.4602     0.2672     0.1304     0.0501
  395.0000    90.9481   -35.4354    12.7191    13.4512    13.5820    76.2958     7.8684     2.4631     0.2682     0.1292     0.0799
  395.5000    91.5469   -35.2751    13.1270    13.5882    13.5269    75.2186     7.8665     2.4797     0.2706     0.1180     0.1061
  396.0000    92.7445   -35.1336    13.5481    13.7325    14.3897    73.9654     7.8647     2.4968     0.2684     0.1088     0.1028
  396.5000    95.2395   -34.6443    13.9620    14.4847    15.5802    72.7838     7.8628     2.5020     0.2624     0.1156     0.0763
  397.0000    99.2191   -34.1137    15.4100    16.2559    16.8627    70.7699     7.8609     2.4556     0.2598     0.1248     0.0480
  397.5000   103.1903   -33.6615    17.1529    18.2436    19.0490    63.3607     7.8589     2.4035     0.2738     0.1621     0.0196
  398.0000   107.5150   -33.2201    18.9889    20.4743    21.6490    53.3559     7.8588     2.3371     0.2850     0.1960    -0.0054
  398.5000   109.9246   -32.9233    21.0115    22.9778    24.6038    47.5215     7.8588     2.2966     0.2899     0.2333     0.0002
  399.0000   109.7642   -33.0447    23.2495    25.7875    27.9620    43.9470     7.8589     2.2850     0.2954     0.2345     0.0378
  399.5000   107.5072   -33.1560    25.7259    26.7164    29.8320    43.1397     7.8589     2.2966     0.3009     0.2224     0.0755
  400.0000   104.7881   -33.2672    28.7551    26.9631    28.1558    47.3347     7.8589     2.3278     0.3064     0.2051     0.0951
  400.5000   102.0647   -33.3790    29.0206    25.5691    26.3968    52.2466     7.8589     2.3583     0.3094     0.1877     0.0830
  401.0000   100.1811   -33.4932    28.2130    24.5952    24.5952    56.6963     7.8589     2.3839     0.2990     0.1769     0.0760
  401.5000    99.1317   -33.4999    27.4590    24.4039    24.3702    56.6455     7.8589     2.3912     0.2826     0.1729     0.0858
  402.0000    98.9321   -33.4992    26.7251    24.1941    24.8648    56.1776     7.8589     2.3855     0.2858     0.1774     0.0966
  402.5000    99.2601   -33.4990    26.2298    23.9861    25.4223    55.7012     7.8589     2.3695     0.2897     0.1865     0.0935
  403.0000    99.7137   -33.4990    26.4220    23.5538    25.9923    55.5074     7.8589     2.3569     0.2937     0.1918     0.0762
  403.5000    99.8795   -33.4990    26.5964    23.0625    26.5750    57.7192     7.8589     2.3535     0.2977     0.1946     0.0588
  404.0000    99.8905   -33.4990    26.7164    22.8515    27.1708    60.4042     7.8589     2.3551     0.3017     0.1953     0.0444
  404.5000    99.6029   -33.4990    25.7062    23.3043    27.7170    61.3141     7.8589     2.3608     0.3037     0.1893     0.0432
  405.0000    99.1841   -33.4990    25.0515    23.9512    27.5646    59.2077     7.8589     2.3723     0.3017     0.1833     0.0420
  405.5000    98.7226   -33.4990    25.0515    24.6161    26.9115    58.8988     7.8589     2.3836     0.3009     0.1760     0.0406
  406.0000    98.3941   -33.4990    25.1175    25.2995    25.8766    59.1838     7.8589     2.3951     0.3028     0.1688     0.0481
  406.5000    98.3297   -33.4990    25.3253    26.0018    24.8130    58.6763     7.8589     2.3990     0.2990     0.1674     0.0594
  407.0000    98.7926   -33.4987    25.5346    26.7236    25.4243    55.4859     7.8589     2.3836     0.3018     0.1722     0.0713
  407.5000    99.7285   -33.4995    25.7456    27.4655    27.4634    52.3855     7.8589     2.3609     0.2840     0.1892     0.0622
  408.0000   100.4406   -33.4958    25.9582    28.2313    27.7170    49.4798     7.8589     2.3386     0.2762     0.2051     0.0409
  408.5000   100.6287   -33.8787    26.1726    26.6608    27.1559    50.2310     7.8589     2.3277     0.2802     0.2104     0.0189
  409.0000   100.0978   -34.5530    26.4720    25.1253    26.1335    53.0906     7.8589     2.3477     0.2862     0.1981     0.0134
  409.5000    98.9780   -34.9183    25.7837    23.9945    25.1496    55.2735     7.8588     2.3779     0.2885     0.1814     0.0491
  410.0000    97.8581   -35.2136    25.0682    22.9146    24.2027    57.3551     7.8588     2.4082     0.2903     0.1649     0.0794
  410.5000    97.1357   -35.5042    24.3725    22.2299    23.2915    59.4390     7.8588     2.4140     0.2913     0.1585     0.0919
  411.0000    97.4905   -35.6870    23.6946    23.0482    22.8515    61.5789     7.8589     2.4068     0.2941     0.1593     0.0981
  411.5000    98.0339   -35.6410    23.0325    23.7896    23.0877    61.3945     7.8780     2.3899     0.2968     0.1737     0.1041
  412.0000    98.4970   -35.5959    22.3889    24.6063    23.4904    57.8346     7.8974     2.3725     0.2995     0.1830     0.1072
  412.5000    98.8323   -35.5505    22.2299    24.2095    22.9807    54.2867     7.8741     2.3665     0.3038     0.1865     0.0755
  413.0000    98.6048   -35.5046    23.0744    23.5050    22.3170    53.6333     7.8502     2.3725     0.3002     0.1803     0.0439
  413.5000    97.9982   -35.4765    23.4904    22.8249    21.6725    57.5118     7.8264     2.3902     0.2860     0.1683     0.0273
  414.0000    97.0679   -35.4162    22.8725    22.1658    21.0412    60.5846     7.8028     2.4078     0.2703     0.1592     0.0495
  414.5000    95.3070   -35.3563    22.4270    21.6253    20.6473    59.7487     7.7992     2.4253     0.2601     0.1517     0.0716
  415.0000    91.8663   -35.2909    22.2315    22.2843    20.8153    57.7786     7.7991     2.4429     0.2667     0.1426     0.0875
  415.5000    89.6811   -35.5617    22.2870    23.1854    20.9852    55.7898     7.7992     2.4602     0.2742     0.1280     0.0949
  416.0000    88.4531   -35.8819    22.3237    24.1623    21.2314    56.1361     7.7990     2.4627     0.2789     0.1327     0.0929
