~VERSION INFORMATION
 VERS.                2.0:   CWLS LOG ASCII STANDARD - VERSION 2.0
 WRAP.                 NO:   ONE LINE PER DEPTH STEP
~WELL INFORMATION
#MNEM.UNIT      DATA TYPE    INFORMATION
#----------   ------------   ------------------------------
 STRT.F            0.0000:   START DEPTH
 STOP.F         3315.0000:   STOP DEPTH
 STEP.F            0.5000:   STEP LENGTH
 NULL.          -999.2500:   NO VALUE
 COMP. LAWRENCE/ALLISON INC     84-AX-:   COMPANY
 WELL.          SHX3 #1-3:   WELL
 FLD .            WILDCAT:   FIELD
 LOC .       S3 T38N R78W:   LOCATION
 CNTY.            NATRONA:   COUNTY
 STAT.            WYOMING:   STATE
 CTRY. UNITED STATES OF AMERICA:   COUNTRY
 SRVC.      Dresser Atlas:   SERVICE COMPANY
 DATE.        20-JAN-1986:   LOGDATE
 API .       490251104200:   API NUMBER
~CURVE INFORMATION
#MNEM.UNIT       API CODE    CURVE DESCRIPTION
#----------   ------------   ------------------------------
 DEPT.F                  :   
 SPR .MV     07 010 01 00:   SPONTANEOUS POTENTIAL
 RILD.OHMM   07 120 46 00:   INDUCTION LOG DEEP RESISTIVITY
 RILM.OHMM   07 120 44 00:   INDUCTION LOG MEDIUM RESISTIVITY
 RFOC.OHMM   07 220 04 00:   RESISTIVITY FOCUSED LOG
 AC  .US/F   60 520 00 00:   ACCOUSTIC
 CALD.IN     45 280 60 00:   CALIPER FROM DENSITY
 CORR.G/C3   45 356 01 00:   DENSITY CORRECTION
 DEN .G/C3   45 350 01 00:   COMPENSATED BULK DENSTIY
 PORD.DEC    45 890 12 00:   POROSITY DENSITY SANDSTONE
 CNC .DEC    42 890 03 00:   NEUTRON POROSITY SANDSTONE
 GRR .GAPI   07 310 01 00:   GAMMA RAY
~PARAMETER INFORMATION
#MNEM.UNIT          VALUE    DESCRIPTION
#----------   ------------   ------------------------------
 PD  .                 GL:   PERMANENT DATUM
 EPD .F              5136:   ELEVATION PERMANENT DATUM
 LMF .                 KB:   LOG MEASURED FROM
 DAPD.F                11:   FEET ABOVE PERMANENT DATUM
 DMF .                 KB:   DRILLING MEASURED FROM
 EKB .F              5147:   KELLING BUSHING
 EGL .F              5136:   GROUND LEVEL
 DATE.        26-JAN-1986:   RUN DATE
 RUN .                  1:   RUN NUMBER
 DD  .F              3320:   DEPTH DRILLER
 DL  .F              3317:   DEPTH LOGGER
 BLI .F              3315:   BOTTOM LOG INTERVAL
 CS  .IN            8.625:   CASING SIZE
 CBD .F               550:   CASING BOTTOM DRILLER
 CBL .F               592:   CASING BOTTOM LOGGER
 BS  .IN            7.875:   BIT SIZE
 BSD .F              3320:   BIT SIZE AT DEPTH
 DFT .        POLYMER KCL:   DRILLING FLUID TYPE
 DFD .                9.1:   DRILLING FLUID DENSITY
 DFV .                 38:   DRILLING FLUID VISCOSITY
 DFPH.                 10:   DRILLING FLUID PH
 DFL .                8.5:   DRILLING FLUID LOSS
 MSS .           FLOWLINE:   MUD SAMPLE SOURCE
 RMS .OHMM           .435:   RESISTIVITY MUD SAMPLE
 MST .F                72:   MUD SAMPLE TEMPERATURE
 RMF .OHMM           .352:   RESISTIVITY MUD FILTRATE SAMPLE
 MFST.F                72:   MUD FILTRATE SAMPLE TEMPERATURE
 RMC .OHMM            .54:   RESISTIVITY MUD CAKE
 MCST.F                72:   MUD CAKE SAMPLE TEMPERATURE
 MFSS.               MEAS:   MUD FILTRATE SAMPLE SOURCE
 MCSS.               MEAS:   MUD CAKE SAMPLE SOURCE
 RMB .OHMM            .29:   RESISTIVITY MUD AT BHT
 BHT .F               108:   BOTTOM HOLE TEMPERATURE
 TCS .HRS               3:   TIME CURCULATED STOPPED
 MRT .F               108:   MAXIMUM RECORDED TEMPERATURE
 LUN .               6274:   LOGGING UNIT NUMBER
 LUL .               GLTE:   LOGGING UNIT LOCATION
 ENGI.             RAUTIO:   RECORDING ENGINEER
 WITN.             STRONG:   WITNESSED BY
 CLNT.            A2DTECH:   CLIENT CODE
 ORIG.       2", 5" PRINT:   ORIGIN OF DATA
 UWI .       490251104200:   UNIQUE WELL ID
 DICO. A2D Technologies, Inc.:   DIGITIZING COMPANY
~OTHER INFORMATION
~A    DEPT     SPR       RILD       RILM       RFOC         AC       CALD       CORR        DEN       PORD        CNC        GRR   
# ...
 2745.0000   -33.3732    11.9918    12.3378    11.9630    77.8271     8.5022     0.0113     2.4262     0.1361     0.2107    45.0076
 2745.5000   -33.0616    12.1611    12.5982    12.3004    77.3802     8.5016    -0.0083     2.4400     0.1240     0.2122    45.3177
 2746.0000   -32.5987    12.2474    12.7752    12.8239    77.0134     8.5010    -0.0233     2.4490     0.1225     0.2137    45.4766
 2746.5000   -31.9846    12.3345    12.8651    13.4628    76.7872     8.5004    -0.0203     2.4377     0.1285     0.2146    45.0070
 2747.0000   -31.5217    12.4221    12.9556    13.4637    76.6411     8.4998    -0.0068     2.4278     0.1340     0.2137    43.4739
 2747.5000   -30.9075    12.5103    12.9565    13.0057    76.5824     8.5144    -0.0023     2.4293     0.1346     0.2119    42.6245
 2748.0000   -30.4446    12.5992    13.0476    12.6507    77.1171     8.5138    -0.0068     2.4338     0.1300     0.2013    45.3457
 2748.5000   -30.1330    12.7771    13.0485    12.4773    77.4246     8.5132     0.0053     2.4315     0.1309     0.1925    47.7851
 2749.0000   -29.8214    12.9575    13.2318    12.5650    77.6569     8.5124     0.0203     2.4293     0.1318     0.1917    45.2207
 2749.5000   -29.6611    13.1404    13.5112    12.9194    77.7371     8.5118     0.0293     2.4292     0.1324     0.1908    42.5051
 2750.0000   -29.6105    13.6063    13.9893    13.1919    77.1440     8.5108     0.0038     2.4344     0.1331     0.1929    42.0569
 2750.5000   -29.4347    14.0381    14.8898    13.7591    76.8065     8.5039    -0.0044     2.4522     0.1297     0.1905    42.8227
 2751.0000   -29.2589    14.4810    15.7389    14.5391    76.3894     8.4970    -0.0083     2.4777     0.1129     0.1766    43.7379
 2751.5000   -29.1887    14.8877    16.7522    14.4305    75.0299     8.4944    -0.0034     2.4988     0.0961     0.1694    44.1992
 2752.0000   -29.0344    15.1999    17.8309    14.5901    73.3251     8.4938     0.0102     2.5067     0.0872     0.1688    43.6132
 2752.5000   -28.7289    15.4116    17.4622    17.5453    70.8899     8.4932     0.0292     2.4840     0.0917     0.1743    43.1694
 2753.0000   -28.4233    15.5178    16.7488    20.6495    70.0164     8.4926     0.0412     2.4652     0.1050     0.1833    43.6342
 2753.5000   -28.2691    15.5165    15.9534    22.0503    70.2817     8.5071     0.0487     2.4456     0.1129     0.1923    44.0986
 2754.0000   -28.1148    15.3015    15.3994    21.0069    72.4180     8.5065     0.0366     2.4312     0.1222     0.1990    43.6552
 2754.5000   -28.1118    14.9852    15.0806    16.4805    75.5302     8.5059     0.0095     2.4297     0.1328     0.2063    42.7580
 2755.0000   -28.1088    14.6754    14.9703    14.1493    77.1888     8.5204    -0.0041     2.4327     0.1337     0.2084    42.3147
 2755.5000   -28.1058    14.2726    14.6560    13.4794    77.1933     8.5047     0.0155     2.4342     0.1307     0.2121    42.6329
 2756.0000   -28.1028    13.9775    14.1727    13.7640    77.1978     8.5041     0.0245     2.4319     0.1295     0.2190    43.2436
 2756.5000   -27.9486    13.6885    14.3699    13.8605    77.2023     8.4884     0.0169     2.4348     0.1313     0.2137    43.7232
 2757.0000   -27.7943    13.9756    14.5697    13.4825    77.1305     8.4877     0.0229     2.4371     0.1307     0.1902    42.9222
 2757.5000   -27.6399    14.1700    14.6704    13.2057    76.9105     8.4871     0.0259     2.4363     0.1286     0.1891    41.7119
 2758.0000   -27.4856    14.1690    14.7716    12.9347    76.6142     8.4864     0.0033     2.4370     0.1295     0.1940    41.3187
 2758.5000   -27.3313    14.1680    14.5667    13.2995    76.3932     8.4858    -0.0103     2.4400     0.1283     0.2072    43.1472
 2759.0000   -27.6310    14.1670    14.2656    13.9620    76.2461     8.4852    -0.0121     2.4415     0.1265     0.2085    44.0655
 2759.5000   -28.3837    14.0681    14.2646    14.5563    76.1014     8.4846    -0.0028     2.4377     0.1262     0.2085    44.9837
 2760.0000   -29.2885    14.0671    14.2636    14.8634    76.1810     8.4840     0.0137     2.4241     0.1283     0.2094    43.9352
 2760.5000   -29.5888    14.1641    14.2626    14.3578    76.3359     8.4834     0.0302     2.4143     0.1363     0.2206    41.5251
 2761.0000   -29.5851    14.1629    14.2617    13.9659    76.5660     8.4828     0.0104     2.4075     0.1441     0.2194    40.3227
 2761.5000   -29.4308    14.0640    14.0641    13.4908    76.7208     8.4975    -0.0258     2.4059     0.1465     0.2166    42.0000
 2762.0000   -29.5798    14.0630    13.8693    13.3057    76.7253     8.4835    -0.0469     2.4149     0.1464     0.2112    42.3130
 2762.5000   -29.8787    13.9648    13.7724    13.3994    76.7298     8.4878    -0.0541     2.4239     0.1416     0.2085    42.1696
 2763.0000   -30.0277    14.0611    13.8674    13.7773    76.7343     8.4922    -0.0361     2.4331     0.1353     0.2049    42.3341
 2763.5000   -30.1760    14.1580    14.0602    13.9707    76.5884     8.4965    -0.0226     2.4407     0.1293     0.1993    44.0087
 2764.0000   -30.3243    14.3550    14.5557    13.4955    76.5929     8.5009    -0.0121     2.4537     0.1227     0.1929    45.9859
 2764.5000   -30.4718    14.7581    15.1778    13.2185    76.5974     8.5052     0.0074     2.4738     0.1166     0.1769    45.5426
 2765.0000   -30.6201    15.2782    16.1658    12.9472    76.3763     8.4932     0.0254     2.5029     0.1062     0.1630    43.5863
 2765.5000   -30.9197    15.7072    17.4582    12.9481    75.9296     8.5077     0.0314     2.5284     0.0828     0.1609    41.4789
 2766.0000   -31.2193    16.1483    18.5531    14.1707    74.3552     8.5071     0.0253     2.5374     0.0717     0.1615    39.8226
 2766.5000   -31.8215    16.3731    17.9187    20.0458    71.5025     8.5065     0.0298     2.5141     0.0696     0.1670    40.1383
 2767.0000   -32.4287    16.3717    17.0678    25.7507    69.3266     8.5059     0.0313     2.4907     0.0895     0.1766    42.4181
 2767.5000   -33.0385    16.1449    16.3705    28.3587    68.6543     8.5053     0.0313     2.4831     0.0986     0.1878    46.3620
 2768.0000   -33.8193    15.8112    15.9212    24.4663    68.6588     8.5198     0.0312     2.4786     0.1016     0.2098    48.6418
 2768.5000   -34.5603    15.3772    15.3771    17.3379    70.9189     8.5191     0.0282     2.4718     0.1043     0.2123    49.4087
 2769.0000   -34.6810    14.4450    14.9550    14.7364    73.6302     8.5185     0.0252     2.4642     0.1082     0.2098    48.2090
 2769.5000   -34.3747    13.3823    14.2448    13.9822    75.6648     8.5028     0.0206     2.4612     0.1152     0.2038    46.5553
 2770.0000   -34.3717    12.9250    13.5683    14.3768    75.9749     8.5022     0.0191     2.4664     0.1107     0.2050    45.0529
 2770.5000   -34.3687    12.9216    13.1959    14.6801    75.3730     8.5016     0.0191     2.4739     0.1043     0.2129    45.0737
 2771.0000   -34.6683    12.9232    13.1037    14.5796    74.9263     8.5010     0.0190     2.4784     0.1034     0.2144    47.2226
 2771.5000   -35.1191    12.9223    13.1943    13.8897    74.8553     8.5004     0.0160     2.4784     0.1037     0.2117    49.1993
 2772.0000   -35.4195    12.8320    13.1932    13.1409    75.0163     8.4846     0.0099     2.4761     0.1053     0.2045    49.3310
 2772.5000   -35.5678    12.8192    13.3767    13.0508    75.7746     8.4840     0.0053     2.4730     0.1053     0.1960    47.7784
 2773.0000   -35.4127    12.6534    13.5628    13.8925    76.3784     8.4834     0.0039     2.4708     0.1056     0.1957    46.6315
 2773.5000   -35.2585    12.5648    13.7514    14.7884    76.0622     8.4677     0.0114     2.4670     0.1077     0.1997    46.9445
 2774.0000   -35.4068    12.3907    13.6553    15.6331    75.6963     8.4671     0.0249     2.4662     0.1098     0.2000    47.4089
 2774.5000   -35.7063    12.3042    13.1887    15.7428    75.6344     8.4665     0.0369     2.4646     0.1113     0.2006    47.2681
 2775.0000   -35.8548    12.3033    12.9160    15.1024    75.8647     8.4659     0.0459     2.4639     0.1119     0.2042    47.1247
