~VERSION INFORMATION
 VERS.                2.0:   CWLS LOG ASCII STANDARD - VERSION 2.0
 WRAP.                 NO:   ONE LINE PER DEPTH STEP
~WELL INFORMATION
#MNEM.UNIT      DATA TYPE    INFORMATION
#----------   ------------   ------------------------------
 STRT.F           34.5000:   START DEPTH
 STOP.F          665.5000:   STOP DEPTH
 STEP.F            0.5000:   STEP LENGTH
 NULL.          -999.2500:   NO VALUE
 COMP. FENIX & SCISSON INC:   COMPANY
 WELL.    NPR-3 SX #14-14:   WELL
 FLD .        TEAPOT DOME:   FIELD
 LOC .      S14 T38N R78W:   LOCATION
 CNTY.            NATRONA:   COUNTY
 STAT.            WYOMING:   STATE
 CTRY. UNITED STATES OF AMERICA:   COUNTRY
 SRVC.            Unknown:   SERVICE COMPANY
 DATE.        01-JUN-1978:   LOGDATE
 API .       490251063100:   API NUMBER
~CURVE INFORMATION
#MNEM.UNIT       API CODE    CURVE DESCRIPTION
#----------   ------------   ------------------------------
 DEPT.F                  :   
 SPR .MV     05 010 01 00:   SPONTANEOUS POTENTIAL FROM RES.
 SN  .OHMM   05 040 16 00:   SHORT NORMAL 16"
 IL  .OHMM   05 120 00 00:   INDUCTION LOG
 GRD .GAPI   45 310 01 00:   GAMMA RAY FROM DENSITY LOG
 RHOB.G/C3   45 350 01 00:   BULK DENSITY
 DPHI.DEC    45 890 12 00:   DENSITY POROSITY SANDSTONE
 CORR.G/C3   45 356 01 00:   DENSITY CORRECTION
 CALD.IN     45 280 60 00:   CALIPER FROM DENSITY LOG
~PARAMETER INFORMATION
#MNEM.UNIT          VALUE    DESCRIPTION
#----------   ------------   ------------------------------
 PD  .                 GL:   PERMANENT DATUM
 EPD .F              5212:   ELEVATION PERMANENT DATUM
 LMF .                 KB:   LOG MEASURED FROM
 DAPD.F                 4:   FEET ABOVE PERMANENT DATUM
 DMF .                 KB:   DRILLING MEASURED FROM
 EKB .F              5216:   KELLING BUSHING
 EGL .F              5212:   GROUND LEVEL
 DATE.           6-1-1978:   RUN DATE
 RUN .                  1:   RUN NUMBER
 DD  .F               670:   DEPTH DRILLER
 DL  .F               670:   DEPTH LOGGER
 BLI .F               664:   BOTTOM LOG INTERVAL
 TLI .F                40:   TOP LOG INTERVAL
 CS  .IN            8.625:   CASING SIZE
 CBD .F                40:   CASING BOTTOM DRILLER
 BS  .IN            7.875:   BIT SIZE
 BSD .F               670:   BIT SIZE AT DEPTH
 DFT .                KCL:   DRILLING FLUID TYPE
 DFD .                8.7:   DRILLING FLUID DENSITY
 DFV .                 32:   DRILLING FLUID VISCOSITY
 DFPH.                 10:   DRILLING FLUID PH
 RMS .OHMM            .30:   RESISTIVITY MUD SAMPLE
 MST .F                66:   MUD SAMPLE TEMPERATURE
 BHT .F                75:   BOTTOM HOLE TEMPERATURE
 TCS .HRS               2:   TIME CURCULATED STOPPED
 MRT .F                75:   MAXIMUM RECORDED TEMPERATURE
 LUN .               2958:   LOGGING UNIT NUMBER
 LUL .              CSPR.:   LOGGING UNIT LOCATION
 ENGI.             MILLER:   RECORDING ENGINEER
 WITN.           MCGINLEY:   WITNESSED BY
 CLNT.            A2DTECH:   CLIENT CODE
 ORIG.      2" , 5" PRINT:   ORIGIN OF DATA
 UWI .       490251063100:   UNIQUE WELL ID
 DICO. A2D Technologies, Inc.:   DIGITIZING COMPANY
~OTHER INFORMATION
~A   DEPT      SPR         SN         IL         GRD      RHOB       DPHI       CORR       CALD   
# ...
  237.0000   -27.9696    10.1634     9.9855    80.8282     2.4831     0.1145     0.0146     7.4448
  237.5000   -27.9519    10.2358    10.1038    80.9009     2.4858     0.1138     0.0146     7.3107
  238.0000   -27.9342    10.3087    10.2241    80.9657     2.4835     0.1160     0.0146     7.0668
  238.5000   -27.9165    10.3822    10.2998    80.3783     2.4808     0.1185     0.0146     6.8285
  239.0000   -27.8988    10.4562    10.2933    78.9743     2.4807     0.1123     0.0146     6.7846
  239.5000   -27.8810    10.5307    10.3977    76.1018     2.4863     0.1226     0.0147     7.4415
  240.0000   -27.8628    10.5865    10.3931    75.2650     2.4757     0.1185     0.0195     7.6031
  240.5000   -27.8460    10.5615    10.3931    77.6239     2.4710     0.1122     0.0317     7.3498
  241.0000   -27.9290    10.5417    10.3931    80.0156     2.4812     0.1164     0.0438     7.3106
  241.5000   -28.0220    10.5218    10.3929    82.1426     2.4823     0.1189     0.0543     7.3252
  242.0000   -28.1146    10.5021    10.3717    81.5386     2.4787     0.1184     0.0614     7.3840
  242.5000   -28.2076    10.4696    10.3325    79.3497     2.4758     0.1194     0.0684     7.4406
  243.0000   -28.2635    10.4149    10.2933    77.1876     2.4773     0.1139     0.0754     7.4983
  243.5000   -28.2973    10.3605    10.2541    75.0546     2.4868     0.1090     0.0785     7.5172
  244.0000   -28.3306    10.3064    10.2152    74.0451     2.4969     0.1078     0.0716     7.5268
  244.5000   -28.3639    10.2526    10.1764    74.0182     2.4980     0.1070     0.0632     7.5361
  245.0000   -28.3973    10.1991    10.1377    74.0189     2.4980     0.0943     0.0569     7.5455
  245.5000   -28.4307    10.1458    10.0992    74.0745     2.5124     0.0996     0.0506     7.5550
  246.0000   -28.4641    10.1044    10.0608    75.1163     2.5154     0.1077     0.0340     7.5644
  246.5000   -28.4974    10.0880    10.0226    75.6025     2.4993     0.1157     0.0180     7.5739
  247.0000   -28.5308    10.0716     9.9845    75.7952     2.4882     0.1213     0.0060     7.5833
  247.5000   -28.5642    10.0553     9.9465    76.8624     2.4773     0.1194     0.0047     7.5927
  248.0000   -28.5976    10.0389     9.9087    79.5096     2.4770     0.1158     0.0043     7.6022
  248.5000   -28.6312    10.0225     9.8711    83.0830     2.4803     0.1123     0.0041     7.6116
  249.0000   -28.6471    10.0131     9.8336    84.1394     2.4884     0.1106     0.0038     7.6211
  249.5000   -28.6540    10.0072     9.7962    83.2250     2.4965     0.1102     0.0035     7.6305
  250.0000   -28.6608    10.0014     9.7590    83.5540     2.4963     0.1133     0.0032     7.6399
  250.5000   -28.6677     9.9955     9.7219    84.1008     2.4853     0.1179     0.0029     7.6494
  251.0000   -28.6745     9.9896     9.6850    83.9494     2.4744     0.1198     0.0027     7.6589
  251.5000   -28.6814     9.9838     9.6482    84.2690     2.4722     0.1164     0.0071     7.6683
  252.0000   -28.6882     9.9780     9.6115    84.5347     2.4860     0.1130     0.0119     7.6702
  252.5000   -28.6950     9.9721     9.5750    83.4044     2.4907     0.1095     0.0164     7.6717
  253.0000   -28.7019     9.9663     9.5386    80.4112     2.4943     0.1081     0.0152     7.6733
  253.5000   -28.7087     9.9605     9.5024    77.4459     2.4969     0.1096     0.0137     7.6748
  254.0000   -28.7155     9.9546     9.4663    76.7083     2.4936     0.1141     0.0127     7.6764
  254.5000   -28.7224     9.9488     9.4303    79.4019     2.4904     0.1158     0.0157     7.6779
  255.0000   -28.7292     9.9430     9.3945    81.2270     2.4911     0.1074     0.0186     7.6795
  255.5000   -28.7361     9.9372     9.3587    82.1583     2.5001     0.1039     0.0203     7.6810
  256.0000   -28.7429     9.9318     9.3236    83.2058     2.5053     0.1078     0.0194     7.6826
  256.5000   -28.7498     9.9256     9.2747    84.8600     2.5036     0.1126     0.0189     7.6842
  257.0000   -28.7566     9.8056     9.2134    85.9860     2.4950     0.1167     0.0213     7.6857
  257.5000   -28.7634     9.6724     9.1521    86.0937     2.4862     0.1170     0.0237     7.6873
  258.0000   -28.7703     9.5410     9.0912    85.4831     2.4820     0.1161     0.0243     7.6885
  258.5000   -28.7771     9.4113     9.0093    84.4347     2.4822     0.1152     0.0239     7.6885
  259.0000   -28.7840     9.2835     8.8843    83.3757     2.4825     0.1146     0.0235     7.6885
  259.5000   -28.7908     9.1573     8.7615    82.3153     2.4828     0.1159     0.0231     7.6885
  260.0000   -28.7976     9.0329     8.6403    81.3680     2.4825     0.1170     0.0227     7.6885
  260.5000   -28.8045     8.9101     8.5208    81.6252     2.4806     0.1180     0.0229     7.6885
  261.0000   -28.8113     8.8473     8.4030    84.2229     2.4788     0.1190     0.0235     7.6885
  261.5000   -28.8182     8.7997     8.2868    87.3496     2.4770     0.1190     0.0240     7.6885
  262.0000   -28.8250     8.7524     8.1722    90.4415     2.4771     0.1158     0.0245     7.6885
  262.5000   -28.8319     8.7053     8.0592    91.1131     2.4824     0.1124     0.0243     7.6885
  263.0000   -28.8387     8.6585     7.9548    91.0932     2.4879     0.1141     0.0237     7.6885
  263.5000   -28.8435     8.6430     7.8818    91.0893     2.4876     0.1180     0.0231     7.6885
  264.0000   -28.8461     8.6728     8.0068    90.9299     2.4820     0.1197     0.0226     7.6885
  264.5000   -28.8487     8.6962     8.1244    90.5686     2.4768     0.1181     0.0228     7.6885
  265.0000   -28.8512     8.7197     8.2442    90.2072     2.4770     0.1136     0.0231     7.6885
  265.5000   -28.8538     8.7432     8.3655    89.4815     2.4865     0.1090     0.0233     7.6885
  266.0000   -28.8564     8.7668     8.4884    87.6948     2.4960     0.1042     0.0235     7.6885
  266.5000   -28.8589     8.7905     8.6145    83.9167     2.5044     0.1044     0.0238     7.6885
  267.0000   -28.8615     8.8142     8.6479    80.1697     2.5024     0.1077     0.0240     7.6885
  267.5000   -28.8641     8.8380     8.6551    76.4365     2.4981     0.1102     0.0242     7.6885
  268.0000   -28.8666     8.8619     8.6617    74.0603     2.4936     0.1106     0.0244     7.6885
  268.5000   -28.8692     8.8854     8.6684    74.6953     2.4940     0.1091     0.0238     7.6885
  269.0000   -28.8718     8.8939     8.6752    76.9526     2.4955     0.1076     0.0221     7.6885
  269.5000   -28.8743     8.9022     8.6819    79.0065     2.4970     0.1088     0.0203     7.6885
  270.0000   -28.8769     8.9105     8.6887    79.8753     2.4922     0.1139     0.0186     7.6885
  270.5000   -28.8795     8.9188     8.6955    80.6932     2.4814     0.1190     0.0169     7.6885
  271.0000   -28.8821     8.9272     8.7022    81.5135     2.4797     0.1240     0.0151     7.6885
  271.5000   -28.8846     8.9355     8.7090    82.3185     2.4755     0.1246     0.0134     7.6885
  272.0000   -28.8872     8.9439     8.7158    82.5784     2.4690     0.1232     0.0136     7.6885
  272.5000   -28.8898     8.9522     8.7228    81.6844     2.4680     0.1214     0.0162     7.6885
  273.0000   -28.8923     8.9607     8.7288    80.5564     2.4706     0.1177     0.0189     7.6885
  273.5000   -28.8949     8.9672     8.7348    80.7604     2.4787     0.1141     0.0215     7.6885
  274.0000   -28.8975     8.9456     8.7409    82.6571     2.4867     0.1104     0.0242     7.6885
  274.5000   -28.9000     8.9267     8.7470    84.2881     2.4947     0.1067     0.0266     7.6885
  275.0000   -28.9026     8.9078     8.7531    82.8960     2.5021     0.1030     0.0261     7.6885
  275.5000   -28.9052     8.8889     8.7592    80.2931     2.5067     0.0991     0.0255     7.6885
  276.0000   -28.9077     8.8700     8.7654    80.2448     2.5110     0.0991     0.0249     7.6885
  276.5000   -28.9103     8.8512     8.7715    80.9127     2.5137     0.1026     0.0243     7.6885
  277.0000   -28.9129     8.8324     8.7776    81.5770     2.5092     0.1061     0.0237     7.6885
