~VERSION INFORMATION
 VERS.                2.0:   CWLS LOG ASCII STANDARD - VERSION 2.0
 WRAP.                 NO:   ONE LINE PER DEPTH STEP
~WELL INFORMATION
#MNEM.UNIT      DATA TYPE    INFORMATION
#----------   ------------   ------------------------------
 STRT.F           30.0000:   START DEPTH
 STOP.F          656.5000:   STOP DEPTH
 STEP.F            0.5000:   STEP LENGTH
 NULL.          -999.2500:   NO VALUE
 COMP. BROWN JOHN E&C INC:   COMPANY
 WELL. NPR 3 SHX-18-25 #25-11:   WELL
 FLD .              NPR 3:   FIELD
 LOC .      S11 T38N R78W:   LOCATION
 CNTY.            NATRONA:   COUNTY
 STAT.            WYOMING:   STATE
 CTRY. UNITED STATES OF AMERICA:   COUNTRY
 SRVC.           Gearhart:   SERVICE COMPANY
 DATE.        09-JUL-1987:   LOGDATE
 API .       490251114100:   API NUMBER
~CURVE INFORMATION
#MNEM.UNIT       API CODE    CURVE DESCRIPTION
#----------   ------------   ------------------------------
 DEPT.F                  :   
 GRR .GAPI   07 310 01 00:   GAMMA RAY FROM RES. LOG.
 RILM.OHMM   07 120 44 00:   INDUCTION LOG MEDIUM RESISTIVITY
 RILD.OHMM   07 120 46 00:   INDUCTION LOG DEEP RESISTIVITY
~PARAMETER INFORMATION
#MNEM.UNIT          VALUE    DESCRIPTION
#----------   ------------   ------------------------------
 PD  .                 GL:   PERMANENT DATUM
 EPD .F              5222:   ELEVATION PERMANENT DATUM
 LMF .                 KB:   LOG MEASURED FROM
 DAPD.F                 8:   FEET ABOVE PERMANENT DATUM
 DMF .                 KB:   DRILLING MEASURED FROM
 EKB .F              5230:   KELLING BUSHING
 EDF .F              5228:   DRILLING FLOOR
 EGL .F              5222:   GROUND LEVEL
 DATE.             7-9-87:   RUN DATE
 RUN .                  1:   RUN NUMBER
 DD  .F               662:   DEPTH DRILLER
 DL  .F               664:   DEPTH LOGGER
 BLI .F               662:   BOTTOM LOG INTERVAL
 TLI .F                30:   TOP LOG INTERVAL
 CS  .IN            8.625:   CASING SIZE
 CBD .F                48:   CASING BOTTOM DRILLER
 CBL .F                48:   CASING BOTTOM LOGGER
 BS  .IN            7.875:   BIT SIZE
 BSD .F               662:   BIT SIZE AT DEPTH
 DFT .                AIR:   DRILLING FLUID TYPE
 TLAB.HRS            1552:   TIME LOGGER AT BOTTOM
 MRT .F                80:   MAXIMUM RECORDED TEMPERATURE
 LUN .               7597:   LOGGING UNIT NUMBER
 LUL .           GILLETTE:   LOGGING UNIT LOCATION
 ENGI.         WEATHERMON:   RECORDING ENGINEER
 WITN.             STRONG:   WITNESSED BY
 CLNT.            A2DTECH:   CLIENT CODE
 ORIG.       2", 5" PRINT:   ORIGIN OF DATA
 UWI .       490251114100:   UNIQUE WELL ID
 DICO. A2D Technologies, Inc.:   DIGITIZING COMPANY
~OTHER INFORMATION
~A   DEPT       GRR      RILM       RILD   
# ...
  394.0000   143.9655     4.8091     5.1646
  394.5000   140.1922     4.5351     5.2401
  395.0000   136.5494     4.7532     5.3168
  395.5000   132.9424     4.9539     5.3946
  396.0000   130.9759     5.1757     5.5322
  396.5000   131.7086     5.4503     5.8722
  397.0000   131.4003     5.7394     6.1599
  397.5000   130.5571     6.0439     6.4268
  398.0000   129.2984     6.3646     6.7052
  398.5000   128.0099     6.6000     6.9397
  399.0000   127.2739     6.7702     6.9405
  399.5000   126.8674     7.0017     6.4888
  400.0000   126.4753     6.7769     6.1962
  400.5000   126.0675     6.4426     5.9169
  401.0000   127.6583     5.8779     5.6502
  401.5000   130.7267     5.3360     5.4045
  402.0000   133.8377     4.8440     5.3538
  402.5000   137.0273     4.6454     5.2734
  403.0000   138.8689     4.5758     5.2553
  403.5000   137.2845     4.8646     5.3175
  404.0000   134.8777     5.1263     5.4807
  404.5000   133.1862     5.4021     5.7729
  405.0000   133.5996     5.6926     6.0807
  405.5000   133.8562     5.9988     6.4049
  406.0000   131.1274     6.3215     6.7464
  406.5000   128.1952     6.6232     7.0539
  407.0000   129.9999     6.8463     7.2400
  407.5000   132.4108     7.0740     7.4310
  408.0000   134.0357     7.3099     7.6227
  408.5000   131.8169     7.5538     7.8185
  409.0000   127.8635     7.8235     8.0188
  409.5000   123.9924     7.8642     8.2247
  410.0000   121.4566     7.9082     8.2698
  410.5000   121.9150     7.9525     8.2698
  411.0000   122.6067     7.9972     8.2699
  411.5000   122.3714     8.0434     8.2698
  412.0000   122.4959     8.0607     8.2697
  412.5000   123.9537     8.0783     8.2706
  413.0000   125.4207     8.0961     8.2688
  413.5000   126.2673     8.1139     8.3400
  414.0000   125.6887     8.1317     8.3952
  414.5000   124.9801     8.1496     8.4508
  415.0000   124.2881     8.1676     8.5067
  415.5000   125.1916     8.1855     8.5630
  416.0000   126.2866     8.2506     8.6197
  416.5000   127.3808     8.4118     8.6767
  417.0000   128.4783     8.5035     8.7341
  417.5000   129.5446     8.5024     8.7943
  418.0000   127.9181     8.3466     8.8553
  418.5000   126.0037     8.6117     8.9167
  419.0000   124.0916     8.8492     8.9875
  419.5000   122.1809     9.0710     8.3748
  420.0000   120.3992     9.0710     7.7106
  420.5000   118.6842     8.9048     7.0992
  421.0000   118.9657     7.4045     6.5362
  421.5000   121.1798     6.1416     6.1121
  422.0000   127.4595     5.1518     6.0403
  422.5000   133.9606     4.7835     6.1146
  423.0000   139.3288     4.7950     6.1750
  423.5000   130.1733     5.5219     6.2295
  424.0000   120.4105     6.2101     6.5989
  424.5000   111.4883     6.9841     7.3231
  425.0000   106.6128     7.8557     8.1381
  425.5000   107.1585     8.8347     9.0409
  426.0000   111.3812     9.3361     9.9528
  426.5000   115.6336     9.7569    10.1179
  427.0000   116.1777    10.1356    10.2747
  427.5000   114.8807    10.1106    10.4341
  428.0000   113.9197    10.0893    10.5938
  428.5000   116.0989    10.0681    10.8292
  429.0000   118.9960     9.9499    11.0725
  429.5000   121.3845    10.2706    11.3251
  430.0000   122.1772    10.8411    12.2640
  430.5000   115.7939    11.4432    13.2667
  431.0000   106.0583    12.3222    14.4032
  431.5000    96.8157    13.8012    15.8381
  432.0000    89.7563    15.4577    17.4911
  432.5000    85.7359    17.3130    19.3197
  433.0000    81.8100    19.3911    21.3392
  433.5000    77.0133    21.7185    23.5697
  434.0000    68.0961    24.0026    26.0332
  434.5000    58.5703    25.2858    28.5652
  435.0000    57.3711    26.6377    29.7580
  435.5000    56.5415    27.2519    30.7414
  436.0000    59.1485    27.5945    29.1603
  436.5000    63.1285    27.7650    27.8583
  437.0000    67.5589    26.9043    26.6145
  437.5000    72.0920    26.4174    25.8851
  438.0000    73.9119    25.9416    25.3541
  438.5000    74.7664    25.3164    24.8546
  439.0000    75.0996    25.4090    25.2557
  439.5000    74.0992    25.6037    25.6473
  440.0000    71.6360    25.8000    26.0450
  440.5000    69.1846    26.0308    26.5146
  441.0000    68.8650    25.8218    26.1311
  441.5000    70.0875    25.5732    25.6719
  442.0000    72.3641    25.3192    25.3427
  442.5000    74.0288    24.6120    24.9557
  443.0000    74.7688    23.8991    24.5746
  443.5000    76.2204    23.2071    24.1993
  444.0000    79.1033    22.5356    23.9521
  444.5000    83.0965    21.6355    24.6334
  445.0000    86.0751    22.2679    25.1245
  445.5000    85.3841    23.3416    25.6263
  446.0000    81.7441    24.4671    26.1400
  446.5000    77.6704    25.6468    27.0859
  447.0000    75.6246    26.8837    28.2252
  447.5000    73.5595    28.1798    29.4097
  448.0000    72.4226    29.5503    30.7600
  448.5000    71.4266    30.4622    29.9415
  449.0000    70.5769    30.4622    28.8547
  449.5000    72.9105    30.0368    27.8114
  450.0000    75.3556    28.3467    26.8071
  450.5000    77.7801    26.7517    25.8406
  451.0000    79.8975    25.2465    24.9474
  451.5000    80.5110    23.8260    24.2590
  452.0000    80.6482    22.7016    23.5877
  452.5000    80.7914    22.1362    22.9350
  453.0000    80.8979    21.5842    22.3003
  453.5000    80.2043    21.0466    21.8365
  454.0000    79.5004    20.5244    21.5420
  454.5000    78.7699    20.0732    21.2678
  455.0000    80.5678    19.9515    20.9974
  455.5000    83.8780    19.8306    20.7304
  456.0000    87.2384    19.6868    20.4668
  456.5000    90.5171    19.3702    20.2064
  457.0000    91.7918    19.0587    19.9494
  457.5000    90.7518    18.7522    19.8808
  458.0000    89.5490    18.4506    19.8486
  458.5000    88.3206    18.1494    19.8164
  459.0000    88.9420    18.2656    19.7843
  459.5000    89.9629    18.3845    19.7522
  460.0000    88.9252    18.5041    19.7202
  460.5000    87.4312    18.6245    19.6883
  461.0000    88.6457    18.7457    19.6564
  461.5000    89.9366    18.8677    19.6246
  462.0000    91.0656    18.9904    19.5928
  462.5000    91.0495    19.1160    19.5610
  463.0000    89.4342    19.1840    19.4598
  463.5000    87.8796    18.8915    19.2675
  464.0000    86.2962    18.6875    19.0772
  464.5000    86.6809    18.4881    18.8888
  465.0000    88.1103    18.2752    18.7022
  465.5000    89.5735    18.0663    18.5175
  466.0000    90.6612    17.8598    18.3346
  466.5000    91.5132    17.6556    18.1535
  467.0000    92.3882    17.4538    17.9742
  467.5000    92.6149    17.2543    17.8168
  468.0000    90.8820    17.0571    17.8168
  468.5000    88.7439    16.8619    17.8170
  469.0000    86.6451    16.6686    17.8168
  469.5000    87.5507    16.4789    17.8168
  470.0000    88.4834    16.3940    17.8168
  470.5000    87.1454    16.5925    17.8168
  471.0000    85.7840    16.7399    17.8168
  471.5000    84.4341    16.8884    17.8168
  472.0000    83.1085    17.0368    17.8169
  472.5000    82.2482    17.1753    17.8168
  473.0000    81.4048    17.3149    17.8168
  473.5000    83.7492    17.4903    17.7423
  474.0000    86.8095    17.2578    17.5990
  474.5000    89.8484    16.9552    17.4569
  475.0000    91.9210    16.6579    17.3293
  475.5000    92.4972    16.3659    17.1769
  476.0000    91.0398    16.0790    16.8901
  476.5000    89.5876    15.7971    16.6081
  477.0000    88.9845    15.5201    16.3308
  477.5000    90.1305    15.2480    16.0581
  478.0000    91.2604    14.9807    15.8282
  478.5000    90.5899    14.7180    15.6286
  479.0000    88.4867    14.4600    15.4315
  479.5000    86.3807    14.2065    15.2370
  480.0000    84.9698    14.0091    15.0793
  480.5000    88.1557    13.9844    15.0532
  481.0000    91.5613    13.9601    15.0270
  481.5000    92.8354    13.9359    15.0010
  482.0000    91.7083    13.9117    14.9749
  482.5000    90.5666    13.8831    14.9489
  483.0000    90.8864    13.8998    14.8278
  483.5000    91.9984    13.9280    14.6955
  484.0000    93.2017    13.9565    14.5644
  484.5000    91.4195    13.9846    14.4345
