~VERSION INFORMATION
 VERS.                2.0:   CWLS LOG ASCII STANDARD - VERSION 2.0
 WRAP.                 NO:   ONE LINE PER DEPTH STEP
~WELL INFORMATION
#MNEM.UNIT      DATA TYPE    INFORMATION
#----------   ------------   ------------------------------
 STRT.F           28.0000:   START DEPTH
 STOP.F          461.0000:   STOP DEPTH
 STEP.F            0.5000:   STEP LENGTH
 NULL.          -999.2500:   NO VALUE
 COMP. FENIX & SCISSON INC:   COMPANY
 WELL.       NPR-3 #47S-3:   WELL
 FLD .             TEAPOT:   FIELD
 LOC .       S3 T38N R78W:   LOCATION
 CNTY.            NATRONA:   COUNTY
 STAT.            WYOMING:   STATE
 CTRY. UNITED STATES OF AMERICA:   COUNTRY
 SRVC.            Unknown:   SERVICE COMPANY
 DATE.        06-JUL-1978:   LOGDATE
 API .       490251066400:   API NUMBER
~CURVE INFORMATION
#MNEM.UNIT       API CODE    CURVE DESCRIPTION
#----------   ------------   ------------------------------
 DEPT.F                  :   
 SPR .MV     05 010 01 00:   SPONTANEOUS POTENTIAL FROM RES.
 ILD .OHMM   05 120 46 00:   INDUCTION LOG DEEP
 SN  .OHMM   05 040 16 00:   SHORT NORMAL 16"
 GRD .GAPI   45 310 01 00:   GAMMA RAY FROM DENSITY LOG
 CALD.IN     45 280 60 00:   CALIPER FROM DENSITY LOG
 CORR.G/C3   45 356 01 00:   DENSITY CORRECTION
 DEN .G/C3   45 350 01 00:   DENSTIY
 DPHI.DEC    45 890 12 00:   DENSITY POROSITY SANDSTONE
~PARAMETER INFORMATION
#MNEM.UNIT          VALUE    DESCRIPTION
#----------   ------------   ------------------------------
 PD  .                 GL:   PERMANENT DATUM
 EPD .F              5202:   ELEVATION PERMANENT DATUM
 LMF .                 KB:   LOG MEASURED FROM
 DAPD.F                 4:   FEET ABOVE PERMANENT DATUM
 DMF .                 KB:   DRILLING MEASURED FROM
 EKB .F              5206:   KELLING BUSHING
 EGL .F              5202:   GROUND LEVEL
 DATE.        06-JUL-1978:   RUN DATE
 RUN .                  1:   RUN NUMBER
 DD  .F               460:   DEPTH DRILLER
 DL  .F               461:   DEPTH LOGGER
 BLI .F               461:   BOTTOM LOG INTERVAL
 TLI .F                40:   TOP LOG INTERVAL
 CS  .IN            8.625:   CASING SIZE
 CBD .F                40:   CASING BOTTOM DRILLER
 CBL .F                40:   CASING BOTTOM LOGGER
 BS  .IN            7.875:   BIT SIZE
 BSD .F               460:   BIT SIZE AT DEPTH
 DFT .                KCL:   DRILLING FLUID TYPE
 DFD .                8.6:   DRILLING FLUID DENSITY
 DFV .                 33:   DRILLING FLUID VISCOSITY
 DFPH.                9.5:   DRILLING FLUID PH
 MSS .           FLOWLINE:   MUD SAMPLE SOURCE
 TCS .HRS               1:   TIME CURCULATED STOPPED
 LUN .               2858:   LOGGING UNIT NUMBER
 LUL .               CASP:   LOGGING UNIT LOCATION
 ENGI.           REYNOLDS:   RECORDING ENGINEER
 WITN.           MCGENLEY:   WITNESSED BY
 CLNT.            A2DTECH:   CLIENT CODE
 ORIG.           5" PRINT:   ORIGIN OF DATA
 UWI .       490251066400:   UNIQUE WELL ID
 DICO. A2D Technologies, Inc.:   DIGITIZING COMPANY
~OTHER INFORMATION
~A   DEPT      SPR        ILD         SN         GRD      CALD       CORR        DEN       DPHI   
# ...
  271.0000   -46.8437     8.4037    10.2717   108.1390     7.7414     0.0602     2.5115     0.0949
  271.5000   -46.8292     8.5272    10.2095   108.4558     7.7271     0.0604     2.5133     0.0943
  272.0000   -46.8147     8.6035    10.2164   108.1600     7.7282     0.0605     2.5225     0.0924
  272.5000   -46.8001     8.8417    10.2233   107.4049     7.7293     0.0546     2.5241     0.0905
  273.0000   -46.7856     9.0958    10.2301   107.4154     7.7305     0.0518     2.5195     0.0991
  273.5000   -46.9276     9.2293    10.1650   107.7322     7.7316     0.0489     2.5041     0.1022
  274.0000   -47.0754     8.9859    10.1736   106.5038     7.7326     0.0490     2.5011     0.1037
  274.5000   -47.1884     8.3949    10.1804   103.2850     7.7337     0.0491     2.5003     0.1040
  275.0000   -47.1702     7.8969    10.1872   102.6851     7.7348     0.0507     2.4996     0.1040
  275.5000   -47.3081     7.3775    10.0547   102.4170     7.7358     0.0509     2.4927     0.1102
  276.0000   -47.2899     6.8899     9.9238   101.6618     7.7369     0.0525     2.4850     0.1194
  276.5000   -47.2754     6.7569     9.7947   100.6004     7.7532     0.0541     2.4781     0.1132
  277.0000   -46.9632     6.7159     9.6673    99.2326     7.7543     0.0587     2.4851     0.1169
  277.5000   -46.7999     6.7227     9.6754    97.2523     7.7707     0.0618     2.4923     0.1107
  278.0000   -46.9345     6.7281     9.7487    95.1189     7.7720     0.0500     2.5066     0.1030
  278.5000   -47.3661     6.9215    10.0276    96.9671     7.7574     0.0501     2.5015     0.0971
  279.0000   -47.5003     7.4207    10.3857   100.0404     7.7432     0.0502     2.4908     0.0943
  279.5000   -47.4851     8.4643    10.7566   100.6635     7.7138     0.0503     2.4924     0.0977
  280.0000   -47.4676     9.8562    11.1460   102.6648     7.7148     0.0505     2.4901     0.1026
  280.5000   -47.4530    10.8655    11.4735   103.5942     7.7003     0.0506     2.4902     0.0992
  281.0000   -47.4385    11.0219    11.8707   103.7713     7.7016     0.0522     2.4833     0.0995
  281.5000   -47.4239    10.9569    12.1265   104.3813     7.7027     0.0523     2.4740     0.1016
  282.0000   -47.7070    10.8883    12.2184   104.0878     7.7037     0.0524     2.4926     0.1041
  282.5000   -48.1425    10.8993    12.3111   103.6362     7.7201     0.0526     2.4997     0.1056
  283.0000   -48.2738    10.9080    12.4901   103.0368     7.7212     0.0527     2.4997     0.1173
  283.5000   -45.2824    10.9922    12.6718   101.8222     7.7376     0.0543     2.4849     0.1260
  284.0000   -43.0357    11.3863    12.8561   100.3013     7.7542     0.0574     2.4663     0.1284
  284.5000   -43.0208    12.2918    13.0455    99.0867     7.7859     0.0605     2.4620     0.1293
  285.0000   -43.5983    13.2787    13.2452    97.7190     7.8330     0.0621     2.4621     0.1315
  285.5000   -43.8850    14.1715    13.6135    94.6667     7.8800     0.0637     2.4621     0.1277
  286.0000   -43.2716    16.0086    14.0030    89.3174     7.9271     0.0653     2.4637     0.1238
  286.5000   -42.2154    17.6423    14.5030    83.6617     7.9742     0.0565     2.4692     0.1206
  287.0000   -41.3080    19.3094    15.2292    78.4586     7.9906     0.0476     2.4708     0.1196
  287.5000   -40.6982    20.8451    15.7730    73.7930     8.0223     0.0418     2.4631     0.1422
  288.0000   -41.8741    22.0429    16.1129    70.3769     8.0387     0.0434     2.4346     0.1561
  288.5000   -43.3482    23.3096    16.3473    68.8493     8.0551     0.0510     2.3906     0.1734
  289.0000   -41.3986    24.8193    16.4712    73.1503     8.0561     0.0526     2.3728     0.1842
  289.5000   -41.0865    26.0740    16.5964    76.3768     8.0600     0.0527     2.3544     0.1931
  290.0000   -40.5654    27.1871    16.6100    77.4593     8.0738     0.0529     2.3382     0.1974
  290.5000   -40.0121    25.9335    16.6212    77.3167     8.0749     0.0545     2.3359     0.1990
  291.0000   -28.2416    24.9042    16.6323    77.1740     8.0913     0.0576     2.3360     0.1993
  291.5000   -25.5485    24.4148    16.6435    77.1846     8.1230     0.0651     2.3260     0.2032
  292.0000   -25.3851    23.1253    16.7697    76.4294     8.1547     0.0742     2.3205     0.2072
  292.5000   -25.5230    21.3089    17.1311    73.8365     8.2018     0.0818     2.3130     0.2211
  293.0000   -25.5048    21.0302    17.2610    69.2529     8.2642     0.1088     2.3068     0.2088
  293.5000   -25.4903    21.3432    17.5120    66.5059     8.3266     0.1417     2.3131     0.1927
  294.0000   -25.4758    21.5099    17.5239    65.5986     8.3736     0.1672     2.3595     0.1803
  294.5000   -25.6101    21.8242    17.2957    65.9158     8.3572     0.1226     2.3928     0.1716
  295.0000   -25.5952    22.1484    17.1886    67.3068     8.0322     0.1018     2.3797     0.1636
  295.5000   -25.5804    21.7131    17.3218    70.5332     7.8709     0.0884     2.3944     0.1555
  296.0000   -25.5628    20.5663    17.8174    72.8408     7.8720     0.0778     2.4192     0.1379
  296.5000   -25.5482    23.4588    18.2013    74.6890     7.8577     0.0643     2.4370     0.1419
  297.0000   -25.5337    24.4676    18.4660    73.4744     7.8587     0.0545     2.4324     0.1478
  297.5000   -25.6716    25.3448    18.8640    72.7166     7.8598     0.0501     2.4240     0.1502
  298.0000   -25.6534    27.7397    19.2705    72.8829     7.8452     0.0488     2.4179     0.1505
  298.5000   -26.0853    28.3413    19.5508    73.8122     7.8465     0.0489     2.4179     0.1508
  299.0000   -26.8148    26.8033    19.5805    74.1290     7.8323     0.0475     2.4169     0.1563
  299.5000   -27.0982    25.6021    19.7155    74.2927     7.8333     0.0461     2.4018     0.1649
  300.0000   -29.1667    25.7996    19.8617    75.3752     7.8344     0.0463     2.3980     0.1634
  300.5000   -29.2932    25.4661    19.7573    78.2995     7.8506     0.0449     2.3989     0.1651
  301.0000   -29.1253    25.4899    19.6608    76.0160     7.8515     0.0405     2.4005     0.1764
  301.5000   -29.1062    25.5090    19.7691    74.6514     7.8680     0.0362     2.3929     0.1800
  302.0000   -29.0871    25.5281    19.9191    75.7369     7.8689     0.0557     2.3774     0.1793
  302.5000   -29.0679    25.7237    20.0704    78.3539     7.8698     0.0603     2.3799     0.1740
  303.0000   -29.4953    25.9207    20.0840    79.8988     7.8707     0.0649     2.3823     0.1666
  303.5000   -29.7738    26.8485    20.0977    78.8404     7.8869     0.0696     2.3909     0.1557
  304.0000   -30.0571    27.2411    20.1114    78.8770     7.8878     0.0758     2.4280     0.1334
  304.5000   -30.4796    27.2615    20.1250    79.6367     7.9041     0.0834     2.4627     0.1241
  305.0000   -30.7581    27.0947    20.1387    81.1817     7.9050     0.0878     2.4878     0.1117
  305.5000   -31.0366    26.9290    20.1524    82.1107     7.9059     0.0894     2.5057     0.1005
  306.0000   -31.0175    25.8588    20.1661    78.4523     7.9068     0.0955     2.5150     0.0950
  306.5000   -31.1473    25.8781    20.1798    76.0157     7.9077     0.1046     2.4958     0.1057
  307.0000   -31.1280    26.0764    20.0550    74.4978     7.9086     0.1151     2.4835     0.1286
  307.5000   -31.1086    25.9169    19.7832    74.5114     7.9095     0.1227     2.4604     0.1338
  308.0000   -31.0893    25.7447    19.4029    74.8313     7.9104     0.1064     2.4513     0.1328
  308.5000   -31.0699    24.8630    19.1271    75.4574     7.9113     0.0782     2.4514     0.1384
  309.0000   -31.0469    23.3447    18.7719    77.6150     7.9125     0.0589     2.4414     0.1488
  309.5000   -31.0278    21.4416    18.4039    80.6913     7.9134     0.0441     2.4222     0.1618
  310.0000   -31.0087    20.7317    18.1646    83.3083     7.9143     0.0352     2.4114     0.1648
  310.5000   -30.9896    20.4597    18.0492    85.1595     7.9152     0.0294     2.3969     0.1657
  311.0000   -30.9705    20.4789    17.9406    86.2451     7.9161     0.0280     2.3931     0.1771
