~VERSION INFORMATION
 VERS.                2.0:   CWLS LOG ASCII STANDARD - VERSION 2.0
 WRAP.                 NO:   ONE LINE PER DEPTH STEP
~WELL INFORMATION
#MNEM.UNIT      DATA TYPE    INFORMATION
#----------   ------------   ------------------------------
 STRT.F            6.0000:   START DEPTH
 STOP.F         4020.0000:   STOP DEPTH
 STEP.F            0.5000:   STEP LENGTH
 NULL.          -999.2500:   NO VALUE
 COMP. LAWRENCE/ALLISON INC:   COMPANY
 WELL.       66 JX #33-33:   WELL
 FLD .              NPR-3:   FIELD
 LOC .      S33 T39N R78W:   LOCATION
 CNTY.            NATRONA:   COUNTY
 STAT.            WYOMING:   STATE
 CTRY. UNITED STATES OF AMERICA:   COUNTRY
 SRVC.      Dresser Atlas:   SERVICE COMPANY
 DATE.        02-DEC-1983:   LOGDATE
 API .       490251095100:   API NUMBER
~CURVE INFORMATION
#MNEM.UNIT       API CODE    CURVE DESCRIPTION
#----------   ------------   ------------------------------
 DEPT.F                  :   
 CALD.IN     45 280 60 00:   CALIPER
 CNC .DEC    42 890 03 00:   NEUTRON POROSITY SANDSTONE
 PORD.DEC    45 890 12 00:   POROSITY DENSITY SANDSTONE
 DEN .G/C3   45 350 01 00:   COMPENSATED BULK DENSTIY
 CORR.G/C3   45 356 01 00:   DENSITY CORRECTION
 RFOC.OHMM   07 220 04 00:   RESISTIVITY FOCUSED LOG
 RILD.OHMM   07 120 46 00:   INDUCTION LOG DEEP RESISTIVITY
 RILM.OHMM   07 120 44 00:   INDUCTION LOG MEDIUM RESISTIVITY
 GRR .GAPI   07 310 01 00:   GAMMA RAY FROM RES. LOG.
 DT  .US/F   60 520 00 00:   INTERVAL TRANSIT TIME
 SPR .MV     07 010 01 00:   SPONTANEOUS POTENTIAL
~PARAMETER INFORMATION
#MNEM.UNIT          VALUE    DESCRIPTION
#----------   ------------   ------------------------------
 PD  .                 GL:   PERMANENT DATUM
 EPD .F              5141:   ELEVATION PERMANENT DATUM
 LMF .                 KB:   LOG MEASURED FROM
 DAPD.F                10:   FEET ABOVE PERMANENT DATUM
 DMF .                 KB:   DRILLING MEASURED FROM
 EKB .F              5151:   KELLING BUSHING
 EGL .F              5141:   GROUND LEVEL
 DATE.            12-2-83:   RUN DATE
 RUN .                  1:   RUN NUMBER
 DD  .F              4025:   DEPTH DRILLER
 DL  .F              4020:   DEPTH LOGGER
 BLI .F              4018:   BOTTOM LOG INTERVAL
 TLI .F                10:   TOP LOG INTERVAL
 CS  .IN            8.625:   CASING SIZE
 CBD .F               718:   CASING BOTTOM DRILLER
 CBL .F               722:   CASING BOTTOM LOGGER
 BS  .IN            7.875:   BIT SIZE
 BSD .F              4025:   BIT SIZE AT DEPTH
 DFT .            GEL/KCL:   DRILLING FLUID TYPE
 DFD .                  9:   DRILLING FLUID DENSITY
 DFV .                 45:   DRILLING FLUID VISCOSITY
 DFPH.                8.5:   DRILLING FLUID PH
 DFL .                 12:   DRILLING FLUID LOSS
 MSS .           FLOWLINE:   MUD SAMPLE SOURCE
 RMS .OHMM            .37:   RESISTIVITY MUD SAMPLE
 MST .F                88:   MUD SAMPLE TEMPERATURE
 RMF .OHMM            .29:   RESISTIVITY MUD FILTRATE SAMPLE
 MFST.F                88:   MUD FILTRATE SAMPLE TEMPERATURE
 RMC .OHMM            .46:   RESISTIVITY MUD CAKE
 MCST.F                88:   MUD CAKE SAMPLE TEMPERATURE
 MFSS.               MEAS:   MUD FILTRATE SAMPLE SOURCE
 MCSS.               CALC:   MUD CAKE SAMPLE SOURCE
 RMB .OHMM            .26:   RESISTIVITY MUD AT BHT
 BHT .F               127:   BOTTOM HOLE TEMPERATURE
 TCS .HRS               4:   TIME CURCULATED STOPPED
 MRT .F               127:   MAXIMUM RECORDED TEMPERATURE
 LUN .               6264:   LOGGING UNIT NUMBER
 LUL .              WLSTN:   LOGGING UNIT LOCATION
 ENGI.            PANASUK:   RECORDING ENGINEER
 WITN.              SCOTT:   WITNESSED BY
 CLNT.            A2DTECH:   CLIENT CODE
 ORIG.       2", 5" PRINT:   ORIGIN OF DATA
 UWI .       490251095100:   UNIQUE WELL ID
 DICO. A2D Technologies, Inc.:   DIGITIZING COMPANY
~OTHER INFORMATION
~A    DEPT    CALD        CNC       PORD        DEN       CORR       RFOC       RILD       RILM          GRR       DT        SPR   
# ...
 3330.5000     8.2086     0.2770     0.1234     2.4465    -0.0182     3.7764     2.8955     3.0141   169.2424    93.8109   -36.4842
 3331.0000     8.2354     0.2838     0.1214     2.4492    -0.0300     3.6795     2.8311     2.9519   169.5595    94.2585   -36.4090
 3331.5000     8.2622     0.2874     0.1187     2.4514    -0.0182     3.5403     2.7781     2.8909   170.9277    94.9700   -36.4498
 3332.0000     8.2890     0.2904     0.1213     2.4440    -0.0056     3.4487     2.7262     2.8312   170.3429    95.6719   -36.6310
 3332.5000     8.3161     0.2977     0.1252     2.4418    -0.0080     3.4302     2.6753     2.7727   170.3207    96.2257   -36.8088
 3333.0000     8.3428     0.2990     0.1243     2.4451    -0.0167     3.4061     2.6251     2.7155   173.8237    96.6444   -37.0577
 3333.5000     8.3357     0.2914     0.1208     2.4483    -0.0149     3.3869     2.5757     2.6594   175.5834    96.9241   -37.2210
 3334.0000     8.2443     0.2962     0.1211     2.4450    -0.0011     3.2346     2.5273     2.6177   173.1534    97.0661   -37.1478
 3334.5000     8.1482     0.3127     0.1262     2.4352     0.0124     3.2528     2.4798     2.5831   168.9764    97.1071   -37.1271
 3335.0000     8.1259     0.3286     0.1320     2.4255     0.0211     3.2744     2.4544     2.5556   166.4872    96.4977   -37.0708
 3335.5000     8.1255     0.3280     0.1370     2.4197     0.0200     3.2947     2.4327     2.5284   167.4891    95.8313   -37.0534
 3336.0000     8.1292     0.2943     0.1394     2.4165     0.0188     3.2141     2.4096     2.5015   169.2435    95.1649   -36.8991
 3336.5000     8.1406     0.2865     0.1408     2.4134     0.0175     3.1465     2.2371     2.4771   170.8364    94.4985   -36.6151
 3337.0000     8.1518     0.2881     0.1422     2.4082     0.0162     3.1677     2.0772     2.2403   173.1148    93.8321   -36.3562
 3337.5000     8.1632     0.2902     0.1462     2.4026     0.0148     3.2034     1.9286     2.0418   180.8231    93.1657   -36.0842
 3338.0000     8.1634     0.3172     0.1513     2.3966     0.0122     3.1986     1.7907     1.8610   190.5655    92.6026   -35.8205
 3338.5000     8.1566     0.3450     0.1538     2.4018     0.0432     2.9999     1.6626     1.6961   202.2294    92.6233   -35.5503
 3339.0000     8.1500     0.3450     0.1345     2.4431     0.0507     2.5772     1.5351     1.5741   218.6679    93.3423   -35.2877
 3339.5000     8.1458     0.3242     0.1077     2.4904     0.0529     2.1848     1.5289     1.4797   217.9078    95.5018   -35.0132
 3340.0000     8.1444     0.3026     0.0808     2.5349     0.0550     1.8015     1.5211     1.5351   215.7632    97.9690   -34.7588
 3340.5000     8.1670     0.2906     0.0678     2.5247     0.0572     1.8855     1.5351     1.7191   200.5966    99.8573   -34.4473
 3341.0000     8.1655     0.2933     0.0807     2.5099     0.0470     1.9936     1.6244     1.8987   192.5279    99.9199   -34.5819
 3341.5000     8.1657     0.2946     0.0853     2.5077     0.0348     2.7792     1.7242     2.0970   159.7831    97.7769   -34.9268
 3342.0000     8.1657     0.2910     0.0892     2.4991     0.0226     3.7476     1.8116     2.3226   148.2305    95.0305   -35.2205
 3342.5000     8.1657     0.2898     0.0972     2.4893     0.0113     3.9970     2.0489     2.5290   148.9343    92.7467   -35.5312
 3343.0000     8.1657     0.2970     0.1053     2.4766     0.0132     3.9544     2.2759     2.6909   150.6288    91.8018   -35.8446
 3343.5000     8.1657     0.3024     0.1098     2.4649     0.0155     3.8459     2.5000     2.7409   154.8631    92.5691   -36.1338
 3344.0000     8.1657     0.3101     0.1074     2.4697     0.0162     3.6783     2.5699     2.7074   158.8824    93.3243   -36.4854
 3344.5000     8.1657     0.3170     0.1034     2.4747    -0.0004     3.4311     2.5699     2.6741   162.7568    94.4402   -36.5907
 3345.0000     8.1657     0.3278     0.1018     2.4799    -0.0084     3.2006     2.5300     2.6419   166.5097    95.7676   -36.2210
 3345.5000     8.1657     0.3246     0.0992     2.4844     0.0137     2.9503     2.4912     2.6115   166.3997    96.8413   -35.8460
 3346.0000     8.1657     0.3038     0.0873     2.5157     0.0286     2.9775     2.4530     2.6047   165.8914    97.4389   -35.6215
 3346.5000     8.1657     0.2917     0.0550     2.5584    -0.0175     3.2136     2.4154     2.5979   164.1668    97.3415   -35.7928
 3347.0000     8.1657     0.2846     0.0314     2.5909    -0.0063     3.3833     2.3876     2.5654   155.4427    96.6941   -35.9390
 3347.5000     8.1657     0.2802     0.0667     2.5912     0.0143     3.5236     2.3759     2.5023   147.5088    95.4247   -36.0767
 3348.0000     8.1657     0.2782     0.1081     2.4875     0.0336     3.6456     2.3657     2.4301   140.6998    94.0581   -36.2739
 3348.5000     8.1656     0.2800     0.1230     2.4469     0.0054     3.4011     2.4414     2.4590   147.5949    92.8028   -36.3713
 3349.0000     8.1658     0.2816     0.1162     2.4562     0.0003     3.1084     2.5231     2.5585   156.2937    93.7363   -36.1918
 3349.5000     8.1695     0.2822     0.1085     2.4704     0.0073     2.9194     2.5354     2.6622   163.4369    95.0461   -36.0405
 3350.0000     8.1731     0.2755     0.1030     2.4740     0.0147     3.1734     2.5785     2.7700   161.0635    96.7067   -36.1159
 3350.5000     8.1766     0.2691     0.1062     2.4719     0.0220     3.4842     2.6177     2.8824   160.9110    96.8902   -36.2967
 3351.0000     8.1802     0.2685     0.1086     2.4670     0.0269     3.7213     2.6802     3.0334   160.2311    95.8350   -36.4427
 3351.5000     8.1837     0.2764     0.1111     2.4641     0.0124     3.8699     2.7509     3.0057   155.3849    94.7798   -36.5970
 3352.0000     8.1873     0.2779     0.1109     2.4650    -0.0035     4.0048     2.8437     3.0337   156.5315    94.1301   -36.7607
 3352.5000     8.1908     0.2716     0.1094     2.4671    -0.0194     3.9524     2.8192     2.9857   160.7599    93.5475   -36.8211
 3353.0000     8.1944     0.2716     0.1079     2.4692    -0.0358     3.7346     2.7859     2.9332   164.8851    93.4034   -36.6871
 3353.5000     8.1979     0.2734     0.1064     2.4712    -0.0248     3.4903     2.7529     2.8827   165.5192    93.8959   -36.5143
 3354.0000     8.2015     0.2746     0.1050     2.4716    -0.0004     3.2947     2.7203     2.8965   162.2847    94.4024   -36.4294
 3354.5000     8.2050     0.2746     0.1076     2.4677     0.0129     3.3168     2.6881     2.8476   156.0803    94.9089   -36.5866
 3355.0000     8.2086     0.2763     0.1137     2.4575    -0.0008     3.3575     2.6563     2.8164   152.5351    95.4154   -36.7535
 3355.5000     8.2121     0.2837     0.1186     2.4482    -0.0050     3.3986     2.6177     2.7855   153.4005    95.5610   -36.9198
 3356.0000     8.2157     0.2846     0.1198     2.4503     0.0053     3.4498     2.6346     2.7648   155.1775    95.6286   -37.0943
 3356.5000     8.2192     0.2816     0.1178     2.4547    -0.0025     3.4191     2.6569     2.7609   153.1812    95.6961   -37.2192
 3357.0000     8.2228     0.2766     0.1147     2.4593    -0.0244     3.3797     2.6793     2.7571   147.0240    95.9427   -37.2322
 3357.5000     8.2257     0.2766     0.1127     2.4632    -0.0396     3.3251     2.7158     2.7532   146.8553    96.2189   -37.2200
 3358.0000     8.2281     0.2758     0.1126     2.4580    -0.0214     3.3726     2.7136     2.7493   147.3998    96.3063   -37.2459
 3358.5000     8.2306     0.2750     0.1173     2.4502     0.0077     3.4962     2.7078     2.7455   147.7066    96.2062   -37.0400
 3359.0000     8.2331     0.2789     0.1246     2.4407     0.0287     3.5139     2.7022     2.7409   149.2249    95.8242   -36.5135
 3359.5000     8.2357     0.2810     0.1311     2.4315     0.0131     3.4357     2.6965     2.7485   150.3491    95.7057   -36.0328
 3360.0000     8.2382     0.2826     0.1362     2.4223    -0.0019     3.2528     2.6909     2.7580   150.8314    95.7078   -35.4996
 3360.5000     8.2407     0.2731     0.1440     2.4128    -0.0145     3.0892     2.6553     2.7674   144.2487    95.2259   -35.1104
