~VERSION INFORMATION
 VERS.                2.0:   CWLS LOG ASCII STANDARD - VERSION 2.0
 WRAP.                 NO:   ONE LINE PER DEPTH STEP
~WELL INFORMATION
#MNEM.UNIT      DATA TYPE    INFORMATION
#----------   ------------   ------------------------------
 STRT.F           30.0000:   START DEPTH
 STOP.F          482.0000:   STOP DEPTH
 STEP.F            0.5000:   STEP LENGTH
 NULL.          -999.2500:   NO VALUE
 COMP. FENIX & SCISSON INC:   COMPANY
 WELL.        S 10 #72-10:   WELL
 FLD .             TEAPOT:   FIELD
 LOC .      S10 T38N R78W:   LOCATION
 CNTY.            NATRONA:   COUNTY
 STAT.            WYOMING:   STATE
 CTRY. UNITED STATES OF AMERICA:   COUNTRY
 SRVC.            Unknown:   SERVICE COMPANY
 DATE.        07-FEB-1978:   LOGDATE
 API .       490251056900:   API NUMBER
~CURVE INFORMATION
#MNEM.UNIT       API CODE    CURVE DESCRIPTION
#----------   ------------   ------------------------------
 DEPT.F                  :   
 CALD.IN     45 280 60 00:   CALIPER FROM DENSITY LOG
 CORR.G/C3   45 356 01 00:   DENSITY CORRECTION
 DPHI.DEC    45 890 12 00:   DENSITY POROSITY SANDSTONE
 GRD .GAPI   45 310 01 00:   GAMMA RAY FROM DENSITY LOG
 RHOB.G/C3   45 350 01 00:   BULK DENSITY
 SN  .OHMM   05 040 16 00:   SHORT NORMAL 16"
 SPR .MV     05 010 01 00:   SPONTANEOUS POTENTIAL FROM RES.
 ILD .OHMM   05 120 46 00:   INDUCTION LOG DEEP
~PARAMETER INFORMATION
#MNEM.UNIT          VALUE    DESCRIPTION
#----------   ------------   ------------------------------
 PD  .                 GL:   PERMANENT DATUM
 EPD .F              5174:   ELEVATION PERMANENT DATUM
 LMF .                 KB:   LOG MEASURED FROM
 DMF .                 KB:   DRILLING MEASURED FROM
 EKB .F              5177:   KELLING BUSHING
 EGL .F              5174:   GROUND LEVEL
 DATE.        07-FEB-1978:   RUN DATE
 RUN .                  1:   RUN NUMBER
 DD  .F               469:   DEPTH DRILLER
 DL  .F               482:   DEPTH LOGGER
 BLI .F               474:   BOTTOM LOG INTERVAL
 TLI .F                44:   TOP LOG INTERVAL
 CS  .IN            8.625:   CASING SIZE
 CBD .F                39:   CASING BOTTOM DRILLER
 CBL .F                42:   CASING BOTTOM LOGGER
 BS  .IN            7.875:   BIT SIZE
 BSD .F               469:   BIT SIZE AT DEPTH
 DFT .    LIGNO/SULF FULL:   DRILLING FLUID TYPE
 DFD .                8.7:   DRILLING FLUID DENSITY
 DFV .                 31:   DRILLING FLUID VISCOSITY
 DFPH.                  9:   DRILLING FLUID PH
 DFL .                4.8:   DRILLING FLUID LOSS
 MSS .           FLOWLINE:   MUD SAMPLE SOURCE
 RMS .OHMM             .9:   RESISTIVITY MUD SAMPLE
 MST .F                50:   MUD SAMPLE TEMPERATURE
 RMF .OHMM            .65:   RESISTIVITY MUD FILTRATE SAMPLE
 MFST.F                58:   MUD FILTRATE SAMPLE TEMPERATURE
 RMC .OHMM            1.2:   RESISTIVITY MUD CAKE
 MCST.F                58:   MUD CAKE SAMPLE TEMPERATURE
 MFSS.               MEAS:   MUD FILTRATE SAMPLE SOURCE
 RMB .OHMM            .55:   RESISTIVITY MUD AT BHT
 BHT .F                82:   BOTTOM HOLE TEMPERATURE
 TCS .HRS               3:   TIME CURCULATED STOPPED
 MRT .F                82:   MAXIMUM RECORDED TEMPERATURE
 LUN .               2958:   LOGGING UNIT NUMBER
 LUL .               CASP:   LOGGING UNIT LOCATION
 ENGI.            POINTER:   RECORDING ENGINEER
 WITN.         HARRINGTON:   WITNESSED BY
 CLNT.            A2DTECH:   CLIENT CODE
 ORIG.           5" PRINT:   ORIGIN OF DATA
 UWI .       490251056900:   UNIQUE WELL ID
 DICO. A2D Technologies, Inc.:   DIGITIZING COMPANY
~OTHER INFORMATION
~A   DEPT     CALD       CORR       DPHI         GRD      RHOB         SN        SPR        ILD   
# ...
  354.0000     7.7839     0.0917     0.1511    65.9825     2.3962    13.4448   -34.2687    14.7728
  354.5000     7.7692     0.1084     0.1517    65.3943     2.3977    13.3580   -33.9627    14.5734
  355.0000     7.7694     0.1357     0.1480    65.8484     2.4038    13.3684   -33.9552    14.3733
  355.5000     7.7844     0.1810     0.1382    67.4926     2.4159    13.2822   -33.9478    14.0777
  356.0000     7.8143     0.2038     0.1210    68.8393     2.4482    13.1986   -34.0881    13.8841
  356.5000     7.8740     0.2115     0.1151    68.2514     2.4611    13.0268   -34.2317    13.7066
  357.0000     7.9336     0.2147     0.1118    68.9107     2.4671    13.0349   -33.7747    13.6156
  357.5000     7.8891     0.2180     0.0992    70.2554     2.4740    13.0430   -33.1702    13.4317
  358.0000     7.8595     0.2309     0.0871    71.8466     2.4823    13.0511   -32.7151    13.3426
  358.5000     7.8746     0.2377     0.0853    70.9611     2.5035    13.0592   -32.7076    13.2540
  359.0000     7.9205     0.1822     0.0916    70.6690     2.5110    13.0673   -32.8513    13.2586
  359.5000     7.9662     0.1222     0.1045    71.2716     2.5078    13.0754   -33.1405    13.2622
  360.0000     7.9792     0.1072     0.1111    70.2391     2.4727    13.2662   -33.5808    13.3582
  360.5000     7.9644     0.1014     0.1165    71.1393     2.4554    13.5536   -33.8738    13.4548
  361.0000     7.9646     0.0684     0.1289    70.9960     2.4291    14.0405   -34.1649    13.8371
  361.5000     8.0540     0.0626     0.1518    70.2611     2.4044    14.8508   -34.4559    14.4290
  362.0000     8.1732     0.0416     0.1825    69.5244     2.3773    16.1496   -34.5978    15.3626
  362.5000     8.0246     0.0147     0.2150    67.5972     2.2938    17.8074   -34.5885    16.8167
  363.0000     8.1586     0.0254     0.2336    62.9914     2.2668    19.6354   -34.5810    19.1906
  363.5000     7.9951     0.1445     0.2406    58.6833     2.2382    21.3527   -34.5736    22.5157
  364.0000     7.9506     0.2742     0.2379    56.0121     2.2737    22.9004   -34.4169    26.9723
  364.5000     7.9061     0.3015     0.1616    55.8706     2.3369    24.7311   -34.2602    30.1461
  365.0000     7.8913     0.3047     0.1556    53.9434     2.3731    26.5237   -33.9543    32.3200
  365.5000     7.9510     0.2898     0.1631    53.8019     2.3882    27.6679   -33.4991    33.9371
  366.0000     7.9661     0.2120     0.1845    54.3214     2.3777    28.0717   -32.7454    34.1827
  366.5000     7.9365     0.1069     0.2061    56.6458     2.3183    28.1121   -31.9917    33.7208
  367.0000     7.8771     0.0945     0.2115    56.5025     2.2986    28.1061   -31.0887    33.2657
  367.5000     7.8623     0.0856     0.2148    57.1069     2.2913    27.9296   -30.3350    33.0448
  368.0000     7.8774     0.1355     0.2130    57.8583     2.2923    27.9469   -29.7306    32.5986
  368.5000     7.9371     0.1221     0.1811    58.1632     2.3478    27.9642   -29.2754    32.3822
  369.0000     7.9670     0.0666     0.1841    57.7223     2.3388    27.9816   -28.9695    31.9449
  369.5000     7.9671     0.0592     0.1877    56.6898     2.3298    27.8054   -28.6635    31.7329
  370.0000     7.9673     0.0804     0.1867    54.7626     2.3449    27.6304   -28.9565    31.5222
  370.5000     7.9674     0.1002     0.1810    53.7283     2.3540    27.2667   -29.2475    31.2765
  371.0000     7.9676     0.0868     0.1783    53.8845     2.3570    26.8859   -29.6860    30.8901
  371.5000     7.9677     0.0659     0.1835    54.1894     2.3368    26.3439   -29.8297    30.6850
  372.0000     7.9530     0.0600     0.1885    55.2384     2.3278    25.9924   -30.1208    30.0614
  372.5000     7.9382     0.1099     0.1716    57.1803     2.3391    25.5068   -30.2626    29.4505
  373.0000     7.9086     0.1356     0.1653    59.1221     2.3723    25.1711   -30.4044    28.4565
  373.5000     7.8790     0.1268     0.1619    60.7664     2.3791    24.8397   -30.6955    27.4942
  374.0000     7.8494     0.1119     0.1610    62.7321     2.3852    24.5127   -30.8355    26.7493
  374.5000     7.8198     0.0428     0.1794    65.1622     2.3694    24.3546   -30.9776    26.3881
  375.0000     7.7902     0.0128     0.1920    64.6330     2.3281    24.2013   -31.1191    26.3953
  375.5000     8.0040     0.0374     0.1863    63.0297     2.3283    24.0490   -31.4102    26.2183
  376.0000     8.0583     0.0555     0.1751    62.4418     2.3460    23.9013   -31.5522    26.4098
  376.5000     7.9814     0.0632     0.1739    60.8122     2.3578    23.9161   -31.6940    26.9725
  377.0000     8.0884     0.0707     0.1597    60.3713     2.3787    23.9309   -31.6864    27.1677
  377.5000     7.9844     0.0859     0.1498    62.0174     2.3983    23.9458   -31.5297    27.1751
  378.0000     7.9399     0.1343     0.1269    62.7688     2.4533    23.9606   -30.9252    27.1826
  378.5000     8.0293     0.1359     0.1154    61.5856     2.4616    23.9755   -30.6193    27.3793
  379.0000     8.2973     0.0744     0.1206    58.9126     2.4451    24.1573   -30.6119    27.5775
  379.5000     7.9701     0.0384     0.1750    61.8979     2.3947    24.1723   -30.6044    27.3941
  380.0000     8.0000     0.1515     0.1690    62.0522     2.3541    24.0164   -30.5970    27.2123
  380.5000     8.0150     0.2044     0.1452    60.4245     2.4053    23.8652   -30.2910    27.0319
  381.0000     8.0152     0.1970     0.1596    60.2827     2.4076    23.3883   -30.2836    26.2995
  381.5000     8.0153     0.1475     0.1698    60.8856     2.3821    23.0804   -30.2761    25.5870
  382.0000     8.0155     0.1070     0.1779    59.7025     2.3633    22.7766   -30.2687    24.7194
  382.5000     8.0007     0.0816     0.1882    61.4980     2.3393    22.4768   -30.4229    24.0436
  383.0000     7.9860     0.0727     0.1915    61.6516     2.3273    22.1809   -30.5672    23.5631
  383.5000     7.9713     0.0819     0.1809    60.5789     2.3290    21.8889   -30.8435    23.7338
  384.0000     7.9702     0.1016     0.1701    59.1366     2.3615    21.6035   -31.1346    23.7668
  384.5000     7.9567     0.1093     0.1664    60.3362     2.3677    21.3192   -31.2985    23.7467
  385.0000     7.9569     0.1095     0.1616    60.4924     2.3854    20.8937   -31.4182    23.5906
  385.5000     7.9570     0.1048     0.1591    62.1366     2.3817    20.4761   -31.4104    23.4324
  386.0000     7.9720     0.0927     0.1543    67.0546     2.3735    20.2066   -31.7000    22.9578
  386.5000     7.9722     0.0859     0.1507    66.3179     2.3630    20.0794   -31.6926    22.6478
  387.0000     7.9723     0.1026     0.1519    65.4324     2.3773    19.8150   -31.6851    22.3404
  387.5000     7.9725     0.1194     0.1547    65.7374     2.3864    19.5542   -31.6777    22.0402
  388.0000     7.9875     0.1120     0.1576    65.2983     2.3827    19.2933   -31.5210    21.5923
  388.5000     7.9727     0.1212     0.1522    64.5597     2.3917    18.9112   -31.3643    21.2993
  389.0000     7.9729     0.1319     0.1461    65.6106     2.4038    18.6623   -31.3569    21.0116
  389.5000     7.9731     0.1411     0.1482    66.8084     2.4069    18.4033   -31.2002    20.5846
  390.0000     7.9732     0.0931     0.1581    67.4504     2.3881    18.1412   -31.0435    20.1663
  390.5000     7.9734     0.0902     0.1608    65.0373     2.3806    17.6879   -31.6331    19.8940
  391.0000     7.9735     0.0964     0.1578    63.1102     2.3852    17.4551   -32.2227    19.4910
  391.5000     7.9737     0.0996     0.1494    62.9687     2.3920    17.2253   -32.5156    19.3603
  392.0000     7.9887     0.0998     0.1481    67.5893     2.4071    16.8837   -32.6575    18.9682
  392.5000     7.9903     0.0804     0.1556    66.5105     2.3986    16.7748   -31.9019    18.8410
  393.0000     8.0039     0.0579     0.1638    64.6294     2.3789    16.4421   -31.8945    18.5876
  393.5000     8.0040     0.0551     0.1638    64.4861     2.3741    16.3360   -31.7378    18.3368
  394.0000     8.0042     0.0734     0.1613    65.6858     2.3810    16.1210   -31.7304    18.3418
