~VERSION INFORMATION
 VERS.                2.0:   CWLS LOG ASCII STANDARD - VERSION 2.0
 WRAP.                 NO:   ONE LINE PER DEPTH STEP
~WELL INFORMATION
#MNEM.UNIT      DATA TYPE    INFORMATION
#----------   ------------   ------------------------------
 STRT.F           80.0000:   START DEPTH
 STOP.F         1011.0000:   STOP DEPTH
 STEP.F            0.5000:   STEP LENGTH
 NULL.          -999.2500:   NO VALUE
 COMP.          U.S. NAVY:   COMPANY
 WELL. RES 3 TEAPOT DOM #61S-11:   WELL
 FLD .             TEAPOT:   FIELD
 LOC .      S11 T38N R78W:   LOCATION
 CNTY.            NATRONA:   COUNTY
 STAT.            WYOMING:   STATE
 CTRY. UNITED STATES OF AMERICA:   COUNTRY
 SRVC.       Schlumberger:   SERVICE COMPANY
 DATE.        23-JUL-1964:   LOGDATE
 API .       490250637500:   API NUMBER
~CURVE INFORMATION
#MNEM.UNIT       API CODE    CURVE DESCRIPTION
#----------   ------------   ------------------------------
 DEPT.F                  :   
 CALS.IN     60 280 50 00:   CALIPER FROM SONIC LOG
 DT  .US/F   60 520 33 00:   INTERVAL TRANSIT TIME
 GR  .GAPI   30 310 01 00:   GAMMA RAY
 CILD.MMHO   05 110 46 00:   CONDUCTIVITY INDUCTION LOG DEEP
 ILD .OHMM   05 120 46 00:   INDUCTION LOG DEEP
 ASN .OHMM   05 041 16 00:   AMPLIFIED SHORT NORMAL 16"
 SPR .MV     05 010 01 00:   SPONTANEOUS POTENTIAL FROM RES.
~PARAMETER INFORMATION
#MNEM.UNIT          VALUE    DESCRIPTION
#----------   ------------   ------------------------------
 PD  .                 GL:   PERMANENT DATUM
 EPD .F              5199:   ELEVATION PERMANENT DATUM
 LMF .                 KB:   LOG MEASURED FROM
 DAPD.F                 5:   FEET ABOVE PERMANENT DATUM
 DMF .                 KB:   DRILLING MEASURED FROM
 EKB .F              5204:   KELLING BUSHING
 EGL .F              5199:   GROUND LEVEL
 DATE.          7-23-1964:   RUN DATE
 RUN .                  1:   RUN NUMBER
 DD  .F              1010:   DEPTH DRILLER
 DL  .F              1012:   DEPTH LOGGER
 BLI .F              1011:   BOTTOM LOG INTERVAL
 TLI .F                88:   TOP LOG INTERVAL
 CS  .IN            8.625:   CASING SIZE
 CBD .F                10:   CASING BOTTOM DRILLER
 BS  .IN             6.75:   BIT SIZE
 BSD .F              1010:   BIT SIZE AT DEPTH
 DFT .            GEL-OIL:   DRILLING FLUID TYPE
 DFD .                9.8:   DRILLING FLUID DENSITY
 DFV .                 54:   DRILLING FLUID VISCOSITY
 MSS .           FLOWLINE:   MUD SAMPLE SOURCE
 RMS .OHMM           1.47:   RESISTIVITY MUD SAMPLE
 MST .F                86:   MUD SAMPLE TEMPERATURE
 RMF .OHMM            .96:   RESISTIVITY MUD FILTRATE SAMPLE
 MFST.F                86:   MUD FILTRATE SAMPLE TEMPERATURE
 RMC .OHMM           2.10:   RESISTIVITY MUD CAKE
 MCST.F                86:   MUD CAKE SAMPLE TEMPERATURE
 MFSS.                 FP:   MUD FILTRATE SAMPLE SOURCE
 MCSS.                 FP:   MUD CAKE SAMPLE SOURCE
 TCS .HRS               2:   TIME CURCULATED STOPPED
 LUN .               4507:   LOGGING UNIT NUMBER
 LUL .              CSPR.:   LOGGING UNIT LOCATION
 ENGI.             DANNER:   RECORDING ENGINEER
 WITN.          JORGENSEN:   WITNESSED BY
 CLNT.            A2DTECH:   CLIENT CODE
 ORIG.      2" & 5" PRINT:   ORIGIN OF DATA
 UWI .       490250637500:   UNIQUE WELL ID
 DICO. A2D Technologies, Inc.:   DIGITIZING COMPANY
~OTHER INFORMATION
~A   DEPT     CALS         DT         GR        CILD         ILD        ASN      SPR   
# ...
  580.5000     6.4873   103.0414    75.8241   164.6422     6.4065     7.0283   -29.5283
  581.0000     6.4875   103.9444    75.0719   163.1635     6.3328     7.0581   -29.3872
  581.5000     6.4876   103.6423    76.1214   163.9153     6.1856     7.0731   -29.3900
  582.0000     6.4878   102.2108    80.6244   165.4101     6.1856     7.1028   -29.3928
  582.5000     6.4880   102.5866    81.8245   166.9031     6.1119     7.1031   -29.3962
  583.0000     6.4881   103.2635    76.5674   168.3961     6.1119     7.1034   -29.3989
  583.5000     6.4883   103.2628    74.4638   169.8891     6.0383     7.0890   -29.4017
  584.0000     6.5035   103.2801    75.6635   172.1250     5.8910     7.0598   -29.4045
  584.5000     6.5036   105.0446    75.2115   175.1685     5.8910     7.0159   -29.4072
  585.0000     6.5038   106.4230    72.6575   177.3416     5.8910     6.9426   -29.4101
  585.5000     6.5039   106.5731    64.2476   177.3487     5.9647     6.8250   -29.5573
  586.0000     6.5041   105.8192    63.3451   176.6111     6.1856     6.7650   -29.7040
  586.5000     6.5042   105.3666    64.9953   173.4911     6.3328     6.7225   -29.7068
  587.0000     6.5044   104.9141    72.5013   168.8404     6.6274     6.8701   -29.8534
  587.5000     6.5045   104.4615    73.2509   164.0047     6.8483     7.0177   -30.1439
  588.0000     6.5047   103.9337    69.1950   154.3241     7.0692     7.1653   -30.6504
  588.5000     6.5048   103.1046    64.8395   148.4190     7.2165     7.3423   -31.1673
  589.0000     6.5050   102.3508    67.8407   143.9684     7.3638     7.4783   -31.7353
  589.5000     6.4739   101.6724    65.8872   139.5179     7.5110     7.8731   -32.0259
  590.0000     6.3504   100.9939    64.2344   136.5532     7.5847     8.1385   -31.7408
  590.5000     6.2792   100.3155    67.5359   135.8172     7.5110     8.2419   -31.3126
  591.0000     6.2642    99.8629    63.4803   136.5676     7.3638     8.3305   -30.8836
  591.5000     6.2644    99.4104    63.1789   140.2910     7.2165     8.3897   -30.4547
  592.0000     6.4154    99.1054    64.6785   144.7558     7.0692     8.4047   -30.0258
  592.5000     6.5061    98.8065    66.7791   148.4776     6.8483     8.2431   -29.5969
  593.0000     6.5062    98.8058    68.2791   151.4565     6.6274     8.0666   -29.4557
  593.5000     6.5064    99.9343    69.0284   154.4354     6.4801     7.8902   -29.6031
  594.0000     6.6272   102.0420    69.6278   156.6731     6.4065     7.7432   -29.7497
  594.5000     6.7480   102.4180    72.4788   158.9090     6.3328     7.5225   -29.8964
  595.0000     6.7029   102.7183    75.0299   161.8879     6.3328     7.3893   -30.0436
  595.5000     6.6276   103.4705    75.7791   163.3809     6.3328     7.2875   -30.3341
  596.0000     6.5674   103.6206    73.8257   164.1310     6.2592     7.2436   -30.6246
  596.5000     6.5374   103.3185    63.7641   164.1382     6.3328     7.3765   -30.9152
  597.0000     6.5074   103.2426    63.6125   162.6611     6.3328     7.4062   -30.9180
  597.5000     6.4925   103.6935    62.2596   161.1823     6.4065     7.4065   -30.6329
  598.0000     6.4926   104.6716    52.7987   157.4747     6.4801     7.3769   -30.3485
  598.5000     6.4928   104.7462    56.4008   153.7671     6.4801     7.2599   -30.0635
  599.0000     6.4929   104.5949    60.3032   151.5454     6.6279     7.2453   -29.7785
  599.5000     6.4931   104.2929    61.0528   150.0666     6.9219     7.4077   -29.6373
  600.0000     6.4932   103.9910    58.7990   148.4306     7.0716     7.5468   -29.4962
  600.5000     6.5014   103.8006    63.0065   146.4612     7.1021     7.6782   -29.3557
  601.0000     6.4938   103.1627    63.0095   144.0847     7.1325     7.8088   -29.3585
  601.5000     6.6299   101.3554    63.0125   142.5776     7.1475     8.0137   -29.3612
  602.0000     6.7056   100.4518    63.3158   142.4667     7.0749     8.0879   -29.3640
  602.5000     6.7210    99.6988    63.7692   144.0157     6.8558     8.0590   -29.3674
  603.0000     6.7213    99.0964    64.3728   146.9662     6.6363     8.0152   -29.2255
  603.5000     6.7064    98.7199    69.9314   151.4026     6.4855     7.8993   -29.2290
  604.0000     6.6917    98.3434    62.4268   155.0961     6.3445     7.7447   -29.2317
  604.5000     6.6920    98.1928    60.7782   159.7625     6.1987     7.5803   -29.2345
  605.0000     6.6923    99.0211    62.1325   166.9354     6.0528     7.4146   -29.0933
  605.5000     6.6926    99.8494    65.4388   169.1483     5.9072     7.2488   -29.0967
  606.0000     6.6929   100.8283    69.7962   170.6129     5.9087     7.0831   -29.0995
  606.5000     6.6932   101.8072    67.2466   172.8152     6.0577     6.9127   -29.1022
  607.0000     6.6935   102.7108    68.4508   172.7291     6.2064     6.7829   -29.1050
  607.5000     6.6938   103.6898    69.2046   169.7956     6.3551     6.8425   -29.2523
  608.0000     6.6941   103.9157    70.2586   166.8026     6.5037     6.9167   -29.2550
  608.5000     6.6944   103.6145    71.7631   163.8096     6.4315     6.9909   -29.2577
  609.0000     6.6947   103.9157    73.8682   160.8166     6.2860     7.0504   -29.2605
  609.5000     6.6950   104.0663    77.4748   157.7706     6.1401     7.1437   -29.2633
  610.0000     6.6953   103.2380    78.9793   154.0823     6.1415     7.2873   -29.4105
  610.5000     6.6956   102.4849    76.5799   152.5752     6.2165     7.4057   -29.4133
  611.0000     6.6959   102.1084    75.8314   151.0680     6.3652     7.4504   -29.5599
  611.5000     6.6962   101.5813    75.8351   149.5609     6.7352     7.3773   -29.7065
  612.0000     6.6965   100.9036    75.8381   149.5394     7.0311     7.4074   -29.9971
  612.5000     6.6516   100.2259    75.0903   149.5131     7.2534     7.4817   -30.2882
  613.0000     6.5765   100.0000    70.8891   149.4919     7.2548     7.6001   -30.4349
  613.5000     6.5466   101.2048    70.8921   145.7559     7.3299     7.7626   -30.5815
  614.0000     6.5167   102.1084    69.8441   142.7629     7.3316     7.9399   -30.5842
  614.5000     6.5020   102.5602    65.7930   139.0000     7.3330     8.1025   -30.5871
  615.0000     6.4872   102.9367    66.0963   138.2574     7.3344     8.4419   -30.5904
  615.5000     6.4875   103.0873    67.9011   138.9845     7.3358     8.8991   -30.5931
  616.0000     6.4878    99.9247    69.5557   138.9579     7.2636     9.0322   -30.4520
  616.5000     6.5032    97.3645    74.2134   140.4279     7.2654     8.6793   -30.3108
  617.0000     6.5035    96.3102    75.4168   141.1589     7.1195     9.0333   -30.1697
  617.5000     6.5038    95.7078    73.1683   142.6089     6.9733     9.3137   -30.0285
  618.0000     6.5041    94.8795    75.6016   146.2970     6.7541     8.4602   -29.8874
  618.5000     6.5044    94.4277    74.0752   150.7334     6.6082     7.9158   -29.8908
  619.0000     6.5047    95.1807    71.5256   155.1699     6.5360     7.6366   -29.7497
  619.5000     6.5050   100.0000    66.7238   158.1204     6.3901     7.4751   -29.7332
  620.0000     6.5053   102.1084    72.1322   161.0656     6.3919     7.4168   -29.4681
  620.5000     6.5056   103.0120    73.3364   161.7873     6.3196     7.4026   -29.1831
  621.0000     6.5210   103.9157    73.9400   162.5143     6.3210     7.4181   -29.0412
  621.5000     6.5389   104.5181    74.9941   162.4877     6.3228     7.3892   -28.7569
  622.0000     6.5846   104.8193    74.0962   162.4665     6.3242     7.3897   -28.7597
  622.5000     6.6303   104.0663    73.6486   162.4399     6.3256     7.3608   -28.7630
  623.0000     6.7032   103.3886    75.0030   161.6758     6.3270     7.3319   -28.7658
  623.5000     6.7337   103.0120    75.4565   160.9116     6.3284     7.3032   -28.7685
  624.0000     6.7491   102.7861    74.5586   160.1474     6.4038     7.3479   -28.7713
  624.5000     6.7645   102.6355    69.7568   159.3832     6.4052     7.4221   -28.7741
  625.0000     6.7648   102.5602    69.7598   157.8708     6.4066     7.4669   -28.7774
  625.5000     6.7651   102.7108    69.5954   157.1066     6.4816     7.4969   -28.7802
