~VERSION INFORMATION
 VERS.                2.0:   CWLS LOG ASCII STANDARD - VERSION 2.0
 WRAP.                 NO:   ONE LINE PER DEPTH STEP
~WELL INFORMATION
#MNEM.UNIT      DATA TYPE    INFORMATION
#----------   ------------   ------------------------------
 STRT.F           80.0000:   START DEPTH
 STOP.F          715.0000:   STOP DEPTH
 STEP.F            0.5000:   STEP LENGTH
 NULL.          -999.2500:   NO VALUE
 COMP. U S NAVY-INTEX OIL:   COMPANY
 WELL.     NPR #3 #37-S-2:   WELL
 FLD .             TEAPOT:   FIELD
 LOC .       S2 T38N R78W:   LOCATION
 CNTY.            NATRONA:   COUNTY
 STAT.            WYOMING:   STATE
 CTRY. UNITED STATES OF AMERICA:   COUNTRY
 SRVC.       Schlumberger:   SERVICE COMPANY
 DATE.        21-JUN-1962:   LOGDATE
 API .       490250640600:   API NUMBER
~CURVE INFORMATION
#MNEM.UNIT       API CODE    CURVE DESCRIPTION
#----------   ------------   ------------------------------
 DEPT.F                  :   
 ASN .OHMM   05 041 16 00:   AMPLIFIED SHORT NORMAL 16"
 CILD.MMHO   05 110 46 00:   CONDUCTIVITY INDUCTION LOG DEEP
 ILD .OHMM   05 120 46 00:   INDUCTION LOG DEEP
 SPR .MV     05 010 01 00:   SPONTANEOUS POTENTIAL FROM RES.
 GR  .GAPI   30 310 01 00:   GAMMA RAY
~PARAMETER INFORMATION
#MNEM.UNIT          VALUE    DESCRIPTION
#----------   ------------   ------------------------------
 LMF .                 KB:   LOG MEASURED FROM
 DMF .                 KB:   DRILLING MEASURED FROM
 EKB .F              5159:   KELLING BUSHING
 EGL .F              5154:   GROUND LEVEL
 DATE.        21-JUN-1962:   RUN DATE
 RUN .                  1:   RUN NUMBER
 DD  .F               715:   DEPTH DRILLER
 DL  .F               716:   DEPTH LOGGER
 BLI .F               715:   BOTTOM LOG INTERVAL
 TLI .F                80:   TOP LOG INTERVAL
 BS  .IN             6.75:   BIT SIZE
 BSD .F               715:   BIT SIZE AT DEPTH
 DFT .       OIL-EMULSION:   DRILLING FLUID TYPE
 DFD .                9.3:   DRILLING FLUID DENSITY
 DFV .                 50:   DRILLING FLUID VISCOSITY
 DFL .                3.8:   DRILLING FLUID LOSS
 RMS .OHMM            3.9:   RESISTIVITY MUD SAMPLE
 MST .F                72:   MUD SAMPLE TEMPERATURE
 RMF .OHMM            2.6:   RESISTIVITY MUD FILTRATE SAMPLE
 MFST.F                72:   MUD FILTRATE SAMPLE TEMPERATURE
 RMC .OHMM            5.2:   RESISTIVITY MUD CAKE
 MCST.F                72:   MUD CAKE SAMPLE TEMPERATURE
 TCS .HRS               1:   TIME CURCULATED STOPPED
 LUN .               2503:   LOGGING UNIT NUMBER
 LUL .               CSPR:   LOGGING UNIT LOCATION
 ENGI.             DANNER:   RECORDING ENGINEER
 WITN.          JORGENSEN:   WITNESSED BY
 CLNT.            A2DTECH:   CLIENT CODE
 ORIG.           5" PRINT:   ORIGIN OF DATA
 UWI .       490250640600:   UNIQUE WELL ID
 DICO. A2D Technologies, Inc.:   DIGITIZING COMPANY
~OTHER INFORMATION
~A   DEPT        ASN      CILD         ILD      SPR         GR   
# ...
  202.0000    17.0010    59.6611    15.3244   -80.0054  -999.2500
  202.5000    17.2767    58.1010    15.4790   -80.7616  -999.2500
  203.0000    17.7320    57.2985    15.6336   -81.0619  -999.2500
  203.5000    18.3388    56.4959    15.7754   -80.7495  -999.2500
  204.0000    18.1122    55.6934    15.9673   -79.8289  -999.2500
  204.5000    18.1887    55.6484    16.1804   -79.2620  -999.2500
  205.0000    18.4168    54.0883    16.1848   -78.8863  -999.2500
  205.5000    18.7205    54.0433    16.1892   -78.8788  -999.2500
  206.0000    18.9486    53.2408    16.0428   -79.4811  -999.2500
  206.5000    18.6463    53.1958    15.9707   -80.3883  -999.2500
  207.0000    18.4953    53.1508    15.7489   -80.9909  -999.2500
  207.5000    18.4203    53.1059    15.6036   -81.5928  -999.2500
  208.0000    18.4970    53.8185    15.6080   -81.8902  -999.2500
  208.5000    18.4218    54.5311    15.6124   -81.5777  -999.2500
  209.0000    18.2712    54.4848    15.6923   -81.0874  -999.2500
  209.5000    17.9690    54.4394    15.6840   -80.4940  -999.2500
  210.0000    17.5909    54.3849    15.6256   -81.4012  -999.2500
  210.5000    17.2886    55.1088    15.4792   -81.8529  -999.2500
  211.0000    17.2894    56.5677    15.1077   -81.8436  -999.2500
  211.5000    17.2088    58.0492    14.8104   -81.5312  -999.2500
  212.0000    16.6758    59.5193    14.8149   -81.0665  -999.2500
  212.5000    16.3825    60.9783    14.7428   -80.9065  -999.2500
  213.0000    16.5350    60.9333    14.7483   -80.5942  -999.2500
  213.5000    16.3840    60.8884    14.7527   -80.2819  -999.2500
  214.0000    16.3092    61.6122    14.3771   -79.6646  -999.2500
  214.5000    16.0069    63.0711    13.7607   -79.0474  -999.2500
  215.0000    15.4016    66.8141    12.1275   -79.7002  -999.2500
  215.5000    14.2660    77.3752    10.9253   -80.0995  -999.2500
  216.0000    12.7516    92.0306    10.1756   -79.3280  -999.2500
  216.5000    11.8433   104.8078     9.5013   -77.6437  -999.2500
  217.0000    10.6206   115.3550     8.6761   -76.2643  -999.2500
  217.5000     9.4707   125.9022     7.9264   -74.0507  -999.2500
  218.0000     8.6387   134.9343     7.4783   -73.2012  -999.2500
  218.5000     8.1384   146.2391     7.0303   -72.5838  -999.2500
  219.0000     8.0009   150.7257     6.5822   -72.3984  -999.2500
  219.5000     7.9307   152.1820     6.5035   -71.9574  -999.2500
  220.0000     7.9166   152.0202     6.4402   -71.6451  -999.2500
  220.5000     7.9485   149.7769     6.5211   -71.9425  -999.2500
  221.0000     7.9498   147.4453     6.6764   -72.2418  -999.2500
  221.5000     7.9511   146.6289     6.6808   -72.9947  -999.2500
  222.0000     7.9016   148.8428     6.7595   -73.1415  -999.2500
  222.5000     7.7817   149.5562     6.5388   -72.2175  -999.2500
  223.0000     7.6166   150.2403     6.4667   -72.0576  -999.2500
  223.5000     7.3727   151.6966     6.4722   -71.8977  -999.2500
  224.0000     7.2689   151.6364     6.4767   -71.8902  -999.2500
  224.5000     7.2421   150.8066     6.4811   -71.8826  -999.2500
  225.0000     7.2736   149.2326     6.4982   -71.8750  -999.2500
  225.5000     7.3804   149.1738     6.6418   -71.8660  -999.2500
  226.0000     7.4871   147.5998     6.6463   -71.7061  -999.2500
  226.5000     7.5637   146.0258     6.6507   -71.6986  -999.2500
  227.0000     7.6101   145.9670     6.7305   -71.8436  -999.2500
  227.5000     7.6262   145.9081     6.8103   -71.9886  -999.2500
  228.0000     7.6272   145.8485     6.8148   -72.4384  -999.2500
  228.5000     7.6283   145.7879     6.7436   -73.0426  -999.2500
  229.0000     7.5987   147.2320     6.5973   -73.0332  -999.2500
  229.5000     7.5665   148.7030     6.5264   -73.0258  -999.2500
  230.0000     7.4655   150.1446     6.4554   -72.8659  -999.2500
  230.5000     7.3759   151.6157     6.6117   -72.7058  -999.2500
  231.0000     7.3014   151.5421     6.6161   -72.5457  -999.2500
  231.5000     7.2870   151.4833     6.6960   -72.2318  -999.2500
  232.0000     7.2883   151.4242     6.7004   -72.0719  -999.2500
  232.5000     7.3045   150.6061     6.7048   -72.0645  -999.2500
  233.0000     7.3357   149.0193     6.7092   -72.0570  -999.2500
  233.5000     7.3972   148.9605     6.7136   -72.0495  -999.2500
  234.0000     7.4888   148.1441     6.7181   -72.0421  -999.2500
  234.5000     7.5956   147.3277     6.7979   -72.1889  -999.2500
  235.0000     7.6742   144.9961     6.8024   -72.1796  -999.2500
  235.5000     7.7685   144.9372     6.8078   -72.0197  -999.2500
  236.0000     7.8105   141.8481     6.8877   -72.0122  -999.2500
  236.5000     7.7659   139.4445     6.9675   -72.1572  -999.2500
  237.0000     7.7672   137.9278     7.0473   -72.3272  -999.2500
  237.5000     7.8438   135.5963     7.1272   -72.9026  -999.2500
  238.0000     7.9657   134.0223     7.2070   -72.8951  -999.2500
  238.5000     8.0724   132.4483     7.2868   -72.1254  -999.2500
  239.0000     8.1641   130.8743     7.4421   -71.8131  -999.2500
  239.5000     8.2407   129.3003     7.5219   -71.8056  -999.2500
  240.0000     8.2870   127.7263     7.6018   -71.9506  -999.2500
  240.5000     8.3186   126.1515     7.6817   -72.2480  -999.2500
  241.0000     8.3814   126.0909     7.6871   -73.1552  -999.2500
  241.5000     8.4566   126.0199     7.6915   -73.7576  -999.2500
  242.0000     8.4878   127.4762     7.6959   -74.0549  -999.2500
  242.5000     8.5039   129.6901     7.6238   -73.5772  -999.2500
  243.0000     8.4748   131.9040     7.5539   -73.0742  -999.2500
  243.5000     8.3247   134.1326     7.5584   -72.5062  -999.2500
  244.0000     8.1898   135.5742     7.5628   -72.4988  -999.2500
  244.5000     8.0549   137.0404     7.3409   -72.6437  -999.2500
  245.0000     7.9502   139.2444     7.0412   -72.9411  -999.2500
  245.5000     7.8455   140.6860     6.8973   -73.2386  -999.2500
  246.0000     7.7861   141.3994     6.9028   -73.6903  -999.2500
  246.5000     7.7267   142.8410     6.9826   -73.8352  -999.2500
  247.0000     7.6803   143.5545     6.9871   -73.3686  -999.2500
  247.5000     7.6684   142.7681     6.9915   -72.2941  -999.2500
  248.0000     7.6999   141.6271     6.9955   -71.9817  -999.2500
  248.5000     7.7009   141.0807     7.0000   -72.4568  -999.2500
  249.0000     7.6715   140.2643     7.0047   -73.2241  -999.2500
  249.5000     7.6574   137.9327     7.1600   -74.2440  -999.2500
  250.0000     7.6889   138.6462     7.1645   -74.8482  -999.2500
  250.5000     7.7655   139.3449     7.1704   -74.6864  -999.2500
  251.0000     7.7967   140.0303     7.0989   -74.6789  -999.2500
  251.5000     7.8582   139.9697     7.0287   -74.6715  -999.2500
  252.0000     7.9047   139.0405     7.0351   -74.8183  -999.2500
  252.5000     7.9524   136.8074     7.0403   -75.1139  -999.2500
  253.0000     8.0277   136.7486     7.1963   -74.8015  -999.2500
  253.5000     8.0438   135.9321     7.3523   -74.1843  -999.2500
  254.0000     7.9845   134.3581     7.3575   -73.5671  -999.2500
  254.5000     7.9251   133.5417     7.3627   -74.0295  -999.2500
  255.0000     7.8956   131.9677     7.3680   -74.7717  -999.2500
  255.5000     7.9120   130.3938     7.3743   -75.3721  -999.2500
  256.0000     8.0490   129.4950     7.4549   -75.6714  -999.2500
  256.5000     8.2313   127.9886     7.5354   -75.8163  -999.2500
  257.0000     8.3683   127.9298     7.5406   -76.0488  -999.2500
  257.5000     8.4449   130.1584     7.4691   -76.0363  -999.2500
  258.0000     8.3688   133.8727     7.3988   -75.4146  -999.2500
  258.5000     8.2140   138.3593     7.3286   -74.3226  -999.2500
  259.0000     8.0884   142.0884     7.1840   -73.8404  -999.2500
  259.5000     7.7271   145.8174     6.9632   -73.5465  -999.2500
  260.0000     7.5319   148.0447     6.8175   -73.5346  -999.2500
  260.5000     7.4576   148.8856     6.8228   -73.6781  -999.2500
  261.0000     7.3379   150.3636     6.6770   -73.8186  -999.2500
  261.5000     7.2935   151.8839     6.5326   -73.8036  -999.2500
  262.0000     7.2795   153.4041     6.5378   -73.7917  -999.2500
  262.5000     7.2810   153.9805     6.5430   -73.7797  -999.2500
