~VERSION INFORMATION
 VERS.                2.0:   CWLS LOG ASCII STANDARD - VERSION 2.0
 WRAP.                 NO:   ONE LINE PER DEPTH STEP
~WELL INFORMATION
#MNEM.UNIT      DATA TYPE    INFORMATION
#----------   ------------   ------------------------------
 STRT.F           24.5000:   START DEPTH
 STOP.F          750.0000:   STOP DEPTH
 STEP.F            0.5000:   STEP LENGTH
 NULL.          -999.2500:   NO VALUE
 COMP. FENIX & SCISSON INC:   COMPANY
 WELL.    NPR 3 SX #35-11:   WELL
 FLD .          N.P.R. #3:   FIELD
 LOC .      S11 T38N R78W:   LOCATION
 CNTY.            NATRONA:   COUNTY
 STAT.            WYOMING:   STATE
 CTRY. UNITED STATES OF AMERICA:   COUNTRY
 SRVC.            Unknown:   SERVICE COMPANY
 DATE.        23-FEB-1978:   LOGDATE
 API .       490251027200:   API NUMBER
~CURVE INFORMATION
#MNEM.UNIT       API CODE    CURVE DESCRIPTION
#----------   ------------   ------------------------------
 DEPT.F                  :   
 ILM .OHMM   07 120 44 00:   INDUCTION LOG MEDIUM
 ILD .OHMM   07 120 46 00:   INDUCTION LOG DEEP
 LL8 .OHMM   07 220 08 00:   LATEROLOG-8 RES.
 SPR .MV     07 010 01 00:   SPONTANEOUS POTENTIAL
 CALD.IN     45 280 60 00:   CALIPER FROM DENSITY LOG
 CORR.G/C3   45 356 01 00:   DENSITY CORRECTION
 DPHI.DEC    45 890 12 00:   DENSITY POROSITY SANDSTONE
 GRD .GAPI   45 310 01 00:   GAMMA RAY FROM DENSITY LOG
 RHOB.G/C3   45 350 01 00:   BULK DENSITY
 IL  .OHMM   05 120 40 00:   INDUCTION RESISTIVITY
 SN  .OHMM   05 040 16 00:   SHORT NORMAL 16"
 SPR1.MV     05 010 01 00:   SPONTANEOUS POTENTIAL INDUCTION ELECTRICAL LOG
~PARAMETER INFORMATION
#MNEM.UNIT          VALUE    DESCRIPTION
#----------   ------------   ------------------------------
 PD  .                 GL:   PERMANENT DATUM
 EPD .F              5204:   ELEVATION PERMANENT DATUM
 LMF .                 KB:   LOG MEASURED FROM
 DAPD.F                 4:   FEET ABOVE PERMANENT DATUM
 DMF .                 KB:   DRILLING MEASURED FROM
 EKB .F              5208:   KELLING BUSHING
 EGL .F              5204:   GROUND LEVEL
 DATE.        23-FEB-1978:   RUN DATE
 RUN .                  1:   RUN NUMBER
 DD  .F               755:   DEPTH DRILLER
 DL  .F               751:   DEPTH LOGGER
 BLI .F               745:   BOTTOM LOG INTERVAL
 TLI .F                45:   TOP LOG INTERVAL
 CS  .IN            8.625:   CASING SIZE
 CBD .F                40:   CASING BOTTOM DRILLER
 CBL .F                40:   CASING BOTTOM LOGGER
 BS  .IN            7.875:   BIT SIZE
 BSD .F               755:   BIT SIZE AT DEPTH
 DFT .         LIGNO SULF:   DRILLING FLUID TYPE
 DFD .                8.7:   DRILLING FLUID DENSITY
 DFV .                 33:   DRILLING FLUID VISCOSITY
 DFPH.                 10:   DRILLING FLUID PH
 DFL .                  4:   DRILLING FLUID LOSS
 MSS .           FLOWLINE:   MUD SAMPLE SOURCE
 RMS .OHMM            2.0:   RESISTIVITY MUD SAMPLE
 MST .F                60:   MUD SAMPLE TEMPERATURE
 RMF .OHMM            1.9:   RESISTIVITY MUD FILTRATE SAMPLE
 MFST.F                62:   MUD FILTRATE SAMPLE TEMPERATURE
 RMC .OHMM            3.5:   RESISTIVITY MUD CAKE
 MCST.F                60:   MUD CAKE SAMPLE TEMPERATURE
 MFSS.               MEAS:   MUD FILTRATE SAMPLE SOURCE
 RMB .OHMM           1.69:   RESISTIVITY MUD AT BHT
 BHT .F                71:   BOTTOM HOLE TEMPERATURE
 TCS .HRS               3:   TIME CURCULATED STOPPED
 MRT .F                71:   MAXIMUM RECORDED TEMPERATURE
 CLNT.            A2DTECH:   CLIENT CODE
 ORIG.           5" PRINT:   ORIGIN OF DATA
 UWI .       490251027200:   UNIQUE WELL ID
 DICO. A2D Technologies, Inc.:   DIGITIZING COMPANY
~OTHER INFORMATION
~A   DEPT      ILM        ILD        LL8        SPR       CALD       CORR       DPHI         GRD      RHOB         IL         SN       SPR1   
# ...
  304.5000     9.4260     9.4305    10.1060   -28.4862     8.1530     0.0269     0.1173   123.8772     2.4536     7.3172     8.4222   -34.1057
  305.0000     9.3027     9.1822    10.1134   -28.9401     8.2299     0.0224     0.1179   126.4310     2.4542     7.2701     8.4240   -34.5356
  305.5000     9.3769     9.0019    10.0525   -29.4895     8.2770     0.0240     0.1194   128.2407     2.4509     7.3243     8.4261   -34.9655
  306.0000     8.9403     8.7651     9.4421   -29.4681     8.2794     0.0282     0.1244   130.6458     2.4480     7.4303     8.5460   -35.0961
  306.5000     8.6956     8.5342     8.8872   -29.1501     8.2663     0.0212     0.1302   131.1102     2.4383     7.4954     8.8506   -34.4607
  307.0000     8.4743     8.4248     8.4235   -28.8319     8.2689     0.0243     0.1334   129.8010     2.4332     7.7009     9.0392   -33.8528
  307.5000     8.4230     8.3150     8.3163   -28.3651     8.2712     0.0267     0.1245   127.4441     2.4363     7.8123     9.1679   -33.6901
  308.0000     8.4301     8.2085     8.1532   -28.1954     8.2736     0.0185     0.1247   124.3431     2.4469     7.8705     9.2338   -33.6721
  308.5000     8.2642     8.2178     8.1608   -27.7286     8.2610     0.0148     0.1283   121.9862     2.4312     7.9291     9.2355   -33.8273
  309.0000     8.2712     8.2822     8.1682   -27.4104     8.2635     0.0225     0.1289   121.8555     2.4381     7.9882     9.3019   -34.0963
  309.5000     8.2781     8.2897     8.1756   -27.0921     8.2660     0.0241     0.1240   122.1831     2.4337     7.9358     9.3041   -34.2133
  310.0000     8.2850     8.2972     8.2397   -26.7739     8.2836     0.0167     0.1288   118.8989     2.4407     7.9406     9.3061   -34.0419
  310.5000     8.5240     8.3623     8.7153   -26.3070     8.2855     0.0137     0.1242   115.9048     2.4348     7.9439     9.3078   -34.0253
  311.0000     8.7699     8.7237     9.9453   -25.9888     8.2879     0.0169     0.1275   114.4762     2.4281     7.9482     9.3098   -34.1558
  311.5000     9.0229     9.0381     9.6833   -25.6706     8.2904     0.0276     0.1183   113.4583     2.4410     7.9520     9.3117   -34.1333
  312.0000     9.2832     9.1721     9.1715   -25.6495     8.2778     0.0406     0.1026   110.9582     2.4939     7.9383     9.3137   -34.1175
  312.5000     9.2910     9.2440     9.1147   -25.7770     8.2803     0.0369     0.1047   108.9286     2.4857     7.9037     9.3156   -34.2752
  313.0000     9.2988     9.2507     9.5108   -26.0584     8.2827     0.0393     0.1095   109.2502     2.4745     7.9084     9.2529   -34.4077
  313.5000     9.2406     9.2586     9.9883   -26.1859     8.2696     0.0319     0.1055   111.3576     2.4837     7.9120     9.2548   -34.5402
  314.0000     9.1847     9.1400     9.3975   -26.6054     8.2726     0.0244     0.1088   113.3162     2.4763     7.9710     9.2567   -34.6347
  314.5000     9.0664     9.0229     9.2112   -27.0301     8.2748     0.0230     0.1124   114.0843     2.4659     7.9750     9.1944   -34.6152
  315.0000     9.0759     9.0312     9.2216   -27.1867     8.2774     0.0337     0.1133   112.0250     2.4637     7.9792     9.1963   -34.5534
  315.5000     9.0192     9.0393     9.2300   -27.2904     8.2643     0.0384     0.1062   111.5966     2.4782     8.0382     9.1986   -34.4267
  316.0000     8.9646     9.0475     9.2366   -27.4179     8.2673     0.0355     0.0990   112.3707     2.4903     8.0425     9.2005   -34.4072
  316.5000     8.9123     9.0557     9.2449   -27.6964     8.2694     0.0318     0.0968   113.5853     2.4897     8.0460     9.2021   -34.3877
  317.0000     8.9198     8.9397     9.2532   -28.2673     8.2718     0.0274     0.1007   114.2046     2.4898     8.1060     9.2043   -34.4196
  317.5000     8.9890     8.8863     9.2615   -29.5835     8.2742     0.0222     0.1051   113.6334     2.4719     8.1664     9.2703   -34.4985
  318.0000     9.1216     8.8943     9.2699   -29.8596     8.2769     0.0200     0.1144   113.0562     2.4539     8.1704     9.2722   -34.4790
  318.5000     9.1395     8.9640     9.2783   -29.9881     8.2793     0.0186     0.1195   115.1695     2.4472     8.1744     9.2744   -34.4596
  319.0000     9.3263     9.1599     9.2867   -29.9661     8.2814     0.0248     0.1170   113.7055     2.4557     8.1783     9.2763   -34.5609
  319.5000     9.4126     9.3600     9.2952   -30.0989     8.2841     0.0332     0.1149   111.6462     2.4633     8.1824     9.2780   -34.9080
  320.0000     9.7457     9.6307     9.3036   -29.9240     8.2865     0.0243     0.1129   107.6524     2.4702     8.1870     9.2799   -35.2794
  320.5000     9.9486     9.7061    10.2566   -29.6057     8.2889     0.0221     0.1148   106.1884     2.4634     8.1910     9.2820   -35.4296
  321.0000     9.9569     9.7822    11.9490   -29.4361     8.2758     0.0328     0.1102   105.4624     2.4702     8.1949     9.2838   -35.2022
  321.5000     9.9652     9.7911    11.9599   -28.9692     8.2789     0.0276     0.1002   107.8734     2.4829     8.1412     9.2859   -34.7984
  322.0000     9.9735     9.8000    10.1928   -28.5024     8.2658     0.0217     0.1092   110.8736     2.4857     8.1460     9.2879   -34.7704
  322.5000     9.9819     9.8089     9.6053   -28.0356     8.2683     0.0210     0.1055   112.7381     2.4782     8.0931     9.2897   -35.1310
  323.0000     9.9212     9.7503     9.6162   -27.5687     8.2706     0.0249     0.1091   113.2967     2.4738     8.0975     9.2916   -35.4107
  323.5000     9.5931     9.6920     9.4930   -27.3991     8.2730     0.0266     0.1114   112.6994     2.4687     8.1009     9.2935   -35.3014
  324.0000     9.3397     9.5579     9.1794   -27.0808     8.2605     0.0242     0.1141   111.9940     2.4650     8.1053     9.2955   -34.7295
  324.5000     9.2813     9.4431     9.1225   -26.9112     8.2182     0.0213     0.1189   111.2798     2.4569     8.1088     9.2974   -34.3757
  325.0000     9.2910     9.3867     9.1328   -26.8945     8.1759     0.0193     0.1221   111.3095     2.4480     8.1128     9.2993   -34.3563
  325.5000     9.4280     9.3954     9.3970   -26.7251     8.1633     0.0172     0.1158   113.4169     2.4534     8.0787     9.3017   -34.6055
  326.0000     9.5012     9.4039     9.8031   -26.8532     8.2254     0.0203     0.1094   115.2267     2.4671     8.0638     9.2390   -35.1337
  326.5000     9.5092     9.4123     9.8102   -27.1317     8.2725     0.0262     0.1135   116.5900     2.4689     8.0686     9.2409   -35.4399
  327.0000     9.4497     9.4208     9.8971   -27.4056     8.2600     0.0319     0.1156   117.5069     2.4598     8.0165     9.1784   -35.6687
  327.5000     9.2638     9.4293     9.8957   -27.5330     8.2176     0.0290     0.1219   115.1500     2.4494     8.0205     9.1165   -35.7560
  328.0000     9.3377     9.3728     9.4342   -27.5119     8.1605     0.0382     0.1134   113.3884     2.4623     7.9688     9.0551   -35.7365
  328.5000     9.4103     9.3815     9.3167   -27.4909     8.1778     0.0306     0.1185   113.7100     2.4557     7.9727     8.9946   -35.6140
  329.0000     9.3514     9.3254     9.3251   -27.9156     8.2398     0.0232     0.1244   114.3293     2.4385     7.9353     8.9964   -35.4426
  329.5000     9.3612     9.3334     9.4633   -28.4888     8.2273     0.0196     0.1292   114.6450     2.4250     7.9252     8.9789   -35.1636
  330.0000     9.3676     9.2781     9.5250   -28.6164     8.2328     0.0220     0.1213   112.7405     2.4425     7.9291     8.9373   -34.8404
  330.5000     9.3104     9.1571     9.3505   -28.8977     8.2470     0.0206     0.1192   113.5086     2.4493     7.9329     8.8775   -34.7410
  331.0000     9.3186     9.0835     9.3590   -29.0253     8.2589     0.0214     0.1185   114.8719     2.4518     7.9368     8.8793   -34.7215
  331.5000     9.2619     9.0480     9.4324   -29.1528     8.2667     0.0458     0.1133   115.6400     2.4669     7.9406     8.8812   -35.0516
  332.0000     9.2059     9.0583     9.5063   -28.9779     8.2691     0.0535     0.0952   115.9617     2.4919     7.9452     8.9216   -35.3693
