~VERSION INFORMATION
 VERS.                2.0:   CWLS LOG ASCII STANDARD - VERSION 2.0
 WRAP.                 NO:   ONE LINE PER DEPTH STEP
~WELL INFORMATION
#MNEM.UNIT      DATA TYPE    INFORMATION
#----------   ------------   ------------------------------
 STRT.F           22.0000:   START DEPTH
 STOP.F          500.0000:   STOP DEPTH
 STEP.F            0.5000:   STEP LENGTH
 NULL.          -999.2500:   NO VALUE
 COMP.    FENIX & SCISSON:   COMPANY
 WELL.      NPR-3 #65S3-3:   WELL
 FLD .             teapot:   FIELD
 LOC .       S3 T38N R78W:   LOCATION
 CNTY.            NATRONA:   COUNTY
 STAT.            WYOMING:   STATE
 CTRY. UNITED STATES OF AMERICA:   COUNTRY
 SRVC.           BIRDWELL:   SERVICE COMPANY
 DATE.        07-JAN-1978:   LOGDATE
 API .       490251055200:   API NUMBER
~CURVE INFORMATION
#MNEM.UNIT       API CODE    CURVE DESCRIPTION
#----------   ------------   ------------------------------
 DEPT.F                  :   
 ILD .OHMM   05 120 46 00:   INDUCTION LOG DEEP
 SN  .OHMM   05 040 16 00:   SHORT NORMAL 16"
 SPR .MV     05 010 01 00:   SPONTANEOUS POTENTIAL FROM RES.
 CALD.IN     45 280 60 00:   CALIPER FROM DENSITY LOG
 DPHI.DEC    45 890 12 00:   DENSITY POROSITY SANDSTONE
 DRHO.G/C3   45 356 01 00:   DENSITY CORRECTION
 GRD .GAPI   45 310 01 00:   GAMMA RAY FROM DENSITY LOG
 RHOB.G/C3   45 350 01 00:   BULK DENSITY
~PARAMETER INFORMATION
#MNEM.UNIT          VALUE    DESCRIPTION
#----------   ------------   ------------------------------
 PD  .                 GL:   PERMANENT DATUM
 EPD .F              5156:   ELEVATION PERMANENT DATUM
 LMF .                 KB:   LOG MEASURED FROM
 DAPD.F                 4:   FEET ABOVE PERMANENT DATUM
 DMF .                 KB:   DRILLING MEASURED FROM
 EKB .F              5160:   KELLING BUSHING
 EGL .F              5156:   GROUND LEVEL
 DATE.        07-JAN-1978:   RUN DATE
 RUN .                  1:   RUN NUMBER
 DD  .F               500:   DEPTH DRILLER
 DL  .F               502:   DEPTH LOGGER
 BLI .F               500:   BOTTOM LOG INTERVAL
 TLI .F                30:   TOP LOG INTERVAL
 CS  .IN            8.625:   CASING SIZE
 CBD .F                40:   CASING BOTTOM DRILLER
 CBL .F                40:   CASING BOTTOM LOGGER
 BS  .IN            7.875:   BIT SIZE
 BSD .F               500:   BIT SIZE AT DEPTH
 DFT .                KCL:   DRILLING FLUID TYPE
 DFD .                8.6:   DRILLING FLUID DENSITY
 DFV .                 33:   DRILLING FLUID VISCOSITY
 DFPH.                9.0:   DRILLING FLUID PH
 DFL .                7.6:   DRILLING FLUID LOSS
 MSS .           FLOWLINE:   MUD SAMPLE SOURCE
 RMS .OHMM           0.23:   RESISTIVITY MUD SAMPLE
 MST .F                60:   MUD SAMPLE TEMPERATURE
 RMF .OHMM            2.2:   RESISTIVITY MUD FILTRATE SAMPLE
 MFST.F                60:   MUD FILTRATE SAMPLE TEMPERATURE
 RMC .OHMM            3.4:   RESISTIVITY MUD CAKE
 MCST.F                60:   MUD CAKE SAMPLE TEMPERATURE
 MFSS.               MEAS:   MUD FILTRATE SAMPLE SOURCE
 MCSS.               MEAS:   MUD CAKE SAMPLE SOURCE
 RMB .OHMM            1.9:   RESISTIVITY MUD AT BHT
 BHT .F                71:   BOTTOM HOLE TEMPERATURE
 TCS .HRS               8:   TIME CURCULATED STOPPED
 MRT .F                71:   MAXIMUM RECORDED TEMPERATURE
 LUN .               2958:   LOGGING UNIT NUMBER
 LUL .             CASPER:   LOGGING UNIT LOCATION
 ENGI.            POINTER:   RECORDING ENGINEER
 WITN.      DAVE MCGINLEY:   WITNESSED BY
 CLNT.            A2DTECH:   CLIENT CODE
 ORIG.           5" PRINT:   ORIGIN OF DATA
 UWI .       490251055200:   UNIQUE WELL ID
 DICO. A2D Technologies, Inc.:   DIGITIZING COMPANY
~OTHER INFORMATION
~A   DEPT      ILD         SN        SPR       CALD       DPHI       DRHO         GRD      RHOB   
# ...
  346.0000    13.3688    17.1160   -31.0092     8.0389     0.1343     0.0045    84.2778     2.4243
  346.5000    13.2614    16.9791   -31.1822     8.0389     0.1268     0.0144    83.0783     2.4319
  347.0000    13.1549    16.9581   -31.1985     8.0389     0.1247     0.0182    78.9755     2.4363
  347.5000    12.8681    16.9409   -31.0581     8.0389     0.1244     0.0183    81.6687     2.4356
  348.0000    12.9410    16.9237   -31.9945     8.0389     0.1253     0.0168    83.1685     2.4341
  348.5000    12.9270    16.9065   -32.3161     8.0389     0.1265     0.0138    82.5849     2.4327
  349.0000    13.0069    17.0120   -32.4855     8.0389     0.1252     0.0071    81.9985     2.4297
  349.5000    12.9892    17.1101   -32.5055     8.0389     0.1198     0.0101    82.9059     2.4381
  350.0000    13.0654    17.0921   -32.5218     8.0690     0.1180     0.0155    83.5119     2.4546
  350.5000    13.0548    16.9566   -32.6931     8.0694     0.1171     0.0132    83.5149     2.4516
  351.0000    12.9535    16.9370   -32.8711     8.0548     0.1198     0.0110    83.8155     2.4457
  351.5000    12.9431    16.9209   -33.0445     8.0402     0.1168     0.0148    83.2231     2.4455
  352.0000    13.1143    17.1426   -33.2179     8.0408     0.1137     0.0200    83.1231     2.4517
  352.5000    13.2878    17.2505   -33.2386     8.0562     0.1128     0.0216    81.4440     2.4563
  353.0000    13.4637    17.5948   -33.4120     8.0567     0.1140     0.0216    81.7446     2.4570
  353.5000    13.5469    17.7019   -33.4328     8.0571     0.1133     0.0171    82.6404     2.4479
  354.0000    13.4419    17.6844   -33.3008     8.0576     0.1099     0.0012    81.1552     2.4451
  354.5000    13.5250    17.6575   -32.8473     8.0430     0.1034     0.0164    78.4789     2.4603
  355.0000    13.4174    17.5239   -31.6629     8.0435     0.0977     0.0284    79.0778     2.4759
  355.5000    13.4065    17.5073   -31.6888     8.0439     0.1121     0.0322    79.6760     2.4715
  356.0000    13.3956    17.3690   -31.8622     8.0444     0.1307     0.0209    79.6789     2.4362
  356.5000    13.2915    17.2318   -31.7303     8.0448     0.1331     0.0194    78.7883     2.4220
  357.0000    13.1859    17.2154   -31.7510     8.0454     0.1306     0.0233    77.8991     2.4243
  357.5000    12.8126    17.0794   -31.6183     8.0307     0.1363     0.0223    79.6878     2.4221
  358.0000    12.6248    16.9445   -31.6398     8.0313     0.1429     0.0165    82.0717     2.4161
  358.5000    12.4398    16.9284   -32.2718     8.0317     0.1420     0.0044    84.7532     2.4071
  359.0000    12.1722    17.0308   -32.4498     8.0322     0.1354     0.0135    87.1371     2.4026
  359.5000    11.9938    17.1339   -32.4706     8.0326     0.1257     0.0135    88.3305     2.4274
  360.0000    12.0680    17.1136   -32.6440     8.0330     0.1221     0.0143    86.8453     2.4410
  360.5000    12.0579    17.2212   -32.9701     8.0335     0.1239     0.0113    84.1697     2.4425
  361.0000    12.0460    17.2008   -32.9908     8.0639     0.1287     0.0105    82.3869     2.4365
  361.5000    12.0363    17.1845   -32.8589     8.0644     0.1280     0.0120    81.4970     2.4357
  362.0000    12.0265    17.1682   -32.5743     8.0648     0.1232     0.0143    80.2976     2.4418
  362.5000    12.1009    17.1519   -32.6081     8.0502     0.1256     0.0166    80.0148     2.4365
  363.0000    12.0911    17.3766   -32.4682     8.0657     0.1280     0.0166    80.3155     2.4328
  363.5000    12.2511    17.7277   -32.0310     8.0510     0.1300     0.0159    80.3185     2.4277
  364.0000    12.7763    18.3358   -31.7463     8.0666     0.1362     0.0104    80.6196     2.4179
  364.5000    13.9624    18.9692   -31.4566     8.0670     0.1411     0.0106    80.3250     2.4075
  365.0000    15.4904    19.9006   -31.0193     8.0825     0.1480     0.0145    79.1374     2.4023
  365.5000    16.9474    20.7324   -30.5872     8.0829     0.1546     0.0244    76.4618     2.3955
  366.0000    18.1575    21.7503   -29.8480     8.0834     0.1627     0.0349    71.7028     2.3828
  366.5000    19.7273    22.9781   -28.1894     8.0838     0.1729     0.0310    68.7296     2.3723
  367.0000    21.4328    24.6127   -27.1414     8.0843     0.1867     0.0107    68.1366     2.3424
  367.5000    23.6130    26.3677   -26.2461     8.0697     0.2152    -0.0014    68.1402     2.2846
  368.0000    25.7260    27.8562   -26.1090     8.0702     0.2326    -0.0036    68.1432     2.2659
  368.5000    27.8668    28.8186   -26.1349     8.0706     0.2317    -0.0021    69.0390     2.2592
  369.0000    28.4390    29.4007   -25.8473     8.0711     0.2283     0.0092    70.5300     2.2622
  369.5000    28.2126    29.3727   -25.1077     8.0716     0.2150     0.0198    71.4258     2.2877
  370.0000    27.9938    29.3440   -25.1336     8.0720     0.2064     0.0183    72.0240     2.3028
  370.5000    27.3917    29.3102   -24.8438     8.0725     0.2112     0.0093    72.6222     2.3006
  371.0000    26.9902    29.2824   -25.3277     8.0729     0.2054     0.0101    73.2204     2.2938
  371.5000    26.9680    29.2546   -25.9591     8.0734     0.1961     0.0093    73.8186     2.3057
  372.0000    27.1352    29.2268   -25.8220     8.0738     0.1922     0.0108    73.8492     2.3205
  372.5000    26.9192    29.1991   -25.6947     8.0743     0.1903     0.0146    72.6335     2.3269
  373.0000    26.7104    29.3758   -25.7160     8.0747     0.1879     0.0169    71.7443     2.3352
  373.5000    26.6887    29.5538   -25.5841     8.0602     0.1846     0.0192    70.2591     2.3405
  374.0000    27.0419    29.5249   -25.9153     8.0606     0.1750     0.0215    68.7740     2.3450
  374.5000    27.5915    29.4905   -25.9361     8.0611     0.1695     0.0230    67.5865     2.3526
  375.0000    27.9566    29.4626   -25.9568     8.0615     0.1680     0.0212    67.2917     2.3601
  375.5000    28.1296    29.4346   -25.9775     8.0620     0.1692     0.0087    67.2947     2.3616
  376.0000    28.1011    29.4067   -26.3036     8.0774     0.1656     0.0019    67.3214     2.3579
  376.5000    28.0783    29.3788   -26.6297     8.0778     0.1601    -0.0026    67.3006     2.3714
  377.0000    27.6668    29.5636   -26.8031     8.0783     0.1451    -0.0056    67.3036     2.3902
  377.5000    27.2613    29.5286   -26.6712     8.0937     0.1304    -0.0003    67.3065     2.4083
  378.0000    26.8617    29.2949   -26.2391     8.0942     0.1111     0.0133    67.3373     2.4323
  378.5000    26.4680    29.0275   -25.8018     8.1096     0.1162     0.0246    67.9077     2.4578
  379.0000    26.2623    28.6268   -25.8225     8.1100     0.1417     0.0254    69.2083     2.4595
  379.5000    25.8725    28.0067   -25.8432     8.1105     0.1609     0.0201    72.3785     2.4135
  380.0000    25.1400    27.5921   -25.8640     8.1109     0.1735     0.0133    74.7624     2.3811
  380.5000    24.2584    26.9945   -25.5794     8.1114     0.1825     0.0103    76.2535     2.3613
  381.0000    23.0833    26.7812   -24.9894     8.0968     0.1846     0.0164    76.5533     2.3383
  381.5000    22.2738    26.0188   -24.5369     8.0823     0.1807     0.0232    73.8777     2.3372
  382.0000    22.2558    25.8108   -24.1149     8.0828     0.1800     0.0262    75.6663     2.3485
  382.5000    23.3509    25.5847   -23.9881     8.0833     0.1791     0.0308    74.7764     2.3425
  383.0000    22.8268    25.2242   -23.8510     8.0837     0.1734     0.0437    76.8634     2.3531
  383.5000    22.6668    24.8508   -23.8769     8.0691     0.1749     0.0474    79.8426     2.3591
  384.0000    23.2894    24.6544   -24.0503     8.0545     0.1791     0.0482    79.2503     2.3471
  384.5000    23.7628    24.2895   -24.3764     8.0401     0.1775     0.0504    78.9549     2.3442
  385.0000    24.2507    24.2664   -25.0078     8.0405     0.1741     0.0535    80.7443     2.3472
  385.5000    24.4008    24.4141   -25.5007     8.0410     0.1686     0.0610    80.1520     2.3547
  386.0000    23.7051    23.3893   -25.8178     8.0414     0.1661     0.0633    78.3692     2.3645
