~VERSION INFORMATION
 VERS.                2.0:   CWLS LOG ASCII STANDARD - VERSION 2.0
 WRAP.                 NO:   ONE LINE PER DEPTH STEP
~WELL INFORMATION
#MNEM.UNIT      DATA TYPE    INFORMATION
#----------   ------------   ------------------------------
 STRT.F           70.0000:   START DEPTH
 STOP.F          960.0000:   STOP DEPTH
 STEP.F            0.5000:   STEP LENGTH
 NULL.          -999.2500:   NO VALUE
 COMP. U S NAVY/INTEX OIL CO:   COMPANY
 WELL.      NPR 3 #26S-35:   WELL
 FLD .             TEAPOT:   FIELD
 LOC .      S35 T39N R78W:   LOCATION
 CNTY.            NATRONA:   COUNTY
 STAT.            WYOMING:   STATE
 CTRY. UNITED STATES OF AMERICA:   COUNTRY
 SRVC.         Lane Wells:   SERVICE COMPANY
 DATE.        19-MAR-1960:   LOGDATE
 API .       490250651600:   API NUMBER
~CURVE INFORMATION
#MNEM.UNIT       API CODE    CURVE DESCRIPTION
#----------   ------------   ------------------------------
 DEPT.F                  :   
 ASN .OHMM   05 041 16 00:   AMPLIFIED SHORT NORMAL 16"
 ILD .OHMM   05 120 46 00:   INDUCTION LOG DEEP
 CILD.MMHO   05 110 00 00:   CONDUCTIVITY INDUCTION LOG
 SPR .MV     05 010 01 00:   SPONTANEOUS POTENTIAL FROM RES.
~PARAMETER INFORMATION
#MNEM.UNIT          VALUE    DESCRIPTION
#----------   ------------   ------------------------------
 PD  .                 GL:   PERMANENT DATUM
 EPD .F              5095:   ELEVATION PERMANENT DATUM
 LMF .                 KB:   LOG MEASURED FROM
 DAPD.F                 5:   FEET ABOVE PERMANENT DATUM
 DMF .                 KB:   DRILLING MEASURED FROM
 EKB .F              5101:   KELLING BUSHING
 EGL .F              9096:   GROUND LEVEL
 DATE.          3-19-1960:   RUN DATE
 RUN .                  1:   RUN NUMBER
 DD  .F               977:   DEPTH DRILLER
 DL  .F               959:   DEPTH LOGGER
 BLI .F               957:   BOTTOM LOG INTERVAL
 TLI .F                70:   TOP LOG INTERVAL
 CS  .IN            8.625:   CASING SIZE
 CBD .F                12:   CASING BOTTOM DRILLER
 BS  .IN            7.875:   BIT SIZE
 BSD .F               977:   BIT SIZE AT DEPTH
 DFT .   GEL-OIL EMULSION:   DRILLING FLUID TYPE
 DFD .                9.4:   DRILLING FLUID DENSITY
 DFV .                 40:   DRILLING FLUID VISCOSITY
 DFPH.                7.5:   DRILLING FLUID PH
 DFL .                8.2:   DRILLING FLUID LOSS
 MSS .           FLOWLINE:   MUD SAMPLE SOURCE
 RMS .OHMM            2.2:   RESISTIVITY MUD SAMPLE
 MST .F                64:   MUD SAMPLE TEMPERATURE
 RMF .OHMM            1.5:   RESISTIVITY MUD FILTRATE SAMPLE
 MFST.F                64:   MUD FILTRATE SAMPLE TEMPERATURE
 RMC .OHMM            3.1:   RESISTIVITY MUD CAKE
 MCST.F                64:   MUD CAKE SAMPLE TEMPERATURE
 MFSS.                MUD:   MUD FILTRATE SAMPLE SOURCE
 MCSS.              PRESS:   MUD CAKE SAMPLE SOURCE
 RMB .OHMM            2.0:   RESISTIVITY MUD AT BHT
 BHT .F                71:   BOTTOM HOLE TEMPERATURE
 MRT .F                71:   MAXIMUM RECORDED TEMPERATURE
 LUN .             L-4474:   LOGGING UNIT NUMBER
 LUL .             CASPER:   LOGGING UNIT LOCATION
 ENGI.             NELSON:   RECORDING ENGINEER
 WITN.          JORGENSBN:   WITNESSED BY
 CLNT.            A2DTECH:   CLIENT CODE
 ORIG.      2" & 5" PRINT:   ORIGIN OF DATA
 UWI .       490250651600:   UNIQUE WELL ID
 DICO. A2D Technologies, Inc.:   DIGITIZING COMPANY
~OTHER INFORMATION
~A   DEPT        ASN        ILD      CILD       SPR   
# ...
  216.0000     5.7836     4.6190   243.0663   -43.3624
  216.5000     5.8272     4.6715   241.2635   -43.6474
  217.0000     5.8684     4.7242   239.4608   -43.9503
  217.5000     5.9142     4.7767   237.6581   -44.1591
  218.0000     5.9643     4.8293   235.8554   -44.0591
  218.5000     6.0430     4.8819   234.0527   -43.9483
  219.0000     6.1530     4.9347   228.1727   -43.8424
  219.5000     6.5052     4.9870   220.1606   -43.7265
  220.0000     6.8386     5.0400   212.1486   -43.6567
  220.5000     7.1736     5.0917   204.1366   -43.7684
  221.0000     7.3370     5.1462   197.2892   -43.8819
  221.5000     7.3532     5.1866   198.1151   -43.9961
  222.0000     7.3512     5.1807   198.8361   -44.1082
  222.5000     7.2231     5.1723   201.5652   -44.2243
  223.0000     7.0193     5.1640   205.4281   -44.3331
  223.5000     6.8374     5.1557   209.2911   -44.4569
  224.0000     6.6487     5.1475   213.1540   -44.5158
  224.5000     6.4578     5.1391   217.0170   -44.2758
  225.0000     6.3044     5.1311   220.8799   -44.0331
  225.5000     6.2743     5.1224   224.7429   -43.7893
  226.0000     6.2672     5.1149   224.2128   -43.5542
  226.5000     6.3149     5.1049   221.0080   -43.3603
  227.0000     6.3670     5.1047   217.8032   -43.2083
  227.5000     6.4121     5.1528   214.5984   -43.0388
  228.0000     6.4795     5.2034   211.7470   -42.9585
  228.5000     6.6900     5.2504   207.0162   -43.3098
  229.0000     6.8997     5.3034   202.7552   -43.6791
  229.5000     7.1074     5.3443   198.4942   -44.0354
  230.0000     7.3166     5.4432   194.2333   -44.4065
  230.5000     7.5240     5.5901   189.9723   -44.5898
  231.0000     7.7324     5.7192   188.2530   -44.6245
  231.5000     7.8744     5.8593   186.2786   -44.6896
  232.0000     7.9593     5.9313   184.4759   -44.7087
  232.5000     8.0557     5.9511   182.8313   -44.5511
  233.0000     8.0684     5.9825   186.5223   -44.3819
  233.5000     7.9933     5.9903   189.9157   -44.2166
  234.0000     7.9657     5.8893   193.3090   -44.0497
  234.5000     7.7456     5.7813   196.7023   -43.8835
  235.0000     7.3788     5.6759   200.0957   -43.7172
  235.5000     7.0467     5.5686   203.4890   -43.5502
  236.0000     6.7301     5.4638   206.8824   -43.3851
  236.5000     6.5906     5.3553   210.2757   -43.2167
  237.0000     6.5066     5.2535   209.5346   -43.0544
  237.5000     6.5865     5.1395   205.6288   -42.8794
  238.0000     7.8327     5.1087   201.7229   -42.7614
  238.5000     8.9202     5.2676   197.8170   -42.9611
  239.0000     9.9999     5.4216   193.9111   -43.1873
  239.5000    10.6107     5.5864   190.0053   -43.4072
  240.0000    11.2173     5.7106   188.7500   -43.6308
  240.5000     9.3172     5.6162   189.6514   -43.8508
  241.0000     8.2270     5.5003   193.8030   -44.0754
  241.5000     7.1879     5.3889   200.6533   -44.2929
  242.0000     6.8625     5.2757   207.5036   -44.5243
  242.5000     6.5551     5.1630   214.3539   -44.6928
  243.0000     6.4211     5.0506   221.2042   -44.4779
  243.5000     6.2900     4.9364   226.3223   -44.2237
  244.0000     6.1601     4.8330   229.9277   -43.9775
  244.5000     6.0310     4.7890   233.5331   -43.7285
  245.0000     5.9224     4.7528   236.0223   -43.4791
  245.5000     5.9039     4.7152   237.5069   -43.2340
  246.0000     5.9362     4.6782   238.9915   -42.9789
  246.5000     5.9748     4.6409   240.4761   -42.7431
  247.0000     5.9995     4.6038   241.9607   -42.4695
  247.5000     5.9264     4.5666   243.4453   -42.4294
  248.0000     5.8442     4.5293   244.9298   -42.6155
  248.5000     5.7598     4.4921   246.4144   -42.7609
  249.0000     5.6834     4.4546   247.8916   -42.9283
  249.5000     5.5896     4.4177   247.2328   -43.0806
  250.0000     5.5985     4.3797   246.5772   -43.2465
  250.5000     5.7070     4.3438   245.9217   -43.3955
  251.0000     5.8023     4.3037   245.2662   -43.5740
  251.5000     5.8956     4.2867   244.6106   -43.5891
  252.0000     5.9550     4.3053   246.0482   -43.4383
  252.5000     5.9394     4.3230   249.6536   -43.3158
  253.0000     5.8384     4.3409   253.2590   -43.1780
  253.5000     5.6747     4.3603   256.8645   -43.0501
  254.0000     5.4955     4.3694   260.4699   -42.9041
  254.5000     5.3163     4.2907   264.0753   -42.6475
  255.0000     5.1447     4.1987   267.6807   -42.3752
  255.5000     4.9535     4.1091   271.2861   -42.0975
  256.0000     4.8690     4.0190   274.8916   -41.8625
  256.5000     4.9001     3.9277   278.6145   -42.0316
  257.0000     4.9121     3.8441   278.6145   -42.2664
  257.5000     4.9329     3.8461   278.6145   -42.4817
  258.0000     4.9467     3.8610   278.6145   -42.7147
  258.5000     4.9643     3.8731   278.6145   -42.9229
  259.0000     4.9792     3.8864   277.9096   -43.1764
  259.5000     5.0001     3.8992   276.3645   -43.2109
  260.0000     5.0587     3.9118   274.8193   -43.0080
  260.5000     5.1271     3.9277   273.2741   -42.8336
  261.0000     5.1874     3.9707   271.7289   -42.6551
  261.5000     5.1746     4.0195   270.1837   -42.4555
  262.0000     5.1469     4.0671   268.6385   -42.4049
  262.5000     5.1322     4.1154   266.3215   -42.5350
  263.0000     5.2165     4.1631   263.0166   -42.6378
  263.5000     5.3220     4.2116   259.7094   -42.7531
  264.0000     5.4274     4.2592   256.3896   -42.8648
  264.5000     5.5512     4.3208   253.0700   -42.9733
  265.0000     5.6773     4.3998   249.7507   -43.0923
  265.5000     5.8140     4.4781   247.0165   -43.0097
  266.0000     5.9207     4.5582   245.0792   -42.7649
  266.5000     5.9988     4.6352   243.1528   -42.5561
  267.0000     6.0775     4.7176   241.2326   -42.3001
  267.5000     6.1691     4.7903   239.3038   -42.2068
  268.0000     6.1843     4.8829   237.3624   -42.3046
  268.5000     6.0988     4.8814   235.2410   -42.3742
  269.0000     6.0288     4.7614   238.9209   -42.4587
  269.5000     5.9487     4.6564   242.9770   -42.5351
  270.0000     5.8770     4.5434   247.0331   -42.6160
  270.5000     5.7568     4.4342   251.5060   -42.6948
  271.0000     5.5662     4.3242   257.7063   -42.7745
  271.5000     5.3886     4.2123   264.6167   -42.8537
  272.0000     5.1982     4.1055   271.5271   -42.9335
  272.5000     5.0089     3.9863   278.4375   -43.0123
  273.0000     4.8192     3.9047   285.3479   -43.0933
  273.5000     4.6287     3.8718   293.0723   -43.1697
  274.0000     4.4351     3.8286   296.2530   -43.2550
  274.5000     4.3657     3.7897   300.3012   -43.3237
  275.0000     4.3184     3.7519   298.7199   -43.4267
  275.5000     4.3594     3.8015   296.6867   -43.3609
  276.0000     4.4376     3.8720   289.6988   -43.0635
  276.5000     4.5797     3.9380   281.6867   -42.7849
  277.0000     4.8094     4.0147   273.6747   -42.4994
  277.5000     5.1027     4.1336   265.6627   -42.2088
  278.0000     5.4279     4.2757   258.2289   -41.9374
  278.5000     5.7464     4.4115   251.8193   -41.6171
  279.0000     6.0864     4.5542   245.4057   -41.4715
  279.5000     6.1553     4.6861   239.0470   -41.5766
  280.0000     6.2110     4.8406   231.7018   -41.6453
  280.5000     6.2503     4.9278   227.7261   -41.7318
  281.0000     6.3053     4.9324   223.0313   -41.8252
  281.5000     6.3629     4.9584   218.3379   -42.0461
  282.0000     6.4368     4.9752   213.6456   -42.3326
  282.5000     6.5218     4.9969   208.1892   -42.5879
  283.0000     6.6240     5.0161   207.6807   -42.8817
  283.5000     6.7681     5.0364   207.0643   -42.4798
  284.0000     6.8375     5.0564   206.3410   -42.2393
  284.5000     6.8295     5.0765   208.1186   -42.5765
  285.0000     6.7243     5.0940   210.2723   -42.7974
  285.5000     6.5939     5.0238   213.3679   -43.1344
  286.0000     6.4050     4.9241   218.4266   -43.1637
  286.5000     6.2109     4.8302   223.4938   -42.7206
  287.0000     6.0159     4.7335   228.5217   -42.3527
  287.5000     5.8227     4.6383   233.5693   -41.8761
  288.0000     5.6287     4.5422   239.7249   -41.6842
  288.5000     5.4370     4.4466   248.3378   -41.9177
