~VERSION INFORMATION
 VERS.                2.0:   CWLS LOG ASCII STANDARD - VERSION 2.0
 WRAP.                 NO:   ONE LINE PER DEPTH STEP
~WELL INFORMATION
#MNEM.UNIT      DATA TYPE    INFORMATION
#----------   ------------   ------------------------------
 STRT.F           14.0000:   START DEPTH
 STOP.F          500.0000:   STOP DEPTH
 STEP.F            0.1000:   STEP LENGTH
 NULL.          -999.2500:   NO VALUE
 COMP. LAWRENCE/ALLISON INC:   COMPANY
 WELL.    72-46 SX #10-10:   WELL
 FLD .             TEAPOT:   FIELD
 LOC .      S10 T38N R78W:   LOCATION
 CNTY.            NATRONA:   COUNTY
 STAT.            WYOMING:   STATE
 CTRY. UNITED STATES OF AMERICA:   COUNTRY
 SRVC.           Gearhart:   SERVICE COMPANY
 DATE.        22-MAY-1988:   LOGDATE
 API .       490251122600:   API NUMBER
~CURVE INFORMATION
#MNEM.UNIT       API CODE    CURVE DESCRIPTION
#----------   ------------   ------------------------------
 DEPT.F                  :   
 GRR .GAPI   07 310 01 00:   GAMMA RAY
 RILD.OHMM   07 120 46 00:   INDUCTION LOG DEEP RESISTIVITY
 RILM.OHMM   07 120 44 00:   INDUCTION LOG MEDIUM RESISTIVITY
~PARAMETER INFORMATION
#MNEM.UNIT          VALUE    DESCRIPTION
#----------   ------------   ------------------------------
 PD  .                 GL:   PERMANENT DATUM
 EPD .F              5173:   ELEVATION PERMANENT DATUM
 LMF .                 KB:   LOG MEASURED FROM
 DAPD.F              10.2:   FEET ABOVE PERMANENT DATUM
 DMF .                 KB:   DRILLING MEASURED FROM
 EKB .F            5183.2:   KELLING BUSHING
 EGL .F              5173:   GROUND LEVEL
 DATE.        22-MAY-1988:   RUN DATE
 RUN .                  1:   RUN NUMBER
 DD  .F               505:   DEPTH DRILLER
 DL  .F               504:   DEPTH LOGGER
 BLI .F               500:   BOTTOM LOG INTERVAL
 TLI .F                50:   TOP LOG INTERVAL
 CS  .IN            9.625:   CASING SIZE
 CBD .F                52:   CASING BOTTOM DRILLER
 CBL .F                50:   CASING BOTTOM LOGGER
 BS  .IN             8.75:   BIT SIZE
 BSD .F               505:   BIT SIZE AT DEPTH
 DFT .                AIR:   DRILLING FLUID TYPE
 TLAB.HRS            1339:   TIME LOGGER AT BOTTOM
 LUN .               7597:   LOGGING UNIT NUMBER
 LUL .           GILLETTE:   LOGGING UNIT LOCATION
 ENGI.          HUCKFELDT:   RECORDING ENGINEER
 WITN.             STRONG:   WITNESSED BY
 CLNT.            A2DTECH:   CLIENT CODE
 ORIG.           5" PRINT:   ORIGIN OF DATA
 UWI .       490251122600:   UNIQUE WELL ID
 DICO. A2D Technologies, Inc.:   DIGITIZING COMPANY
~OTHER INFORMATION
~A   DEPT       GRR      RILD       RILM   
# ...
  159.6000   117.1872     7.3693     8.3634
  159.7000   117.2925     7.2999     8.3148
  159.8000   117.4971     7.2340     8.2674
  159.9000   117.1964     7.1924     8.1832
  160.0000   116.9559     7.1509     8.0894
  160.1000   116.7089     7.0692     7.9966
  160.2000   116.3272     7.0197     7.9048
  160.3000   115.9106     6.9793     7.8076
  160.4000   115.6115     6.9251     7.6837
  160.5000   114.7796     6.8512     7.6142
  160.6000   114.5607     6.8089     7.5270
  160.7000   114.1465     6.7726     7.3979
  160.8000   113.6496     6.7336     7.2741
  160.9000   113.2109     6.6949     7.1795
  161.0000   112.9640     6.6563     7.0733
  161.1000   112.7170     6.6180     6.9780
  161.2000   112.4700     6.5743     6.8807
  161.3000   112.5137     6.5101     6.7627
  161.4000   112.6758     6.4829     6.6471
  161.5000   112.7154     6.4669     6.5559
  161.6000   112.9865     6.4297     6.4660
  161.7000   113.2215     6.3925     6.4199
  161.8000   113.4747     6.3923     6.4198
  161.9000   113.8512     6.3635     6.4258
  162.0000   114.2851     6.3475     6.4645
  162.1000   114.5236     6.3602     6.5000
  162.2000   114.5271     6.3917     6.5096
  162.3000   114.1093     6.3914     6.5293
  162.4000   113.6123     6.4595     6.5670
  162.5000   113.1152     6.4809     6.6047
  162.6000   112.6653     6.4992     6.6471
  162.7000   112.4110     6.5364     6.6811
  162.8000   111.9286     6.5738     6.7196
  162.9000   111.4315     6.6172     6.7583
  163.0000   110.9345     6.6495     6.7972
  163.1000   110.5171     6.6876     6.8364
  163.2000   110.2701     6.7260     6.8827
  163.3000   109.9943     6.7726     6.9154
  163.4000   109.7761     6.8512     6.9553
  163.5000   109.6956     6.8510     6.9953
  163.6000   109.8106     6.9125     7.0356
  163.7000   110.0636     6.9695     7.0771
  163.8000   110.3168     7.0095     7.1169
  163.9000   110.5697     7.0496     7.1579
  164.0000   110.8229     7.0933     7.1992
  164.1000   111.0760     7.1307     7.2406
  164.2000   111.2390     7.2008     7.2823
  164.3000   111.2778     7.2632     7.3280
  164.4000   111.5497     7.3048     7.3665
  164.5000   111.7839     7.3493     7.4090
  164.6000   111.8600     7.4471     7.4308
  164.7000   111.9855     7.4833     7.4424
  164.8000   112.1704     7.5262     7.4879
  164.9000   112.1735     7.5693     7.5877
  165.0000   112.1771     7.6126     7.5876
  165.1000   112.1796     7.6568     7.6154
  165.2000   112.3378     7.7002     7.6593
  165.3000   112.4901     7.7444     7.6940
  165.4000   112.4932     7.7888     7.6939
  165.5000   112.4963     7.8179     7.7382
  165.6000   112.7411     7.8235     7.7828
  165.7000   112.8067     7.8722     7.8018
  165.8000   113.0762     7.8720     7.8017
  165.9000   113.5004     7.9036     7.8083
  166.0000   113.7781     7.9267     7.8561
  166.1000   114.3413     7.9264     7.8560
  166.2000   114.5639     7.9262     7.8559
  166.3000   114.9826     7.9260     7.8789
  166.4000   115.3746     7.9258     7.9107
  166.5000   115.5140     7.9255     7.9145
  166.6000   115.2669     7.9253     7.9659
  166.7000   115.0200     7.9252     7.9658
  166.8000   114.7730     7.9249     7.9961
  166.9000   114.5260     7.9247     8.0214
  167.0000   114.2791     7.9245     8.0213
  167.1000   113.9970     7.9243     8.0212
  167.2000   113.4614     7.9240     8.0211
  167.3000   113.4642     7.9238     8.0585
  167.4000   113.1148     7.9236     8.0771
  167.5000   112.7397     7.9234     8.0769
  167.6000   112.4926     7.9231     8.0768
  167.7000   112.2457     7.9229     8.0767
  167.8000   111.9579     7.9227     8.0766
  167.9000   111.7518     7.9225     8.0765
  168.0000   111.5049     7.9222     8.0764
  168.1000   111.2579     7.9220     8.0763
  168.2000   111.0558     7.9218     8.0762
  168.3000   111.0595     7.9216     8.0760
  168.4000   111.0624     7.9214     8.0759
  168.5000   111.0655     7.9211     8.0758
  168.6000   111.0685     7.8765     8.0539
  168.7000   111.1495     7.8656     8.0194
  168.8000   111.4025     7.8654     8.0193
  168.9000   111.6868     7.8652     8.0191
  169.0000   111.6895     7.8595     8.0190
  169.1000   111.8572     7.8100     7.9904
  169.2000   112.1103     7.8099     7.9444
  169.3000   112.3635     7.7787     7.9075
  169.4000   112.6167     7.7551     7.9074
  169.5000   112.8696     7.7432     7.8627
  169.6000   112.9254     7.7008     7.8521
  169.7000   113.0713     7.7005     7.8269
  169.8000   113.3244     7.6636     7.7973
  169.9000   113.5434     7.6465     7.7913
  170.0000   113.5467     7.6463     7.7428
  170.1000   113.5495     7.6378     7.7427
  170.2000   113.5525     7.5928     7.7112
  170.3000   113.5556     7.5926     7.6886
  170.4000   113.5586     7.5592     7.6761
  170.5000   113.5617     7.5393     7.6349
  170.6000   113.5652     7.5391     7.6348
  170.7000   113.5677     7.5338     7.5972
  170.8000   113.5708     7.4863     7.5814
  170.9000   113.5738     7.4861     7.5814
  171.0000   113.5321     7.4859     7.5813
  171.1000   113.2756     7.4857     7.5809
  171.2000   113.0382     7.4743     7.5373
  171.3000   112.7912     7.4332     7.4940
  171.4000   112.5442     7.4330     7.4508
  171.5000   112.2972     7.4328     7.4236
  171.6000   112.0503     7.4325     7.4169
  171.7000   111.7721     7.4153     7.3717
  171.8000   111.5564     7.3726     7.3716
  171.9000   111.4734     7.3289     7.3407
  172.0000   111.4764     7.2879     7.2984
  172.1000   111.5347     7.2460     7.2564
  172.2000   111.7869     7.2044     7.2146
  172.3000   111.7900     7.1495     7.1680
  172.4000   111.9894     7.0721     7.1317
  172.5000   112.2425     7.0273     7.0637
  172.6000   112.4079     6.9550     7.0008
  172.7000   112.4443     6.8754     6.9509
  172.8000   112.7187     6.8149     6.8712
  172.9000   112.9504     6.7658     6.7780
  173.0000   113.2035     6.6883     6.7462
  173.1000   113.3364     6.5984     6.6842
  173.2000   113.4051     6.5361     6.6076
  173.3000   113.6468     6.4839     6.5317
  173.4000   113.6504     6.4320     6.4542
  173.5000   113.8599     6.3582     6.3828
  173.6000   114.1130     6.2830     6.3097
  173.7000   114.3661     6.2134     6.2182
  173.8000   114.5753     6.1689     6.1229
  173.9000   114.5785     6.1146     6.0526
  174.0000   114.5814     6.0445     5.9765
  174.1000   114.3994     5.9789     5.9148
  174.2000   114.0217     5.9409     5.8240
  174.3000   113.4485     5.9408     5.7554
  174.4000   112.7232     5.9175     5.7136
  174.5000   112.1617     5.8834     5.6481
  174.6000   111.5120     5.8580     5.5730
  174.7000   110.9280     5.8578     5.5194
  174.8000   110.4308     5.8576     5.4758
  174.9000   109.8792     5.8575     5.4443
  175.0000   109.1324     5.8573     5.4067
  175.1000   108.3851     5.8571     5.3439
  175.2000   107.6382     5.8570     5.3135
  175.3000   106.8914     5.8568     5.2595
  175.4000   106.1445     5.8566     5.1992
  175.5000   105.3972     5.8818     5.1499
  175.6000   104.5847     5.9155     5.1243
  175.7000   103.9031     5.9384     5.1242
  175.8000   103.1562     5.9383     5.1516
  175.9000   102.5285     5.9381     5.2243
  176.0000   102.0314     5.9685     5.2998
  176.1000   101.5554     5.9794     5.3611
  176.2000   101.8635     5.9951     5.4231
  176.3000   102.2785     6.0294     5.4944
  176.4000   102.6298     6.0640     5.5771
  176.5000   102.9803     6.1051     5.6529
  176.6000   103.5263     6.1338     5.7183
  176.7000   104.3137     6.1690     5.7844
  176.8000   105.0327     6.2183     5.8513
  176.9000   105.6016     6.2773     5.9325
  177.0000   106.2347     6.2771     5.9876
  177.1000   106.9875     6.3116     6.0569
  177.2000   107.7194     6.3751     6.1269
  177.3000   108.2896     6.4289     6.1919
  177.4000   108.9423     6.4658     6.2293
  177.5000   109.6955     6.5066     6.2978
  177.6000   110.3408     6.5901     6.3707
  177.7000   110.8972     6.6237     6.4249
