~VERSION INFORMATION
 VERS.                2.0:   CWLS LOG ASCII STANDARD - VERSION 2.0
 WRAP.                 NO:   ONE LINE PER DEPTH STEP
~WELL INFORMATION
#MNEM.UNIT      DATA TYPE    INFORMATION
#----------   ------------   ------------------------------
 STRT.F           29.0000:   START DEPTH
 STOP.F          462.0000:   STOP DEPTH
 STEP.F            0.5000:   STEP LENGTH
 NULL.          -999.2500:   NO VALUE
 COMP.    FENIX & SCISSON:   COMPANY
 WELL.      NPR #71-SX-10:   WELL
 FLD .             TEAPOT:   FIELD
 LOC .      S10 T38N R78W:   LOCATION
 CNTY.            NATRONA:   COUNTY
 STAT.            WYOMING:   STATE
 CTRY. UNITED STATES OF AMERICA:   COUNTRY
 SRVC.              Welex:   SERVICE COMPANY
 DATE.        01-APR-1977:   LOGDATE
 API .       490251032300:   API NUMBER
~CURVE INFORMATION
#MNEM.UNIT       API CODE    CURVE DESCRIPTION
#----------   ------------   ------------------------------
 DEPT.F                  :   
 SPR .MV     07 010 01 00:   SPONTANEOUS POTENTIAL
 ILD .OHMM   07 120 46 00:   INDUCTION LOG DEEP
 ILM .OHMM   07 120 44 00:   INDUCTION LOG MEDIUM
 SGRD.OHMM   07 221 05 00:   SHALLOW SHORT GUARD RESISTIVITY
 CALD.IN     45 280 60 00:   CALIPER FROM DENSITY LOG
 GRD .GAPI   45 310 01 00:   GAMMA RAY FROM DENSITY LOG
 CORR.G/C3   45 356 01 00:   DENSITY CORRECTION
 RHOB.G/C3   45 350 01 00:   BULK DENSITY
 DPHI.DEC    45 890 12 00:   DENSITY POROSITY SANDSTONE
~PARAMETER INFORMATION
#MNEM.UNIT          VALUE    DESCRIPTION
#----------   ------------   ------------------------------
 PD  .                 GL:   PERMANENT DATUM
 EPD .F              5157:   ELEVATION PERMANENT DATUM
 LMF .                 GL:   LOG MEASURED FROM
 DMF .                 GL:   DRILLING MEASURED FROM
 EGL .F              5157:   GROUND LEVEL
 DATE.        01-APR-1977:   RUN DATE
 RUN .                  1:   RUN NUMBER
 DD  .F               475:   DEPTH DRILLER
 DL  .F               466:   DEPTH LOGGER
 BLI .F               463:   BOTTOM LOG INTERVAL
 TLI .F                30:   TOP LOG INTERVAL
 CS  .IN            8.625:   CASING SIZE
 BS  .IN            7.875:   BIT SIZE
 BSD .F               475:   BIT SIZE AT DEPTH
 DFT .                KCL:   DRILLING FLUID TYPE
 DFD .                8.5:   DRILLING FLUID DENSITY
 TCS .HRS               3:   TIME CURCULATED STOPPED
 MRT .F                67:   MAXIMUM RECORDED TEMPERATURE
 ENGI.            C. DOAK:   RECORDING ENGINEER
 WITN.   R. B. HARRINGTON:   WITNESSED BY
 CLNT.            A2DTECH:   CLIENT CODE
 ORIG.           5" PRINT:   ORIGIN OF DATA
 UWI .       490251032300:   UNIQUE WELL ID
 DICO. A2D Technologies, Inc.:   DIGITIZING COMPANY
~OTHER INFORMATION
~A   DEPT      SPR        ILD        ILM       SGRD         CALD      GRD       CORR       RHOB       DPHI   
# ...
  248.0000   -40.2586     6.0057     7.7641    10.0561     8.6492   141.4906    -0.0089     2.4198     0.1345
  248.5000   -40.2454     5.7650     7.7138     9.9916     8.6509   139.4612    -0.0103     2.4273     0.1312
  249.0000   -40.3838     5.5724     7.5063    10.7889     8.6525   138.7550    -0.0131     2.4206     0.1326
  249.5000   -40.5155     5.3491     7.1543    10.9446     8.6541   138.4820    -0.0130     2.4073     0.1371
  250.0000   -40.0583     5.2055     6.4074     9.9374     8.6558   137.7612    -0.0144     2.4021     0.1563
  250.5000   -40.3451     5.0335     5.5056     6.6401     8.6696   136.5955    -0.0149     2.3954     0.1610
  251.0000   -40.4803     4.9671     5.2839     5.6978     8.6833   135.4122    -0.0153     2.3655     0.1727
  251.5000   -40.3154     5.0064     5.5117     4.4568     8.6902   133.9393    -0.0123     2.3700     0.1655
  252.0000   -39.8571     5.1866     5.8691    10.0034     8.7065   133.5105    -0.0061     2.4248     0.1163
  252.5000   -39.3988     5.4481     6.5146    10.4562     8.7228   133.5306     0.0001     2.4692     0.1153
  253.0000   -39.0888     5.6834     7.1813    10.2460     8.7391   133.8486     0.0033     2.4670     0.1144
  253.5000   -39.0756     5.8474     7.5942    10.1802     8.7406   135.8085     0.0035     2.4667     0.1126
  254.0000   -39.0623     5.9746     7.9205    10.1863     8.7421   137.1713     0.0036     2.4716     0.1111
  254.5000   -39.0490     6.1896     8.1473    10.4051     8.7436   137.0416     0.0022     2.4552     0.1170
  255.0000   -39.0356     6.5018     8.2654    10.4825     8.7451   132.4343    -0.0006     2.4470     0.1230
  255.5000   -39.0223     6.6432     8.3852    10.4875     8.7466   128.2747    -0.0035     2.4440     0.1239
  256.0000   -39.0064     6.5569     8.3319    10.4201     8.7328   125.1600    -0.0033     2.4396     0.1230
  256.5000   -38.9932     6.3827     8.2219    10.4251     8.7347   124.4284    -0.0016     2.4239     0.1313
  257.0000   -38.9800     6.1278     8.0019    10.4302     8.7362   127.4379     0.0001     2.4262     0.1304
  257.5000   -38.9668     5.8831     7.5726    11.0296     8.7377   131.7858     0.0003     2.4285     0.1292
  258.0000   -39.2503     5.6873     6.9197    10.5858     8.7392   138.2232    -0.0026     2.4263     0.1325
  258.5000   -39.5371     5.4981     6.1512     7.1864     8.7406   141.9741    -0.0070     2.3866     0.1493
  259.0000   -39.6723     5.2421     5.5061     5.0157     8.7421   144.5310    -0.0144     2.3747     0.1672
  259.5000   -39.6558     5.1383     5.2247     4.5855     8.7436   145.5904    -0.0173     2.3792     0.1597
  260.0000   -39.4942     5.1780     6.7445    11.5252     8.7448   142.6298    -0.0125     2.4221     0.1345
  260.5000   -39.4810     5.3273     7.0433    11.1383     8.7491   142.7986    -0.0124     2.4394     0.1261
  261.0000   -39.3195     5.5960     7.0472     9.2433     8.7626   141.7734    -0.0152     2.4454     0.1227
  261.5000   -39.1579     5.8782     7.2498     7.9399     8.7790   138.6586    -0.0181     2.4523     0.1200
  262.0000   -38.8480     6.1746     7.8275    11.2319     8.7805   135.2453    -0.0179     2.4763     0.1110
  262.5000   -38.5380     6.4860     8.7488    11.7141     8.7968   134.2201    -0.0147     2.5011     0.0977
  263.0000   -38.2281     6.8131     9.2518    11.8832     8.7982   134.2396    -0.0115     2.5147     0.0881
  263.5000   -37.9182     7.1567     9.5828    11.9715     8.7997   134.8513    -0.0053     2.5155     0.0782
  264.0000   -37.6082     7.3124    10.0640    12.0605     8.8012   132.8835    -0.0003     2.4871     0.0925
  264.5000   -37.4436     7.4715    10.2807    12.2346     8.8027   132.5023     0.0041     2.4789     0.1040
  265.0000   -37.1266     7.7942    10.3578    12.2404     8.8042   132.1940     0.0042     2.4774     0.1018
  265.5000   -36.9580     8.0747    10.3635    12.0752     8.8057   131.1776     0.0044     2.4783     0.0997
  266.0000   -36.8131     7.9698    10.4412    11.9175     8.8071   127.3374     0.0031     2.4805     0.1065
  266.5000   -36.6520     7.9193    10.4470    11.9233     8.8086   123.6253     0.0002     2.4667     0.1151
  267.0000   -36.7872     8.0373    10.5984    11.9291     8.8100   125.4359    -0.0043     2.4584     0.1171
  267.5000   -36.9224     8.1556    10.6779    11.9488     8.8264   127.6943    -0.0086     2.4512     0.1220
  268.0000   -36.9059     8.1618    10.3906    12.1084     8.8279   127.8866    -0.0100     2.4410     0.1245
  268.5000   -37.0443     8.2247    10.3247    12.1142     8.8293   126.6886    -0.0112     2.4396     0.1229
  269.0000   -37.0278     8.1726    10.6217    12.1200     8.8308   126.8574    -0.0126     2.4449     0.1214
  269.5000   -37.1663     8.1804    10.9259    12.5531     8.8323   128.0710    -0.0124     2.4480     0.1231
  270.0000   -37.3004     8.1866    11.2387    12.8228     8.8338   129.1353    -0.0107     2.4420     0.1283
  270.5000   -37.4366     8.1348    11.3214    12.4770     8.8353   129.3041    -0.0106     2.4293     0.1295
  271.0000   -37.4201     8.0849    11.1719    11.8116     8.8368   129.7714    -0.0089     2.4286     0.1285
  271.5000   -37.4069     8.0926    11.1010    11.4931     8.8531   130.2387    -0.0087     2.4377     0.1243
  272.0000   -37.3937     8.0987    11.0305    11.3418     8.8546   131.4523    -0.0070     2.4573     0.1183
  272.5000   -37.3805     8.1612    11.0381    11.4261     8.8561   130.4271    -0.0039     2.4682     0.1093
  273.0000   -37.5163     8.2812    11.3542    11.6716     8.8724   126.8645    -0.0007     2.4784     0.1047
  273.5000   -37.6509     8.3451    11.5987    12.4281     8.8739   124.4960     0.0040     2.4837     0.1017
  274.0000   -37.9344     8.1799    11.6857    13.3257     8.8754   119.1424     0.0087     2.4823     0.1023
  274.5000   -38.0697     8.0720    11.6112    13.8018     8.8769   117.3661     0.0119     2.4710     0.1098
  275.0000   -38.5015     7.6977    11.3792    13.4312     8.8932   120.6741     0.0166     2.4771     0.1074
  275.5000   -38.7918     7.2384    10.9983    13.8151     8.8947   122.3354     0.0198     2.4652     0.1128
  276.0000   -39.0686     6.7596    10.1274    14.1119     8.8961   127.4296     0.0230     2.4510     0.1250
  276.5000   -39.0549     6.3563     9.3256    13.1740     8.8976   136.5536     0.0217     2.4225     0.1377
  277.0000   -38.8655     5.9771     7.1238     7.0185     8.8991   142.6926     0.0128     2.3701     0.1647
  277.5000   -38.2838     5.8576     6.6973     4.4459     8.9006   144.0505    -0.0022     2.3124     0.2046
  278.0000   -37.3804     5.9449     7.6957     5.3255     8.9021   132.2839    -0.0187     2.2959     0.1998
  278.5000   -36.3286     6.1589     9.6752    14.6442     8.9036   117.3781    -0.0140     2.3815     0.1296
  279.0000   -36.0187     6.5144     9.9536    15.0628     8.9051   116.9450    -0.0032     2.4724     0.1019
  279.5000   -35.7088     6.8904    10.3145    14.9660     8.9067   117.4172     0.0076     2.5144     0.0917
  280.0000   -35.5472     7.2379    11.2279    14.8699     8.9080   117.9104     0.0062     2.5235     0.0896
  280.5000   -35.2373     7.7624    12.3772    14.9805     8.9095   118.5224     0.0018     2.4905     0.0929
  281.0000   -34.9273     8.4409    13.2673    14.9877     8.9110   118.6650    -0.0040     2.4793     0.1030
  281.5000   -34.4690     9.1154    13.9115    15.0992     8.9125   114.9737    -0.0085     2.4809     0.1027
  282.0000   -34.1591     9.6416    14.3099    15.1065     8.9140   111.9877    -0.0113     2.4862     0.0982
  282.5000   -33.7008     9.6490    14.2997    15.1139     8.9155   114.7164    -0.0111     2.4960     0.0934
  283.0000   -33.2425     9.7234    13.9342    14.4071     8.9170   115.4596    -0.0079     2.5021     0.0895
  283.5000   -32.9326     9.9349    13.7503    14.0185     8.9186   114.5836    -0.0032     2.5029     0.0885
  284.0000   -32.3259    10.1510    14.0484    14.0269     8.9199   113.2599     0.0045     2.4982     0.0945
