~VERSION INFORMATION
 VERS.                2.0:   CWLS LOG ASCII STANDARD - VERSION 2.0
 WRAP.                 NO:   ONE LINE PER DEPTH STEP
~WELL INFORMATION
#MNEM.UNIT      DATA TYPE    INFORMATION
#----------   ------------   ------------------------------
 STRT.F           60.0000:   START DEPTH
 STOP.F          894.0000:   STOP DEPTH
 STEP.F            0.5000:   STEP LENGTH
 NULL.          -999.2500:   NO VALUE
 COMP.           U S NAVY:   COMPANY
 WELL. RES 3 TEAPOT DOM #27S-35:   WELL
 FLD .        TEAPOT DOME:   FIELD
 LOC .      S35 T39N R78W:   LOCATION
 CNTY.            NATRONA:   COUNTY
 STAT.            WYOMING:   STATE
 CTRY. UNITED STATES OF AMERICA:   COUNTRY
 SRVC. Schlumberger Well Surveying Corp:   SERVICE COMPANY
 DATE.        30-JUL-1959:   LOGDATE
 API .       490250650600:   API NUMBER
~CURVE INFORMATION
#MNEM.UNIT       API CODE    CURVE DESCRIPTION
#----------   ------------   ------------------------------
 DEPT.F                  :   
 SPS .MV     60 010 01 00:   SPONTANEOUS POTENTIAL FROM SONIC
 DT  .US/F   60 520 32 00:   INTERVAL TRANSIT TIME
~PARAMETER INFORMATION
#MNEM.UNIT          VALUE    DESCRIPTION
#----------   ------------   ------------------------------
 PD  .                 GL:   PERMANENT DATUM
 EPD .F              5101:   ELEVATION PERMANENT DATUM
 LMF .                 KB:   LOG MEASURED FROM
 DAPD.F                 4:   FEET ABOVE PERMANENT DATUM
 DMF .                 KB:   DRILLING MEASURED FROM
 EKB .F              5105:   KELLING BUSHING
 EGL .F              5101:   GROUND LEVEL
 DATE.        30-JUL-1959:   RUN DATE
 RUN .                  1:   RUN NUMBER
 DD  .F               897:   DEPTH DRILLER
 DL  .F               897:   DEPTH LOGGER
 BLI .F               894:   BOTTOM LOG INTERVAL
 TLI .F                73:   TOP LOG INTERVAL
 CBD .F                17:   CASING BOTTOM DRILLER
 BS  .IN             6.75:   BIT SIZE
 BSD .F               897:   BIT SIZE AT DEPTH
 DFT .       OIL EMULSION:   DRILLING FLUID TYPE
 DFD .                9.0:   DRILLING FLUID DENSITY
 DFV .                 55:   DRILLING FLUID VISCOSITY
 DFPH.                  9:   DRILLING FLUID PH
 DFL .                3.8:   DRILLING FLUID LOSS
 RMS .OHMM            4.0:   RESISTIVITY MUD SAMPLE
 MST .F                79:   MUD SAMPLE TEMPERATURE
 RMF .OHMM            3.6:   RESISTIVITY MUD FILTRATE SAMPLE
 MFST.F                79:   MUD FILTRATE SAMPLE TEMPERATURE
 RMB .OHMM            4.0:   RESISTIVITY MUD AT BHT
 BHT .F                79:   BOTTOM HOLE TEMPERATURE
 TCS .HRS            0100:   TIME CURCULATED STOPPED
 LUN .               2545:   LOGGING UNIT NUMBER
 LUL .                RIV:   LOGGING UNIT LOCATION
 ENGI.           STAFFORD:   RECORDING ENGINEER
 WITN.             MARTIN:   WITNESSED BY
 CLNT.            A2DTECH:   CLIENT CODE
 ORIG.       2", 5" PRINT:   ORIGIN OF DATA
 UWI .       490250650600:   UNIQUE WELL ID
 DICO. A2D Technologies, Inc.:   DIGITIZING COMPANY
~OTHER INFORMATION
~A   DEPT      SPS         DT   
   60.0000  -999.2500  -999.2500
   60.5000   -64.9654  -999.2500
   61.0000   -65.0793  -999.2500
   61.5000   -66.7153  -999.2500
   62.0000   -69.6541  -999.2500
   62.5000   -70.3833  -999.2500
   63.0000   -70.2982  -999.2500
   63.5000   -70.0729  -999.2500
   64.0000   -69.3976  -999.2500
   64.5000   -67.6325  -999.2500
   65.0000   -65.2898  -999.2500
   65.5000   -63.1520  -999.2500
   66.0000   -61.3701  -999.2500
   66.5000   -58.9629  -999.2500
   67.0000   -57.3413  -999.2500
   67.5000   -55.9893  -999.2500
   68.0000   -54.9479  -999.2500
   68.5000   -54.2172  -999.2500
   69.0000   -53.4647  -999.2500
   69.5000   -53.0638  -999.2500
   70.0000   -52.4716  -999.2500
   70.5000   -51.9323   130.7296
   71.0000   -52.1200   130.0948
   71.5000   -52.6209   128.6208
   72.0000   -52.9639   124.4088
   72.5000   -53.3313   117.7896
   73.0000   -53.5577   117.5117
   73.5000   -53.6430   117.9745
   74.0000   -53.7518   119.2826
   74.5000   -53.7523   120.1597
   75.0000   -53.7528   121.6715
   75.5000   -53.7533   124.3377
   76.0000   -53.9284   128.8044
   76.5000   -54.0364   127.8819
   77.0000   -54.3811   125.7972
   77.5000   -54.6133   120.2594
   78.0000   -54.7481   119.0812
   78.5000   -53.8915   119.3573
   79.0000   -52.9105   124.3174
   79.5000   -53.0522   127.7876
   80.0000   -53.1063   125.0091
   80.5000   -53.3352   117.6927
   81.0000   -53.4180   110.0878
   81.5000   -53.2841   110.0084
   82.0000   -52.3495   113.4996
   82.5000   -51.2308   116.0542
   83.0000   -50.6579   118.1047
   83.5000   -50.6004   120.9458
   84.0000   -50.8536   124.7553
   84.5000   -51.2236   125.0766
   85.0000   -51.4759   124.5457
   85.5000   -51.7887   122.5932
   86.0000   -51.8732   118.5952
   86.5000   -51.9585   115.0025
   87.0000   -52.0724   111.8802
   87.5000   -51.8755   109.7488
   88.0000   -50.8040   107.6243
   88.5000   -50.0707   106.2811
   89.0000   -49.7891   105.7446
   89.5000   -49.6771   105.8877
   90.0000   -49.7918   107.5989
   90.5000   -50.2448   110.7700
   91.0000   -50.8372   108.0713
   91.5000   -51.2600   106.4968
   92.0000   -51.6543   112.6130
   92.5000   -51.8537   111.2524
   93.0000   -52.2228   109.2209
   93.5000   -52.6750   113.3024
   94.0000   -53.0163   115.0934
   94.5000   -53.4904   110.3567
   95.0000   -54.0903   104.8363
   95.5000   -54.7683   103.9010
   96.0000   -55.3590   103.3828
   96.5000   -55.4669   103.1294
   97.0000   -54.6213   103.0085
   97.5000   -53.1575   102.9762
   98.0000   -51.4991   102.8588
   98.5000   -50.3209   102.6815
   99.0000   -49.4818   102.4988
   99.5000   -48.9820   102.3788
  100.0000   -48.6198   102.1697
  100.5000   -48.8461   102.0151
  101.0000   -48.8945   101.8173
  101.5000   -48.3216   101.6561
  102.0000   -47.5741   101.5369
  102.5000   -47.1086   101.5028
  103.0000   -46.7288   102.7056
  103.5000   -46.7293   108.4718
  104.0000   -46.7298   108.8483
  104.5000   -46.8714   108.6158
  105.0000   -47.2782   101.6828
  105.5000   -47.7245   101.6170
  106.0000   -47.8602   102.7502
  106.5000   -47.8607   104.8004
  107.0000   -47.8612   107.5618
  107.5000   -47.8617   108.5976
  108.0000   -48.0099   108.7666
  108.5000   -48.3278   100.6354
  109.0000   -48.6742   101.6973
  109.5000   -49.2742   102.6181
  110.0000   -49.6843   102.6194
  110.5000   -49.9804   102.6208
  111.0000   -49.9809   102.6223
  111.5000   -48.5970   102.6724
  112.0000   -47.0200   102.9785
  112.5000   -47.0205   103.4966
  113.0000   -47.1620   104.0419
  113.5000   -46.8829   103.4778
  114.0000   -46.2429   101.0581
  114.5000   -45.6121   100.5100
  115.0000   -45.5370   100.6619
  115.5000   -46.0454   100.9017
  116.0000   -46.4598   101.2215
  116.5000   -47.1756   102.0151
  117.0000   -48.1534   104.6894
  117.5000   -49.1160   104.8430
  118.0000   -50.3103   106.5199
  118.5000   -49.6962   114.0289
  119.0000   -45.3076   113.9756
  119.5000   -43.6425   104.9791
  120.0000   -43.4280   104.5307
  120.5000   -43.5133   103.4585
  121.0000   -43.7397   102.8617
  121.5000   -43.8250   103.0886
  122.0000   -43.9271   103.5007
  122.5000   -43.9276   104.0833
  123.0000   -43.9281   105.0919
  123.5000   -43.9287   106.7581
  124.0000   -43.9291   107.7694
  124.5000   -43.9296   108.1751
  125.0000   -43.9301   108.0024
  125.5000   -43.7770   105.4442
  126.0000   -43.3670   105.1383
  126.5000   -43.1852   104.9083
  127.0000   -42.9448   104.5733
  127.5000   -42.9453   104.5946
  128.0000   -43.1003   104.8553
  128.5000   -43.3695   105.5695
  129.0000   -43.5110   107.5545
  129.5000   -43.6526   107.9058
  130.0000   -43.6530   107.4738
  130.5000   -43.7945   106.4996
  131.0000   -43.6540   105.2226
  131.5000   -43.6117   104.6726
  132.0000   -43.3730   104.5180
  132.5000   -43.3735   105.3327
  133.0000   -43.3589   110.1456
  133.5000   -43.0925   116.6863
  134.0000   -43.0492   116.9650
  134.5000   -42.8113   117.2683
  135.0000   -42.7396   117.5625
  135.5000   -42.5143   118.0979
  136.0000   -42.3897   119.3098
  136.5000   -42.4347   119.5232
  137.0000   -42.5318   119.3940
  137.5000   -42.7463   116.5559
  138.0000   -42.9559   113.5341
  138.5000   -42.9565   108.2840
  139.0000   -42.9569   105.6868
  139.5000   -42.9574   101.8319
  140.0000   -42.8840   101.6892
  140.5000   -42.8173   102.2245
  141.0000   -42.9590   112.1098
  141.5000   -43.1004   113.7023
  142.0000   -43.3831   115.0119
  142.5000   -43.4583   114.6600
  143.0000   -43.6846   113.8722
  143.5000   -43.9488   108.2269
  144.0000   -44.0433    99.8486
  144.5000   -43.8087   100.0503
  145.0000   -43.4515   100.7347
  145.5000   -42.9441   105.2038
  146.0000   -42.5409   107.1728
  146.5000   -42.3524   106.9139
  147.0000   -42.2597   105.9623
  147.5000   -42.2602   104.9140
  148.0000   -42.2607   104.4908
  148.5000   -42.2613   104.1386
  149.0000   -42.2617   103.7428
  149.5000   -42.2623   103.6461
  150.0000   -42.4038   105.1329
  150.5000   -42.5663   108.3329
  151.0000   -42.8280   111.0761
  151.5000   -42.8780   112.0938
  152.0000   -43.1110   112.4223
  152.5000   -43.3306   108.3222
  153.0000   -43.4159   101.7608
  153.5000   -43.5357   101.4648
  154.0000   -43.6772   101.6166
  154.5000   -43.6777   102.1275
  155.0000   -43.4583   103.9443
  155.5000   -43.3740   106.8187
  156.0000   -43.1151   106.5635
  156.5000   -43.0643   103.3579
  157.0000   -42.8340   101.4741
  157.5000   -42.7547   102.4659
  158.0000   -42.5294   105.4918
  158.5000   -42.2714   110.6014
  159.0000   -42.2718   113.6674
  159.5000   -42.2723   115.1575
  160.0000   -42.1318   115.2169
  160.5000   -42.1323   114.9499
  161.0000   -42.1329   114.3564
  161.5000   -42.1333   113.2943
  162.0000   -42.2748   111.1367
  162.5000   -42.2753   109.0566
  163.0000   -42.2758   107.0413
  163.5000   -42.4175   102.5464
  164.0000   -42.5589   102.0591
  164.5000   -42.7005   102.1928
  165.0000   -42.8420   103.5471
  165.5000   -42.8686   113.2970
  166.0000   -42.9841   113.3799
  166.5000   -43.1802   112.7693
  167.0000   -43.2672   106.6533
  167.5000   -43.3508   104.8269
  168.0000   -43.4092   103.8035
  168.5000   -43.2688   102.9608
  169.0000   -43.2692   101.6248
  169.5000   -43.1287   100.1510
  170.0000   -42.9042    99.4588
  170.5000   -42.6788    99.6187
  171.0000   -42.4250   104.0617
  171.5000   -42.2844   111.7493
  172.0000   -42.2849   107.8220
  172.5000   -42.2854   107.3056
  173.0000   -42.2859   109.6290
  173.5000   -42.4275   112.1981
  174.0000   -42.6261   112.1994
  174.5000   -42.8516   112.3286
  175.0000   -42.9377   112.6973
  175.5000   -42.9937   112.7729
  176.0000   -43.1353   112.1722
  176.5000   -43.1357   110.0849
  177.0000   -43.1362   109.3715
  177.5000   -43.1367   108.1072
  178.0000   -43.2783   105.3485
  178.5000   -43.2788    96.5079
  179.0000   -43.2793    92.7649
  179.5000   -43.2798    92.0171
  180.0000   -43.2803    91.9187
  180.5000   -43.2497    91.9908
  181.0000   -43.1402    92.1626
