~VERSION INFORMATION
 VERS.                2.0:   CWLS LOG ASCII STANDARD - VERSION 2.0
 WRAP.                 NO:   ONE LINE PER DEPTH STEP
~WELL INFORMATION
#MNEM.UNIT      DATA TYPE    INFORMATION
#----------   ------------   ------------------------------
 STRT.F           32.0000:   START DEPTH
 STOP.F          501.0000:   STOP DEPTH
 STEP.F            0.5000:   STEP LENGTH
 NULL.          -999.2500:   NO VALUE
 COMP. FENIX & SCISSON, INC., U.S. NAVY:   COMPANY
 WELL.     NPR-3 #82-S-10:   WELL
 FLD .             TEAPOT:   FIELD
 LOC .      S10 T38N R78W:   LOCATION
 CNTY.            NATRONA:   COUNTY
 STAT.            WYOMING:   STATE
 CTRY. UNITED STATES OF AMERICA:   COUNTRY
 SRVC.              Welex:   SERVICE COMPANY
 DATE.        10-MAY-1977:   LOGDATE
 API .       490251035300:   API NUMBER
~CURVE INFORMATION
#MNEM.UNIT       API CODE    CURVE DESCRIPTION
#----------   ------------   ------------------------------
 DEPT.F                  :   
 GURD.OHMM   07 220 05 00:   SHALLOW SHORT GUARD RESISTIVITY
 ILD .OHMM   07 120 46 00:   INDUCTION LOG DEEP
 ILM .OHMM   07 120 44 00:   INDUCTION LOG MEDIUM
 SPR .MV     07 010 01 00:   SPONTANEOUS POTENTIAL
 CALD.IN     45 280 60 00:   CALIPER FROM DENSITY LOG
 CORR.G/C3   45 356 01 00:   DENSITY CORRECTION
 DPHI.DEC    45 890 12 00:   DENSITY POROSITY SANDSTONE
 GRD .GAPI   45 310 01 00:   GAMMA RAY FROM DENSITY LOG
 RHOB.G/C3   45 350 01 00:   BULK DENSITY
~PARAMETER INFORMATION
#MNEM.UNIT          VALUE    DESCRIPTION
#----------   ------------   ------------------------------
 PD  .                 GL:   PERMANENT DATUM
 EPD .F              5134:   ELEVATION PERMANENT DATUM
 LMF .                 GL:   LOG MEASURED FROM
 DMF .                 GL:   DRILLING MEASURED FROM
 EGL .F              5134:   GROUND LEVEL
 DATE.        10-MAY-1977:   RUN DATE
 RUN .                  1:   RUN NUMBER
 DD  .F               505:   DEPTH DRILLER
 DL  .F               504:   DEPTH LOGGER
 BLI .F               502:   BOTTOM LOG INTERVAL
 TLI .F                30:   TOP LOG INTERVAL
 CS  .IN            8.625:   CASING SIZE
 CBD .F                40:   CASING BOTTOM DRILLER
 CBL .F                41:   CASING BOTTOM LOGGER
 BS  .IN            7.875:   BIT SIZE
 BSD .F               505:   BIT SIZE AT DEPTH
 DFT .            KCL MUD:   DRILLING FLUID TYPE
 DFD .                8.7:   DRILLING FLUID DENSITY
 DFV .                 29:   DRILLING FLUID VISCOSITY
 DFPH.                7.5:   DRILLING FLUID PH
 DFL .                6.6:   DRILLING FLUID LOSS
 MSS .           FLOWLINE:   MUD SAMPLE SOURCE
 RMS .OHMM           0.26:   RESISTIVITY MUD SAMPLE
 MST .F                72:   MUD SAMPLE TEMPERATURE
 RMF .OHMM           0.22:   RESISTIVITY MUD FILTRATE SAMPLE
 MFST.F                72:   MUD FILTRATE SAMPLE TEMPERATURE
 RMC .OHMM           0.42:   RESISTIVITY MUD CAKE
 MCST.F                72:   MUD CAKE SAMPLE TEMPERATURE
 MFSS.           FANN KIT:   MUD FILTRATE SAMPLE SOURCE
 MCSS.           FANN KIT:   MUD CAKE SAMPLE SOURCE
 RMB .OHMM           0.24:   RESISTIVITY MUD AT BHT
 BHT .F                78:   BOTTOM HOLE TEMPERATURE
 TCS .HRS               1:   TIME CURCULATED STOPPED
 MRT .F                78:   MAXIMUM RECORDED TEMPERATURE
 LUN .               8611:   LOGGING UNIT NUMBER
 LUL .             CASPER:   LOGGING UNIT LOCATION
 ENGI.            C. DOAK:   RECORDING ENGINEER
 WITN.         D. RHOADES:   WITNESSED BY
 CLNT.            A2DTECH:   CLIENT CODE
 ORIG.           5" PRINT:   ORIGIN OF DATA
 UWI .       490251035300:   UNIQUE WELL ID
 DICO. A2D Technologies, Inc.:   DIGITIZING COMPANY
~OTHER INFORMATION
~A   DEPT     GURD        ILD        ILM         SPR      CALD       CORR       DPHI        GRD       RHOB   
# ...
  287.5000    11.3499     8.6182     8.9106   -44.1964     7.8008     0.0116     0.1274   131.1952     2.4697
  288.0000    11.1204     8.6231     8.8538   -44.0357     7.8019     0.0092     0.1305   131.3512     2.4615
  288.5000    10.6743     8.6273     8.8574   -44.0185     7.8180     0.0089     0.1325   128.9901     2.4586
  289.0000    10.4585     8.6314     8.9225   -43.8631     7.8192     0.0090     0.1337   128.1098     2.4572
  289.5000    10.7571     8.7558     9.0504   -43.7024     7.8203     0.0094     0.1303   129.9008     2.4611
  290.0000    11.2948     8.8820     9.1801   -43.5417     7.8364     0.0153     0.1273   130.5044     2.4665
  290.5000    11.7777     8.7642     9.1839   -43.5278     7.8524     0.0186     0.1243   128.8432     2.4724
  291.0000    12.1966     8.2965     9.1181   -43.6678     7.8685     0.0216     0.1222   125.9753     2.4762
  291.5000    12.4572     7.5346     8.9317   -43.6531     7.8697     0.0238     0.1204   121.7839     2.4778
  292.0000    12.1225     6.9861     8.5230   -43.7931     7.8708     0.0264     0.1200   119.8654     2.4779
  292.5000    12.3902     6.4775     8.2361   -43.9272     7.8869     0.0280     0.1221   121.6560     2.4757
  293.0000    12.2745     6.1744     7.6902   -43.9155     7.8881     0.0296     0.1289   126.7107     2.4630
  293.5000     9.3356     5.9675     6.2100   -43.9037     7.8867     0.0298     0.1379   131.1720     2.4459
  294.0000     5.5241     5.8883     5.7978   -43.8920     7.8609     0.0299     0.1497   135.0398     2.4243
  294.5000     3.9392     5.8911     6.0040   -43.8802     7.8621     0.0285     0.1603   137.5722     2.4109
  295.0000     4.6838     5.9116     7.1885   -43.7197     7.8332     0.0227     0.1710   138.1734     2.4005
  295.5000    12.5859     6.0621     8.1439   -43.1127     7.8049     0.0138     0.1686   130.3226     2.3953
  296.0000    13.7729     6.3220     7.8156   -42.5057     7.7912     0.0064     0.1479   121.2824     2.4295
  296.5000    13.2190     6.7788     8.7336   -41.9047     7.7772     0.0173     0.1087   116.8416     2.4922
  297.0000    13.6907     7.3252     9.6246   -41.4385     7.7635     0.0262     0.0937   113.2910     2.5213
  297.5000    13.8868     8.0259    10.2463   -40.8333     7.7799     0.0294     0.0928   113.0045     2.4899
  298.0000    13.8925     8.6130     9.8343   -40.2083     7.7810     0.0295     0.1000   115.8733     2.4847
  298.5000    13.8982     9.5306     9.7704   -39.5933     7.7673     0.0281     0.1041   117.6840     2.4983
  299.0000    13.7131    10.0080    10.6195   -39.0096     7.7834     0.0267     0.1041   119.2691     2.5073
  299.5000    13.3447    10.2936    11.1504   -38.5515     7.8143     0.0269     0.1029   119.7244     2.5089
  300.0000    13.1669    10.0859    10.6282   -38.2193     7.8304     0.0255     0.1088   119.5863     2.4993
  300.5000    13.1724    10.3035    10.6363   -37.7839     7.8762     0.0227     0.1145   117.9644     2.4859
  301.0000    13.1888    10.5975    10.9427   -37.4745     7.8941     0.0198     0.1092   114.4138     2.4972
  301.5000    13.3668    11.2056    11.5855   -37.1652     7.9235     0.0214     0.1057   109.0828     2.5100
  302.0000    13.7481    12.0970    13.0088   -36.5582     7.8949     0.0246     0.1141   105.3838     2.4973
  302.5000    14.1392    12.8799    14.0419   -35.9512     7.8514     0.0262     0.1260    98.7175     2.4740
  303.0000    18.1396    13.8086    15.2620   -35.1954     7.8225     0.0280     0.1356    91.6060     2.4620
  303.5000    24.4252    15.3251    16.1360   -34.4396     7.8686     0.0312     0.1439    81.5272     2.4429
  304.0000    29.6508    17.0081    15.3804   -33.6838     7.8251     0.0341     0.1559    72.6354     2.4213
  304.5000    20.4255    18.4884    14.8642   -33.3745     7.7070     0.0327     0.1681    66.7109     2.3869
  305.0000    17.0738    20.0975    17.4999   -33.0651     7.7680     0.0299     0.1845    67.9528     2.3683
  305.5000    20.8703    21.6962    19.3433   -33.0533     7.8435     0.0255     0.1953    70.9347     2.3511
  306.0000    27.3361    23.1003    20.4509   -32.8928     7.9042     0.0227     0.2001    74.6904     2.3452
  306.5000    30.9690    24.4259    19.3590   -32.8809     7.8608     0.0243     0.1921    76.3052     2.3580
  307.0000    25.0090    25.4727    18.7073   -32.8690     7.7875     0.0259     0.1892    75.2305     2.3514
  307.5000    32.0511    26.0252    20.0558   -33.0258     7.7598     0.0275     0.1961    72.4806     2.3417
  308.0000    32.7336    26.2124    21.2043   -33.1429     7.7775     0.0202     0.2035    68.6376     2.3365
  308.5000    27.5500    26.2481    21.9586   -33.1287     7.8235     0.0158     0.2074    68.3518     2.3329
  309.0000    31.6435    26.4199    22.5831   -33.4146     7.8545     0.0150     0.2092    69.8538     2.3282
  309.5000    30.3688    26.4351    21.8163   -33.7005     7.9005     0.0182     0.2037    72.6874     2.3389
  310.0000    30.3791    26.2624    21.0735   -34.5816     7.8572     0.0213     0.1930    73.2955     2.3561
  310.5000    30.6002    26.0970    20.9559   -35.1651     7.8287     0.0230     0.1854    73.4548     2.3719
  311.0000    26.4762    25.5735    22.0055   -35.3051     7.8598     0.0277     0.1782    69.0220     2.3855
  311.5000    37.1569    25.2313    23.1031   -35.3244     7.9065     0.0280     0.1716    68.8846     2.3938
  312.0000    28.1940    24.8997    22.1739   -35.1298     7.9220     0.0298     0.1626    69.7931     2.4058
  312.5000    38.4925    24.9116    28.6478   -35.2698     7.9060     0.0342     0.1524    70.6979     2.4246
  313.0000    45.4508    25.0964    32.9066   -35.5527     7.8654     0.0344     0.1488    72.3446     2.4306
  313.5000    39.0546    25.2827    27.1293   -35.9874     7.8515     0.0345     0.1425    75.0298     2.4419
  314.0000    37.4782    25.8250    24.8088   -36.2738     7.8383     0.0347     0.1392    75.7863     2.4505
  314.5000    44.8727    26.1971    23.6471   -36.5592     7.8396     0.0318     0.1533    72.2401     2.4076
  315.0000    39.0944    26.5746    23.3317   -36.6964     7.8261     0.0290     0.1870    73.0762     2.3596
  315.5000    29.8699    27.3310    23.3415   -36.8333     7.8122     0.0247     0.2034    76.4273     2.3372
  316.0000    27.5001    28.1407    23.1903   -37.2738     7.7692     0.0233     0.1983    78.8158     2.3480
  316.5000    36.2702    29.1182    23.0264   -37.9686     7.7553     0.0219     0.1860    79.1235     2.3720
  317.0000    40.5237    30.1569    22.2424   -37.0476     7.7417     0.0191     0.1794    77.8064     2.3825
  317.5000    49.5312    31.4493    21.3733   -36.6376     7.7583     0.0193     0.1788    75.2988     2.3796
  318.0000    36.0387    32.5711    20.9412   -37.2211     7.7596     0.0195     0.1862    72.0493     2.3714
  318.5000    47.3936    33.2697    23.8911   -36.6113     7.7758     0.0196     0.1898    70.1352     2.3603
  319.0000    57.7264    33.5165    26.1471   -36.1532     7.7771     0.0198     0.1922    68.9628     2.3558
  319.5000    66.7633    33.2974    24.0764   -35.3974     7.7934     0.0184     0.1820    67.9352     2.3701
  320.0000    80.4833    32.4083    21.4168   -34.9393     7.8095     0.0202     0.1520    72.5529     2.4069
  320.5000    92.4339    31.5393    19.5849   -34.4812     7.8257     0.0308     0.1394    77.3153     2.4481
  321.0000    47.9632    30.6935    19.1890   -34.3207     7.8271     0.0355     0.1372    80.8907     2.4519
  321.5000    56.6335    31.1357    19.6009   -34.0704     7.8584     0.0281     0.1693    80.4603     2.3974
  322.0000    34.9276    32.2464    23.6305   -34.0000     7.8598     0.0208     0.2019    78.5461     2.3525
  322.5000    44.8105    33.1665    22.5239   -33.8392     7.8609     0.0150     0.2106    79.4659     2.3256
  323.0000    45.4456    33.6446    20.7289   -33.8254     7.8712     0.0106     0.2159    81.5846     2.3175
  323.5000    38.2523    32.9095    20.3229   -33.6667     7.8786     0.0077     0.2158    83.2582     2.3145
